[{"name":"Cigar City Brewing","phone":"8133486363","twitter":"cigarcitybeer","address":"3924 W Spruce St","lat":27.95913659429583,"lng":-82.50926834370017,"city_fetched":"Tampa,US","state":"FL","country":"United States","canonicalUrl":"https://foursquare.com/v/cigar-city-brewing/4b194b21f964a520b3da23e3","categoryId":"50327c8591d4c4b30a586d5d","category":"Brewery","checkinsCount":19635,"usersCount":9155,"tipCount":157,"visitsCount":23845,"url":"http://www.cigarcitybrewing.com","tier":2,"message":"Moderate","currency":"$","rating":9.6},{"name":"Coppertail Brewing Company","phone":"8132471500","twitter":"coppertail","address":"2601 E 2nd Ave","lat":27.95607194731197,"lng":-82.4302868929529,"city_fetched":"Tampa,US","state":"FL","country":"United States","canonicalUrl":"https://foursquare.com/v/coppertail-brewing-company/518d5396498e3007fa0a484f","categoryId":"50327c8591d4c4b30a586d5d","category":"Brewery","checkinsCount":1881,"usersCount":1656,"tipCount":9,"visitsCount":3146,"url":"http://coppertailbrewing.com","tier":"","message":"","currency":"","rating":9.6},{"name":"Cru Cellars","phone":"8138311117","twitter":"crucellars","address":"2506 S Macdill Ave","lat":27.922753,"lng":-82.49342167,"neighborhood":"Palma Ceia","city_fetched":"Tampa,US","state":"FL","country":"United States","canonicalUrl":"https://foursquare.com/v/cru-cellars/4c895719da5da1cd32b53be9","categoryId":"4bf58dd8d48988d123941735","category":"Wine Bar","checkinsCount":1148,"usersCount":564,"tipCount":10,"visitsCount":1311,"url":"http://www.crucellarstampa.com","tier":2,"message":"Moderate","currency":"$","rating":9.2},{"name":"Angry Chair Brewing","phone":"8132381122","address":"6401 N Florida Ave","lat":28.005138516939752,"lng":-82.45929002396949,"neighborhood":"Old Seminole Heights","city_fetched":"Tampa,US","state":"FL","country":"United States","canonicalUrl":"https://foursquare.com/v/angry-chair-brewing/545bf2eb498eb011277dff61","categoryId":"50327c8591d4c4b30a586d5d","category":"Brewery","checkinsCount":1209,"usersCount":929,"tipCount":6,"visitsCount":1924,"url":"http://angrychairbrewing.com","tier":"","message":"","currency":"","rating":9.2},{"name":"New World Brewery","phone":"8132484969","address":"1313 E 8th Ave","lat":27.96082553957139,"lng":-82.44497514665947,"neighborhood":"Historic Ybor","city_fetched":"Tampa,US","state":"FL","country":"United States","canonicalUrl":"https://foursquare.com/v/new-world-brewery/4b0586c2f964a520c56c22e3","categoryId":"4bf58dd8d48988d117941735","category":"Beer Garden","checkinsCount":8077,"usersCount":3178,"tipCount":66,"visitsCount":9265,"url":"http://newworldbrewery.net","tier":2,"message":"Moderate","currency":"$","rating":9.1},{"name":"Southern Brewing","phone":"8559552739","twitter":"southern_brew","address":"4500 N Nebraska Ave, Tampa, FL 33603","lat":27.986166521845746,"lng":-82.45157220745793,"neighborhood":"Southeast Seminole Heights","city_fetched":"Tampa,US","state":"FL","country":"United States","canonicalUrl":"https://foursquare.com/v/southern-brewing/4f075cdae4b0540ca0fa5ab8","categoryId":"50327c8591d4c4b30a586d5d","category":"Brewery","checkinsCount":2279,"usersCount":1056,"tipCount":16,"visitsCount":3387,"url":"http://southernbrewingwinemaking.com","tier":2,"message":"Moderate","currency":"$","rating":9.1},{"name":"Cigar City Cider & Mead","address":"1812 N 15th St","lat":27.960718497369857,"lng":-82.44305463323418,"neighborhood":"Historic Ybor","city_fetched":"Tampa,US","state":"FL","country":"United States","canonicalUrl":"https://foursquare.com/v/cigar-city-cider--mead/54653b24498e9e9b8ff3f29b","categoryId":"4bf58dd8d48988d116941735","category":"Bar","checkinsCount":635,"usersCount":504,"tipCount":6,"visitsCount":841,"url":"http://www.cigarcitycider.com","tier":"","message":"","currency":"","rating":9.1},{"name":"Four Green Fields","phone":"8132544444","address":"205 W Platt St","lat":27.941845069270787,"lng":-82.46160462498665,"neighborhood":"Village of Tampa","city_fetched":"Tampa,US","state":"FL","country":"United States","canonicalUrl":"https://foursquare.com/v/four-green-fields/4b0586c1f964a520b56c22e3","categoryId":"4bf58dd8d48988d11b941735","category":"Pub","checkinsCount":5506,"usersCount":2351,"tipCount":42,"visitsCount":5817,"url":"http://fourgreenfields.com","tier":2,"message":"Moderate","currency":"$","rating":9},{"name":"The Independent Bar and Cafe","phone":"8133414883","twitter":"indepedent_bar","address":"5016 N Florida Ave","lat":27.99204576426499,"lng":-82.45953863021275,"neighborhood":"South Seminole Heights","city_fetched":"Tampa,US","state":"FL","country":"United States","canonicalUrl":"https://foursquare.com/v/the-independent-bar-and-cafe/4b05b439f964a5204fe122e3","categoryId":"4bf58dd8d48988d117941735","category":"Beer Garden","checkinsCount":11757,"usersCount":2861,"tipCount":67,"visitsCount":13351,"url":"http://independentbartampa.com","tier":1,"message":"Cheap","currency":"$","rating":9},{"name":"Fly Bar & Restaurant","phone":"8132755000","twitter":"flybartampa","address":"1202 N Franklin St","lat":27.953615825488065,"lng":-82.46039552148521,"city_fetched":"Tampa,US","state":"FL","country":"United States","canonicalUrl":"https://foursquare.com/v/fly-bar--restaurant/4b069a9af964a520a1ed22e3","categoryId":"4bf58dd8d48988d123941735","category":"Wine Bar","checkinsCount":9363,"usersCount":5099,"tipCount":105,"visitsCount":11371,"url":"http://www.flybarandrestaurant.com/tampa","tier":2,"message":"Moderate","currency":"$","rating":9},{"name":"World of Beer","phone":"8135591530","twitter":"wobfowler","address":"2815 E Fowler Ave","lat":28.05407437,"lng":-82.42765686,"neighborhood":"University Square","city_fetched":"Tampa,US","state":"FL","country":"United States","canonicalUrl":"https://foursquare.com/v/world-of-beer/56156f34498e81730605aa40","categoryId":"4bf58dd8d48988d116941735","category":"Bar","checkinsCount":604,"usersCount":613,"tipCount":6,"visitsCount":1187,"url":"http://worldofbeer.com/Locations/Fowler","tier":"","message":"","currency":"","rating":9},{"name":"Topgolf","phone":"8132981811","twitter":"topgolftampa","address":"10690 Palm River Rd","lat":27.92986012747602,"lng":-82.33425039059512,"neighborhood":"Bloomingdale Ridge","city_fetched":"Tampa,US","state":"FL","country":"United States","canonicalUrl":"https://foursquare.com/v/topgolf/546fb0a1498e45b47638f291","categoryId":"4bf58dd8d48988d11d941735","category":"Sports Bar","checkinsCount":2424,"usersCount":3245,"tipCount":37,"visitsCount":5322,"url":"http://topgolf.com/us/tampa/","tier":2,"message":"Moderate","currency":"$","rating":9},{"name":"Yeoman's Cask & Lion","address":"202 N Morgan St","lat":27.94744247118828,"lng":-82.45492075576566,"neighborhood":"Downtown Tampa","city_fetched":"Tampa,US","state":"FL","country":"United States","canonicalUrl":"https://foursquare.com/v/yeomans-cask--lion/5573b477498ebb62a29387c4","categoryId":"4bf58dd8d48988d117941735","category":"Beer Garden","checkinsCount":558,"usersCount":612,"tipCount":16,"visitsCount":1086,"url":"http://www.yeomanscaskandlion.com","tier":"","message":"","currency":"","rating":8.9},{"name":"Wine Exchange Bistro and Wine Bar","phone":"8132549463","twitter":"winewineex","address":"1609 W Snow Ave","lat":27.936069385577202,"lng":-82.47624609604128,"neighborhood":"Historic Hyde Park North","city_fetched":"Tampa,US","state":"FL","country":"United States","canonicalUrl":"https://foursquare.com/v/wine-exchange-bistro-and-wine-bar/4b4558caf964a520ff0a26e3","categoryId":"4bf58dd8d48988d123941735","category":"Wine Bar","checkinsCount":3255,"usersCount":1853,"tipCount":32,"visitsCount":3509,"url":"http://wineexchangetampa-hub.com","tier":2,"message":"Moderate","currency":"$","rating":8.9},{"name":"Sail Pavilion","phone":"8132747317","address":"333 S Franklin St","lat":27.940631260615472,"lng":-82.45537039052299,"neighborhood":"Downtown Tampa","city_fetched":"Tampa,US","state":"FL","country":"United States","canonicalUrl":"https://foursquare.com/v/sail-pavilion/4b94fc87f964a520848a34e3","categoryId":"4bf58dd8d48988d11e941735","category":"Cocktail Bar","checkinsCount":5125,"usersCount":3297,"tipCount":37,"visitsCount":6650,"url":"http://tampaconventioncenter.com","tier":"","message":"","currency":"","rating":8.9},{"name":"Tampa Bay Brewing Company","address":"13937 Monroes Business Park","lat":28.03810190852466,"lng":-82.64786681314106,"neighborhood":"Village of Tampa","city_fetched":"Tampa,US","state":"FL","country":"United States","canonicalUrl":"https://foursquare.com/v/tampa-bay-brewing-company/55b40f47498ec8b29b58424b","categoryId":"50327c8591d4c4b30a586d5d","category":"Brewery","checkinsCount":619,"usersCount":658,"tipCount":5,"visitsCount":1276,"url":"https://tampabaybrewingcompany.com","tier":"","message":"","currency":"","rating":8.8},{"name":"Red Star Rock Bar","lat":27.99461635769751,"lng":-82.45975020929096,"neighborhood":"South Seminole Heights","city_fetched":"Tampa,US","state":"FL","country":"United States","canonicalUrl":"https://foursquare.com/v/red-star-rock-bar/54e8fffa498e68ac812f6253","categoryId":"4bf58dd8d48988d116941735","category":"Bar","checkinsCount":665,"usersCount":352,"tipCount":2,"visitsCount":920,"tier":"","message":"","currency":"","rating":8.7},{"name":"The Mermaid Tavern","phone":"8132385618","address":"6719 N Nebraska Ave","lat":28.00945473060293,"lng":-82.45111725791386,"neighborhood":"Old Seminole Heights","city_fetched":"Tampa,US","state":"FL","country":"United States","canonicalUrl":"https://foursquare.com/v/the-mermaid-tavern/4eab5d0661af01ea2ac5f877","categoryId":"4bf58dd8d48988d116941735","category":"Bar","checkinsCount":5202,"usersCount":1928,"tipCount":49,"visitsCount":6380,"tier":2,"message":"Moderate","currency":"$","rating":8.7},{"name":"The Hyde Out","phone":"8134982334","twitter":"hydeouttampa","address":"1809 West Platt Street","lat":27.942007,"lng":-82.478621,"neighborhood":"Southwest Tampa","city_fetched":"Tampa,US","state":"FL","country":"United States","canonicalUrl":"https://foursquare.com/v/the-hyde-out/54d40ca4498e15d3f272f714","categoryId":"4bf58dd8d48988d121941735","category":"Lounge","checkinsCount":422,"usersCount":543,"tipCount":7,"visitsCount":977,"url":"http://www.thehydeout.com","tier":"","message":"","currency":"","rating":8.7},{"name":"Red Dog Bar & Grill","phone":"8138328211","address":"3311 W Bay To Bay Blvd","lat":27.919956117853364,"lng":-82.49815166638614,"neighborhood":"Palma Ceia","city_fetched":"Tampa,US","state":"FL","country":"United States","canonicalUrl":"https://foursquare.com/v/red-dog-bar--grill/4b58eb49f964a520f37228e3","categoryId":"4bf58dd8d48988d116941735","category":"Bar","checkinsCount":5999,"usersCount":724,"tipCount":10,"visitsCount":6583,"tier":"","message":"","currency":"","rating":8.6},{"name":"James Joyce Irish Pub","phone":"8132471896","twitter":"jamesjoyceybor","address":"1724 E 8th Ave","lat":27.961162202108515,"lng":-82.43938805076607,"neighborhood":"Historic Ybor","city_fetched":"Tampa,US","state":"FL","country":"United States","canonicalUrl":"https://foursquare.com/v/james-joyce-irish-pub/4b550a87f964a520f0d827e3","categoryId":"4bf58dd8d48988d11b941735","category":"Pub","checkinsCount":6503,"usersCount":3166,"tipCount":54,"visitsCount":7037,"url":"http://www.jamesjoyceybor.com","tier":2,"message":"Moderate","currency":"$","rating":8.6},{"name":"The Anchor Bar","phone":"8134894573","address":"304 E Davis Blvd","lat":27.925637,"lng":-82.45312213897705,"neighborhood":"Davis Islands","city_fetched":"Tampa,US","state":"FL","country":"United States","canonicalUrl":"https://foursquare.com/v/the-anchor-bar/4b6cd195f964a520b7562ce3","categoryId":"4bf58dd8d48988d116941735","category":"Bar","checkinsCount":1929,"usersCount":577,"tipCount":13,"visitsCount":2086,"url":"http://www.anchorbartampa.com","tier":1,"message":"Cheap","currency":"$","rating":8.6},{"name":"Ciro's Speakeasy and Supper Club","phone":"8132510022","twitter":"cirostampa","address":"2109 Bayshore Blvd","lat":27.92657909256749,"lng":-82.48302524565331,"neighborhood":"Historic Hyde Park North","city_fetched":"Tampa,US","state":"FL","country":"United States","canonicalUrl":"https://foursquare.com/v/ciros-speakeasy-and-supper-club/4c2ec7ec66e40f477ff0c08b","categoryId":"4bf58dd8d48988d1d4941735","category":"Speakeasy","checkinsCount":3185,"usersCount":2381,"tipCount":54,"visitsCount":3731,"url":"http://www.cirostampa.com","tier":3,"message":"Expensive","currency":"$","rating":8.6},{"name":"Fergs Live Sports Bar","lat":27.944008631014736,"lng":-82.45157749755133,"neighborhood":"Downtown Tampa","city_fetched":"Tampa,US","state":"FL","country":"United States","canonicalUrl":"https://foursquare.com/v/fergs-live-sports-bar/54fb7ce2498ed745c1770552","categoryId":"4bf58dd8d48988d11d941735","category":"Sports Bar","checkinsCount":888,"usersCount":900,"tipCount":2,"visitsCount":1358,"tier":"","message":"","currency":"","rating":8.6},{"name":"World of Beer","phone":"8138522337","twitter":"wob_westchase","address":"9524 W Linebaugh Ave","lat":28.04315573435579,"lng":-82.59219289366933,"city_fetched":"Tampa,US","state":"FL","country":"United States","canonicalUrl":"https://foursquare.com/v/world-of-beer/4b2fdf6bf964a520adf124e3","categoryId":"4bf58dd8d48988d116941735","category":"Bar","checkinsCount":9440,"usersCount":3005,"tipCount":53,"visitsCount":9834,"url":"http://worldofbeer.com/Locations/Westchase","tier":2,"message":"Moderate","currency":"$","rating":8.6},{"name":"Yuengling Brewery","phone":"8139728529","twitter":"yuengling_beer","address":"11111 N 30th St","lat":28.05007843563038,"lng":-82.4245874787934,"city_fetched":"Tampa,US","state":"FL","country":"United States","canonicalUrl":"https://foursquare.com/v/yuengling-brewery/4b0586c3f964a520386d22e3","categoryId":"50327c8591d4c4b30a586d5d","category":"Brewery","checkinsCount":2535,"usersCount":1968,"tipCount":18,"visitsCount":2839,"url":"http://www.yuengling.com","tier":1,"message":"Cheap","currency":"$","rating":8.5},{"name":"Six Ten Brewing","phone":"8138860610","twitter":"sixtenbrewing","address":"7052 Benjamin Rd","lat":28.014529733513275,"lng":-82.54208986704889,"neighborhood":"Village of Tampa","city_fetched":"Tampa,US","state":"FL","country":"United States","canonicalUrl":"https://foursquare.com/v/six-ten-brewing/527fdb08498e4f7667c8ebe0","categoryId":"50327c8591d4c4b30a586d5d","category":"Brewery","checkinsCount":710,"usersCount":478,"tipCount":7,"visitsCount":1301,"url":"http://sixtenbrewing.com","tier":1,"message":"Cheap","currency":"$","rating":8.5},{"name":"Hattricks","phone":"8132254288","address":"107 S Franklin St","lat":27.94477258005481,"lng":-82.45684504508972,"neighborhood":"Downtown Tampa","city_fetched":"Tampa,US","state":"FL","country":"United States","canonicalUrl":"https://foursquare.com/v/hattricks/4b1d1cc0f964a520ef0b24e3","categoryId":"4bf58dd8d48988d11d941735","category":"Sports Bar","checkinsCount":8983,"usersCount":5503,"tipCount":66,"visitsCount":11221,"url":"http://www.hattrickstavern.com","tier":2,"message":"Moderate","currency":"$","rating":8.5},{"name":"Edwards Havana Nights","phone":"8139623311","address":"15407 N Dale Mabry Hwy","lat":28.092208364722385,"lng":-82.50164068817257,"neighborhood":"Village of Tampa","city_fetched":"Tampa,US","state":"FL","country":"United States","canonicalUrl":"https://foursquare.com/v/edwards-havana-nights/4f270c9be4b006e5c4ba14a6","categoryId":"4bf58dd8d48988d121941735","category":"Lounge","checkinsCount":664,"usersCount":165,"tipCount":3,"visitsCount":669,"tier":2,"message":"Moderate","currency":"$","rating":8.5},{"name":"Jacksons Bistro","phone":"8132770112","twitter":"jacksonsbistro1","address":"601 S Harbour Island Blvd","lat":27.938976471531248,"lng":-82.45458749517933,"neighborhood":"Harbour Island","city_fetched":"Tampa,US","state":"FL","country":"United States","canonicalUrl":"https://foursquare.com/v/jacksons-bistro/4b0586c1f964a520a16c22e3","categoryId":"4bf58dd8d48988d116941735","category":"Bar","checkinsCount":11392,"usersCount":8397,"tipCount":102,"visitsCount":13712,"url":"http://www.jacksonsbistro.com","tier":2,"message":"Moderate","currency":"$","rating":8.4},{"name":"TheYbor City Wine Bar","phone":"8139994966","twitter":"yborcitywinebar","address":"1600 E 8th Ave","lat":27.960480974872382,"lng":-82.44171738624573,"neighborhood":"Historic Ybor","city_fetched":"Tampa,US","state":"FL","country":"United States","canonicalUrl":"https://foursquare.com/yborcitywinebar","categoryId":"4bf58dd8d48988d123941735","category":"Wine Bar","checkinsCount":778,"usersCount":415,"tipCount":10,"visitsCount":795,"url":"http://www.yborcitywinebar.com","tier":2,"message":"Moderate","currency":"$","rating":8.4},{"name":"First Flight","twitter":"hmshost","address":"3rd Floor Tampa Int'l Airport","lat":27.980044219938822,"lng":-82.53485684312476,"neighborhood":"Village of Tampa","city_fetched":"Tampa,US","state":"FL","country":"United States","canonicalUrl":"https://foursquare.com/v/first-flight/4fb533ece4b09395051fbddd","categoryId":"4bf58dd8d48988d123941735","category":"Wine Bar","checkinsCount":581,"usersCount":376,"tipCount":14,"visitsCount":581,"url":"http://www.miseonline.com/first-flight-wine-bar/","tier":"","message":"","currency":"","rating":8.4},{"name":"Lowry Parcade & Tavern","phone":"8139159180","twitter":"lowryparcade","address":"1213 W Waters Ave","lat":28.025414444152315,"lng":-82.47142308248412,"city_fetched":"Tampa,US","state":"FL","country":"United States","canonicalUrl":"https://foursquare.com/v/lowry-parcade--tavern/5601e29f498e3837d4e8750e","categoryId":"4bf58dd8d48988d11b941735","category":"Pub","checkinsCount":209,"usersCount":135,"tipCount":2,"visitsCount":355,"url":"http://www.lowryparcade,com","tier":"","message":"","currency":"","rating":8.4},{"name":"The Pub Tampa Bay","phone":"8134435642","twitter":"pubtampa","address":"2223 N West Shore Blvd #B212","lat":27.965505430693792,"lng":-82.5206421842325,"neighborhood":"Village of Tampa","city_fetched":"Tampa,US","state":"FL","country":"United States","canonicalUrl":"https://foursquare.com/v/the-pub-tampa-bay/4cbcf57790c9a1434d849ed6","categoryId":"4bf58dd8d48988d11b941735","category":"Pub","checkinsCount":13408,"usersCount":6982,"tipCount":128,"visitsCount":13549,"url":"http://experiencethepub.com","tier":2,"message":"Moderate","currency":"$","rating":8.4},{"name":"Press Box Sports Emporium & Eatery","phone":"8138763528","twitter":"thepressbox","address":"222 S Dale Mabry Hwy","lat":27.94231778884819,"lng":-82.50546544790268,"neighborhood":"Bon Air","city_fetched":"Tampa,US","state":"FL","country":"United States","canonicalUrl":"https://foursquare.com/v/press-box-sports-emporium--eatery/4b0586c1f964a520b66c22e3","categoryId":"4bf58dd8d48988d11d941735","category":"Sports Bar","checkinsCount":10798,"usersCount":2191,"tipCount":51,"visitsCount":11240,"url":"http://www.pressboxsports.com","tier":1,"message":"Cheap","currency":"$","rating":8.4},{"name":"World of Beer","phone":"8132516800","address":"402 S Howard Ave","lat":27.9410549,"lng":-82.48299,"neighborhood":"Southwest Tampa","city_fetched":"Tampa,US","state":"FL","country":"United States","canonicalUrl":"https://foursquare.com/v/world-of-beer/4cae390f1463a14323db8aa9","categoryId":"4bf58dd8d48988d116941735","category":"Bar","checkinsCount":7090,"usersCount":3003,"tipCount":34,"visitsCount":7711,"url":"http://worldofbeer.com/Locations/SouthTampa","tier":2,"message":"Moderate","currency":"$","rating":8.4},{"name":"81Bay Brewing Co.","phone":"8138372739","address":"4465 W Gandy Blvd Ste 600","lat":27.895410719325582,"lng":-82.51997101065953,"neighborhood":"Southwest Tampa","city_fetched":"Tampa,US","state":"FL","country":"United States","canonicalUrl":"https://foursquare.com/v/81bay-brewing-co/5756d5e3498e698aec07fff2","categoryId":"50327c8591d4c4b30a586d5d","category":"Brewery","checkinsCount":92,"usersCount":70,"tipCount":6,"visitsCount":104,"tier":"","message":"","currency":"","rating":8.4},{"name":"The Getaway","phone":"8132671602","address":"13090 Gandy Blvd N","lat":27.870637683186217,"lng":-82.61148073420075,"city_fetched":"Tampa,US","state":"FL","country":"United States","canonicalUrl":"https://foursquare.com/v/the-getaway/51ebfbc2498e086ccce731ac","categoryId":"4bf58dd8d48988d116941735","category":"Bar","checkinsCount":2301,"usersCount":1511,"tipCount":28,"visitsCount":3124,"url":"http://thegetawaytampabay.com","tier":"","message":"","currency":"","rating":8.3},{"name":"Mad Dogs And Englishmen","phone":"8138323037","twitter":"maddogsenglish","address":"4115 S Macdill Ave","lat":27.90471531739151,"lng":-82.49400690211428,"neighborhood":"Bayshore Beautiful","city_fetched":"Tampa,US","state":"FL","country":"United States","canonicalUrl":"https://foursquare.com/v/mad-dogs-and-englishmen/4b0586c1f964a520b36c22e3","categoryId":"4bf58dd8d48988d11b941735","category":"Pub","checkinsCount":2373,"usersCount":1389,"tipCount":40,"visitsCount":2957,"url":"http://www.maddogs.com","tier":2,"message":"Moderate","currency":"$","rating":8.3},{"name":"Pour House at Grand Central","phone":"8134022923","twitter":"pourhousetampa","address":"1208 E Kennedy Blvd #112","lat":27.951406871717907,"lng":-82.44768798351288,"neighborhood":"Channel District","city_fetched":"Tampa,US","state":"FL","country":"United States","canonicalUrl":"https://foursquare.com/v/pour-house-at-grand-central/4b53ccf9f964a520b8ab27e3","categoryId":"4bf58dd8d48988d116941735","category":"Bar","checkinsCount":4616,"usersCount":1472,"tipCount":26,"visitsCount":4831,"url":"http://pourhousetampa.com","tier":2,"message":"Moderate","currency":"$","rating":8.3},{"name":"Bradley's On 7th","phone":"8132412723","address":"1510 E 7th Ave","lat":27.960414492932916,"lng":-82.44257317386868,"neighborhood":"Historic Ybor","city_fetched":"Tampa,US","state":"FL","country":"United States","canonicalUrl":"https://foursquare.com/v/bradleys-on-7th/4d7116f676f3f04d555e6648","categoryId":"4bf58dd8d48988d1d8941735","category":"Gay Bar","checkinsCount":8832,"usersCount":2042,"tipCount":36,"visitsCount":9322,"url":"http://bradleyson7th.com","tier":1,"message":"Cheap","currency":"$","rating":8.3},{"name":"The Brass Tap","phone":"8132410000","address":"1600 E. 7th Ave. #E-113","lat":27.9602628622749,"lng":-82.4415150096669,"neighborhood":"Historic Ybor","city_fetched":"Tampa,US","state":"FL","country":"United States","canonicalUrl":"https://foursquare.com/v/the-brass-tap/54baf64a498e84e3e162af96","categoryId":"4bf58dd8d48988d117941735","category":"Beer Garden","checkinsCount":632,"usersCount":414,"tipCount":3,"visitsCount":661,"url":"http://brasstapbeerbar.com","tier":"","message":"","currency":"","rating":8.2},{"name":"Fuma Bella","phone":"8132486130","twitter":"fuma_bella","address":"1318 E 8th Ave","lat":27.960897938828168,"lng":-82.44449615478516,"neighborhood":"Historic Ybor","city_fetched":"Tampa,US","state":"FL","country":"United States","canonicalUrl":"https://foursquare.com/v/fuma-bella/4b52a2e1f964a520928427e3","categoryId":"4bf58dd8d48988d122941735","category":"Whisky Bar","checkinsCount":1334,"usersCount":402,"tipCount":4,"visitsCount":1410,"tier":"","message":"","currency":"","rating":8.2},{"name":"Thee Dollhouse","phone":"8132819389","address":"1010 N West Shore Blvd","lat":27.95282371404751,"lng":-82.52440452575684,"neighborhood":"Village of Tampa","city_fetched":"Tampa,US","state":"FL","country":"United States","canonicalUrl":"https://foursquare.com/v/thee-dollhouse/4c16dcaacd4bc9b6c4234feb","categoryId":"4bf58dd8d48988d1d6941735","category":"Strip Club","checkinsCount":1659,"usersCount":938,"tipCount":12,"visitsCount":1816,"url":"http://theedollhouse.com","tier":"","message":"","currency":"","rating":8.2},{"name":"World of Beer","phone":"8133016500","address":"401 Channelside Dr","lat":27.94201923,"lng":-82.45159864,"neighborhood":"Downtown Tampa","city_fetched":"Tampa,US","state":"FL","country":"United States","canonicalUrl":"https://foursquare.com/v/world-of-beer/5254386c7e48c88b4fe7f13d","categoryId":"4bf58dd8d48988d116941735","category":"Bar","checkinsCount":9,"usersCount":8,"tipCount":0,"visitsCount":9,"url":"http://worldofbeer.com/Locations/AmalieArena","tier":"","message":"","currency":"","rating":8.2},{"name":"Gaspar's Grotto","phone":"8132485900","twitter":"gasparsgrotto","address":"1805 E 7th Ave","lat":27.96019515902009,"lng":-82.43896476757907,"neighborhood":"Historic Ybor","city_fetched":"Tampa,US","state":"FL","country":"United States","canonicalUrl":"https://foursquare.com/v/gaspars-grotto/4b0586c2f964a520bc6c22e3","categoryId":"4bf58dd8d48988d116941735","category":"Bar","checkinsCount":15855,"usersCount":6278,"tipCount":109,"visitsCount":16879,"url":"http://www.gasparsgrotto.com","tier":2,"message":"Moderate","currency":"$","rating":8.2},{"name":"The Castle","phone":"8132477547","address":"2004 N 16th St","lat":27.961916650808618,"lng":-82.44187295436859,"neighborhood":"Historic Ybor","city_fetched":"Tampa,US","state":"FL","country":"United States","canonicalUrl":"https://foursquare.com/v/the-castle/4b5d67cdf964a520095c29e3","categoryId":"4bf58dd8d48988d11f941735","category":"Nightclub","checkinsCount":17009,"usersCount":4087,"tipCount":79,"visitsCount":17497,"url":"http://castleybor.com","tier":2,"message":"Moderate","currency":"$","rating":8.2},{"name":"Crumb&Cork","address":"501 N Franklin St","lat":27.9485778700437,"lng":-82.45814323425293,"city_fetched":"Tampa,US","state":"FL","country":"United States","canonicalUrl":"https://foursquare.com/v/crumbcork/5147565772dafc9991181252","categoryId":"4bf58dd8d48988d123941735","category":"Wine Bar","checkinsCount":417,"usersCount":263,"tipCount":14,"visitsCount":425,"tier":2,"message":"Moderate","currency":"$","rating":8.1},{"name":"Cigar City Brewing TIA","lat":27.98304476512481,"lng":-82.53240515615498,"neighborhood":"Village of Tampa","city_fetched":"Tampa,US","state":"FL","country":"United States","canonicalUrl":"https://foursquare.com/v/cigar-city-brewing-tia/4fbf9035e4b06a43799e9130","categoryId":"50327c8591d4c4b30a586d5d","category":"Brewery","checkinsCount":2937,"usersCount":1808,"tipCount":29,"visitsCount":2949,"url":"http://cigarcitybrewing.com","tier":"","message":"","currency":"","rating":8.1},{"name":"Cepas Wine Bar & Tapas","lat":28.081794104564924,"lng":-82.53906783419549,"neighborhood":"Carrollwood Village","city_fetched":"Tampa,US","state":"FL","country":"United States","canonicalUrl":"https://foursquare.com/v/cepas-wine-bar--tapas/4fb5b64fe4b0e3b738826596","categoryId":"4bf58dd8d48988d123941735","category":"Wine Bar","checkinsCount":143,"usersCount":83,"tipCount":6,"visitsCount":153,"tier":"","message":"","currency":"","rating":8.1},{"name":"The Dubliner","phone":"8132582257","address":"2307 W Azeele St","lat":27.941200027597752,"lng":-82.48339009521771,"neighborhood":"Southwest Tampa","city_fetched":"Tampa,US","state":"FL","country":"United States","canonicalUrl":"https://foursquare.com/v/the-dubliner/4b0586c2f964a520f26c22e3","categoryId":"4bf58dd8d48988d11b941735","category":"Pub","checkinsCount":9115,"usersCount":3193,"tipCount":53,"visitsCount":9208,"url":"http://thedublineririshpub.com","tier":2,"message":"Moderate","currency":"$","rating":8.1},{"name":"Linksters Tap Room","phone":"8139713413","address":"17506 Bruce B Downs Blvd","lat":28.12811362813229,"lng":-82.3703217499679,"neighborhood":"West Meadows","city_fetched":"Tampa,US","state":"FL","country":"United States","canonicalUrl":"https://foursquare.com/v/linksters-tap-room/4bef613bea570f4732558fd2","categoryId":"4bf58dd8d48988d116941735","category":"Bar","checkinsCount":3221,"usersCount":753,"tipCount":17,"visitsCount":3458,"url":"http://linksterstaproom.com","tier":2,"message":"Moderate","currency":"$","rating":8.1},{"name":"Brew Bus Terminal and Brewery","phone":"8139907310","twitter":"brewbususa","address":"4101 N. Florida Avenue","lat":27.982571561370243,"lng":-82.4590943120435,"neighborhood":"Old Seminole Heights","city_fetched":"Tampa,US","state":"FL","country":"United States","canonicalUrl":"https://foursquare.com/v/brew-bus-terminal-and-brewery/56abd4c9498e877ac18f6f21","categoryId":"50327c8591d4c4b30a586d5d","category":"Brewery","checkinsCount":136,"usersCount":103,"tipCount":2,"visitsCount":163,"tier":"","message":"","currency":"","rating":8.1},{"name":"The Penthouse Club","phone":"8132889200","twitter":"penthousetpa","address":"1801 N West Shore Blvd","lat":27.958080514888636,"lng":-82.52382884821593,"city_fetched":"Tampa,US","state":"FL","country":"United States","canonicalUrl":"https://foursquare.com/penthousetpa","categoryId":"4bf58dd8d48988d1d6941735","category":"Strip Club","checkinsCount":1610,"usersCount":737,"tipCount":6,"visitsCount":1634,"url":"http://www.thepenthouseclubtampa.com","tier":"","message":"","currency":"","rating":8.1},{"name":"Carmel Caf√© & Wine Bar","phone":"8132651415","address":"14306 N Dale Mabry Hwy","lat":28.076313695836365,"lng":-82.50757690594045,"neighborhood":"Carrollwood Village","city_fetched":"Tampa,US","state":"FL","country":"United States","canonicalUrl":"https://foursquare.com/v/carmel-caf%C3%A9--wine-bar/4e5bf1de18a8a75fa269519e","categoryId":"4bf58dd8d48988d123941735","category":"Wine Bar","checkinsCount":1910,"usersCount":1165,"tipCount":35,"visitsCount":2181,"url":"http://carmel-kitchen.com","tier":2,"message":"Moderate","currency":"$","rating":8.1},{"name":"Ybor Strip","address":"3819 E 7th Ave","lat":27.960261432899717,"lng":-82.41692401932907,"neighborhood":"Village of Tampa","city_fetched":"Tampa,US","state":"FL","country":"United States","canonicalUrl":"https://foursquare.com/v/ybor-strip/4bee49d33686c9b60163246e","categoryId":"4bf58dd8d48988d1d6941735","category":"Strip Club","checkinsCount":182,"usersCount":138,"tipCount":4,"visitsCount":184,"url":"http://yborstrip.com","tier":"","message":"","currency":"","rating":8},{"name":"Edward's Pipe And Tobacco","address":"3235 Henderson Blvd","lat":27.944081418918998,"lng":-82.49619033575318,"neighborhood":"Southwest Tampa","city_fetched":"Tampa,US","state":"FL","country":"United States","canonicalUrl":"https://foursquare.com/v/edwards-pipe-and-tobacco/4c782b60a86837046f5c0c4d","categoryId":"4bf58dd8d48988d11d941735","category":"Sports Bar","checkinsCount":568,"usersCount":156,"tipCount":8,"visitsCount":614,"url":"http://edwardstampa.com","tier":"","message":"","currency":"","rating":8},{"name":"Wet Willie's","phone":"8132215650","address":"615 Channelside Dr","lat":27.943159820537815,"lng":-82.44749342522017,"neighborhood":"Channel District","city_fetched":"Tampa,US","state":"FL","country":"United States","canonicalUrl":"https://foursquare.com/v/wet-willies/4b3cfadcf964a520078b25e3","categoryId":"4bf58dd8d48988d116941735","category":"Bar","checkinsCount":5076,"usersCount":3484,"tipCount":55,"visitsCount":5089,"url":"http://www.wetwillies.com","tier":2,"message":"Moderate","currency":"$","rating":8},{"name":"Honey Pot","phone":"8132474663","address":"1507 E 7th Ave","lat":27.96025907973626,"lng":-82.44256788308785,"neighborhood":"Historic Ybor","city_fetched":"Tampa,US","state":"FL","country":"United States","canonicalUrl":"https://foursquare.com/v/honey-pot/4b0586c2f964a520e06c22e3","categoryId":"4bf58dd8d48988d1d8941735","category":"Gay Bar","checkinsCount":6538,"usersCount":2402,"tipCount":29,"visitsCount":6641,"tier":2,"message":"Moderate","currency":"$","rating":8},{"name":"Duke's Retired Surfers Island Bar","address":"200 W Tyson Ave.","lat":27.885628244815077,"lng":-82.5346507779721,"neighborhood":"Southwest Tampa","city_fetched":"Tampa,US","state":"FL","country":"United States","canonicalUrl":"https://foursquare.com/v/dukes-retired-surfers-island-bar/4bc11ae5b492d13adb92a560","categoryId":"4bf58dd8d48988d116941735","category":"Bar","checkinsCount":1989,"usersCount":1062,"tipCount":13,"visitsCount":2524,"tier":"","message":"","currency":"","rating":8},{"name":"Peabody's Billiards & Games","phone":"8139721725","twitter":"peabodystampa","address":"15333 Amberly Dr","lat":28.0881860091151,"lng":-82.4044132232666,"neighborhood":"Tampa Palms","city_fetched":"Tampa,US","state":"FL","country":"United States","canonicalUrl":"https://foursquare.com/v/peabodys-billiards--games/4b0586c2f964a520cb6c22e3","categoryId":"4bf58dd8d48988d116941735","category":"Bar","checkinsCount":10626,"usersCount":3319,"tipCount":69,"visitsCount":11919,"url":"http://www.peabodystampa.com","tier":2,"message":"Moderate","currency":"$","rating":8},{"name":"The Anchor Bar Downtown","address":"514 N Franklin St","lat":27.949154388257355,"lng":-82.45882983558877,"city_fetched":"Tampa,US","state":"FL","country":"United States","canonicalUrl":"https://foursquare.com/v/the-anchor-bar-downtown/53fb9ef8498e1c681f637321","categoryId":"4bf58dd8d48988d116941735","category":"Bar","checkinsCount":230,"usersCount":157,"tipCount":4,"visitsCount":250,"tier":"","message":"","currency":"","rating":8},{"name":"The Patio","phone":"8138737846","twitter":"thepatiotampa","address":"421 S Macdill Ave","lat":27.940080090373787,"lng":-82.49371612486752,"neighborhood":"Village of Tampa","city_fetched":"Tampa,US","state":"FL","country":"United States","canonicalUrl":"https://foursquare.com/v/the-patio/4ec45c27e5fa74ea52e6b3f1","categoryId":"4bf58dd8d48988d116941735","category":"Bar","checkinsCount":4399,"usersCount":1818,"tipCount":16,"visitsCount":5243,"url":"http://patiotampa.com","tier":1,"message":"Cheap","currency":"$","rating":7.9},{"name":"The Brass Tap","phone":"8138889999","address":"10047 N Dale Mabry Hwy","lat":28.0425528619045,"lng":-82.50421505017704,"neighborhood":"Village of Tampa","city_fetched":"Tampa,US","state":"FL","country":"United States","canonicalUrl":"https://foursquare.com/v/the-brass-tap/519a5d51498eb46f03a68fe4","categoryId":"4bf58dd8d48988d117941735","category":"Beer Garden","checkinsCount":1335,"usersCount":768,"tipCount":18,"visitsCount":1807,"url":"http://brasstapbeerbar.com","tier":2,"message":"Moderate","currency":"$","rating":7.9},{"name":"Pete's Place","phone":"8132829039","address":"4145 Henderson Blvd","lat":27.927371,"lng":-82.5136,"neighborhood":"Palma Ceia West","city_fetched":"Tampa,US","state":"FL","country":"United States","canonicalUrl":"https://foursquare.com/v/petes-place/4b652e0af964a520cbe72ae3","categoryId":"4bf58dd8d48988d116941735","category":"Bar","checkinsCount":1815,"usersCount":827,"tipCount":16,"visitsCount":2310,"url":"http://www.petestampa.com","tier":1,"message":"Cheap","currency":"$","rating":7.9},{"name":"Dallas Bull","phone":"8139872855","twitter":"thedallasbull","address":"3322 N. US 301","lat":27.973406108425742,"lng":-82.36115455627441,"neighborhood":"Village of Tampa","city_fetched":"Tampa,US","state":"FL","country":"United States","canonicalUrl":"https://foursquare.com/thedallasbull","categoryId":"4bf58dd8d48988d116941735","category":"Bar","checkinsCount":6306,"usersCount":2940,"tipCount":20,"visitsCount":6876,"url":"http://dallasbull.com","tier":1,"message":"Cheap","currency":"$","rating":7.9},{"name":"Double Decker","phone":"8132482099","address":"1721 E 7th Ave","lat":27.960266788417638,"lng":-82.4397795854137,"neighborhood":"Historic Ybor","city_fetched":"Tampa,US","state":"FL","country":"United States","canonicalUrl":"https://foursquare.com/v/double-decker/4b11f7e4f964a520a98723e3","categoryId":"4bf58dd8d48988d120941735","category":"Karaoke Bar","checkinsCount":5080,"usersCount":1471,"tipCount":37,"visitsCount":5110,"url":"http://doubledeckertampa.com","tier":2,"message":"Moderate","currency":"$","rating":7.9},{"name":"American Legion","address":"6918 N Florida Ave","lat":28.01179615,"lng":-82.459983,"neighborhood":"Old Seminole Heights","city_fetched":"Tampa,US","state":"FL","country":"United States","canonicalUrl":"https://foursquare.com/v/american-legion/4d4e16ec122b5481f4d3814f","categoryId":"4bf58dd8d48988d116941735","category":"Bar","checkinsCount":292,"usersCount":124,"tipCount":2,"visitsCount":319,"tier":"","message":"","currency":"","rating":7.9},{"name":"The Hub Bar","phone":"8132291553","address":"719 N Franklin St","lat":27.95069984494323,"lng":-82.45911018059867,"city_fetched":"Tampa,US","state":"FL","country":"United States","canonicalUrl":"https://foursquare.com/v/the-hub-bar/4b0586c2f964a520fc6c22e3","categoryId":"4bf58dd8d48988d116941735","category":"Bar","checkinsCount":3985,"usersCount":1822,"tipCount":27,"visitsCount":4250,"url":"http://www.thehubbartampa.com","tier":1,"message":"Cheap","currency":"$","rating":7.8},{"name":"Bad Monkey","phone":"8132809971","twitter":"badmonkeyybor","address":"1717 E 7th Ave","lat":27.960064009305835,"lng":-82.44011878967285,"neighborhood":"Historic Ybor","city_fetched":"Tampa,US","state":"FL","country":"United States","canonicalUrl":"https://foursquare.com/badmonkeyybor","categoryId":"4bf58dd8d48988d121941735","category":"Lounge","checkinsCount":2767,"usersCount":1192,"tipCount":21,"visitsCount":2850,"url":"http://www.badmonkeyybor.com","tier":2,"message":"Moderate","currency":"$","rating":7.8},{"name":"Maloney's Irish Pub","address":"1120 E Kennedy Blvd","lat":27.951417922973633,"lng":-82.44867706298828,"neighborhood":"Channel District","city_fetched":"Tampa,US","state":"FL","country":"United States","canonicalUrl":"https://foursquare.com/v/maloneys-irish-pub/53ac4a93498ee34934da16aa","categoryId":"4bf58dd8d48988d116941735","category":"Bar","checkinsCount":394,"usersCount":213,"tipCount":7,"visitsCount":472,"tier":"","message":"","currency":"","rating":7.8},{"name":"Irish 31","phone":"8132500031","twitter":"irish31tampa","address":"1611 W Swann Ave","lat":27.937462855357936,"lng":-82.47672732125645,"neighborhood":"Historic Hyde Park North","city_fetched":"Tampa,US","state":"FL","country":"United States","canonicalUrl":"https://foursquare.com/v/irish-31/4e7283b18998e9711d8d4a51","categoryId":"4bf58dd8d48988d11b941735","category":"Pub","checkinsCount":4334,"usersCount":1925,"tipCount":35,"visitsCount":4608,"url":"https://irish31.com","tier":2,"message":"Moderate","currency":"$","rating":7.8},{"name":"Hyde Park Cafe","phone":"8132542233","twitter":"thehydeparkcafe","address":"1806 W Platt St","lat":27.941737278344522,"lng":-82.47809694391495,"neighborhood":"Southwest Tampa","city_fetched":"Tampa,US","state":"FL","country":"United States","canonicalUrl":"https://foursquare.com/v/hyde-park-cafe/4b2fbd42f964a520d9ee24e3","categoryId":"4bf58dd8d48988d11f941735","category":"Nightclub","checkinsCount":5014,"usersCount":2777,"tipCount":60,"visitsCount":5656,"url":"http://thehydeparkcafe.com","tier":3,"message":"Expensive","currency":"$","rating":7.8},{"name":"The Crowbar","phone":"8132418600","twitter":"crowbarlive","address":"1812 N 17th St","lat":27.960766166914,"lng":-82.44059536734119,"neighborhood":"Historic Ybor","city_fetched":"Tampa,US","state":"FL","country":"United States","canonicalUrl":"https://foursquare.com/v/the-crowbar/4b0586c2f964a520e46c22e3","categoryId":"4bf58dd8d48988d116941735","category":"Bar","checkinsCount":5665,"usersCount":2307,"tipCount":38,"visitsCount":5794,"url":"http://crowbarlive.com","tier":2,"message":"Moderate","currency":"$","rating":7.8},{"name":"The Retreat","phone":"8132542014","address":"123 S Hyde Park Ave","lat":27.9448678,"lng":-82.464075,"neighborhood":"Village of Tampa","city_fetched":"Tampa,US","state":"FL","country":"United States","canonicalUrl":"https://foursquare.com/v/the-retreat/4b1d6444f964a520de0f24e3","categoryId":"4bf58dd8d48988d116941735","category":"Bar","checkinsCount":2758,"usersCount":931,"tipCount":16,"visitsCount":2909,"url":"http://www.retreattampa.com","tier":"","message":"","currency":"","rating":7.8},{"name":"Blue Martini","phone":"8138732583","twitter":"bluemartinimain","address":"2223 N West Shore Blvd","lat":27.965484436028014,"lng":-82.52127170562744,"neighborhood":"Village of Tampa","city_fetched":"Tampa,US","state":"FL","country":"United States","canonicalUrl":"https://foursquare.com/v/blue-martini/4c1edfdb8b3aa59386ca9c5f","categoryId":"4bf58dd8d48988d116941735","category":"Bar","checkinsCount":10734,"usersCount":5013,"tipCount":84,"visitsCount":10794,"url":"http://tampa.bluemartinilounge.com","tier":3,"message":"Expensive","currency":"$","rating":7.8},{"name":"Miller's Tampa Ale House","phone":"8139690020","twitter":"millersalehouse","address":"14803 N Dale Mabry Hwy","lat":28.082648410492588,"lng":-82.50469608046959,"neighborhood":"Village of Tampa","city_fetched":"Tampa,US","state":"FL","country":"United States","canonicalUrl":"https://foursquare.com/v/millers-tampa-ale-house/4b0586c1f964a5208a6c22e3","categoryId":"4bf58dd8d48988d11d941735","category":"Sports Bar","checkinsCount":5655,"usersCount":2359,"tipCount":51,"visitsCount":6381,"url":"http://www.millersalehouse.com","tier":2,"message":"Moderate","currency":"$","rating":7.7},{"name":"Mulligan's Irish Pub","lat":28.154424544126186,"lng":-82.35045257495463,"neighborhood":"Village of Tampa","city_fetched":"Tampa,US","state":"FL","country":"United States","canonicalUrl":"https://foursquare.com/v/mulligans-irish-pub/4c1ce464eac020a1e13147c2","categoryId":"4bf58dd8d48988d11b941735","category":"Pub","checkinsCount":1926,"usersCount":451,"tipCount":10,"visitsCount":2309,"tier":"","message":"","currency":"","rating":7.7},{"name":"Bit Bar","phone":"8132231497","twitter":"bitbartampa","address":"514 N Franklin St Ste 104","lat":27.94922928758549,"lng":-82.45896736347134,"city_fetched":"Tampa,US","state":"FL","country":"United States","canonicalUrl":"https://foursquare.com/v/bit-bar/4f42a64a7beb8ec2e02da31e","categoryId":"4bf58dd8d48988d116941735","category":"Bar","checkinsCount":78,"usersCount":47,"tipCount":6,"visitsCount":78,"tier":"","message":"","currency":"","rating":7.7},{"name":"Cheap","phone":"8132585878","twitter":"soholgroup","address":"309 S Howard Ave","lat":27.941362462640544,"lng":-82.48304639640531,"neighborhood":"Southwest Tampa","city_fetched":"Tampa,US","state":"FL","country":"United States","canonicalUrl":"https://foursquare.com/soholgroup","categoryId":"4bf58dd8d48988d121941735","category":"Lounge","checkinsCount":9104,"usersCount":4097,"tipCount":109,"visitsCount":9209,"url":"http://cheapinsoho.com","tier":2,"message":"Moderate","currency":"$","rating":7.7},{"name":"The Bungalow","phone":"8132533663","twitter":"bungalowtampafl","address":"2202 W Kennedy Blvd","lat":27.94461336,"lng":-82.48221755,"neighborhood":"Southwest Tampa","city_fetched":"Tampa,US","state":"FL","country":"United States","canonicalUrl":"https://foursquare.com/v/the-bungalow/4b0586c7f964a520386e22e3","categoryId":"4bf58dd8d48988d116941735","category":"Bar","checkinsCount":5884,"usersCount":3021,"tipCount":80,"visitsCount":6423,"url":"http://www.bungalowtampa.com","tier":2,"message":"Moderate","currency":"$","rating":7.7},{"name":"Whiskey Joe's","phone":"8132810770","twitter":"srccorp","address":"7720 W Courtney Campbell Cswy","lat":27.967697323036887,"lng":-82.57293007308702,"neighborhood":"Village of Tampa","city_fetched":"Tampa,US","state":"FL","country":"United States","canonicalUrl":"https://foursquare.com/v/whiskey-joes/4b0586c2f964a520fb6c22e3","categoryId":"4bf58dd8d48988d116941735","category":"Bar","checkinsCount":7677,"usersCount":6485,"tipCount":94,"visitsCount":9187,"url":"http://www.therustypelican.com/rustypelicanmiami/default.aspx","tier":2,"message":"Moderate","currency":"$","rating":7.7},{"name":"MacDinton's Irish Pub & Restaurant","phone":"8132518999","twitter":"macdintons","address":"405 S Howard Ave","lat":27.940387556099726,"lng":-82.48317858845861,"neighborhood":"Southwest Tampa","city_fetched":"Tampa,US","state":"FL","country":"United States","canonicalUrl":"https://foursquare.com/v/macdintons-irish-pub--restaurant/4b0586c2f964a520bd6c22e3","categoryId":"4bf58dd8d48988d11d941735","category":"Sports Bar","checkinsCount":27244,"usersCount":8106,"tipCount":121,"visitsCount":28084,"url":"http://macdintons.com","tier":2,"message":"Moderate","currency":"$","rating":7.7},{"name":"Blue Lizard Hookah Lounge","phone":"8139366970","twitter":"bluelizardtampa","address":"5025 E Fowler Ave","lat":28.053931988116634,"lng":-82.40055165791486,"city_fetched":"Tampa,US","state":"FL","country":"United States","canonicalUrl":"https://foursquare.com/bluelizardtampa","categoryId":"4bf58dd8d48988d119941735","category":"Hookah Bar","checkinsCount":898,"usersCount":458,"tipCount":24,"visitsCount":908,"url":"http://bluelizardhookah.com","tier":2,"message":"Moderate","currency":"$","rating":7.7},{"name":"TAPS Bar & Lounge","phone":"8134631968","address":"777 N Ashley Dr","lat":27.95005767434866,"lng":-82.46070759653564,"city_fetched":"Tampa,US","state":"FL","country":"United States","canonicalUrl":"https://foursquare.com/v/taps-bar--lounge/4b0586c2f964a520016d22e3","categoryId":"4bf58dd8d48988d116941735","category":"Bar","checkinsCount":5191,"usersCount":2429,"tipCount":42,"visitsCount":5321,"url":"http://www.tapswineandbeer.com","tier":2,"message":"Moderate","currency":"$","rating":7.7},{"name":"Southern Nights Tampa","lat":27.960200527120477,"lng":-82.44408102994912,"neighborhood":"Historic Ybor","city_fetched":"Tampa,US","state":"FL","country":"United States","canonicalUrl":"https://foursquare.com/v/southern-nights-tampa/5586255a498eef1e825573d4","categoryId":"4bf58dd8d48988d11f941735","category":"Nightclub","checkinsCount":368,"usersCount":239,"tipCount":6,"visitsCount":494,"tier":"","message":"","currency":"","rating":7.6},{"name":"The SoHo Backyard","address":"610 S Armenia Ave","lat":27.93789265782629,"lng":-82.48455865838842,"neighborhood":"Southwest Tampa","city_fetched":"Tampa,US","state":"FL","country":"United States","canonicalUrl":"https://foursquare.com/v/the-soho-backyard/534f193b498e53d54c506312","categoryId":"4bf58dd8d48988d11e941735","category":"Cocktail Bar","checkinsCount":327,"usersCount":304,"tipCount":9,"visitsCount":475,"url":"http://sohobackyard.com","tier":2,"message":"Moderate","currency":"$","rating":7.6},{"name":"The Kennedy","phone":"8132599669","address":"2408 W Kennedy Blvd","lat":27.94455021119957,"lng":-82.48445819445818,"neighborhood":"Southwest Tampa","city_fetched":"Tampa,US","state":"FL","country":"United States","canonicalUrl":"https://foursquare.com/v/the-kennedy/4aef8f92f964a52043d921e3","categoryId":"4bf58dd8d48988d11f941735","category":"Nightclub","checkinsCount":4047,"usersCount":2041,"tipCount":62,"visitsCount":4596,"url":"http://thekennedysoho.com","tier":"","message":"","currency":"","rating":7.6},{"name":"Maloney's Local Irish Pub","phone":"8137490859","address":"9540 W Linebaugh Ave","lat":28.043148,"lng":-82.59192578333334,"city_fetched":"Tampa,US","state":"FL","country":"United States","canonicalUrl":"https://foursquare.com/v/maloneys-local-irish-pub/4b57687ef964a5202f3628e3","categoryId":"4bf58dd8d48988d11b941735","category":"Pub","checkinsCount":3152,"usersCount":1390,"tipCount":22,"visitsCount":3202,"url":"http://maloneyslocalirishpub.com","tier":1,"message":"Cheap","currency":"$","rating":7.6},{"name":"Glory Days Grill","phone":"8135137550","twitter":"glorydaysgrill","address":"17508 Dona Michelle Dr","lat":28.126520206290085,"lng":-82.37033763880703,"neighborhood":"West Meadows","city_fetched":"Tampa,US","state":"FL","country":"United States","canonicalUrl":"https://foursquare.com/v/glory-days-grill/53b44a41498eb5df8acb9d55","categoryId":"4bf58dd8d48988d11d941735","category":"Sports Bar","checkinsCount":234,"usersCount":106,"tipCount":2,"visitsCount":258,"url":"https://glorydaysgrill.com","tier":"","message":"","currency":"","rating":7.6},{"name":"Corner Club","phone":"8132315010","address":"1502 E Sligh Ave","lat":28.010853,"lng":-82.442767,"neighborhood":"Old Seminole Heights","city_fetched":"Tampa,US","state":"FL","country":"United States","canonicalUrl":"https://foursquare.com/v/corner-club/4c8af422770fb60ca5d3d7c3","categoryId":"4bf58dd8d48988d118941735","category":"Dive Bar","checkinsCount":342,"usersCount":163,"tipCount":5,"visitsCount":364,"tier":"","message":"","currency":"","rating":7.6},{"name":"Green Iguana Bar & Grill","phone":"8138371234","address":"4029 S West Shore Blvd","lat":27.90427101626294,"lng":-82.52693081557129,"neighborhood":"Southwest Tampa","city_fetched":"Tampa,US","state":"FL","country":"United States","canonicalUrl":"https://foursquare.com/v/green-iguana-bar--grill/4b5bbe1ef964a520911329e3","categoryId":"4bf58dd8d48988d118941735","category":"Dive Bar","checkinsCount":5795,"usersCount":2134,"tipCount":27,"visitsCount":6879,"url":"http://greeniguana.com","tier":2,"message":"Moderate","currency":"$","rating":7.6},{"name":"Winners Sports Grill","phone":"8139633200","twitter":"winnersgrillfl","address":"6254 Gunn Hwy","lat":28.06085639496526,"lng":-82.54349112510681,"city_fetched":"Tampa,US","state":"FL","country":"United States","canonicalUrl":"https://foursquare.com/v/winners-sports-grill/4b0586c1f964a520af6c22e3","categoryId":"4bf58dd8d48988d11d941735","category":"Sports Bar","checkinsCount":1866,"usersCount":441,"tipCount":16,"visitsCount":2058,"url":"http://www.winnersgrill.com","tier":"","message":"","currency":"","rating":7.5},{"name":"Reservoir Bar","phone":"8132481442","address":"1518 E 7th Ave","lat":27.960312221616462,"lng":-82.44229805272995,"neighborhood":"Historic Ybor","city_fetched":"Tampa,US","state":"FL","country":"United States","canonicalUrl":"https://foursquare.com/v/reservoir-bar/4b1ebc08f964a520b61e24e3","categoryId":"4bf58dd8d48988d116941735","category":"Bar","checkinsCount":5848,"usersCount":1524,"tipCount":20,"visitsCount":5964,"tier":1,"message":"Cheap","currency":"$","rating":7.5},{"name":"Dagwoods Sports Tavern","phone":"8138875078","twitter":"dagwoodstampa","address":"8458 Sheldon Rd","lat":28.02687164832974,"lng":-82.58347749710083,"neighborhood":"Village of Tampa","city_fetched":"Tampa,US","state":"FL","country":"United States","canonicalUrl":"https://foursquare.com/v/dagwoods-sports-tavern/4b95d458f964a520d5b434e3","categoryId":"4bf58dd8d48988d116941735","category":"Bar","checkinsCount":5161,"usersCount":821,"tipCount":17,"visitsCount":6356,"url":"http://www.dagwoodssportstavern.com","tier":2,"message":"Moderate","currency":"$","rating":7.5},{"name":"Hidden Springs Ale Works","address":"1631 N Franklin St","lat":27.959336193579958,"lng":-82.46025799644006,"neighborhood":"Tampa Heights","city_fetched":"Tampa,US","state":"FL","country":"United States","canonicalUrl":"https://foursquare.com/v/hidden-springs-ale-works/55fc792c498effa71c8bec43","categoryId":"50327c8591d4c4b30a586d5d","category":"Brewery","checkinsCount":410,"usersCount":344,"tipCount":3,"visitsCount":635,"tier":"","message":"","currency":"","rating":7.5},{"name":"Liquid Lounge","phone":"8132479000","twitter":"liquidtampa","address":"1502 E 7th Ave","lat":27.960351885211377,"lng":-82.44290120149171,"neighborhood":"Historic Ybor","city_fetched":"Tampa,US","state":"FL","country":"United States","canonicalUrl":"https://foursquare.com/v/liquid-lounge/4da0a4bac6e96ea84d77ae5d","categoryId":"4bf58dd8d48988d1d8941735","category":"Gay Bar","checkinsCount":3736,"usersCount":996,"tipCount":36,"visitsCount":3807,"url":"http://www.liquidtampa.com","tier":1,"message":"Cheap","currency":"$","rating":7.5},{"name":"Scores Tampa - Gentlemen's Club & Prime Steakhouse","phone":"8138757912","twitter":"scorestampabay","address":"2310 N Dale Mabry Hwy","lat":27.962000907504912,"lng":-82.50602286091542,"city_fetched":"Tampa,US","state":"FL","country":"United States","canonicalUrl":"https://foursquare.com/scorestampabay","categoryId":"4bf58dd8d48988d1d6941735","category":"Strip Club","checkinsCount":1721,"usersCount":770,"tipCount":6,"visitsCount":1901,"url":"http://scorestampa.com","tier":"","message":"","currency":"","rating":7.5},{"name":"Club Lust","phone":"7274988689","twitter":"lustdowntown","address":"340 1st Ave N","lat":27.77195352050646,"lng":-82.6379649266145,"neighborhood":"University Park - South Downtown","city_fetched":"Tampa,US","state":"FL","country":"United States","canonicalUrl":"https://foursquare.com/v/club-lust/4d8a7cfbd93059416f5fd769","categoryId":"4bf58dd8d48988d1d6941735","category":"Strip Club","checkinsCount":1076,"usersCount":234,"tipCount":6,"visitsCount":1093,"url":"http://www.lustdowntown.com","tier":"","message":"","currency":"","rating":7.5},{"name":"O'Briens Irish Pub","phone":"8139614092","twitter":"obrienstampa","address":"15435 N Dale Mabry Hwy","lat":28.09229649323012,"lng":-82.50057814113576,"neighborhood":"Village of Tampa","city_fetched":"Tampa,US","state":"FL","country":"United States","canonicalUrl":"https://foursquare.com/v/obriens-irish-pub/4e87a998cc21e9e859309b8e","categoryId":"4bf58dd8d48988d11b941735","category":"Pub","checkinsCount":4461,"usersCount":1417,"tipCount":23,"visitsCount":5108,"url":"http://www.obrienspubstampa.com","tier":2,"message":"Moderate","currency":"$","rating":7.5},{"name":"Baby Dolls","phone":"7275243384","address":"13383 US Highway 19 N","lat":27.893103257121005,"lng":-82.72136576622839,"city_fetched":"Tampa,US","state":"FL","country":"United States","canonicalUrl":"https://foursquare.com/v/baby-dolls/4c02ef030d0e0f47d7e4019a","categoryId":"4bf58dd8d48988d1d6941735","category":"Strip Club","checkinsCount":414,"usersCount":227,"tipCount":6,"visitsCount":461,"tier":"","message":"","currency":"","rating":7.5},{"name":"Copper Top Pub","phone":"8139888656","address":"5112 E Fowler Ave","lat":28.05483827149281,"lng":-82.39982637849383,"neighborhood":"Village of Tampa","city_fetched":"Tampa,US","state":"FL","country":"United States","canonicalUrl":"https://foursquare.com/v/copper-top-pub/4b0586c2f964a520cd6c22e3","categoryId":"4bf58dd8d48988d11b941735","category":"Pub","checkinsCount":5321,"usersCount":1153,"tipCount":30,"visitsCount":5587,"tier":"","message":"","currency":"","rating":7.5},{"name":"Dirty Shame Pub","address":"1929 E 7th Ave","lat":27.960171539755326,"lng":-82.43692238989458,"neighborhood":"Historic Ybor","city_fetched":"Tampa,US","state":"FL","country":"United States","canonicalUrl":"https://foursquare.com/v/dirty-shame-pub/4b0586c2f964a520ef6c22e3","categoryId":"4bf58dd8d48988d116941735","category":"Bar","checkinsCount":4238,"usersCount":1254,"tipCount":29,"visitsCount":4563,"tier":1,"message":"Cheap","currency":"$","rating":7.5},{"name":"Tally Ho Bar & Grille","phone":"8139849223","twitter":"tallyhobargrill","address":"7402 N 56th St","lat":28.014256021169032,"lng":-82.39394187927246,"neighborhood":"Village of Tampa","city_fetched":"Tampa,US","state":"FL","country":"United States","canonicalUrl":"https://foursquare.com/v/tally-ho-bar--grille/4bd9b48e0115c9b63f487880","categoryId":"4bf58dd8d48988d11d941735","category":"Sports Bar","checkinsCount":1723,"usersCount":363,"tipCount":10,"visitsCount":1911,"url":"http://tallyhobargrille-hub.com","tier":"","message":"","currency":"","rating":7.4},{"name":"G Peppers","phone":"8139203439","address":"8745 Gunn Hwy","lat":28.092057580761676,"lng":-82.57877687889778,"neighborhood":"Citrus Park Community","city_fetched":"Tampa,US","state":"FL","country":"United States","canonicalUrl":"https://foursquare.com/v/g-peppers/4d0bd408f2c1236a4fc90357","categoryId":"4bf58dd8d48988d11d941735","category":"Sports Bar","checkinsCount":641,"usersCount":273,"tipCount":7,"visitsCount":750,"url":"http://www.gpeppers.com","tier":"","message":"","currency":"","rating":7.4},{"name":"Lodge Restaurant & Bar","phone":"8132515634","twitter":"lodgetampa","address":"516 S Howard Ave","lat":27.9388076262659,"lng":-82.48285603940415,"neighborhood":"Southwest Tampa","city_fetched":"Tampa,US","state":"FL","country":"United States","canonicalUrl":"https://foursquare.com/v/lodge-restaurant--bar/4b0586c2f964a520fe6c22e3","categoryId":"4bf58dd8d48988d116941735","category":"Bar","checkinsCount":10853,"usersCount":4892,"tipCount":59,"visitsCount":12217,"url":"http://www.lodgetampa.com","tier":2,"message":"Moderate","currency":"$","rating":7.4},{"name":"I Don't Care Bar & Grill","address":"4556 S Manhattan Ave","lat":27.897742793882262,"lng":-82.51820056079225,"neighborhood":"Southwest Tampa","city_fetched":"Tampa,US","state":"FL","country":"United States","canonicalUrl":"https://foursquare.com/v/i-dont-care-bar--grill/4d0c1f3feea9b60c75a6563f","categoryId":"4bf58dd8d48988d11d941735","category":"Sports Bar","checkinsCount":1259,"usersCount":174,"tipCount":14,"visitsCount":1397,"tier":"","message":"","currency":"","rating":7.4},{"name":"Warehouse Liquor Store And Bar","address":"Gandy Blvd","lat":27.894091883016333,"lng":-82.51212255079346,"neighborhood":"Southwest Tampa","city_fetched":"Tampa,US","state":"FL","country":"United States","canonicalUrl":"https://foursquare.com/v/warehouse-liquor-store-and-bar/4e4764bcae60fa723301a366","categoryId":"4bf58dd8d48988d116941735","category":"Bar","checkinsCount":409,"usersCount":182,"tipCount":2,"visitsCount":536,"tier":"","message":"","currency":"","rating":7.4},{"name":"Long Bar & Grill","phone":"8138909059","address":"5929 Memorial Hwy","lat":27.986745,"lng":-82.570714,"neighborhood":"Village of Tampa","city_fetched":"Tampa,US","state":"FL","country":"United States","canonicalUrl":"https://foursquare.com/v/long-bar--grill/4b4b64ccf964a520f49926e3","categoryId":"4bf58dd8d48988d116941735","category":"Bar","checkinsCount":1883,"usersCount":417,"tipCount":15,"visitsCount":2152,"tier":2,"message":"Moderate","currency":"$","rating":7.4},{"name":"Skye Bar at TPA Marriot","lat":27.981479,"lng":-82.534675,"neighborhood":"Village of Tampa","city_fetched":"Tampa,US","state":"FL","country":"United States","canonicalUrl":"https://foursquare.com/v/skye-bar-at-tpa-marriot/4ba27c81f964a52069fd37e3","categoryId":"4bf58dd8d48988d1d5941735","category":"Hotel Bar","checkinsCount":306,"usersCount":256,"tipCount":5,"visitsCount":306,"tier":"","message":"","currency":"","rating":7.3},{"name":"TOAST Wine and Cafe","phone":"8136323105","twitter":"toastusa","address":"14921 Bruce B Downs Blvd","lat":28.083096768769096,"lng":-82.41223449670589,"neighborhood":"Village of Tampa","city_fetched":"Tampa,US","state":"FL","country":"United States","canonicalUrl":"https://foursquare.com/v/toast-wine-and-cafe/4bcf3601462cb713993ed607","categoryId":"4bf58dd8d48988d123941735","category":"Wine Bar","checkinsCount":884,"usersCount":262,"tipCount":8,"visitsCount":897,"url":"http://toastwineandcafe.com","tier":"","message":"","currency":"","rating":7.3},{"name":"The Blind Goat Food & Drink Co.","phone":"8135157962","twitter":"blindgoattampa","address":"4106 Henderson Blvd","lat":27.927971992518323,"lng":-82.51233925428124,"neighborhood":"Palma Ceia West","city_fetched":"Tampa,US","state":"FL","country":"United States","canonicalUrl":"https://foursquare.com/v/the-blind-goat-food--drink-co/55038ac8498e1f2b384b96c8","categoryId":"4bf58dd8d48988d11e941735","category":"Cocktail Bar","checkinsCount":251,"usersCount":239,"tipCount":1,"visitsCount":654,"url":"http://www.blindgoattampa.com","tier":"","message":"","currency":"","rating":7.3},{"name":"The Body Shop","phone":"8139713576","address":"14905 N Nebraska Ave","lat":28.08497700910978,"lng":-82.45111196778531,"neighborhood":"Village of Tampa","city_fetched":"Tampa,US","state":"FL","country":"United States","canonicalUrl":"https://foursquare.com/v/the-body-shop/4b0586c2f964a520d56c22e3","categoryId":"4bf58dd8d48988d1d8941735","category":"Gay Bar","checkinsCount":1340,"usersCount":341,"tipCount":10,"visitsCount":1546,"url":"http://www.keithsbar.com","tier":"","message":"","currency":"","rating":7.3},{"name":"Yard of Ale","phone":"8132514433","twitter":"yardofalesoho","address":"406 S Howard Ave","lat":27.94054728349644,"lng":-82.48290891640154,"neighborhood":"Southwest Tampa","city_fetched":"Tampa,US","state":"FL","country":"United States","canonicalUrl":"https://foursquare.com/v/yard-of-ale/4ca5190e97c8a1cd77f163a5","categoryId":"4bf58dd8d48988d116941735","category":"Bar","checkinsCount":7558,"usersCount":3092,"tipCount":36,"visitsCount":7759,"url":"http://yardofalesoho.com","tier":2,"message":"Moderate","currency":"$","rating":7.3},{"name":"Prime time Sports Grill","phone":"8139080780","address":"14404 N Dale Mabry Hwy","lat":28.07893420184817,"lng":-82.50766070793458,"neighborhood":"Carrollwood Village","city_fetched":"Tampa,US","state":"FL","country":"United States","canonicalUrl":"https://foursquare.com/v/prime-time-sports-grill/4c144619a5eb76b06790c1b7","categoryId":"4bf58dd8d48988d11d941735","category":"Sports Bar","checkinsCount":3298,"usersCount":1006,"tipCount":26,"visitsCount":3624,"url":"http://primetimesportsgrill.com","tier":1,"message":"Cheap","currency":"$","rating":7.3},{"name":"Oz Gentlemen's Club","phone":"7275339880","address":"13577 US Highway 19 N","lat":27.895220418549794,"lng":-82.72269361363178,"city_fetched":"Tampa,US","state":"FL","country":"United States","canonicalUrl":"https://foursquare.com/v/oz-gentlemens-club/4c6dd658d5c3a1cdd9d4c62b","categoryId":"4bf58dd8d48988d1d6941735","category":"Strip Club","checkinsCount":1251,"usersCount":934,"tipCount":9,"visitsCount":1834,"url":"http://www.ozgentlemensclub.com","tier":"","message":"","currency":"","rating":7.3},{"name":"The Fox Jazz Cafe","phone":"8136390400","twitter":"foxjazzcafe","address":"5401 W Kennedy Blvd","lat":27.945392426048723,"lng":-82.5350259217632,"neighborhood":"Village of Tampa","city_fetched":"Tampa,US","state":"FL","country":"United States","canonicalUrl":"https://foursquare.com/v/the-fox-jazz-cafe/4bb4eb6b0fb7b71395adbf8a","categoryId":"4bf58dd8d48988d121941735","category":"Lounge","checkinsCount":1056,"usersCount":614,"tipCount":18,"visitsCount":1120,"url":"http://www.foxjazzcafe.com","tier":"","message":"","currency":"","rating":7.3},{"name":"The Dog's Bollocks","phone":"8137644509","twitter":"dogsybor","address":"1704 E 7th Ave","lat":27.960360443863078,"lng":-82.44022931842943,"neighborhood":"Historic Ybor","city_fetched":"Tampa,US","state":"FL","country":"United States","canonicalUrl":"https://foursquare.com/v/the-dogs-bollocks/4cf12c2f51785941ff1bc08f","categoryId":"4bf58dd8d48988d11b941735","category":"Pub","checkinsCount":6050,"usersCount":1074,"tipCount":44,"visitsCount":6075,"url":"http://thedogsbollocksybor.com","tier":2,"message":"Moderate","currency":"$","rating":7.2},{"name":"District 3","lat":27.947131879128452,"lng":-82.45245564745638,"neighborhood":"Downtown Tampa","city_fetched":"Tampa,US","state":"FL","country":"United States","canonicalUrl":"https://foursquare.com/v/district-3/53e6e461498eac5a9faf7c93","categoryId":"4bf58dd8d48988d11f941735","category":"Nightclub","checkinsCount":150,"usersCount":235,"tipCount":2,"visitsCount":314,"tier":"","message":"","currency":"","rating":7.2},{"name":"Tampa Gold Club","phone":"8136227899","address":"6222 E Adamo Dr","lat":27.952908652368023,"lng":-82.38431311887022,"city_fetched":"Tampa,US","state":"FL","country":"United States","canonicalUrl":"https://foursquare.com/v/tampa-gold-club/4df41ce788772e1f81566f2c","categoryId":"4bf58dd8d48988d11a941735","category":"Other Nightlife","checkinsCount":1021,"usersCount":316,"tipCount":9,"visitsCount":1278,"url":"http://tampagoldclub.com","tier":"","message":"","currency":"","rating":7.2},{"name":"Mons Venus","phone":"8138752762","address":"2040 N Dale Mabry Hwy","lat":27.960706587154252,"lng":-82.50580085162353,"city_fetched":"Tampa,US","state":"FL","country":"United States","canonicalUrl":"https://foursquare.com/v/mons-venus/4b2e624bf964a52037df24e3","categoryId":"4bf58dd8d48988d1d6941735","category":"Strip Club","checkinsCount":2023,"usersCount":1392,"tipCount":20,"visitsCount":2070,"url":"http://monsvenuslive.com","tier":"","message":"","currency":"","rating":7.2},{"name":"Beef 'O' Brady's","phone":"8138359464","twitter":"beefssouthtampa","address":"2819 S Macdill Ave","lat":27.92043465200422,"lng":-82.49373198547619,"neighborhood":"Palma Ceia","city_fetched":"Tampa,US","state":"FL","country":"United States","canonicalUrl":"https://foursquare.com/beefssouthtampa","categoryId":"4bf58dd8d48988d11d941735","category":"Sports Bar","checkinsCount":3309,"usersCount":1408,"tipCount":29,"visitsCount":3674,"url":"http://www.beefobradys.com","tier":2,"message":"Moderate","currency":"$","rating":7.2},{"name":"The Lobby Bar","address":"5223 Orient Rd","lat":27.993643529013585,"lng":-82.3719048500061,"neighborhood":"Village of Tampa","city_fetched":"Tampa,US","state":"FL","country":"United States","canonicalUrl":"https://foursquare.com/v/the-lobby-bar/4c16ec94cd4bc9b6db3d4feb","categoryId":"4bf58dd8d48988d11e941735","category":"Cocktail Bar","checkinsCount":811,"usersCount":408,"tipCount":2,"visitsCount":812,"tier":"","message":"","currency":"","rating":7.2},{"name":"Diamond Dolls","lat":27.921080501603925,"lng":-82.72997523403944,"city_fetched":"Tampa,US","state":"FL","country":"United States","canonicalUrl":"https://foursquare.com/v/diamond-dolls/4b6b1350f964a52014f12be3","categoryId":"4bf58dd8d48988d1d6941735","category":"Strip Club","checkinsCount":495,"usersCount":420,"tipCount":6,"visitsCount":875,"tier":"","message":"","currency":"","rating":7.2},{"name":"The Spot Hookah Lounge","phone":"8132594499","twitter":"spothookahtampa","address":"219 S Howard Ave","lat":27.94195288268985,"lng":-82.48306095600128,"neighborhood":"Hyde Park","city_fetched":"Tampa,US","state":"FL","country":"United States","canonicalUrl":"https://foursquare.com/v/the-spot-hookah-lounge/4f3f3382e4b09425fcbca522","categoryId":"4bf58dd8d48988d119941735","category":"Hookah Bar","checkinsCount":139,"usersCount":91,"tipCount":8,"visitsCount":143,"url":"http://www.spothookah.com","tier":"","message":"","currency":"","rating":7.2},{"name":"Green Iguana Bar & Grill","phone":"8132489555","twitter":"thegreeniguana","address":"1708 E 7th Ave","lat":27.960377108509405,"lng":-82.44004942557316,"neighborhood":"Historic Ybor","city_fetched":"Tampa,US","state":"FL","country":"United States","canonicalUrl":"https://foursquare.com/v/green-iguana-bar--grill/4b0586c3f964a5200e6d22e3","categoryId":"4bf58dd8d48988d116941735","category":"Bar","checkinsCount":7269,"usersCount":3362,"tipCount":48,"visitsCount":7356,"url":"http://greeniguana.com","tier":2,"message":"Moderate","currency":"$","rating":7.2},{"name":"Babylon Hookah Lounge","lat":28.032836,"lng":-82.40688,"city_fetched":"Tampa,US","state":"FL","country":"United States","canonicalUrl":"https://foursquare.com/v/babylon-hookah-lounge/4c6b390ca48420a1f0bf090b","categoryId":"4bf58dd8d48988d119941735","category":"Hookah Bar","checkinsCount":913,"usersCount":396,"tipCount":6,"visitsCount":1291,"tier":"","message":"","currency":"","rating":7.2},{"name":"Le Souk Hookah Bar & Lounge","address":"6102 South Macdill Ave Suite B Tampa,Fl 33611","lat":27.87999424608389,"lng":-82.49379014101021,"neighborhood":"Ballast Point","city_fetched":"Tampa,US","state":"FL","country":"United States","canonicalUrl":"https://foursquare.com/v/le-souk-hookah-bar--lounge/5009da96e4b07957c26c02fd","categoryId":"4bf58dd8d48988d119941735","category":"Hookah Bar","checkinsCount":244,"usersCount":90,"tipCount":5,"visitsCount":246,"url":"http://www.lesouktampa.com","tier":"","message":"","currency":"","rating":7.2},{"name":"Oasis Adult Tavern","phone":"7277994702","address":"24652 US Highway 19 N","lat":27.996340215748848,"lng":-82.729964696805,"city_fetched":"Tampa,US","state":"FL","country":"United States","canonicalUrl":"https://foursquare.com/v/oasis-adult-tavern/4c019a06cd189521b65af4b3","categoryId":"4bf58dd8d48988d1d6941735","category":"Strip Club","checkinsCount":483,"usersCount":204,"tipCount":6,"visitsCount":535,"tier":"","message":"","currency":"","rating":7.1},{"name":"Tampa Tap Room","phone":"8139612337","twitter":"tampataproom","address":"13150 N Dale Mabry Hwy","lat":28.0665273645398,"lng":-82.5067663192749,"neighborhood":"Carrollwood Village","city_fetched":"Tampa,US","state":"FL","country":"United States","canonicalUrl":"https://foursquare.com/v/tampa-tap-room/4b0586c2f964a520cf6c22e3","categoryId":"4bf58dd8d48988d116941735","category":"Bar","checkinsCount":2858,"usersCount":998,"tipCount":43,"visitsCount":2952,"tier":2,"message":"Moderate","currency":"$","rating":7.1},{"name":"Torch Tiki Bar","address":"601 S Dale Mabry Hwy","lat":27.939209,"lng":-82.506986,"neighborhood":"Swann Estates","city_fetched":"Tampa,US","state":"FL","country":"United States","canonicalUrl":"https://foursquare.com/v/torch-tiki-bar/4c17dc4f6a21c9b6022ac897","categoryId":"4bf58dd8d48988d116941735","category":"Bar","checkinsCount":211,"usersCount":99,"tipCount":4,"visitsCount":213,"tier":"","message":"","currency":"","rating":7.1},{"name":"Boston's Restaurant & Sports Bar","phone":"8139019590","twitter":"bostonscorp","address":"9316 Anderson Rd","lat":28.03450456,"lng":-82.54211423333334,"neighborhood":"Village of Tampa","city_fetched":"Tampa,US","state":"FL","country":"United States","canonicalUrl":"https://foursquare.com/v/bostons-restaurant--sports-bar/4b09b9eaf964a520771c23e3","categoryId":"4bf58dd8d48988d11d941735","category":"Sports Bar","checkinsCount":4429,"usersCount":2480,"tipCount":56,"visitsCount":5297,"url":"http://www.bostons.com","tier":2,"message":"Moderate","currency":"$","rating":7.1},{"name":"Chase Club","phone":"8138142582","address":"12129 W Linebaugh Ave","lat":28.05669810210151,"lng":-82.62444180663059,"city_fetched":"Tampa,US","state":"FL","country":"United States","canonicalUrl":"https://foursquare.com/v/chase-club/4b99c11bf964a5203c9035e3","categoryId":"4bf58dd8d48988d11b941735","category":"Pub","checkinsCount":899,"usersCount":259,"tipCount":9,"visitsCount":920,"tier":"","message":"","currency":"","rating":7.1},{"name":"2001 Odyssey","phone":"8138776406","twitter":"2001_odyssey","address":"2309 N Dale Mabry Hwy","lat":27.96189358342981,"lng":-82.50549426618801,"city_fetched":"Tampa,US","state":"FL","country":"United States","canonicalUrl":"https://foursquare.com/v/2001-odyssey/4b95046ff964a520b98b34e3","categoryId":"4bf58dd8d48988d1d6941735","category":"Strip Club","checkinsCount":1513,"usersCount":856,"tipCount":5,"visitsCount":1584,"url":"http://www.2001live.com","tier":"","message":"","currency":"","rating":7.1},{"name":"Buckets Tavern & Tap","phone":"8139602222","address":"4535 Gunn Hwy","lat":28.049669331619015,"lng":-82.51875548281228,"city_fetched":"Tampa,US","state":"FL","country":"United States","canonicalUrl":"https://foursquare.com/v/buckets-tavern--tap/50634f6ce4b05c4de7b9360b","categoryId":"4bf58dd8d48988d116941735","category":"Bar","checkinsCount":675,"usersCount":403,"tipCount":14,"visitsCount":1141,"tier":"","message":"","currency":"","rating":7.1},{"name":"Blend Lounge","phone":"8134756908","twitter":"blend_lounge","address":"9526 W Linebaugh Ave","lat":28.043171659632492,"lng":-82.5921770557688,"city_fetched":"Tampa,US","state":"FL","country":"United States","canonicalUrl":"https://foursquare.com/v/blend-lounge/4b871e09f964a5208bb131e3","categoryId":"4bf58dd8d48988d123941735","category":"Wine Bar","checkinsCount":2250,"usersCount":747,"tipCount":15,"visitsCount":2263,"url":"http://blendlounge.com","tier":"","message":"","currency":"","rating":7.1},{"name":"Bud Light Party Deck","address":"401 Channelside Dr","lat":27.94287225428769,"lng":-82.45241403579712,"neighborhood":"Downtown Tampa","city_fetched":"Tampa,US","state":"FL","country":"United States","canonicalUrl":"https://foursquare.com/v/bud-light-party-deck/4ea0c7de8231546b557f196e","categoryId":"4bf58dd8d48988d11d941735","category":"Sports Bar","checkinsCount":1442,"usersCount":579,"tipCount":11,"visitsCount":1447,"tier":"","message":"","currency":"","rating":7.1},{"name":"Skye 1509","phone":"8132476606","address":"1509 E 8th Ave","lat":27.960939296430734,"lng":-82.44243032264447,"neighborhood":"Historic Ybor","city_fetched":"Tampa,US","state":"FL","country":"United States","canonicalUrl":"https://foursquare.com/v/skye-1509/4bf751374a67c928bb8c23cf","categoryId":"4bf58dd8d48988d11f941735","category":"Nightclub","checkinsCount":1315,"usersCount":454,"tipCount":7,"visitsCount":1322,"tier":"","message":"","currency":"","rating":7},{"name":"World of Beer","phone":"3862564992","address":"3510 Nova Road","lat":29.14205618875253,"lng":-81.01372936425378,"neighborhood":"Southwest Tampa","city_fetched":"Tampa,US","state":"FL","country":"United States","canonicalUrl":"https://foursquare.com/v/world-of-beer/4c7a7df3794e224bc0a06828","categoryId":"4bf58dd8d48988d116941735","category":"Bar","checkinsCount":10928,"usersCount":3609,"tipCount":55,"visitsCount":11077,"url":"http://worldofbeer.com/Locations/PortOrange","tier":"","message":"","currency":"","rating":7},{"name":"Shula's Bar &  Grill","address":"Airside C (near Gate 39)","lat":27.98308025915596,"lng":-82.53230476193805,"neighborhood":"Village of Tampa","city_fetched":"Tampa,US","state":"FL","country":"United States","canonicalUrl":"https://foursquare.com/v/shulas-bar---grill/500c9c48e4b08ffd5a7e64a2","categoryId":"4bf58dd8d48988d116941735","category":"Bar","checkinsCount":2101,"usersCount":1595,"tipCount":41,"visitsCount":2105,"url":"http://www.donshula.com","tier":2,"message":"Moderate","currency":"$","rating":7},{"name":"Soho Saloon","phone":"8132513800","address":"410 S Howard Ave","lat":27.94028493106506,"lng":-82.48293006718916,"neighborhood":"Southwest Tampa","city_fetched":"Tampa,US","state":"FL","country":"United States","canonicalUrl":"https://foursquare.com/v/soho-saloon/50d93af1e4b0feaa5d8a94be","categoryId":"4bf58dd8d48988d116941735","category":"Bar","checkinsCount":1199,"usersCount":517,"tipCount":4,"visitsCount":1289,"tier":1,"message":"Cheap","currency":"$","rating":7},{"name":"Edge Social Drinkery","phone":"8139998731","address":"1207 S Howard Ave","lat":27.930291,"lng":-82.483439,"neighborhood":"Southwest Tampa","city_fetched":"Tampa,US","state":"FL","country":"United States","canonicalUrl":"https://foursquare.com/v/edge-social-drinkery/52b63b07498eeda02ff7712d","categoryId":"4bf58dd8d48988d11e941735","category":"Cocktail Bar","checkinsCount":526,"usersCount":435,"tipCount":6,"visitsCount":611,"url":"http://edgesocialdrinkery.com","tier":"","message":"","currency":"","rating":7},{"name":"Hammered Harry's","phone":"8136203800","address":"6807 E Adamo Dr","lat":27.95178350788405,"lng":-82.37947312193647,"city_fetched":"Tampa,US","state":"FL","country":"United States","canonicalUrl":"https://foursquare.com/v/hammered-harrys/4ed987b5b8f7fcd03f41405d","categoryId":"4bf58dd8d48988d116941735","category":"Bar","checkinsCount":242,"usersCount":103,"tipCount":2,"visitsCount":242,"url":"http://www.hammeredharrystampa.com","tier":"","message":"","currency":"","rating":7},{"name":"Yeoman's Road Pub","phone":"8139283510","twitter":"yeomansroadpub","address":"236 E Davis Blvd","lat":27.9266168,"lng":-82.453336,"neighborhood":"Davis Islands","city_fetched":"Tampa,US","state":"FL","country":"United States","canonicalUrl":"https://foursquare.com/v/yeomans-road-pub/4b6cf32bf964a520b65f2ce3","categoryId":"4bf58dd8d48988d11b941735","category":"Pub","checkinsCount":2209,"usersCount":719,"tipCount":17,"visitsCount":2250,"tier":"","message":"","currency":"","rating":6.9},{"name":"Whiskey North","phone":"8139681515","address":"11921 N Dale Mabry Hwy","lat":28.05758437661875,"lng":-82.50302038900055,"neighborhood":"Village of Tampa","city_fetched":"Tampa,US","state":"FL","country":"United States","canonicalUrl":"https://foursquare.com/v/whiskey-north/4b0586c3f964a520186d22e3","categoryId":"4bf58dd8d48988d11f941735","category":"Nightclub","checkinsCount":1259,"usersCount":775,"tipCount":11,"visitsCount":1335,"url":"http://whiskeynorth.com","tier":"","message":"","currency":"","rating":6.9},{"name":"Hush Gentleman's Club","phone":"8138490646","twitter":"hushtampa","address":"3260 W Hillsborough Ave","lat":27.995843946598097,"lng":-82.49658154900999,"neighborhood":"Village of Tampa","city_fetched":"Tampa,US","state":"FL","country":"United States","canonicalUrl":"https://foursquare.com/v/hush-gentlemans-club/4c51e60b9d642d7f527a59de","categoryId":"4bf58dd8d48988d1d6941735","category":"Strip Club","checkinsCount":589,"usersCount":188,"tipCount":3,"visitsCount":622,"url":"http://www.hushtampa.com","tier":"","message":"","currency":"","rating":6.9},{"name":"Bilmar Station","phone":"8134968898","address":"8501 W Hillsborough Ave","lat":27.997828392329716,"lng":-82.57955342531204,"neighborhood":"Village of Tampa","city_fetched":"Tampa,US","state":"FL","country":"United States","canonicalUrl":"https://foursquare.com/v/bilmar-station/4ba542b3f964a5200af338e3","categoryId":"4bf58dd8d48988d11d941735","category":"Sports Bar","checkinsCount":4390,"usersCount":776,"tipCount":20,"visitsCount":4980,"url":"http://bilmarstation.com","tier":2,"message":"Moderate","currency":"$","rating":6.9},{"name":"Kenny's Sports Bar","phone":"8132212337","address":"206 N Morgan St","lat":27.947696983333334,"lng":-82.45479574,"neighborhood":"Downtown Tampa","city_fetched":"Tampa,US","state":"FL","country":"United States","canonicalUrl":"https://foursquare.com/v/kennys-sports-bar/4c1fe31cb4e62d7f9352e093","categoryId":"4bf58dd8d48988d11d941735","category":"Sports Bar","checkinsCount":350,"usersCount":106,"tipCount":3,"visitsCount":352,"tier":"","message":"","currency":"","rating":6.9},{"name":"Shula's No Name Lounge","phone":"8132864366","address":"4860 W Kennedy Blvd","lat":27.944522466875497,"lng":-82.52523452706528,"neighborhood":"Beach Park","city_fetched":"Tampa,US","state":"FL","country":"United States","canonicalUrl":"https://foursquare.com/v/shulas-no-name-lounge/4bc65d68db8fa593b6499c37","categoryId":"4bf58dd8d48988d116941735","category":"Bar","checkinsCount":498,"usersCount":261,"tipCount":4,"visitsCount":499,"url":"http://www.shulas.com","tier":"","message":"","currency":"","rating":6.9},{"name":"Good Time Charlie's Pub","phone":"8138811735","address":"4030 W Waters Ave","lat":28.025242686501787,"lng":-82.51140117645264,"city_fetched":"Tampa,US","state":"FL","country":"United States","canonicalUrl":"https://foursquare.com/v/good-time-charlies-pub/4b74c49ff964a520fff02de3","categoryId":"4bf58dd8d48988d120941735","category":"Karaoke Bar","checkinsCount":1311,"usersCount":473,"tipCount":19,"visitsCount":1543,"tier":"","message":"","currency":"","rating":6.9},{"name":"The Drynk","phone":"8132515552","twitter":"enrique_d","address":"302 S Howard Ave","lat":27.94178471812168,"lng":-82.48270798359616,"neighborhood":"Southwest Tampa","city_fetched":"Tampa,US","state":"FL","country":"United States","canonicalUrl":"https://foursquare.com/v/the-drynk/4bc7fade0050b7132fc2b93b","categoryId":"4bf58dd8d48988d116941735","category":"Bar","checkinsCount":3568,"usersCount":1686,"tipCount":20,"visitsCount":3775,"url":"http://thedrynksoho.com","tier":"","message":"","currency":"","rating":6.9},{"name":"LIT Premium Cigar Lounge","address":"615 Channelside Dr Ste 114B","lat":27.943328901595237,"lng":-82.44769975071007,"neighborhood":"Channel District","city_fetched":"Tampa,US","state":"FL","country":"United States","canonicalUrl":"https://foursquare.com/v/lit-premium-cigar-lounge/4b0586c2f964a520f86c22e3","categoryId":"4bf58dd8d48988d119941735","category":"Hookah Bar","checkinsCount":1998,"usersCount":500,"tipCount":15,"visitsCount":2040,"url":"http://litcigarlounge.com","tier":2,"message":"Moderate","currency":"$","rating":6.9},{"name":"Deja Vu Showgirls Tampa","phone":"8136648784","twitter":"tampadejavu","address":"6805 E Adamo Dr","lat":27.95174653419902,"lng":-82.37967435388845,"city_fetched":"Tampa,US","state":"FL","country":"United States","canonicalUrl":"https://foursquare.com/v/deja-vu-showgirls-tampa/4bc3b8c4b492d13a5035a960","categoryId":"4bf58dd8d48988d1d6941735","category":"Strip Club","checkinsCount":617,"usersCount":397,"tipCount":82,"visitsCount":740,"url":"http://dejavutampa.com","tier":"","message":"","currency":"","rating":6.8},{"name":"Jack Willie's Bar, Grill & Tiki","phone":"8137497932","address":"1013 Saint Petersburg Dr W","lat":28.036266109835523,"lng":-82.6790714263916,"city_fetched":"Tampa,US","state":"FL","country":"United States","canonicalUrl":"https://foursquare.com/v/jack-willies-bar-grill--tiki/4b92f489f964a520322a34e3","categoryId":"4bf58dd8d48988d116941735","category":"Bar","checkinsCount":1258,"usersCount":806,"tipCount":36,"visitsCount":1704,"url":"http://www.jackwilliesbarandgrill.com","tier":"","message":"","currency":"","rating":6.8},{"name":"Beaune's Wine Bar","address":"2009 N 22nd St","lat":27.962303338091058,"lng":-82.43459421762769,"city_fetched":"Tampa,US","state":"FL","country":"United States","canonicalUrl":"https://foursquare.com/v/beaunes-wine-bar/4b0586c2f964a520ee6c22e3","categoryId":"4bf58dd8d48988d123941735","category":"Wine Bar","checkinsCount":215,"usersCount":110,"tipCount":7,"visitsCount":216,"tier":"","message":"","currency":"","rating":6.8},{"name":"Al-Basha Hookah Lounge","twitter":"albasha_hookah","address":"4819 E Busch Blvd # 204-205","lat":28.032540312554744,"lng":-82.40599895292475,"neighborhood":"Temple Crest","city_fetched":"Tampa,US","state":"FL","country":"United States","canonicalUrl":"https://foursquare.com/v/albasha-hookah-lounge/4e9462c4f790d94d0f6de1c0","categoryId":"4bf58dd8d48988d119941735","category":"Hookah Bar","checkinsCount":745,"usersCount":104,"tipCount":13,"visitsCount":753,"tier":"","message":"","currency":"","rating":6.8},{"name":"City Side Lounge","phone":"8133500600","twitter":"citysidelounge","address":"3703 Henderson Blvd","lat":27.935451589618282,"lng":-82.50462207602763,"neighborhood":"Southwest Tampa","city_fetched":"Tampa,US","state":"FL","country":"United States","canonicalUrl":"https://foursquare.com/v/city-side-lounge/4b0dd7b4f964a5202a5123e3","categoryId":"4bf58dd8d48988d1d8941735","category":"Gay Bar","checkinsCount":5016,"usersCount":1186,"tipCount":28,"visitsCount":5392,"url":"http://www.clubcityside.com","tier":1,"message":"Cheap","currency":"$","rating":6.8},{"name":"Habibi Cafe and Hookah Bar","phone":"8132480911","address":"1632 E 7th Ave","lat":27.960400211617348,"lng":-82.44049386589961,"neighborhood":"Historic Ybor","city_fetched":"Tampa,US","state":"FL","country":"United States","canonicalUrl":"https://foursquare.com/v/habibi-cafe-and-hookah-bar/4b6e376bf964a52042b22ce3","categoryId":"4bf58dd8d48988d119941735","category":"Hookah Bar","checkinsCount":840,"usersCount":616,"tipCount":16,"visitsCount":840,"tier":"","message":"","currency":"","rating":6.7},{"name":"The SoHo Tavern","phone":"8132535900","twitter":"sohotavern","address":"2221 W Platt St","lat":27.942074525182406,"lng":-82.4828824779079,"neighborhood":"Southwest Tampa","city_fetched":"Tampa,US","state":"FL","country":"United States","canonicalUrl":"https://foursquare.com/v/the-soho-tavern/4b3ed946f964a5209ea225e3","categoryId":"4bf58dd8d48988d116941735","category":"Bar","checkinsCount":4923,"usersCount":1653,"tipCount":27,"visitsCount":4978,"url":"http://sohotavern.com","tier":1,"message":"Cheap","currency":"$","rating":6.7},{"name":"Center Bar","phone":"8136277625","address":"5223 Orient Rd","lat":27.9934301668878,"lng":-82.37217012730967,"neighborhood":"Village of Tampa","city_fetched":"Tampa,US","state":"FL","country":"United States","canonicalUrl":"https://foursquare.com/v/center-bar/4c1c1c05b306c928d26663b7","categoryId":"4bf58dd8d48988d11e941735","category":"Cocktail Bar","checkinsCount":1356,"usersCount":596,"tipCount":5,"visitsCount":1357,"url":"https://seminolehardrocktampa.com","tier":"","message":"","currency":"","rating":6.7},{"name":"Tiny Tap Tavern","address":"2104 W Morrison Ave","lat":27.933896,"lng":-82.48225186666667,"neighborhood":"Village of Tampa","city_fetched":"Tampa,US","state":"FL","country":"United States","canonicalUrl":"https://foursquare.com/v/tiny-tap-tavern/4b1b3230f964a52075f923e3","categoryId":"4bf58dd8d48988d118941735","category":"Dive Bar","checkinsCount":1709,"usersCount":620,"tipCount":11,"visitsCount":1816,"tier":"","message":"","currency":"","rating":6.7},{"name":"First Chance Last Chance (Formerly Lower Red)","twitter":"fclc_bar","address":"1707 N 16th St","lat":27.95990549,"lng":-82.44159077,"neighborhood":"Historic Ybor","city_fetched":"Tampa,US","state":"FL","country":"United States","canonicalUrl":"https://foursquare.com/v/first-chance-last-chance-formerly-lower-red/4de1dd91b0fb26714878cc39","categoryId":"4bf58dd8d48988d116941735","category":"Bar","checkinsCount":1987,"usersCount":587,"tipCount":15,"visitsCount":2070,"tier":2,"message":"Moderate","currency":"$","rating":6.7},{"name":"Champions Sports Bar","phone":"8132214900","twitter":"marriottintl","address":"700 S Florida Ave","lat":27.941126894693557,"lng":-82.45401089767874,"neighborhood":"Downtown Tampa","city_fetched":"Tampa,US","state":"FL","country":"United States","canonicalUrl":"https://foursquare.com/v/champions-sports-bar/4b7596d3f964a52072162ee3","categoryId":"4bf58dd8d48988d11d941735","category":"Sports Bar","checkinsCount":2731,"usersCount":1840,"tipCount":14,"visitsCount":2753,"tier":2,"message":"Moderate","currency":"$","rating":6.7},{"name":"Tampa Karaoke","lat":28.06936157802634,"lng":-82.44976297181887,"neighborhood":"Village of Tampa","city_fetched":"Tampa,US","state":"FL","country":"United States","canonicalUrl":"https://foursquare.com/v/tampa-karaoke/53a5108d498ea7107da2612b","categoryId":"4bf58dd8d48988d120941735","category":"Karaoke Bar","checkinsCount":137,"usersCount":141,"tipCount":2,"visitsCount":233,"tier":"","message":"","currency":"","rating":6.7},{"name":"Double Decker - Upstairs Bar","address":"1721 E 7th Ave","lat":27.96018,"lng":-82.43986,"neighborhood":"Historic Ybor","city_fetched":"Tampa,US","state":"FL","country":"United States","canonicalUrl":"https://foursquare.com/v/double-decker--upstairs-bar/4d4ca95d86a4b1f707b33ced","categoryId":"4bf58dd8d48988d116941735","category":"Bar","checkinsCount":796,"usersCount":297,"tipCount":4,"visitsCount":799,"tier":"","message":"","currency":"","rating":6.7},{"name":"Coyote Ugly Saloon - Tampa","phone":"8132428856","twitter":"coyoteuglytampa","address":"1722 E 7th Ave","lat":27.960379,"lng":-82.43979,"neighborhood":"Historic Ybor","city_fetched":"Tampa,US","state":"FL","country":"United States","canonicalUrl":"https://foursquare.com/v/coyote-ugly-saloon--tampa/4b401e4ff964a520d0b525e3","categoryId":"4bf58dd8d48988d122941735","category":"Whisky Bar","checkinsCount":4319,"usersCount":2580,"tipCount":19,"visitsCount":4357,"url":"http://www.coyoteuglysaloon.com","tier":2,"message":"Moderate","currency":"$","rating":6.7},{"name":"Pyrate's Pub","lat":28.051100731956744,"lng":-82.40910091472539,"city_fetched":"Tampa,US","state":"FL","country":"United States","canonicalUrl":"https://foursquare.com/v/pyrates-pub/4f527045e4b0754d579a6b14","categoryId":"4bf58dd8d48988d11b941735","category":"Pub","checkinsCount":134,"usersCount":61,"tipCount":3,"visitsCount":138,"tier":"","message":"","currency":"","rating":6.7},{"name":"Show-Me's","address":"12836 Henderson Rd","lat":28.06302212803999,"lng":-82.5499930169969,"neighborhood":"Citrus Park Community","city_fetched":"Tampa,US","state":"FL","country":"United States","canonicalUrl":"https://foursquare.com/v/showmes/53e54a9b498eac5a9f82a3e0","categoryId":"4bf58dd8d48988d11d941735","category":"Sports Bar","checkinsCount":469,"usersCount":152,"tipCount":2,"visitsCount":667,"tier":"","message":"","currency":"","rating":6.6},{"name":"Skin Tampa","phone":"8132429600","address":"1620 E Adamo Dr","lat":27.956223836289343,"lng":-82.44074253960126,"neighborhood":"Historic Ybor","city_fetched":"Tampa,US","state":"FL","country":"United States","canonicalUrl":"https://foursquare.com/v/skin-tampa/4ba474e2f964a520569e38e3","categoryId":"4bf58dd8d48988d1d6941735","category":"Strip Club","checkinsCount":719,"usersCount":343,"tipCount":3,"visitsCount":851,"url":"http://www.skintampa.com","tier":"","message":"","currency":"","rating":6.6},{"name":"The Brass Mug","phone":"8139728152","address":"1450 Skipper Rd","lat":28.080999,"lng":-82.443639,"neighborhood":"Village of Tampa","city_fetched":"Tampa,US","state":"FL","country":"United States","canonicalUrl":"https://foursquare.com/v/the-brass-mug/52212c05498e862776c30f1a","categoryId":"4bf58dd8d48988d116941735","category":"Bar","checkinsCount":201,"usersCount":159,"tipCount":5,"visitsCount":271,"tier":"","message":"","currency":"","rating":6.6},{"name":"Tapper","phone":"8138397845","address":"3832 Britton Plz","lat":27.907623480476783,"lng":-82.50290937961022,"neighborhood":"Southwest Tampa","city_fetched":"Tampa,US","state":"FL","country":"United States","canonicalUrl":"https://foursquare.com/v/tapper/4b63a0aef964a52026882ae3","categoryId":"4bf58dd8d48988d116941735","category":"Bar","checkinsCount":1277,"usersCount":429,"tipCount":14,"visitsCount":1422,"tier":"","message":"","currency":"","rating":6.6},{"name":"Bobalouie's Grill & Sports Garden","phone":"8139711243","twitter":"bobalouies101","address":"1913 E Bearss Ave","lat":28.08031734716205,"lng":-82.43644617919722,"city_fetched":"Tampa,US","state":"FL","country":"United States","canonicalUrl":"https://foursquare.com/bobalouies101","categoryId":"4bf58dd8d48988d116941735","category":"Bar","checkinsCount":3021,"usersCount":692,"tipCount":18,"visitsCount":3149,"url":"http://www.bobalouies.com","tier":"","message":"","currency":"","rating":6.5},{"name":"Twisted Olive","phone":"8139266746","twitter":"twistedolivebar","address":"9882 W Linebaugh Ave","lat":28.044141231913795,"lng":-82.59669598800987,"city_fetched":"Tampa,US","state":"FL","country":"United States","canonicalUrl":"https://foursquare.com/twistedolivebar","categoryId":"4bf58dd8d48988d116941735","category":"Bar","checkinsCount":1092,"usersCount":355,"tipCount":11,"visitsCount":1098,"url":"http://www.twistedolivewestchase.com","tier":"","message":"","currency":"","rating":6.5},{"name":"Graffiti Junktion","phone":"8138379130","address":"3114 W Bay to Bay Blvd","lat":27.919696,"lng":-82.494749,"neighborhood":"Palma Ceia","city_fetched":"Tampa,US","state":"FL","country":"United States","canonicalUrl":"https://foursquare.com/v/graffiti-junktion/54cc183d498e66d2da9f47c6","categoryId":"4bf58dd8d48988d11d941735","category":"Sports Bar","checkinsCount":239,"usersCount":268,"tipCount":2,"visitsCount":492,"tier":"","message":"","currency":"","rating":6.5},{"name":"The Golf Club","lat":28.06905094936557,"lng":-82.63444062622204,"city_fetched":"Tampa,US","state":"FL","country":"United States","canonicalUrl":"https://foursquare.com/v/the-golf-club/505ba603e4b0ad0a3d6dc351","categoryId":"4bf58dd8d48988d116941735","category":"Bar","checkinsCount":393,"usersCount":188,"tipCount":6,"visitsCount":402,"tier":"","message":"","currency":"","rating":6.5},{"name":"Tampa Beer Works","phone":"8139900700","twitter":"esbbrewery","address":"333 N Falkenburg Rd Ste D407","lat":27.95515130037386,"lng":-82.33280341701315,"neighborhood":"Bloomingdale Ridge","city_fetched":"Tampa,US","state":"FL","country":"United States","canonicalUrl":"https://foursquare.com/v/tampa-beer-works/52866cef498e2f0fd0dfe30a","categoryId":"50327c8591d4c4b30a586d5d","category":"Brewery","checkinsCount":205,"usersCount":207,"tipCount":4,"visitsCount":353,"url":"http://esbbrewing.com","tier":"","message":"","currency":"","rating":6.5},{"name":"Amphitheatre","phone":"8138738368","address":"1609 E 7th Ave","lat":27.960220188946337,"lng":-82.44140390148875,"neighborhood":"Historic Ybor","city_fetched":"Tampa,US","state":"FL","country":"United States","canonicalUrl":"https://foursquare.com/v/amphitheatre/4d57284fc6edf04d0ae8d9a2","categoryId":"4bf58dd8d48988d11f941735","category":"Nightclub","checkinsCount":2884,"usersCount":1201,"tipCount":17,"visitsCount":2938,"tier":"","message":"","currency":"","rating":6.5},{"name":"1823 Kitchen & Bar","address":"2900 Bayport Dr, Tampa, FL 33607","lat":27.965645147875946,"lng":-82.55007753775077,"neighborhood":"Village of Tampa","city_fetched":"Tampa,US","state":"FL","country":"United States","canonicalUrl":"https://foursquare.com/v/1823-kitchen--bar/4f5acb46e4b07feffff48d1a","categoryId":"4bf58dd8d48988d116941735","category":"Bar","checkinsCount":442,"usersCount":291,"tipCount":5,"visitsCount":442,"tier":"","message":"","currency":"","rating":6.4},{"name":"Pix Liquors And Lounge","phone":"8139321395","address":"10005 N Florida Ave","lat":28.040801189389857,"lng":-82.45892504722887,"neighborhood":"Village of Tampa","city_fetched":"Tampa,US","state":"FL","country":"United States","canonicalUrl":"https://foursquare.com/v/pix-liquors-and-lounge/4ecc459c490144fb1eddf002","categoryId":"4bf58dd8d48988d116941735","category":"Bar","checkinsCount":382,"usersCount":126,"tipCount":7,"visitsCount":387,"tier":"","message":"","currency":"","rating":6.4},{"name":"Club Underground","address":"802-806 E Whiting St","lat":27.9472466410671,"lng":-82.45245035743004,"neighborhood":"Downtown Tampa","city_fetched":"Tampa,US","state":"FL","country":"United States","canonicalUrl":"https://foursquare.com/v/club-underground/4b0586c2f964a520de6c22e3","categoryId":"4bf58dd8d48988d11e941735","category":"Cocktail Bar","checkinsCount":240,"usersCount":126,"tipCount":4,"visitsCount":243,"tier":"","message":"","currency":"","rating":6.4},{"name":"Czar","phone":"8132472664","twitter":"czarnation","address":"1503 E 7th Ave","lat":27.96013235015161,"lng":-82.44275835094344,"neighborhood":"Historic Ybor","city_fetched":"Tampa,US","state":"FL","country":"United States","canonicalUrl":"https://foursquare.com/v/czar/4b0586c2f964a520e56c22e3","categoryId":"4bf58dd8d48988d11e941735","category":"Cocktail Bar","checkinsCount":8759,"usersCount":2469,"tipCount":40,"visitsCount":8812,"url":"http://www.czarnation.com","tier":2,"message":"Moderate","currency":"$","rating":6.4},{"name":"Vegas Showgirls","phone":"7275769100","address":"10570 Gandy Blvd N","lat":27.86652778864032,"lng":-82.6263044946608,"city_fetched":"Tampa,US","state":"FL","country":"United States","canonicalUrl":"https://foursquare.com/v/vegas-showgirls/4e1ce23745ddc696bb3528f7","categoryId":"4bf58dd8d48988d1d6941735","category":"Strip Club","checkinsCount":495,"usersCount":194,"tipCount":1,"visitsCount":504,"url":"http://www.vegasshowgirlsongandy.com","tier":"","message":"","currency":"","rating":6.3},{"name":"Pegasus lounge","phone":"8139711679","address":"10008 N 30th St","lat":28.040376009965314,"lng":-82.42667255552496,"neighborhood":"University Square","city_fetched":"Tampa,US","state":"FL","country":"United States","canonicalUrl":"https://foursquare.com/v/pegasus-lounge/4b7217ddf964a520526e2de3","categoryId":"4bf58dd8d48988d118941735","category":"Dive Bar","checkinsCount":2454,"usersCount":615,"tipCount":19,"visitsCount":2678,"tier":1,"message":"Cheap","currency":"$","rating":6.3},{"name":"Florida Avenue Brewing Company","phone":"8133742101","address":"4101 N Florida Ave","lat":27.982638501558153,"lng":-82.45903612731017,"neighborhood":"Old Seminole Heights","city_fetched":"Tampa,US","state":"FL","country":"United States","canonicalUrl":"https://foursquare.com/v/florida-avenue-brewing-company/4db31b5881543d71da2936ff","categoryId":"50327c8591d4c4b30a586d5d","category":"Brewery","checkinsCount":992,"usersCount":562,"tipCount":11,"visitsCount":1154,"url":"http://www.floridaavenuebrewing.com","tier":1,"message":"Cheap","currency":"$","rating":6.3},{"name":"Baxter's Lounge","phone":"8132588830","address":"1519 S Dale Mabry Hwy","lat":27.929491834808704,"lng":-82.5061761526283,"neighborhood":"Palma Ceia West","city_fetched":"Tampa,US","state":"FL","country":"United States","canonicalUrl":"https://foursquare.com/v/baxters-lounge/4bb589061344b7133b749c04","categoryId":"4bf58dd8d48988d121941735","category":"Lounge","checkinsCount":370,"usersCount":192,"tipCount":10,"visitsCount":477,"tier":"","message":"","currency":"","rating":6.2},{"name":"Blue","phone":"8138050250","address":"1001 N West Shore Blvd","lat":27.953120605808248,"lng":-82.52366502663271,"city_fetched":"Tampa,US","state":"FL","country":"United States","canonicalUrl":"https://foursquare.com/v/blue/4e4ccd33bd413c4cc66c4606","categoryId":"4bf58dd8d48988d121941735","category":"Lounge","checkinsCount":397,"usersCount":255,"tipCount":2,"visitsCount":400,"tier":"","message":"","currency":"","rating":6.2},{"name":"Angels Nude","address":"14411 US Highway 19 N","lat":27.902977554147046,"lng":-82.72770969085889,"city_fetched":"Tampa,US","state":"FL","country":"United States","canonicalUrl":"https://foursquare.com/v/angels-nude/4c43ba5c429a0f47bfdd471e","categoryId":"4bf58dd8d48988d1d6941735","category":"Strip Club","checkinsCount":291,"usersCount":114,"tipCount":2,"visitsCount":324,"tier":"","message":"","currency":"","rating":6.2},{"name":"Paddywagon Irish Pub","address":"808 N Franklin St","lat":27.951044303274937,"lng":-82.46026857529938,"city_fetched":"Tampa,US","state":"FL","country":"United States","canonicalUrl":"https://foursquare.com/v/paddywagon-irish-pub/518d9b34498e76d63fd18dc5","categoryId":"4bf58dd8d48988d116941735","category":"Bar","checkinsCount":980,"usersCount":543,"tipCount":13,"visitsCount":1069,"tier":"","message":"","currency":"","rating":6.2},{"name":"Centro Cantina","phone":"8132418588","address":"1600 E 8th Ave","lat":27.960471498400114,"lng":-82.44166374206543,"neighborhood":"Historic Ybor","city_fetched":"Tampa,US","state":"FL","country":"United States","canonicalUrl":"https://foursquare.com/v/centro-cantina/4b64e7eff964a520efd82ae3","categoryId":"4bf58dd8d48988d116941735","category":"Bar","checkinsCount":4071,"usersCount":2265,"tipCount":18,"visitsCount":4083,"tier":2,"message":"Moderate","currency":"$","rating":6.2},{"name":"Fountain Square Corner Bar","address":"238 E Davis Blvd","lat":27.926252909086262,"lng":-82.45343958532872,"neighborhood":"Davis Islands","city_fetched":"Tampa,US","state":"FL","country":"United States","canonicalUrl":"https://foursquare.com/v/fountain-square-corner-bar/505e8877e4b0cf96599fd5f5","categoryId":"4bf58dd8d48988d11b941735","category":"Pub","checkinsCount":821,"usersCount":389,"tipCount":5,"visitsCount":857,"tier":2,"message":"Moderate","currency":"$","rating":6.2},{"name":"PJ's Sports Bar & Grill","phone":"8139335414","address":"8603 N Dale Mabry Hwy","lat":28.02958517144142,"lng":-82.50457450170157,"neighborhood":"Village of Tampa","city_fetched":"Tampa,US","state":"FL","country":"United States","canonicalUrl":"https://foursquare.com/v/pjs-sports-bar--grill/4cc381b782388cfa1fa86835","categoryId":"4bf58dd8d48988d11d941735","category":"Sports Bar","checkinsCount":888,"usersCount":233,"tipCount":5,"visitsCount":915,"tier":"","message":"","currency":"","rating":6.1},{"name":"24KT GENTS CLUB","phone":"7275382458","address":"16717 US Highway 19 N","lat":27.924385689357972,"lng":-82.72988039887029,"city_fetched":"Tampa,US","state":"FL","country":"United States","canonicalUrl":"https://foursquare.com/v/24kt-gents-club/4c01e72bf99620a116612504","categoryId":"4bf58dd8d48988d1d6941735","category":"Strip Club","checkinsCount":336,"usersCount":124,"tipCount":4,"visitsCount":368,"tier":"","message":"","currency":"","rating":6.1},{"name":"The Outpost","phone":"8134253647","address":"909 W Kennedy Blvd","lat":27.944997,"lng":-82.469233,"neighborhood":"Village of Tampa","city_fetched":"Tampa,US","state":"FL","country":"United States","canonicalUrl":"https://foursquare.com/v/the-outpost/51f32020498e5186b0063d8c","categoryId":"4bf58dd8d48988d116941735","category":"Bar","checkinsCount":771,"usersCount":491,"tipCount":19,"visitsCount":936,"url":"http://www.outposttampa.com","tier":2,"message":"Moderate","currency":"$","rating":6.1},{"name":"The Kahwa","address":"4941 E Busch Blvd #320","lat":28.032325,"lng":-82.40243,"neighborhood":"Temple Crest","city_fetched":"Tampa,US","state":"Florida","country":"United States","canonicalUrl":"https://foursquare.com/v/the-kahwa/4d0d8a6e257d6dcbdf209d67","categoryId":"4bf58dd8d48988d119941735","category":"Hookah Bar","checkinsCount":792,"usersCount":380,"tipCount":6,"visitsCount":1282,"tier":"","message":"","currency":"","rating":6},{"name":"Cj's tavern","phone":"8139315897","address":"1318 W Linebaugh Ave","lat":28.039890614736056,"lng":-82.47232742315423,"neighborhood":"Forest Hills","city_fetched":"Tampa,US","state":"FL","country":"United States","canonicalUrl":"https://foursquare.com/v/cjs-tavern/4c243bc7b7b8a593ae403ce8","categoryId":"4bf58dd8d48988d118941735","category":"Dive Bar","checkinsCount":279,"usersCount":101,"tipCount":5,"visitsCount":358,"tier":1,"message":"Cheap","currency":"$","rating":5.9},{"name":"Cornerstone Pub","phone":"8132699688","twitter":"tampapub","address":"3895 Northdale Blvd","lat":28.094205730622054,"lng":-82.50646591186523,"city_fetched":"Tampa,US","state":"FL","country":"United States","canonicalUrl":"https://foursquare.com/v/cornerstone-pub/4c2ea9c416adc928e060bc9c","categoryId":"4bf58dd8d48988d116941735","category":"Bar","checkinsCount":982,"usersCount":297,"tipCount":8,"visitsCount":1169,"url":"http://cornerstonepub-hub.com","tier":1,"message":"Cheap","currency":"$","rating":5.9},{"name":"Paddywagon Irish Pub -Tampa St.","phone":"8132264235","twitter":"paddywagontampa","address":"813 N Tampa St","lat":27.95097388785709,"lng":-82.46016278663335,"city_fetched":"Tampa,US","state":"FL","country":"United States","canonicalUrl":"https://foursquare.com/v/paddywagon-irish-pub-tampa-st/518efd0e498e856a60603fdb","categoryId":"4bf58dd8d48988d11f941735","category":"Nightclub","checkinsCount":135,"usersCount":80,"tipCount":5,"visitsCount":135,"url":"http://paddywagontampa.com","tier":"","message":"","currency":"","rating":5.9},{"name":"Personalitys","phone":"7277976111","address":"20866 US Highway 19 N","lat":27.969011097052864,"lng":-82.73096045820607,"city_fetched":"Tampa,US","state":"FL","country":"United States","canonicalUrl":"https://foursquare.com/v/personalitys/4c7f225dfb13a1cd2ef59fa4","categoryId":"4bf58dd8d48988d1d6941735","category":"Strip Club","checkinsCount":501,"usersCount":156,"tipCount":7,"visitsCount":510,"url":"http://www.personalitys.com","tier":"","message":"","currency":"","rating":5.9},{"name":"Green Parrot Pub","phone":"8139622954","address":"11759 N Dale Mabry Hwy","lat":28.05548448777272,"lng":-82.50278251151671,"neighborhood":"Village of Tampa","city_fetched":"Tampa,US","state":"FL","country":"United States","canonicalUrl":"https://foursquare.com/v/green-parrot-pub/4b7f58f6f964a5200a2930e3","categoryId":"4bf58dd8d48988d11b941735","category":"Pub","checkinsCount":966,"usersCount":431,"tipCount":18,"visitsCount":1028,"tier":"","message":"","currency":"","rating":5.8},{"name":"Elmers Sports Cafe","address":"2003 E 7th Ave","lat":27.960114442307745,"lng":-82.43642501420145,"neighborhood":"Historic Ybor","city_fetched":"Tampa,US","state":"FL","country":"United States","canonicalUrl":"https://foursquare.com/v/elmers-sports-cafe/4b802575f964a520765630e3","categoryId":"4bf58dd8d48988d118941735","category":"Dive Bar","checkinsCount":1083,"usersCount":410,"tipCount":8,"visitsCount":1091,"tier":"","message":"","currency":"","rating":5.7},{"name":"Glo Ultralounge","phone":"8139657796","twitter":"honeyholeent","address":"8831 W Hillsborough Ave","lat":27.997495623216786,"lng":-82.58508658754405,"neighborhood":"Village of Tampa","city_fetched":"Tampa,US","state":"FL","country":"United States","canonicalUrl":"https://foursquare.com/v/glo-ultralounge/4d297997915fa093dbe0060a","categoryId":"4bf58dd8d48988d1d4941735","category":"Speakeasy","checkinsCount":86,"usersCount":60,"tipCount":5,"visitsCount":96,"tier":"","message":"","currency":"","rating":5.7},{"name":"Flight Restaurant & Lounge","twitter":"flightgourmet","address":"15463 N Dale Mabry Hwy","lat":28.093221,"lng":-82.5005,"neighborhood":"Village of Tampa","city_fetched":"Tampa,US","state":"FL","country":"United States","canonicalUrl":"https://foursquare.com/v/flight-restaurant--lounge/51aeb2b4c64082261b18f71f","categoryId":"4bf58dd8d48988d121941735","category":"Lounge","checkinsCount":135,"usersCount":93,"tipCount":5,"visitsCount":138,"url":"http://www.flightrestaurantandlounge.com","tier":"","message":"","currency":"","rating":5.7},{"name":"Tabu Ultra Lounge","address":"1611 E 7th Ave","lat":27.960294226656476,"lng":-82.44110761214321,"neighborhood":"Historic Ybor","city_fetched":"Tampa,US","state":"FL","country":"United States","canonicalUrl":"https://foursquare.com/v/tabu-ultra-lounge/4c7fe4e5d8086dcb20de5e52","categoryId":"4bf58dd8d48988d116941735","category":"Bar","checkinsCount":1321,"usersCount":614,"tipCount":9,"visitsCount":1321,"tier":"","message":"","currency":"","rating":5.6}]