[{"name":"Taos Mesa Brewing","phone":"5757581900","address":"20 ABC Mesa Rd","lat":36.465447275532995,"lng":-105.66116555784423,"city_fetched":"Taos,US","state":"NM","country":"United States","canonicalUrl":"https://foursquare.com/v/taos-mesa-brewing/50427b61e4b0d3bcede751c8","categoryId":"50327c8591d4c4b30a586d5d","category":"Brewery","checkinsCount":622,"usersCount":653,"tipCount":13,"visitsCount":872,"url":"http://www.taosmesabrewing.com","tier":"","message":"","currency":"","rating":9},{"name":"Historic Taos Inn","address":"125 Paseo del Pueblo Norte","lat":36.408036539666355,"lng":-105.57254398348078,"city_fetched":"Taos,US","state":"NM","country":"United States","canonicalUrl":"https://foursquare.com/v/historic-taos-inn/4bc45bebdce4eee10d1d729d","categoryId":"4bf58dd8d48988d1d5941735","category":"Hotel Bar","checkinsCount":641,"usersCount":444,"tipCount":11,"visitsCount":656,"url":"http://taosinn.com","tier":"","message":"","currency":"","rating":7.8},{"name":"Taos Ale House","phone":"5757585522","address":"401 Paseo del Pueblo Norte","lat":36.412157071415514,"lng":-105.56872522648804,"city_fetched":"Taos,US","state":"NM","country":"United States","canonicalUrl":"https://foursquare.com/v/taos-ale-house/4e582628d16491e0ae541196","categoryId":"50327c8591d4c4b30a586d5d","category":"Brewery","checkinsCount":364,"usersCount":298,"tipCount":10,"visitsCount":520,"url":"http://taosalehouse.com","tier":"","message":"","currency":"","rating":7.4},{"name":"Eske's Brewpub","phone":"5757581517","address":"106 Des Georges Ln","lat":36.40603051629864,"lng":-105.57326537709487,"city_fetched":"Taos,US","state":"NM","country":"United States","canonicalUrl":"https://foursquare.com/v/eskes-brewpub/4b639adef964a5206c862ae3","categoryId":"50327c8591d4c4b30a586d5d","category":"Brewery","checkinsCount":599,"usersCount":481,"tipCount":18,"visitsCount":630,"url":"http://www.eskesbrewpub.com","tier":2,"message":"Moderate","currency":"$","rating":7.3},{"name":"Adobe Bar","phone":"5757582233","address":"125 Paseo del Pueblo Norte","lat":36.408060576102855,"lng":-105.57258978616271,"city_fetched":"Taos,US","state":"NM","country":"United States","canonicalUrl":"https://foursquare.com/v/adobe-bar/4b92fffef964a520ba2d34e3","categoryId":"4bf58dd8d48988d116941735","category":"Bar","checkinsCount":554,"usersCount":318,"tipCount":11,"visitsCount":569,"tier":"","message":"","currency":"","rating":6.7},{"name":"Graham's Grille by Lesley B Fay","phone":"5757511350","address":"106 Paseo del Pueblo Norte","lat":36.40755929780717,"lng":-105.57355164521515,"city_fetched":"Taos,US","state":"NM","country":"United States","canonicalUrl":"https://foursquare.com/v/grahams-grille-by-lesley-b-fay/4b760c8ef964a5201f392ee3","categoryId":"4bf58dd8d48988d116941735","category":"Bar","checkinsCount":509,"usersCount":419,"tipCount":23,"visitsCount":510,"url":"http://www.grahamstaos.com","tier":"","message":"","currency":"","rating":6.7},{"name":"Anaconda Bar","phone":"5757379858","address":"317 Kit Carson Rd","lat":36.40215839210206,"lng":-105.5682385842048,"city_fetched":"Taos,US","state":"NM","country":"United States","canonicalUrl":"https://foursquare.com/v/anaconda-bar/4b9b3556f964a520dcf935e3","categoryId":"4bf58dd8d48988d116941735","category":"Bar","checkinsCount":117,"usersCount":89,"tipCount":7,"visitsCount":118,"tier":"","message":"","currency":"","rating":5.9}]