[{"name":"Charlie's","phone":"8122321886","address":"1600-1698 Crawford St","lat":39.459437784477196,"lng":-87.39161337141589,"city_fetched":"Terre Haute,US","state":"IN","country":"United States","canonicalUrl":"https://foursquare.com/v/charlies/4bb9ef15b35776b0f34cca01","categoryId":"4bf58dd8d48988d116941735","category":"Bar","checkinsCount":1466,"usersCount":529,"tipCount":18,"visitsCount":1858,"url":"http://www.thecharliespubandgrub.com","tier":2,"message":"Moderate","currency":"$","rating":8.8},{"name":"Sonka Irish Pub","phone":"8122348802","twitter":"sonkairishpub","address":"1366 Wabash Ave","lat":39.468255,"lng":-87.39542132,"city_fetched":"Terre Haute,US","state":"IN","country":"United States","canonicalUrl":"https://foursquare.com/v/sonka-irish-pub/4ba13986f964a520bca337e3","categoryId":"4bf58dd8d48988d11b941735","category":"Pub","checkinsCount":2329,"usersCount":754,"tipCount":32,"visitsCount":3032,"url":"http://www.sonkairishpub.com","tier":1,"message":"Cheap","currency":"$","rating":8.1},{"name":"Mogger's","phone":"8122326677","address":"908 Poplar St","lat":39.463102568455696,"lng":-87.40405264682717,"neighborhood":"Downtown Terre Haute","city_fetched":"Terre Haute,US","state":"IN","country":"United States","canonicalUrl":"https://foursquare.com/v/moggers/4b9edba4f964a520ab0637e3","categoryId":"4bf58dd8d48988d11b941735","category":"Pub","checkinsCount":1411,"usersCount":987,"tipCount":38,"visitsCount":1812,"url":"http://moggers-restaurant.com","tier":"","message":"","currency":"","rating":7.8},{"name":"7th and Elm Bar","phone":"8122347356","address":"800-898 N 7th St","lat":39.47628679950434,"lng":-87.40684032440186,"city_fetched":"Terre Haute,US","state":"IN","country":"United States","canonicalUrl":"https://foursquare.com/v/7th-and-elm-bar/4b7ca399f964a520fa9e2fe3","categoryId":"4bf58dd8d48988d116941735","category":"Bar","checkinsCount":1650,"usersCount":725,"tipCount":20,"visitsCount":1926,"url":"http://7thandelm.com","tier":2,"message":"Moderate","currency":"$","rating":7.6},{"name":"The Copper Bar","phone":"8122380033","address":"810 Wabash Ave","lat":39.466643833333336,"lng":-87.405396,"neighborhood":"Downtown Terre Haute","city_fetched":"Terre Haute,US","state":"IN","country":"United States","canonicalUrl":"https://foursquare.com/v/the-copper-bar/4b0df4c9f964a5201e5323e3","categoryId":"4bf58dd8d48988d116941735","category":"Bar","checkinsCount":2151,"usersCount":814,"tipCount":11,"visitsCount":2349,"url":"http://thecopperbar.com","tier":2,"message":"Moderate","currency":"$","rating":7.3},{"name":"Teepee Tavern","lat":39.44848720482702,"lng":-87.37904962230049,"city_fetched":"Terre Haute,US","state":"IN","country":"United States","canonicalUrl":"https://foursquare.com/v/teepee-tavern/4fcd93d1e4b0aabd9658e889","categoryId":"4bf58dd8d48988d116941735","category":"Bar","checkinsCount":212,"usersCount":81,"tipCount":1,"visitsCount":262,"tier":"","message":"","currency":"","rating":7.3},{"name":"Ballyhoo Tavern","phone":"8122321540","address":"900 Chestnut St","lat":39.470729719664334,"lng":-87.40421175956726,"neighborhood":"Indiana State University","city_fetched":"Terre Haute,US","state":"IN","country":"United States","canonicalUrl":"https://foursquare.com/v/ballyhoo-tavern/4bdb524e63c5c9b6915e2768","categoryId":"4bf58dd8d48988d116941735","category":"Bar","checkinsCount":1695,"usersCount":599,"tipCount":12,"visitsCount":1911,"url":"http://ballyhoo.ws","tier":2,"message":"Moderate","currency":"$","rating":7.2},{"name":"Apple Club","lat":39.42886910642307,"lng":-87.41371403969696,"city_fetched":"Terre Haute,US","state":"IN","country":"United States","canonicalUrl":"https://foursquare.com/v/apple-club/4d9fb5bec22f6ea8504e26a8","categoryId":"4bf58dd8d48988d121941735","category":"Lounge","checkinsCount":175,"usersCount":88,"tipCount":3,"visitsCount":180,"tier":"","message":"","currency":"","rating":6.3},{"name":"Zim Marss","phone":"8122323026","address":"1500 Locust St","lat":39.47747357373398,"lng":-87.3926694827317,"city_fetched":"Terre Haute,US","state":"IN","country":"United States","canonicalUrl":"https://foursquare.com/v/zim-marss/4c392e72dfb0e21eaf19b0a8","categoryId":"4bf58dd8d48988d1d8941735","category":"Gay Bar","checkinsCount":642,"usersCount":124,"tipCount":8,"visitsCount":684,"tier":"","message":"","currency":"","rating":6.2},{"name":"Ambrosinis","phone":"8122351445","address":"1367 Wabash Ave","lat":39.46802495,"lng":-87.39550625,"neighborhood":"Ohio Street - Davis Park","city_fetched":"Terre Haute,US","state":"IN","country":"United States","canonicalUrl":"https://foursquare.com/v/ambrosinis/4c5cca0f94fd0f4760d8c945","categoryId":"4bf58dd8d48988d116941735","category":"Bar","checkinsCount":311,"usersCount":168,"tipCount":1,"visitsCount":319,"url":"http://www.ambrosinis.com","tier":"","message":"","currency":"","rating":5.9},{"name":"The Verve","phone":"8122349536","address":"677 Wabash Avenue","lat":39.46643363333333,"lng":-87.407288,"neighborhood":"Downtown Terre Haute","city_fetched":"Terre Haute,US","state":"IN","country":"United States","canonicalUrl":"https://foursquare.com/v/the-verve/4b0e21cff964a520355523e3","categoryId":"4bf58dd8d48988d116941735","category":"Bar","checkinsCount":645,"usersCount":300,"tipCount":6,"visitsCount":688,"url":"http://www.theverve.biz","tier":"","message":"","currency":"","rating":5.8},{"name":"Big Shooters Bar & Grill","phone":"8124666266","address":"2938 N 16th St","lat":39.50183885,"lng":-87.3910696,"city_fetched":"Terre Haute,US","state":"IN","country":"United States","canonicalUrl":"https://foursquare.com/v/big-shooters-bar--grill/4df291c3d1649c8a28e00536","categoryId":"4bf58dd8d48988d116941735","category":"Bar","checkinsCount":224,"usersCount":42,"tipCount":1,"visitsCount":235,"tier":"","message":"","currency":"","rating":5.6}]