[{"name":"Pecan Point Brewing co","phone":"9033060661","address":"213 Main St","lat":33.42144126759676,"lng":-94.04448583432305,"city_fetched":"Texarkana,US","state":"TX","country":"United States","canonicalUrl":"https://foursquare.com/v/pecan-point-brewing-co/5457ad50498e9c0e13caacb7","categoryId":"50327c8591d4c4b30a586d5d","category":"Brewery","checkinsCount":57,"usersCount":113,"tipCount":4,"visitsCount":147,"tier":"","message":"","currency":"","rating":8.4},{"name":"Fat Jack's Oyster And Sports Bar","address":"3324 N State Line Ave","lat":33.45509919012154,"lng":-94.04278486714912,"city_fetched":"Texarkana,US","state":"AR","country":"United States","canonicalUrl":"https://foursquare.com/v/fat-jacks-oyster-and-sports-bar/4c40ff45d7fad13a1eed06da","categoryId":"4bf58dd8d48988d116941735","category":"Bar","checkinsCount":83,"usersCount":63,"tipCount":1,"visitsCount":90,"tier":"","message":"","currency":"","rating":7.7},{"name":"Hopkins Icehouse","phone":"8707743333","lat":33.42341938175414,"lng":-94.04135829244284,"city_fetched":"Texarkana,US","state":"AR","country":"United States","canonicalUrl":"https://foursquare.com/v/hopkins-icehouse/4c4116bee26920a15a065ee7","categoryId":"4bf58dd8d48988d121941735","category":"Lounge","checkinsCount":723,"usersCount":300,"tipCount":13,"visitsCount":855,"tier":"","message":"","currency":"","rating":7.7},{"name":"Shooters","phone":"8707734903","address":"310 E 49th St","lat":33.468979,"lng":-94.04042901666666,"city_fetched":"Texarkana,US","state":"AR","country":"United States","canonicalUrl":"https://foursquare.com/v/shooters/4b5a9b98f964a52089cd28e3","categoryId":"4bf58dd8d48988d120941735","category":"Karaoke Bar","checkinsCount":177,"usersCount":107,"tipCount":2,"visitsCount":186,"url":"http://shooterstexarkana.com","tier":"","message":"","currency":"","rating":7.1}]