[{"name":"World of Beer","phone":"3526339519","address":"2751 West Torch Lake Drive","lat":28.84479831,"lng":-82.02177106,"city_fetched":"The Villages","state":"FL","country":"United States","canonicalUrl":"https://foursquare.com/v/world-of-beer/51eaadec498ec6ea0236ed7d","category":"Bar","checkinsCount":988,"usersCount":551,"tipCount":12,"visitsCount":1128,"url":"http://worldofbeer.com/Locations/TheVillages","tier":2,"message":"Moderate","currency":"$","rating":8.7},{"name":"City Fire","phone":"3522057169","address":"1018 Canal St","lat":28.908251558387416,"lng":-81.9749346448005,"city_fetched":"The Villages","state":"FL","country":"United States","canonicalUrl":"https://foursquare.com/v/city-fire/4e63c053c65b2dc8a030e740","category":"American Restaurant","checkinsCount":1490,"usersCount":636,"tipCount":9,"visitsCount":1725,"url":"http://cityfirerestaurants.com","tier":2,"message":"Moderate","currency":"$","rating":8.1},{"name":"Mallory Hill Country Club","phone":"3524502359","address":"1675 Odell Cir","lat":28.895557783655377,"lng":-81.96751533618801,"city_fetched":"The Villages","state":"FL","country":"United States","canonicalUrl":"https://foursquare.com/v/mallory-hill-country-club/4b9d2e94f964a520219736e3","category":"Golf Course","checkinsCount":623,"usersCount":433,"tipCount":8,"visitsCount":1089,"url":"http://www.thevillages.com","tier":"","message":"","currency":"","rating":8.1},{"name":"GarVino's Cigars, Fine Wine & Gifts","phone":"3524301435","address":"1081 Canal St","lat":28.90727672,"lng":-81.97453119,"city_fetched":"The Villages","state":"FL","country":"United States","canonicalUrl":"https://foursquare.com/v/garvinos-cigars-fine-wine--gifts/4bc121592a89ef3bfce6f188","category":"Wine Bar","checkinsCount":435,"usersCount":246,"tipCount":8,"visitsCount":531,"url":"http://www.garvinos.com","tier":"","message":"","currency":"","rating":6.8},{"name":"DJ and Gina's Lounge","address":"16535 SE 99th Ave","lat":28.98165321361842,"lng":-81.9881788524775,"city_fetched":"The Villages","state":"FL","country":"United States","canonicalUrl":"https://foursquare.com/v/dj-and-ginas-lounge/4c56208051449c74523dea03","category":"Bar","checkinsCount":425,"usersCount":164,"tipCount":1,"visitsCount":577,"tier":"","message":"","currency":"","rating":6.6},{"name":"Beef 'O' Brady's","phone":"3527505975","address":"353 Colony Blvd","lat":28.86704339456002,"lng":-81.95660602517238,"city_fetched":"The Villages","state":"FL","country":"United States","canonicalUrl":"https://foursquare.com/v/beef-o-bradys/4ba40eb5f964a520d07c38e3","category":"Sports Bar","checkinsCount":492,"usersCount":263,"tipCount":2,"visitsCount":611,"url":"http://beefobradys.com","tier":"","message":"","currency":"","rating":6.6},{"name":"Beef 'O' Brady's","phone":"3522591536","address":"Cr 42 & mulberry lane","lat":28.980743732453192,"lng":-82.00849575708187,"city_fetched":"The Villages","state":"FL","country":"United States","canonicalUrl":"https://foursquare.com/v/beef-o-bradys/4de04400d164e323c7a8b339","category":"American Restaurant","checkinsCount":295,"usersCount":160,"tipCount":6,"visitsCount":367,"url":"http://www.beefobradys.com","tier":"","message":"","currency":"","rating":6.4},{"name":"Beef 'O' Brady's","phone":"3527517169","address":"3539 Wedgewood Ln","lat":28.92939349181749,"lng":-82.01541050354143,"city_fetched":"The Villages","state":"FL","country":"United States","canonicalUrl":"https://foursquare.com/v/beef-o-bradys/4d1f6f66d7b0b1f748ba0c9f","category":"Pub","checkinsCount":434,"usersCount":170,"tipCount":2,"visitsCount":458,"url":"http://www.beefobradys.com","tier":"","message":"","currency":"","rating":6.3}]