[{"name":"Firefly Hollow Brewing Co.","phone":"8608458977","twitter":"fireflybrewing","address":"139 Center St","lat":41.67762804176402,"lng":-72.94603642984222,"city_fetched":"Thomaston,US","state":"CT","country":"United States","canonicalUrl":"https://foursquare.com/fireflybrewing","categoryId":"50327c8591d4c4b30a586d5d","category":"Brewery","checkinsCount":934,"usersCount":689,"tipCount":10,"visitsCount":1354,"url":"http://fireflyhollowbrewing.com","tier":1,"message":"Cheap","currency":"$","rating":9.2},{"name":"The Berkshire Cafe","phone":"8604890600","address":"71 Albert St","lat":41.795218,"lng":-73.1225,"city_fetched":"Thomaston,US","state":"CT","country":"United States","canonicalUrl":"https://foursquare.com/v/the-berkshire-cafe/4c1505c1a5eb76b06792c2b7","categoryId":"4bf58dd8d48988d11b941735","category":"Pub","checkinsCount":237,"usersCount":169,"tipCount":4,"visitsCount":356,"tier":"","message":"","currency":"","rating":8.2},{"name":"Crabby Al's","phone":"8602834177","address":"147 E Main St","lat":41.67400175519607,"lng":-73.0701718351213,"city_fetched":"Thomaston,US","state":"CT","country":"United States","canonicalUrl":"https://foursquare.com/v/crabby-als/4b762e81f964a52003422ee3","categoryId":"4bf58dd8d48988d116941735","category":"Bar","checkinsCount":542,"usersCount":355,"tipCount":8,"visitsCount":833,"tier":"","message":"","currency":"","rating":7.9},{"name":"Sawyer's Bar & Grill","phone":"8606185411","twitter":"sawyersttown","address":"79 Center St","lat":41.80039170429176,"lng":-73.1178999040835,"city_fetched":"Thomaston,US","state":"CT","country":"United States","canonicalUrl":"https://foursquare.com/v/sawyers-bar--grill/5023fedee4b07e351c154917","categoryId":"4bf58dd8d48988d116941735","category":"Bar","checkinsCount":382,"usersCount":147,"tipCount":7,"visitsCount":458,"url":"http://sawyersbarandgrill.com","tier":"","message":"","currency":"","rating":7.8},{"name":"Triple Play Sports Bar","phone":"8604172877","address":"16 Straits Tpke","lat":41.59044850365644,"lng":-73.10658116250787,"city_fetched":"Thomaston,US","state":"CT","country":"United States","canonicalUrl":"https://foursquare.com/v/triple-play-sports-bar/4bff1bcf68c7a593b93b4044","categoryId":"4bf58dd8d48988d11d941735","category":"Sports Bar","checkinsCount":1424,"usersCount":550,"tipCount":17,"visitsCount":1641,"url":"http://tripleplaybargrille.com","tier":"","message":"","currency":"","rating":7.8},{"name":"Stadium Sports Bar & Grille","phone":"2035739576","twitter":"stadiumbars","address":"550 Chase Ave","lat":41.58447351342052,"lng":-73.03951263427733,"city_fetched":"Thomaston,US","state":"CT","country":"United States","canonicalUrl":"https://foursquare.com/v/stadium-sports-bar--grille/4dfa6878d22d964c6b9cf1f0","categoryId":"4bf58dd8d48988d11d941735","category":"Sports Bar","checkinsCount":968,"usersCount":308,"tipCount":7,"visitsCount":1117,"url":"http://stadiumlodgebismarck.com","tier":"","message":"","currency":"","rating":7.7},{"name":"Shebeen Brewing Company","twitter":"shebeenbrewing","address":"1 Wolcott Rd","lat":41.57468352276834,"lng":-73.0016431500241,"city_fetched":"Thomaston,US","state":"CT","country":"United States","canonicalUrl":"https://foursquare.com/v/shebeen-brewing-company/517d841ce4b08d470dcdc776","categoryId":"50327c8591d4c4b30a586d5d","category":"Brewery","checkinsCount":921,"usersCount":407,"tipCount":10,"visitsCount":1106,"url":"http://shebeenbrewing.com","tier":1,"message":"Cheap","currency":"$","rating":7.6},{"name":"Marilyn's Pub","phone":"8605838838","address":"388 Broad St","lat":41.67216927338182,"lng":-72.91200743111125,"city_fetched":"Thomaston,US","state":"CT","country":"United States","canonicalUrl":"https://foursquare.com/v/marilyns-pub/5127a79ae4b00d5ff5943020","categoryId":"4bf58dd8d48988d11b941735","category":"Pub","checkinsCount":721,"usersCount":141,"tipCount":6,"visitsCount":975,"url":"http://marilynspub.com","tier":"","message":"","currency":"","rating":7.5},{"name":"Chute Gates","phone":"8605850704","address":"372 Main St","lat":41.67903886549532,"lng":-73.02457284144452,"city_fetched":"Thomaston,US","state":"CT","country":"United States","canonicalUrl":"https://foursquare.com/v/chute-gates/4c1fee76eac020a125da4bc2","categoryId":"4bf58dd8d48988d116941735","category":"Bar","checkinsCount":428,"usersCount":271,"tipCount":4,"visitsCount":595,"url":"http://www.chutegates.com","tier":"","message":"","currency":"","rating":7.4},{"name":"J.C.- Hooks","lat":41.55247741032958,"lng":-73.00394948152038,"city_fetched":"Thomaston,US","state":"CT","country":"United States","canonicalUrl":"https://foursquare.com/v/jc-hooks/4e4dbf3b52b1e893ad443e77","categoryId":"4bf58dd8d48988d116941735","category":"Bar","checkinsCount":540,"usersCount":167,"tipCount":1,"visitsCount":729,"tier":"","message":"","currency":"","rating":7.3},{"name":"Bleachers Sports Bar & Restaurant","phone":"8605820002","address":"300 Middle St","lat":41.6612585077584,"lng":-72.91859865188599,"city_fetched":"Thomaston,US","state":"CT","country":"United States","canonicalUrl":"https://foursquare.com/v/bleachers-sports-bar--restaurant/4b99a009f964a520468835e3","categoryId":"4bf58dd8d48988d118941735","category":"Dive Bar","checkinsCount":1686,"usersCount":709,"tipCount":16,"visitsCount":2252,"url":"http://bleachersbar.net","tier":"","message":"","currency":"","rating":7.2},{"name":"Red Door","address":"643-721 Main St","lat":41.60150706768036,"lng":-73.11531198333333,"city_fetched":"Thomaston,US","state":"CT","country":"United States","canonicalUrl":"https://foursquare.com/v/red-door/4b764a3ef964a520e5462ee3","categoryId":"4bf58dd8d48988d116941735","category":"Bar","checkinsCount":1049,"usersCount":546,"tipCount":5,"visitsCount":1105,"tier":"","message":"","currency":"","rating":6.8},{"name":"Downtown Cafe","phone":"8605826853","twitter":"downtowncafe","address":"118 Main St","lat":41.67050656722539,"lng":-72.9427606291457,"city_fetched":"Thomaston,US","state":"CT","country":"United States","canonicalUrl":"https://foursquare.com/v/downtown-cafe/4bb952c353649c748bf547fb","categoryId":"4bf58dd8d48988d116941735","category":"Bar","checkinsCount":670,"usersCount":159,"tipCount":9,"visitsCount":739,"tier":"","message":"","currency":"","rating":6.8},{"name":"Legends","phone":"8605848928","address":"192 Pine St","lat":41.66813999509933,"lng":-72.91511638328956,"city_fetched":"Thomaston,US","state":"CT","country":"United States","canonicalUrl":"https://foursquare.com/v/legends/4b4cfb24f964a5207cc626e3","categoryId":"4bf58dd8d48988d11d941735","category":"Sports Bar","checkinsCount":1399,"usersCount":290,"tipCount":6,"visitsCount":1745,"tier":"","message":"","currency":"","rating":6.7},{"name":"Diamond Lil's","phone":"2034377060","address":"Watertown Ave","lat":41.56531362563829,"lng":-73.0598998727166,"city_fetched":"Thomaston,US","state":"CT","country":"United States","canonicalUrl":"https://foursquare.com/v/diamond-lils/4cedf0ed7b9437044fb42a53","categoryId":"4bf58dd8d48988d116941735","category":"Bar","checkinsCount":134,"usersCount":46,"tipCount":3,"visitsCount":182,"tier":"","message":"","currency":"","rating":6.5},{"name":"O'Connors Public House","phone":"8606185520","address":"26 E Main St","lat":41.80107237783864,"lng":-73.12061424412516,"city_fetched":"Thomaston,US","state":"CT","country":"United States","canonicalUrl":"https://foursquare.com/v/oconnors-public-house/5333183b498e181ab8f3e6c4","categoryId":"4bf58dd8d48988d11b941735","category":"Pub","checkinsCount":153,"usersCount":111,"tipCount":5,"visitsCount":208,"tier":"","message":"","currency":"","rating":6.3},{"name":"Time Out Sports Bar  at The Willows DoubleTree by Hilton","phone":"8605897766","address":"42 Century Dr","lat":41.653431247236554,"lng":-72.91274573880918,"city_fetched":"Thomaston,US","state":"CT","country":"United States","canonicalUrl":"https://foursquare.com/v/time-out-sports-bar--at-the-willows-doubletree-by-hilton/519e9e61498e5045368ecb89","categoryId":"4bf58dd8d48988d11d941735","category":"Sports Bar","checkinsCount":130,"usersCount":70,"tipCount":4,"visitsCount":131,"url":"http://willowsbristol.com/time-out-sports-bar/","tier":"","message":"","currency":"","rating":6.3},{"name":"City Limits","address":"2699 CT 262","lat":41.607155,"lng":-73.05737614631653,"city_fetched":"Thomaston,US","state":"CT","country":"United States","canonicalUrl":"https://foursquare.com/v/city-limits/4c23d22ff7ced13ab9d4216d","categoryId":"4bf58dd8d48988d116941735","category":"Bar","checkinsCount":215,"usersCount":168,"tipCount":1,"visitsCount":306,"tier":"","message":"","currency":"","rating":5.5},{"name":"Snapper Maggees","lat":41.80206794021312,"lng":-73.12600248818059,"city_fetched":"Thomaston,US","state":"CT","country":"United States","canonicalUrl":"https://foursquare.com/v/snapper-maggees/4bd25bef046076b0ebf17371","categoryId":"4bf58dd8d48988d116941735","category":"Bar","checkinsCount":350,"usersCount":122,"tipCount":6,"visitsCount":350,"tier":"","message":"","currency":"","rating":5.1}]