[{"name":"The Claddagh Irish Pub","phone":"3368410521","twitter":"claddagh_hp","address":"130 E Parris Ave","lat":35.98452096994865,"lng":-80.02224093828822,"city_fetched":"Thomasville,US","state":"NC","country":"United States","canonicalUrl":"https://foursquare.com/v/the-claddagh-irish-pub/4bad454ef964a52053403be3","categoryId":"4bf58dd8d48988d11b941735","category":"Pub","checkinsCount":2154,"usersCount":561,"tipCount":19,"visitsCount":2341,"url":"http://www.thecladdaghrestaurant.net","tier":2,"message":"Moderate","currency":"$","rating":7.7},{"name":"George's Pizza Bar & Grill","address":"2505 N Main St","lat":35.989799754669235,"lng":-80.02778737485168,"city_fetched":"Thomasville,US","state":"NC","country":"United States","canonicalUrl":"https://foursquare.com/v/georges-pizza-bar--grill/4c896b096418a1432200d7ce","categoryId":"4bf58dd8d48988d11d941735","category":"Sports Bar","checkinsCount":443,"usersCount":152,"tipCount":6,"visitsCount":487,"tier":"","message":"","currency":"","rating":7.1},{"name":"The Craft Tavern","phone":"3364805192","address":"10301 Suite C","lat":35.906835793803076,"lng":-79.96081706303812,"city_fetched":"Thomasville,US","state":"NC","country":"United States","canonicalUrl":"https://foursquare.com/v/the-craft-tavern/54f0e99d498e7f1416ece6db","categoryId":"4bf58dd8d48988d117941735","category":"Beer Garden","checkinsCount":19,"usersCount":51,"tipCount":3,"visitsCount":90,"url":"http://thecrafttavern.com","tier":3,"message":"Expensive","currency":"$","rating":6.8},{"name":"Tipsy'z","phone":"3368870230","address":"805 Westchester Dr","lat":35.97408178499732,"lng":-80.03356271621607,"city_fetched":"Thomasville,US","state":"NC","country":"United States","canonicalUrl":"https://foursquare.com/v/tipsyz/4cbb9dc19552b60c8a35e18b","categoryId":"4bf58dd8d48988d116941735","category":"Bar","checkinsCount":1297,"usersCount":328,"tipCount":13,"visitsCount":1418,"tier":"","message":"","currency":"","rating":6.8},{"name":"Brown Truck Brewery","address":"1234 N Main St","lat":35.97159439176983,"lng":-80.01637202929446,"city_fetched":"Thomasville,US","state":"NC","country":"United States","canonicalUrl":"https://foursquare.com/v/brown-truck-brewery/56be72ce498e1e89d16c940b","categoryId":"50327c8591d4c4b30a586d5d","category":"Brewery","checkinsCount":84,"usersCount":76,"tipCount":0,"visitsCount":106,"tier":"","message":"","currency":"","rating":6.6},{"name":"After Hours Tavern","address":"1614 N Main St","lat":35.975938666666664,"lng":-80.01872777938843,"city_fetched":"Thomasville,US","state":"NC","country":"United States","canonicalUrl":"https://foursquare.com/v/after-hours-tavern/4d79b6d1ceaa224b689efe70","categoryId":"4bf58dd8d48988d116941735","category":"Bar","checkinsCount":385,"usersCount":209,"tipCount":1,"visitsCount":420,"url":"http://afterhourstavern.com","tier":"","message":"","currency":"","rating":5.6}]