[{"name":"German-American Festival","twitter":"gafsociety","address":"3624 Seaman Rd","lat":41.64966041780298,"lng":-83.46184651773694,"city_fetched":"Toledo","state":"OH","country":"United States","canonicalUrl":"https://foursquare.com/v/germanamerican-festival/4e5839157d8bf55c17346bb8","category":"Beer Garden","checkinsCount":782,"usersCount":612,"tipCount":6,"visitsCount":952,"url":"http://www.germanamericanfestival.net","tier":"","message":"","currency":"","rating":8.8},{"name":"Mancy's Bluewater Grille","phone":"4197242583","twitter":"mancyssteaks","address":"461 W Dussel Dr","lat":41.58112267403744,"lng":-83.67857399567127,"city_fetched":"Toledo","state":"OH","country":"United States","canonicalUrl":"https://foursquare.com/v/mancys-bluewater-grille/4b6a07e4f964a520edc22be3","category":"American Restaurant","checkinsCount":1530,"usersCount":896,"tipCount":24,"visitsCount":1729,"url":"http://www.mancys.com","tier":3,"message":"Expensive","currency":"$","rating":8.8},{"name":"Maumee Bay Brewing Company","phone":"4192411253","twitter":"maumeebaybrew","address":"27 Broadway St #A","lat":41.6432678,"lng":-83.5381731,"neighborhood":"Warehouse Entertainment District","city_fetched":"Toledo","state":"OH","country":"United States","canonicalUrl":"https://foursquare.com/v/maumee-bay-brewing-company/4baec0f2f964a52004d53be3","category":"Brewery","checkinsCount":2175,"usersCount":1454,"tipCount":42,"visitsCount":2461,"url":"http://www.barrelhouse.com","tier":2,"message":"Moderate","currency":"$","rating":8.5},{"name":"El Camino Real","phone":"4194720700","address":"2500 W Sylvania Ave","lat":41.69241289602803,"lng":-83.60425021502358,"city_fetched":"Toledo","state":"OH","country":"United States","canonicalUrl":"https://foursquare.com/v/el-camino-real/4b76f964f964a52041702ee3","category":"Mexican Restaurant","checkinsCount":4398,"usersCount":2115,"tipCount":30,"visitsCount":5251,"url":"http://www.elcaminorealtoledo.com/El_Camino_Real_Toledo.html","tier":2,"message":"Moderate","currency":"$","rating":8.5},{"name":"Black Cloister Brewing Company","phone":"4192141500","twitter":"blackcloisterbc","address":"619 Monroe St","lat":41.6500599445612,"lng":-83.53995512510839,"neighborhood":"Warehouse Entertainment District","city_fetched":"Toledo","state":"OH","country":"United States","canonicalUrl":"https://foursquare.com/v/black-cloister-brewing-company/54c7e779498ec906457f68f2","category":"Brewery","checkinsCount":515,"usersCount":306,"tipCount":9,"visitsCount":659,"url":"http://www.blackcloister.com/index.html","tier":1,"message":"Cheap","currency":"$","rating":8.5},{"name":"Shawn's Irish Tavern","phone":"4193811281","address":"4400 Heatherdowns Blvd","lat":41.595304145755,"lng":-83.64659742900919,"city_fetched":"Toledo","state":"OH","country":"United States","canonicalUrl":"https://foursquare.com/v/shawns-irish-tavern/4b60d545f964a5204bfc29e3","category":"Pub","checkinsCount":1509,"usersCount":666,"tipCount":18,"visitsCount":1740,"url":"http://www.shawnsirishtavern.com","tier":2,"message":"Moderate","currency":"$","rating":8.5},{"name":"Lenny's","phone":"4198679414","address":"5444 Airport Hwy","lat":41.61754141885212,"lng":-83.67117986315489,"neighborhood":"Reynolds Corners","city_fetched":"Toledo","state":"OH","country":"United States","canonicalUrl":"https://foursquare.com/v/lennys/4c5623d4973fc92836067cc8","category":"Bar","checkinsCount":1007,"usersCount":210,"tipCount":6,"visitsCount":1021,"tier":"","message":"","currency":"","rating":8.3},{"name":"Famous Dave's Bar-B-Que","phone":"4194757427","twitter":"famous_daves","address":"4757 Monroe St","lat":41.693151828731935,"lng":-83.6311537027359,"city_fetched":"Toledo","state":"OH","country":"United States","canonicalUrl":"https://foursquare.com/v/famous-daves-barbque/4b9d1ffbf964a520cb9136e3","category":"BBQ Joint","checkinsCount":1396,"usersCount":914,"tipCount":17,"visitsCount":1536,"url":"http://www.famousdaves.com","tier":2,"message":"Moderate","currency":"$","rating":8.3},{"name":"Korea Na","phone":"4198678080","address":"1423 Bernath Pkwy","lat":41.61486480411967,"lng":-83.67586612701416,"neighborhood":"Reynolds Corners","city_fetched":"Toledo","state":"OH","country":"United States","canonicalUrl":"https://foursquare.com/v/korea-na/4b81844cf964a520ccab30e3","category":"Korean Restaurant","checkinsCount":280,"usersCount":172,"tipCount":11,"visitsCount":290,"url":"http://koreanatoledo.com","tier":3,"message":"Expensive","currency":"$","rating":8.3},{"name":"Doc Watson's","phone":"4193896003","twitter":"docwatsons","address":"1515 S Byrne Rd","lat":41.61168178226247,"lng":-83.62494151269478,"neighborhood":"Glendale-Heatherdowns","city_fetched":"Toledo","state":"OH","country":"United States","canonicalUrl":"https://foursquare.com/v/doc-watsons/4b36c512f964a5201a3c25e3","category":"Bar","checkinsCount":4465,"usersCount":1323,"tipCount":43,"visitsCount":5342,"url":"http://docwatsonstoledo.com","tier":2,"message":"Moderate","currency":"$","rating":8.2},{"name":"Four Horsemen","phone":"4194763900","address":"4452 Lewis Ave","lat":41.699481266666666,"lng":-83.56563275,"neighborhood":"Five Points - Library Village","city_fetched":"Toledo","state":"OH","country":"United States","canonicalUrl":"https://foursquare.com/v/four-horsemen/4c8ee76bdaa9370459be50b1","category":"Bar","checkinsCount":724,"usersCount":237,"tipCount":4,"visitsCount":990,"tier":"","message":"","currency":"","rating":8.2},{"name":"Fricker's","phone":"4192449464","address":"19 N Saint Clair St","lat":41.64816736897394,"lng":-83.53785800699427,"neighborhood":"Warehouse Entertainment District","city_fetched":"Toledo","state":"OH","country":"United States","canonicalUrl":"https://foursquare.com/v/frickers/4cc65fb5d43ba143b0ac73f8","category":"Wings Joint","checkinsCount":3633,"usersCount":1433,"tipCount":18,"visitsCount":3893,"url":"http://frickers.com","tier":2,"message":"Moderate","currency":"$","rating":8.2},{"name":"Rocky's Bar","phone":"4194721996","lat":41.692435684866865,"lng":-83.62300832708047,"city_fetched":"Toledo","state":"OH","country":"United States","canonicalUrl":"https://foursquare.com/v/rockys-bar/4c83029774d7b60c847886d8","category":"Bar","checkinsCount":2038,"usersCount":330,"tipCount":17,"visitsCount":2095,"tier":"","message":"","currency":"","rating":8.1},{"name":"Jeds Holland Sylvania","phone":"4198686666","address":"855 S Holland Sylvania Rd","lat":41.62453670604398,"lng":-83.68357388515757,"neighborhood":"Reynolds Corners","city_fetched":"Toledo","state":"OH","country":"United States","canonicalUrl":"https://foursquare.com/v/jeds-holland-sylvania/4dd0478322718eed7a664ae6","category":"Bar","checkinsCount":733,"usersCount":249,"tipCount":7,"visitsCount":817,"url":"http://www.jedstoledo.com","tier":"","message":"","currency":"","rating":8.1},{"name":"ICE","phone":"4192463339","address":"405 Madison Ave","lat":41.65158470452172,"lng":-83.53501663908521,"neighborhood":"Downtown Toledo","city_fetched":"Toledo","state":"OH","country":"United States","canonicalUrl":"https://foursquare.com/v/ice/4bbcee984e069c74d91d9ee3","category":"Cocktail Bar","checkinsCount":717,"usersCount":316,"tipCount":18,"visitsCount":748,"url":"http://www.icerestaurantandbar.com","tier":"","message":"","currency":"","rating":8.1},{"name":"Sidelines III","phone":"4197240097","address":"5806 Telegraph Rd","lat":41.72242847458031,"lng":-83.54686003158419,"city_fetched":"Toledo","state":"OH","country":"United States","canonicalUrl":"https://foursquare.com/v/sidelines-iii/5068d6bbe4b08e8fd498a71b","category":"Sports Bar","checkinsCount":795,"usersCount":275,"tipCount":7,"visitsCount":913,"url":"http://sidelinessportseatery.com","tier":"","message":"","currency":"","rating":8},{"name":"The Toledo Club","address":"235 14th St","lat":41.65557192218361,"lng":-83.54448736820852,"neighborhood":"Arts and Entertainment District","city_fetched":"Toledo","state":"OH","country":"United States","canonicalUrl":"https://foursquare.com/v/the-toledo-club/4b69a778f964a52085ab2be3","category":"Event Space","checkinsCount":1709,"usersCount":623,"tipCount":2,"visitsCount":2081,"url":"http://toledoclub.org","tier":"","message":"","currency":"","rating":8},{"name":"Fusion Bistro","lat":41.67678392264619,"lng":-83.62013961922007,"neighborhood":"Old Orchard","city_fetched":"Toledo","state":"OH","country":"United States","canonicalUrl":"https://foursquare.com/v/fusion-bistro/4b7df063f964a5201fdb2fe3","category":"Cocktail Bar","checkinsCount":433,"usersCount":231,"tipCount":8,"visitsCount":471,"tier":"","message":"","currency":"","rating":7.9},{"name":"Claddagh Irish Pub","phone":"4194721414","twitter":"claddaghtoledo","address":"5001 Monroe St","lat":41.69274817072554,"lng":-83.64013988636086,"city_fetched":"Toledo","state":"OH","country":"United States","canonicalUrl":"https://foursquare.com/v/claddagh-irish-pub/4b47eb13f964a520f14326e3","category":"Pub","checkinsCount":3549,"usersCount":1484,"tipCount":35,"visitsCount":3695,"url":"http://www.claddaghirishpubs.com","tier":2,"message":"Moderate","currency":"$","rating":7.9},{"name":"Berger's Olde Tyme Grill","phone":"4194739541","address":"1742 W Laskey Rd","lat":41.706731472574425,"lng":-83.58726484592593,"city_fetched":"Toledo","state":"OH","country":"United States","canonicalUrl":"https://foursquare.com/v/bergers-olde-tyme-grill/4bec8009c43f2d7fd4fddbd9","category":"Burger Joint","checkinsCount":641,"usersCount":239,"tipCount":10,"visitsCount":665,"tier":"","message":"","currency":"","rating":7.9},{"name":"Moe's Place","phone":"4196669314","address":"620 Dixie Hwy","lat":41.61035669726193,"lng":-83.55871160568661,"city_fetched":"Toledo","state":"OH","country":"United States","canonicalUrl":"https://foursquare.com/v/moes-place/4c008fd2ad46c9b6a2c68f66","category":"Bar","checkinsCount":1218,"usersCount":363,"tipCount":8,"visitsCount":1421,"tier":"","message":"","currency":"","rating":7.9},{"name":"John's Korner Bar & Grill","phone":"4193829010","address":"2202 Tedrow Rd","lat":41.599319103951466,"lng":-83.62017599858338,"neighborhood":"Glendale-Heatherdowns","city_fetched":"Toledo","state":"OH","country":"United States","canonicalUrl":"https://foursquare.com/v/johns-korner-bar--grill/4c3d34b915cb1b8daabd7bdc","category":"Bar","checkinsCount":1980,"usersCount":237,"tipCount":7,"visitsCount":2215,"tier":1,"message":"Cheap","currency":"$","rating":7.8},{"name":"Bretz Nightclub","phone":"4192431900","twitter":"bretzclub","address":"2012 Adams St","lat":41.65947325785821,"lng":-83.54770705343799,"city_fetched":"Toledo","state":"OH","country":"United States","canonicalUrl":"https://foursquare.com/bretzclub","category":"Nightclub","checkinsCount":4003,"usersCount":774,"tipCount":8,"visitsCount":4135,"tier":"","message":"","currency":"","rating":7.8},{"name":"Ye Olde Durty Bird","phone":"4192432473","twitter":"yeoldedurtybird","address":"2 S Saint Clair St","lat":41.64729717299183,"lng":-83.53845644730545,"neighborhood":"Warehouse Entertainment District","city_fetched":"Toledo","state":"OH","country":"United States","canonicalUrl":"https://foursquare.com/v/ye-olde-durty-bird/4f63d6d4e4b03a7ce0661ddc","category":"Gastropub","checkinsCount":2269,"usersCount":1277,"tipCount":30,"visitsCount":2775,"url":"http://yeoldedurtybird.com","tier":2,"message":"Moderate","currency":"$","rating":7.7},{"name":"Fricker's","phone":"4198919464","twitter":"frickers","address":"1418 Reynolds Rd","lat":41.58294081687927,"lng":-83.66408325,"city_fetched":"Toledo","state":"OH","country":"United States","canonicalUrl":"https://foursquare.com/v/frickers/4b6f4d5df964a52030ea2ce3","category":"Wings Joint","checkinsCount":4929,"usersCount":1545,"tipCount":19,"visitsCount":5439,"url":"http://frickers.com","tier":2,"message":"Moderate","currency":"$","rating":7.7},{"name":"Nick & Jimmy's","phone":"4194720756","address":"4956 Monroe St","lat":41.697752570800986,"lng":-83.63949045864136,"city_fetched":"Toledo","state":"OH","country":"United States","canonicalUrl":"https://foursquare.com/v/nick--jimmys/4b2d1e0af964a520b4ce24e3","category":"Gastropub","checkinsCount":3668,"usersCount":1398,"tipCount":37,"visitsCount":4232,"url":"http://www.nickandjimmys.com","tier":2,"message":"Moderate","currency":"$","rating":7.6},{"name":"M' Osteria & Bar","phone":"4192144222","address":"611 Monroe St","lat":41.649906158447266,"lng":-83.5395278930664,"neighborhood":"Warehouse Entertainment District","city_fetched":"Toledo","state":"OH","country":"United States","canonicalUrl":"https://foursquare.com/v/m-osteria--bar/54e920de498ea0afd9f654e4","category":"Italian Restaurant","checkinsCount":279,"usersCount":98,"tipCount":1,"visitsCount":293,"url":"http://mosteriatoledo.com","tier":"","message":"","currency":"","rating":7.6},{"name":"Final Cut Steak & Seafood","phone":"8777779579","twitter":"hollywoodtoledo","address":"Hollywood Casino Toledo","lat":41.620575613509956,"lng":-83.54506015777588,"neighborhood":"East Toledo","city_fetched":"Toledo","state":"OH","country":"United States","canonicalUrl":"https://foursquare.com/v/final-cut-steak--seafood/54878b1a498e2db911aac252","category":"Steakhouse","checkinsCount":400,"usersCount":176,"tipCount":2,"visitsCount":401,"url":"http://www.hollywoodcasinotoledo.com","tier":4,"message":"Very Expensive","currency":"$","rating":7.5},{"name":"South End Bar & Grill","phone":"4193853080","address":"5105 Glendale Ave","lat":41.60425375297737,"lng":-83.66259035443277,"city_fetched":"Toledo","state":"OH","country":"United States","canonicalUrl":"https://foursquare.com/v/south-end-bar--grill/4bbf9b5074a9a5939bbfcef6","category":"Sports Bar","checkinsCount":1638,"usersCount":454,"tipCount":13,"visitsCount":1800,"url":"http://southendtoledo.com","tier":"","message":"","currency":"","rating":7.5},{"name":"Michael's Bar & Grill","phone":"4192413900","address":"901 Monroe St","lat":41.65105615970578,"lng":-83.5420209525082,"neighborhood":"Warehouse Entertainment District","city_fetched":"Toledo","state":"OH","country":"United States","canonicalUrl":"https://foursquare.com/v/michaels-bar--grill/4c1cd039b4e62d7f2b95db93","category":"Bar","checkinsCount":494,"usersCount":166,"tipCount":5,"visitsCount":523,"tier":"","message":"","currency":"","rating":7.5},{"name":"Ottawa Tavern","phone":"4197255483","twitter":"otavern","address":"1815 Adams St","lat":41.65878101133714,"lng":-83.54681,"neighborhood":"Arts and Entertainment District","city_fetched":"Toledo","state":"OH","country":"United States","canonicalUrl":"https://foursquare.com/v/ottawa-tavern/4b401f5ef964a520dcb525e3","category":"Music Venue","checkinsCount":2779,"usersCount":751,"tipCount":14,"visitsCount":2961,"url":"http://www.otavern.com","tier":"","message":"","currency":"","rating":7.5},{"name":"Wesley's Bar & Grill","phone":"4192553333","address":"1201 Adams St","lat":41.656026929478706,"lng":-83.54131327113777,"neighborhood":"Arts and Entertainment District","city_fetched":"Toledo","state":"OH","country":"United States","canonicalUrl":"https://foursquare.com/v/wesleys-bar--grill/4b5275f6f964a520547e27e3","category":"Bar","checkinsCount":1574,"usersCount":712,"tipCount":11,"visitsCount":1846,"tier":"","message":"","currency":"","rating":7.5},{"name":"Sidelines II","phone":"4194740000","twitter":"delightfultoni","address":"2111 Mellwood Ave","lat":41.706464054178575,"lng":-83.5947104825671,"city_fetched":"Toledo","state":"OH","country":"United States","canonicalUrl":"https://foursquare.com/v/sidelines-ii/4b957204f964a520fea234e3","category":"Sports Bar","checkinsCount":1690,"usersCount":547,"tipCount":16,"visitsCount":1881,"url":"http://sidelinessportseatery.com","tier":2,"message":"Moderate","currency":"$","rating":7.5},{"name":"Mancy's Italian Grill","phone":"4198829229","twitter":"mancyssteaks","address":"5453 Monroe St","lat":41.70539210086607,"lng":-83.6640590429306,"city_fetched":"Toledo","state":"OH","country":"United States","canonicalUrl":"https://foursquare.com/v/mancys-italian-grill/4bc8e6ad3740b7137fa75d65","category":"Italian Restaurant","checkinsCount":1488,"usersCount":888,"tipCount":25,"visitsCount":1803,"url":"http://www.mancys.com","tier":3,"message":"Expensive","currency":"$","rating":7.5},{"name":"Manhattan's","phone":"4192436675","address":"1516 Adams St","lat":41.6575683359771,"lng":-83.54389418842536,"neighborhood":"Arts and Entertainment District","city_fetched":"Toledo","state":"OH","country":"United States","canonicalUrl":"https://foursquare.com/v/manhattans/4bc49642f8219c74bd8bb710","category":"Lounge","checkinsCount":1822,"usersCount":844,"tipCount":20,"visitsCount":2113,"url":"http://www.manhattanstoledo.com","tier":2,"message":"Moderate","currency":"$","rating":7.4},{"name":"Bier Stube","phone":"4198417999","twitter":"toledobierstube","address":"5333 Monroe St","lat":41.703110764512346,"lng":-83.65784848132758,"city_fetched":"Toledo","state":"OH","country":"United States","canonicalUrl":"https://foursquare.com/v/bier-stube/4c3a85e8be4620a12c0c0b13","category":"Pub","checkinsCount":4711,"usersCount":1507,"tipCount":41,"visitsCount":5459,"url":"http://www.toledobs.com","tier":2,"message":"Moderate","currency":"$","rating":7.4},{"name":"Barbies Place","phone":"4194709804","address":"5025 Bennett Rd","lat":41.707831,"lng":-83.556807,"city_fetched":"Toledo","state":"OH","country":"United States","canonicalUrl":"https://foursquare.com/v/barbies-place/4c54d439a724e21e4e93fef6","category":"Bar","checkinsCount":525,"usersCount":116,"tipCount":1,"visitsCount":565,"tier":1,"message":"Cheap","currency":"$","rating":7.4},{"name":"Mutz","phone":"4197244060","twitter":"maumeebaybrew","address":"27 Broadway St","lat":41.643404433704944,"lng":-83.53817023742948,"neighborhood":"Warehouse Entertainment District","city_fetched":"Toledo","state":"OH","country":"United States","canonicalUrl":"https://foursquare.com/v/mutz/4bb52c4e6edc76b0eb602f1c","category":"Bar","checkinsCount":1604,"usersCount":483,"tipCount":9,"visitsCount":1693,"url":"http://mbaybrew.com","tier":2,"message":"Moderate","currency":"$","rating":7.4},{"name":"Bar 145Â°","phone":"4195930073","address":"5305 Monroe St","lat":41.70255983651176,"lng":-83.65584878845436,"city_fetched":"Toledo","state":"OH","country":"United States","canonicalUrl":"https://foursquare.com/v/bar-145/4dd70d42ae60680f14fdeba6","category":"Gastropub","checkinsCount":4249,"usersCount":1981,"tipCount":56,"visitsCount":4940,"url":"http://www.bar145toledo.com","tier":2,"message":"Moderate","currency":"$","rating":7.3},{"name":"Blarney Irish Pub","phone":"4194182339","address":"601 Monroe St","lat":41.64963515400346,"lng":-83.53939533233643,"neighborhood":"Warehouse Entertainment District","city_fetched":"Toledo","state":"OH","country":"United States","canonicalUrl":"https://foursquare.com/v/blarney-irish-pub/4a775bd3f964a52045e41fe3","category":"Pub","checkinsCount":4748,"usersCount":1961,"tipCount":29,"visitsCount":4824,"url":"http://www.theblarneyirishpub.com","tier":2,"message":"Moderate","currency":"$","rating":7.3},{"name":"Bronze Boar","phone":"4192442627","address":"20 S Huron St","lat":41.64792608,"lng":-83.54080848333334,"neighborhood":"Warehouse Entertainment District","city_fetched":"Toledo","state":"OH","country":"United States","canonicalUrl":"https://foursquare.com/v/bronze-boar/4bdc9c20f1499c74437438f3","category":"Whisky Bar","checkinsCount":1455,"usersCount":653,"tipCount":10,"visitsCount":1595,"url":"http://www.bronzeboar.com","tier":"","message":"","currency":"","rating":7.3},{"name":"Bar Louie","phone":"5673181050","twitter":"barlouie","address":"5001 Monroe Street, Suite R2","lat":41.69339733479844,"lng":-83.64175287196656,"neighborhood":"Franklin Park, Toledo, OH","city_fetched":"Toledo","state":"OH","country":"United States","canonicalUrl":"https://foursquare.com/v/bar-louie/5586eccf498e657b3466c70e","category":"Restaurant","checkinsCount":293,"usersCount":195,"tipCount":3,"visitsCount":381,"url":"http://t.co/6m5uO0JOqN","tier":"","message":"","currency":"","rating":7.3},{"name":"The Attic on Adams","phone":"4192435350","twitter":"theatticonadams","address":"1701 Adams St","lat":41.65805979552877,"lng":-83.54559566286245,"neighborhood":"Arts and Entertainment District","city_fetched":"Toledo","state":"OH","country":"United States","canonicalUrl":"https://foursquare.com/v/the-attic-on-adams/4b89ee2af964a520f25632e3","category":"Bar","checkinsCount":4458,"usersCount":1219,"tipCount":25,"visitsCount":5116,"url":"http://www.theatticonadams.com","tier":"","message":"","currency":"","rating":7.2},{"name":"Ye Olde Cock n' Bull Tavern","phone":"4193893644","address":"9 N Huron St","lat":41.64851278811873,"lng":-83.54018926620483,"neighborhood":"Warehouse Entertainment District","city_fetched":"Toledo","state":"OH","country":"United States","canonicalUrl":"https://foursquare.com/v/ye-olde-cock-n-bull-tavern/4f5b8aaf121d26e952ded6a1","category":"Pub","checkinsCount":1898,"usersCount":922,"tipCount":10,"visitsCount":2130,"url":"http://cocknbulltoledo.com","tier":"","message":"","currency":"","rating":7.2},{"name":"Lil Sheba","address":"1380 W Alexis Rd","lat":41.72156924807026,"lng":-83.57774333759424,"neighborhood":"Whitmer-Trilby","city_fetched":"Toledo","state":"OH","country":"United States","canonicalUrl":"https://foursquare.com/v/lil-sheba/4d43abb23616b60c006bdcc2","category":"Bar","checkinsCount":555,"usersCount":111,"tipCount":3,"visitsCount":629,"tier":"","message":"","currency":"","rating":7.2},{"name":"The Classic","address":"Nebraska Ave","lat":41.64576489,"lng":-83.59663509,"city_fetched":"Toledo","state":"OH","country":"United States","canonicalUrl":"https://foursquare.com/v/the-classic/4d09a317ddb8f04d8ec32faa","category":"Lounge","checkinsCount":319,"usersCount":72,"tipCount":8,"visitsCount":380,"tier":"","message":"","currency":"","rating":7.2},{"name":"Miss Cue Billiard & Darts","address":"1720 S Reynolds Rd","lat":41.6089,"lng":-83.6652982,"city_fetched":"Toledo","state":"OH","country":"United States","canonicalUrl":"https://foursquare.com/v/miss-cue-billiard--darts/4c12d9cfa1010f4757ae4918","category":"Pool Hall","checkinsCount":837,"usersCount":352,"tipCount":5,"visitsCount":975,"tier":"","message":"","currency":"","rating":7.1},{"name":"Peacock Cafe","phone":"4192418004","address":"2007 Monroe St","lat":41.655780475152035,"lng":-83.55135015687263,"neighborhood":"Arts and Entertainment District","city_fetched":"Toledo","state":"OH","country":"United States","canonicalUrl":"https://foursquare.com/v/peacock-cafe/4d39f069ad8860fc9ea11252","category":"Nightclub","checkinsCount":359,"usersCount":58,"tipCount":8,"visitsCount":406,"tier":"","message":"","currency":"","rating":7.1},{"name":"Dexter's Jamaican Restaurant","lat":41.663566885818895,"lng":-83.58775362285982,"neighborhood":"Ottawa","city_fetched":"Toledo","state":"OH","country":"United States","canonicalUrl":"https://foursquare.com/v/dexters-jamaican-restaurant/4eec01af46907303bd5e4022","category":"Nightclub","checkinsCount":113,"usersCount":55,"tipCount":4,"visitsCount":113,"tier":"","message":"","currency":"","rating":7.1},{"name":"Chasers","phone":"4195344961","address":"3529 Dorr St","lat":41.65269923903981,"lng":-83.62729555338518,"city_fetched":"Toledo","state":"OH","country":"United States","canonicalUrl":"https://foursquare.com/v/chasers/4c1862e31436a593df558d75","category":"Nightclub","checkinsCount":1014,"usersCount":425,"tipCount":7,"visitsCount":1048,"url":"http://www.toledochasers.com","tier":"","message":"","currency":"","rating":7.1},{"name":"Centre Court Lounge","phone":"4198659905","address":"5929 Heatherdowns Blvd","lat":41.5942744064276,"lng":-83.68254590321824,"city_fetched":"Toledo","state":"OH","country":"United States","canonicalUrl":"https://foursquare.com/v/centre-court-lounge/4c8abab3770fb60ca456d5c3","category":"Bar","checkinsCount":854,"usersCount":157,"tipCount":3,"visitsCount":883,"tier":"","message":"","currency":"","rating":7},{"name":"Timberwolf Tavern","phone":"4194727970","address":"2604 Jutland St","lat":41.716135063262385,"lng":-83.60734836681243,"neighborhood":"Whitmer-Trilby","city_fetched":"Toledo","state":"OH","country":"United States","canonicalUrl":"https://foursquare.com/v/timberwolf-tavern/4bec7df8b68520a174341287","category":"Dive Bar","checkinsCount":171,"usersCount":77,"tipCount":0,"visitsCount":224,"tier":"","message":"","currency":"","rating":7},{"name":"Buffalo Wild Wings","phone":"4198729464","twitter":"bwwings","address":"26567 Dixie Hwy","lat":41.58736183223245,"lng":-83.56497466333305,"city_fetched":"Toledo","state":"OH","country":"United States","canonicalUrl":"https://foursquare.com/v/buffalo-wild-wings/506364413d7c90dc71e1f396","category":"Wings Joint","checkinsCount":6,"usersCount":5,"tipCount":0,"visitsCount":6,"url":"http://buffalowildwings.com","tier":1,"message":"Cheap","currency":"$","rating":7}]