[{"name":"PT's at College Hill","phone":"7854085675","twitter":"ptscollegehill","address":"1635 SW Washburn Ave","lat":39.03709943617368,"lng":-95.69724932877938,"neighborhood":"College Hill","city_fetched":"Topeka","state":"KS","country":"United States","canonicalUrl":"https://foursquare.com/ptscollegehill","category":"Coffee Shop","checkinsCount":2533,"usersCount":572,"tipCount":23,"visitsCount":3146,"url":"http://www.ptscoffee.com/learn/pts-college-hill","tier":2,"message":"Moderate","currency":"$","rating":8.8},{"name":"The Blue Moose Bar and Grill","phone":"7852726800","address":"3030 SW Wanamaker Rd","lat":39.01237,"lng":-95.761886,"neighborhood":"Southwest Topeka","city_fetched":"Topeka","state":"KS","country":"United States","canonicalUrl":"https://foursquare.com/v/the-blue-moose-bar-and-grill/4ea341828b81a02f89f3b7bd","category":"American Restaurant","checkinsCount":2289,"usersCount":1237,"tipCount":34,"visitsCount":3190,"url":"http://thebluemoosebarandgrill.com","tier":2,"message":"Moderate","currency":"$","rating":8.6},{"name":"The Boobie Trap Bar","phone":"7852329008","address":"1417 SW 6th Ave","lat":39.0563933379896,"lng":-95.69259341186853,"city_fetched":"Topeka","state":"KS","country":"United States","canonicalUrl":"https://foursquare.com/v/the-boobie-trap-bar/4b63bbddf964a520dc8e2ae3","category":"Dive Bar","checkinsCount":2075,"usersCount":324,"tipCount":9,"visitsCount":2193,"url":"http://boobietrapbar.com","tier":"","message":"","currency":"","rating":8.4},{"name":"The Blind Tiger Brewery","phone":"7852676759","address":"417 SW 37th St","lat":39.00025984383815,"lng":-95.68460404872894,"city_fetched":"Topeka","state":"KS","country":"United States","canonicalUrl":"https://foursquare.com/v/the-blind-tiger-brewery/4b622b05f964a520c4392ae3","category":"Brewery","checkinsCount":5713,"usersCount":2096,"tipCount":45,"visitsCount":6892,"url":"http://www.blindtiger.com","tier":2,"message":"Moderate","currency":"$","rating":8.4},{"name":"Old Chicago","phone":"7852735522","address":"1231 SW Wanamaker Rd","lat":39.04439645360378,"lng":-95.7635303676595,"city_fetched":"Topeka","state":"KS","country":"United States","canonicalUrl":"https://foursquare.com/v/old-chicago/4b59f5bff964a520e1a328e3","category":"Pizza Place","checkinsCount":5911,"usersCount":1300,"tipCount":36,"visitsCount":6754,"url":"http://oldchicago.com","tier":2,"message":"Moderate","currency":"$","rating":8.4},{"name":"Speck's Bar & Grill","phone":"7852729749","address":"2105 SW Mission Ave","lat":39.02922116340487,"lng":-95.72635966190597,"city_fetched":"Topeka","state":"KS","country":"United States","canonicalUrl":"https://foursquare.com/v/specks-bar--grill/4b5e2ef9f964a5204e8229e3","category":"Sports Bar","checkinsCount":640,"usersCount":325,"tipCount":5,"visitsCount":711,"url":"http://specksbarandgrill.com","tier":"","message":"","currency":"","rating":8.3},{"name":"The Lazy Toad","phone":"7852728623","address":"5331 SW 22nd Pl","lat":39.02656278258587,"lng":-95.74727465011001,"city_fetched":"Topeka","state":"KS","country":"United States","canonicalUrl":"https://foursquare.com/v/the-lazy-toad/4db5f804f7b121c29f69a3ff","category":"Bar","checkinsCount":1965,"usersCount":613,"tipCount":24,"visitsCount":2416,"url":"http://lazytoad.net","tier":"","message":"","currency":"","rating":8.1},{"name":"Tailgators Pub & Grub","phone":"7852721432","address":"2025 SW Urish Rd","lat":39.02930548031272,"lng":-95.7816432232014,"city_fetched":"Topeka","state":"KS","country":"United States","canonicalUrl":"https://foursquare.com/v/tailgators-pub--grub/4b68bc8bf964a520028a2be3","category":"Sports Bar","checkinsCount":1010,"usersCount":406,"tipCount":11,"visitsCount":1359,"tier":"","message":"","currency":"","rating":8},{"name":"Quinton's","phone":"7852158172","address":"4121 SW Huntoon St","lat":39.04359743082974,"lng":-95.72697666959105,"city_fetched":"Topeka","state":"KS","country":"United States","canonicalUrl":"https://foursquare.com/v/quintons/4b4f5b7cf964a520ee0227e3","category":"Sandwich Place","checkinsCount":1839,"usersCount":615,"tipCount":11,"visitsCount":1973,"url":"http://quintonstopeka.com","tier":"","message":"","currency":"","rating":7.9},{"name":"Blackbird Espresso Bar & Bistro","phone":"7852718188","address":"4025 SW 10th Ave","lat":39.04985208238452,"lng":-95.72705268859863,"city_fetched":"Topeka","state":"KS","country":"United States","canonicalUrl":"https://foursquare.com/v/blackbird-espresso-bar--bistro/4b718607f964a5200f4b2de3","category":"Coffee Shop","checkinsCount":2523,"usersCount":473,"tipCount":30,"visitsCount":2795,"tier":1,"message":"Cheap","currency":"$","rating":7.8},{"name":"Abigail's Bar & Grill","phone":"7852466866","address":"3701 SW Plaza Dr","lat":39.000405604456375,"lng":-95.6923827222917,"city_fetched":"Topeka","state":"KS","country":"United States","canonicalUrl":"https://foursquare.com/v/abigails-bar--grill/4ecdba7be3007feb7a757251","category":"Bar","checkinsCount":597,"usersCount":192,"tipCount":5,"visitsCount":816,"tier":"","message":"","currency":"","rating":7.7},{"name":"Brass Rail","address":"401 NE Emmett St","lat":39.05895364458305,"lng":-95.65024446736658,"neighborhood":"Oakland","city_fetched":"Topeka","state":"KS","country":"United States","canonicalUrl":"https://foursquare.com/v/brass-rail/4b749011f964a52048e42de3","category":"Dive Bar","checkinsCount":333,"usersCount":76,"tipCount":3,"visitsCount":392,"tier":"","message":"","currency":"","rating":7.7},{"name":"Boss Hawg's BBQ & Pigskin's Sports Bar","phone":"7852737300","address":"2833 SW 29th St","lat":39.014240500488455,"lng":-95.7140600681305,"city_fetched":"Topeka","state":"KS","country":"United States","canonicalUrl":"https://foursquare.com/v/boss-hawgs-bbq--pigskins-sports-bar/4b5f8e94f964a5207ac129e3","category":"BBQ Joint","checkinsCount":2005,"usersCount":763,"tipCount":19,"visitsCount":2230,"url":"http://www.bosshawgsbbq.com","tier":2,"message":"Moderate","currency":"$","rating":7.6},{"name":"Celtic Fox","phone":"7852352138","address":"118 SW 8th Ave","lat":39.049242,"lng":-95.67558649399625,"neighborhood":"Downtown Topeka","city_fetched":"Topeka","state":"KS","country":"United States","canonicalUrl":"https://foursquare.com/v/celtic-fox/4afaf908f964a520ff1922e3","category":"Bar","checkinsCount":1408,"usersCount":753,"tipCount":8,"visitsCount":1702,"url":"http://www.thecelticfox.com","tier":"","message":"","currency":"","rating":7.6},{"name":"Terry's Bar and Grill","phone":"7852330326","address":"522 SW 6th Ave","lat":39.053842,"lng":-95.68024666,"city_fetched":"Topeka","state":"KS","country":"United States","canonicalUrl":"https://foursquare.com/v/terrys-bar-and-grill/4b6a019af964a52040c12be3","category":"Bar","checkinsCount":379,"usersCount":242,"tipCount":6,"visitsCount":482,"tier":"","message":"","currency":"","rating":7.6},{"name":"Skinny's","phone":"7852731905","twitter":"skinnysbar","address":"4016 SW Huntoon St","lat":39.04456962173793,"lng":-95.72675043269604,"city_fetched":"Topeka","state":"KS","country":"United States","canonicalUrl":"https://foursquare.com/v/skinnys/4b515159f964a520c14a27e3","category":"Karaoke Bar","checkinsCount":1387,"usersCount":518,"tipCount":6,"visitsCount":1572,"url":"http://www.skinnyssportsbarandgrill.com","tier":2,"message":"Moderate","currency":"$","rating":7.4},{"name":"Norsemen Brewing Company","phone":"7857833999","twitter":"norsemenbrewing","address":"830 N Kansas Ave","lat":39.06706388369992,"lng":-95.66634893417358,"city_fetched":"Topeka","state":"KS","country":"United States","canonicalUrl":"https://foursquare.com/v/norsemen-brewing-company/5752642f498ee5a2f75c0017","category":"Brewery","checkinsCount":8,"usersCount":4,"tipCount":1,"visitsCount":8,"tier":"","message":"","currency":"","rating":7.2},{"name":"Henry T's","phone":"7852339333","twitter":"henrytsbar","address":"1521 SW 21st St","lat":39.02948575421382,"lng":-95.69679737091064,"city_fetched":"Topeka","state":"KS","country":"United States","canonicalUrl":"https://foursquare.com/v/henry-ts/4b462811f964a5206f1826e3","category":"Sports Bar","checkinsCount":1357,"usersCount":706,"tipCount":16,"visitsCount":1803,"url":"http://www.henryts.com","tier":"","message":"","currency":"","rating":7.2},{"name":"Wild Horse Saloon","phone":"7852673545","twitter":"wildhorsetopeka","address":"3249 SW Topeka Blvd","lat":39.0083956033835,"lng":-95.68871889894531,"city_fetched":"Topeka","state":"KS","country":"United States","canonicalUrl":"https://foursquare.com/v/wild-horse-saloon/4b73a4b9f964a5200cb72de3","category":"Nightclub","checkinsCount":895,"usersCount":393,"tipCount":12,"visitsCount":1049,"tier":1,"message":"Cheap","currency":"$","rating":7.2},{"name":"Oscars","lat":39.0401453,"lng":-95.695184,"neighborhood":"Central Park","city_fetched":"Topeka","state":"KS","country":"United States","canonicalUrl":"https://foursquare.com/v/oscars/4b67bb41f964a5203b5c2be3","category":"Dive Bar","checkinsCount":640,"usersCount":124,"tipCount":3,"visitsCount":659,"tier":"","message":"","currency":"","rating":7},{"name":"Victoria's","address":"5015 SW Topeka Blvd","lat":38.976648200576705,"lng":-95.68809201217987,"city_fetched":"Topeka","state":"KS","country":"United States","canonicalUrl":"https://foursquare.com/v/victorias/4df420f8d1649c8a28e5b399","category":"Bar","checkinsCount":93,"usersCount":92,"tipCount":1,"visitsCount":179,"tier":"","message":"","currency":"","rating":6.7},{"name":"Jeremiah Bullfrogs Bar and Grille","phone":"7852723764","twitter":"bullfrogslive","address":"2940 SW Wanamaker Rd","lat":39.01357208333334,"lng":-95.76156198978424,"neighborhood":"Southwest Topeka","city_fetched":"Topeka","state":"KS","country":"United States","canonicalUrl":"https://foursquare.com/v/jeremiah-bullfrogs-bar-and-grille/4bda23262a3a0f479afba9b6","category":"Sports Bar","checkinsCount":1501,"usersCount":512,"tipCount":19,"visitsCount":1831,"url":"http://www.bullfrogslive.com","tier":2,"message":"Moderate","currency":"$","rating":6.7},{"name":"The Senate Luxury Suites","phone":"7852335050","address":"900 SW Tyler St","lat":39.04880211564051,"lng":-95.68192626639505,"city_fetched":"Topeka","state":"KS","country":"United States","canonicalUrl":"https://foursquare.com/v/the-senate-luxury-suites/4d670fbf2433a143725e47e0","category":"Hotel","checkinsCount":351,"usersCount":132,"tipCount":4,"visitsCount":403,"tier":"","message":"","currency":"","rating":6.5},{"name":"The Shack Bar & Grill","phone":"7852664571","address":"2842 SE 29th St","lat":39.01628266488964,"lng":-95.63162752293587,"city_fetched":"Topeka","state":"KS","country":"United States","canonicalUrl":"https://foursquare.com/v/the-shack-bar--grill/4ba27bbef964a5202cfd37e3","category":"Burger Joint","checkinsCount":478,"usersCount":224,"tipCount":4,"visitsCount":662,"tier":"","message":"","currency":"","rating":6.4},{"name":"Goose Again","phone":"7852736223","address":"5630 SW 29th St","lat":39.01541659199139,"lng":-95.75084435473767,"neighborhood":"Southwest Topeka","city_fetched":"Topeka","state":"KS","country":"United States","canonicalUrl":"https://foursquare.com/v/goose-again/4bb8340453649c74ffdd46fb","category":"Sports Bar","checkinsCount":556,"usersCount":149,"tipCount":3,"visitsCount":609,"tier":1,"message":"Cheap","currency":"$","rating":6.4},{"name":"The Office Bar","phone":"7853549380","address":"124 SW 8th Ave","lat":39.049245,"lng":-95.675709,"neighborhood":"Downtown Topeka","city_fetched":"Topeka","state":"KS","country":"United States","canonicalUrl":"https://foursquare.com/v/the-office-bar/4b68ab44f964a52020862be3","category":"Dive Bar","checkinsCount":680,"usersCount":214,"tipCount":8,"visitsCount":689,"tier":"","message":"","currency":"","rating":6.4},{"name":"Dugout Bar & Grill","phone":"7852738430","address":"1545 SW Fairlawn Rd","lat":39.03795408333333,"lng":-95.743687748909,"city_fetched":"Topeka","state":"KS","country":"United States","canonicalUrl":"https://foursquare.com/v/dugout-bar--grill/4b7f52aef964a5207b2730e3","category":"Sports Bar","checkinsCount":717,"usersCount":167,"tipCount":5,"visitsCount":945,"tier":"","message":"","currency":"","rating":6.2},{"name":"Reeds Lakeside","phone":"7852677400","address":"2920 SE Croco Rd","lat":39.013798184947504,"lng":-95.61377084248032,"neighborhood":"East Topeka","city_fetched":"Topeka","state":"KS","country":"United States","canonicalUrl":"https://foursquare.com/v/reeds-lakeside/4b72dcebf964a5202a8c2de3","category":"Bar","checkinsCount":1044,"usersCount":426,"tipCount":6,"visitsCount":1243,"tier":"","message":"","currency":"","rating":6.2},{"name":"The Dutch Goose","phone":"7853578474","twitter":"thedutchgoose","address":"3203 SW 10th Ave","lat":39.05105216,"lng":-95.717554,"neighborhood":"Central Topeka","city_fetched":"Topeka","state":"KS","country":"United States","canonicalUrl":"https://foursquare.com/v/the-dutch-goose/4b5ce681f964a5200e4a29e3","category":"Dive Bar","checkinsCount":857,"usersCount":225,"tipCount":3,"visitsCount":1077,"tier":"","message":"","currency":"","rating":6.2},{"name":"the spot tavern","address":"2202 SW Buchanan St","lat":39.027845,"lng":-95.692463,"city_fetched":"Topeka","state":"KS","country":"United States","canonicalUrl":"https://foursquare.com/v/the-spot-tavern/4c3f7b28e26920a1d8805be7","category":"Bar","checkinsCount":244,"usersCount":82,"tipCount":5,"visitsCount":271,"tier":"","message":"","currency":"","rating":6.1},{"name":"Skivies","phone":"7852340482","address":"921 S Kansas Ave","lat":39.04641088513154,"lng":-95.67584395408629,"neighborhood":"Downtown Topeka","city_fetched":"Topeka","state":"KS","country":"United States","canonicalUrl":"https://foursquare.com/v/skivies/4da79443cda119a2c8eaec48","category":"Gay Bar","checkinsCount":869,"usersCount":192,"tipCount":7,"visitsCount":941,"tier":1,"message":"Cheap","currency":"$","rating":5.9},{"name":"Wellers","address":"220 222 NW Independence Ave","lat":39.08532700881069,"lng":-95.6632222958237,"city_fetched":"Topeka","state":"KS","country":"United States","canonicalUrl":"https://foursquare.com/v/wellers/4ca12c21d3c2b60cfc87e3bc","category":"Sports Bar","checkinsCount":420,"usersCount":176,"tipCount":10,"visitsCount":488,"tier":"","message":"","currency":"","rating":5.6}]