[{"name":"The Berkshire Cafe","phone":"8604890600","address":"71 Albert St","lat":41.795218,"lng":-73.1225,"city_fetched":"Torrington","state":"CT","country":"United States","canonicalUrl":"https://foursquare.com/v/the-berkshire-cafe/4c1505c1a5eb76b06792c2b7","category":"Pub","checkinsCount":237,"usersCount":169,"tipCount":4,"visitsCount":356,"tier":"","message":"","currency":"","rating":8.4},{"name":"Backstage","phone":"8604898900","twitter":"backstageedl","address":"84 Main St","lat":41.802104,"lng":-73.1213629245758,"city_fetched":"Torrington","state":"CT","country":"United States","canonicalUrl":"https://foursquare.com/backstageedl","category":"Gastropub","checkinsCount":3624,"usersCount":976,"tipCount":37,"visitsCount":4110,"url":"http://www.backstageeatdrinklive.com","tier":2,"message":"Moderate","currency":"$","rating":8},{"name":"Sawyer's Bar & Grill","phone":"8606185411","twitter":"sawyersttown","address":"79 Center St","lat":41.80039170429176,"lng":-73.1178999040835,"city_fetched":"Torrington","state":"CT","country":"United States","canonicalUrl":"https://foursquare.com/v/sawyers-bar--grill/5023fedee4b07e351c154917","category":"Bar","checkinsCount":382,"usersCount":147,"tipCount":7,"visitsCount":458,"url":"http://sawyersbarandgrill.com","tier":"","message":"","currency":"","rating":7.9},{"name":"Cilfones Eastside Cafe","phone":"8604898082","address":"823 New Harwinton Rd","lat":41.801379919052124,"lng":-73.09058725833893,"city_fetched":"Torrington","state":"CT","country":"United States","canonicalUrl":"https://foursquare.com/v/cilfones-eastside-cafe/4c127ef08aedd13ac64d5137","category":"Bar","checkinsCount":118,"usersCount":79,"tipCount":2,"visitsCount":156,"tier":"","message":"","currency":"","rating":7.1},{"name":"Ninety Nine Restaurant","phone":"8604891299","twitter":"99restaurants","address":"1 S Main St","lat":41.79972731262281,"lng":-73.12070846557617,"city_fetched":"Torrington","state":"CT","country":"United States","canonicalUrl":"https://foursquare.com/v/ninety-nine-restaurant/4b92de2df964a520e32234e3","category":"American Restaurant","checkinsCount":1094,"usersCount":623,"tipCount":6,"visitsCount":1375,"url":"http://www.facebook.com/99restaurants","tier":2,"message":"Moderate","currency":"$","rating":6.4},{"name":"Gina's Cafe","phone":"8604967234","address":"229 N Elm St","lat":41.812222785591025,"lng":-73.1277716486123,"city_fetched":"Torrington","state":"CT","country":"United States","canonicalUrl":"https://foursquare.com/v/ginas-cafe/4c1f9e03e923ef3bcec74e54","category":"Karaoke Bar","checkinsCount":137,"usersCount":61,"tipCount":4,"visitsCount":153,"tier":"","message":"","currency":"","rating":6.3},{"name":"O'Connors Public House","phone":"8606185520","address":"26 E Main St","lat":41.80107237783864,"lng":-73.12061424412516,"city_fetched":"Torrington","state":"CT","country":"United States","canonicalUrl":"https://foursquare.com/v/oconnors-public-house/5333183b498e181ab8f3e6c4","category":"Pub","checkinsCount":153,"usersCount":111,"tipCount":5,"visitsCount":208,"tier":"","message":"","currency":"","rating":6.2},{"name":"Snapper Maggees","lat":41.80206794021312,"lng":-73.12600248818059,"city_fetched":"Torrington","state":"CT","country":"United States","canonicalUrl":"https://foursquare.com/v/snapper-maggees/4bd25bef046076b0ebf17371","category":"Bar","checkinsCount":350,"usersCount":122,"tipCount":6,"visitsCount":350,"tier":"","message":"","currency":"","rating":5.1}]