[{"name":"The Filling Station","phone":"2319468168","address":"642 Railroad Pl","lat":44.758121568484675,"lng":-85.60964794995922,"city_fetched":"Traverse City,US","state":"MI","country":"United States","canonicalUrl":"https://foursquare.com/v/the-filling-station/4f57e16ae4b0882cd63bf1ec","categoryId":"50327c8591d4c4b30a586d5d","category":"Brewery","checkinsCount":2239,"usersCount":1773,"tipCount":39,"visitsCount":2844,"url":"http://thefillingstationmicrobrewery.com","tier":2,"message":"Moderate","currency":"$","rating":9.3},{"name":"Jolly Pumpkin","phone":"2312234333","address":"13512 Peninsula Dr","lat":44.886227726157934,"lng":-85.52828936433365,"city_fetched":"Traverse City,US","state":"MI","country":"United States","canonicalUrl":"https://foursquare.com/v/jolly-pumpkin/4b8ede7af964a520cd3b33e3","categoryId":"50327c8591d4c4b30a586d5d","category":"Brewery","checkinsCount":4326,"usersCount":3466,"tipCount":63,"visitsCount":5167,"url":"http://www.jollypumpkin.com/traversecity/","tier":2,"message":"Moderate","currency":"$","rating":9.3},{"name":"7 Monks Taproom","phone":"2314218410","address":"128 S Union St","lat":44.763083217911216,"lng":-85.62408328056335,"city_fetched":"Traverse City,US","state":"MI","country":"United States","canonicalUrl":"https://foursquare.com/v/7-monks-taproom/4e615144b993678bb5df1d09","categoryId":"4bf58dd8d48988d116941735","category":"Bar","checkinsCount":6316,"usersCount":3118,"tipCount":64,"visitsCount":6921,"url":"http://www.7monkstap.com","tier":2,"message":"Moderate","currency":"$","rating":9.1},{"name":"North Peak Brewing Company","phone":"2319417325","address":"400 W Front St","lat":44.76424499,"lng":-85.628398,"city_fetched":"Traverse City,US","state":"MI","country":"United States","canonicalUrl":"https://foursquare.com/v/north-peak-brewing-company/4b511419f964a5203d4127e3","categoryId":"50327c8591d4c4b30a586d5d","category":"Brewery","checkinsCount":8068,"usersCount":5911,"tipCount":92,"visitsCount":9507,"url":"http://northpeak.net","tier":2,"message":"Moderate","currency":"$","rating":9},{"name":"Bubba's","phone":"2319950570","address":"428 E Front St","lat":44.763982103945196,"lng":-85.61447829008101,"city_fetched":"Traverse City,US","state":"MI","country":"United States","canonicalUrl":"https://foursquare.com/v/bubbas/4b6caf51f964a5200e4c2ce3","categoryId":"4bf58dd8d48988d116941735","category":"Bar","checkinsCount":4271,"usersCount":2497,"tipCount":64,"visitsCount":4875,"url":"http://www.tcfood.com","tier":2,"message":"Moderate","currency":"$","rating":9},{"name":"Right Brain Brewery","phone":"2319441239","twitter":"rightbrainbrew","address":"225 E Sixteenth St","lat":44.74958888572481,"lng":-85.61942817487322,"city_fetched":"Traverse City,US","state":"MI","country":"United States","canonicalUrl":"https://foursquare.com/v/right-brain-brewery/4a58f342f964a52046b81fe3","categoryId":"50327c8591d4c4b30a586d5d","category":"Brewery","checkinsCount":4996,"usersCount":3047,"tipCount":67,"visitsCount":5714,"url":"http://www.rightbrainbrewery.com","tier":2,"message":"Moderate","currency":"$","rating":9},{"name":"The Little Fleet","phone":"2319431116","twitter":"thelittlefleet","address":"448 E Front St","lat":44.76383736900306,"lng":-85.61374068260193,"city_fetched":"Traverse City,US","state":"MI","country":"United States","canonicalUrl":"https://foursquare.com/v/the-little-fleet/51941441498e2998b8011712","categoryId":"4bf58dd8d48988d117941735","category":"Beer Garden","checkinsCount":1939,"usersCount":1261,"tipCount":18,"visitsCount":2669,"url":"http://www.thelittlefleet.com","tier":"","message":"","currency":"","rating":9},{"name":"Rare Bird Brewpub","phone":"2319432053","twitter":"rarebirdbrewpub","address":"229 Lake Ave","lat":44.75987796593953,"lng":-85.6194993853569,"city_fetched":"Traverse City,US","state":"MI","country":"United States","canonicalUrl":"https://foursquare.com/rarebirdbrewpub","categoryId":"50327c8591d4c4b30a586d5d","category":"Brewery","checkinsCount":1256,"usersCount":1110,"tipCount":11,"visitsCount":1901,"url":"http://rarebirdbrewpub.com","tier":2,"message":"Moderate","currency":"$","rating":8.7},{"name":"Brewery Terra Firma","phone":"2319291600","twitter":"brewterrafirma","address":"2959 Hartman Rd","lat":44.7151182594014,"lng":-85.63491321148143,"city_fetched":"Traverse City,US","state":"MI","country":"United States","canonicalUrl":"https://foursquare.com/v/brewery-terra-firma/4e4ef0701f6eae4d25136415","categoryId":"50327c8591d4c4b30a586d5d","category":"Brewery","checkinsCount":808,"usersCount":627,"tipCount":17,"visitsCount":1018,"url":"http://www.breweryterrafirma.com","tier":1,"message":"Cheap","currency":"$","rating":8.7},{"name":"The Parlor","address":"205 Lake Ave","lat":44.760242,"lng":-85.620378,"city_fetched":"Traverse City,US","state":"MI","country":"United States","canonicalUrl":"https://foursquare.com/v/the-parlor/52a3bc7611d229a230f57362","categoryId":"4bf58dd8d48988d11e941735","category":"Cocktail Bar","checkinsCount":315,"usersCount":222,"tipCount":8,"visitsCount":448,"url":"http://www.theparlortc.com","tier":"","message":"","currency":"","rating":8.5},{"name":"Beacon Lounge","address":"300 E State St","lat":44.762538547111156,"lng":-85.61824679374695,"city_fetched":"Traverse City,US","state":"MI","country":"United States","canonicalUrl":"https://foursquare.com/v/beacon-lounge/4b6e0adaf964a520d2a52ce3","categoryId":"4bf58dd8d48988d1d5941735","category":"Hotel Bar","checkinsCount":583,"usersCount":335,"tipCount":12,"visitsCount":589,"tier":"","message":"","currency":"","rating":8.3},{"name":"The Workshop Brewing Company","phone":"2314218977","twitter":"workshopbrewing","address":"221 Garland St Ste A","lat":44.765250423583915,"lng":-85.62595546245575,"city_fetched":"Traverse City,US","state":"MI","country":"United States","canonicalUrl":"https://foursquare.com/v/the-workshop-brewing-company/52067bf011d252a880635b63","categoryId":"50327c8591d4c4b30a586d5d","category":"Brewery","checkinsCount":1261,"usersCount":1099,"tipCount":24,"visitsCount":1816,"url":"http://traversecityworkshop.com","tier":2,"message":"Moderate","currency":"$","rating":8.3},{"name":"Low Bar","address":"128 S Union St","lat":44.76315919973017,"lng":-85.62416200350906,"city_fetched":"Traverse City,US","state":"MI","country":"United States","canonicalUrl":"https://foursquare.com/v/low-bar/529fc7c0498eb1450006101f","categoryId":"4bf58dd8d48988d1d4941735","category":"Speakeasy","checkinsCount":479,"usersCount":333,"tipCount":8,"visitsCount":498,"url":"http://lowbartc.com","tier":"","message":"","currency":"","rating":8.1},{"name":"taproot cider house","lat":44.76399412427599,"lng":-85.61792711712593,"city_fetched":"Traverse City,US","state":"MI","country":"United States","canonicalUrl":"https://foursquare.com/v/taproot-cider-house/56bfdc9bcd107f5cf40bbb38","categoryId":"56aa371ce4b08b9a8d57356c","category":"Beer Bar","checkinsCount":125,"usersCount":151,"tipCount":1,"visitsCount":186,"tier":"","message":"","currency":"","rating":8},{"name":"Mackinaw Brewing Company","phone":"2319331100","twitter":"mackinawbrewing","address":"161 E Front St","lat":44.76419539688314,"lng":-85.62118649482727,"city_fetched":"Traverse City,US","state":"MI","country":"United States","canonicalUrl":"https://foursquare.com/v/mackinaw-brewing-company/4b77354cf964a520e9872ee3","categoryId":"50327c8591d4c4b30a586d5d","category":"Brewery","checkinsCount":4792,"usersCount":3930,"tipCount":74,"visitsCount":5135,"url":"http://www.mackinawbrewing.com","tier":2,"message":"Moderate","currency":"$","rating":7.9},{"name":"Left Foot Charley","phone":"2319950500","address":"806 Red Dr","lat":44.75631645818715,"lng":-85.6451153170387,"city_fetched":"Traverse City,US","state":"MI","country":"United States","canonicalUrl":"https://foursquare.com/v/left-foot-charley/4b9fed6bf964a5200e4b37e3","categoryId":"4bf58dd8d48988d123941735","category":"Wine Bar","checkinsCount":1990,"usersCount":1205,"tipCount":21,"visitsCount":2119,"url":"http://leftfootcharley.com","tier":2,"message":"Moderate","currency":"$","rating":7.9},{"name":"Northern Natural","phone":"2319431078","address":"324 E Front St","lat":44.76410915055951,"lng":-85.61716402141597,"city_fetched":"Traverse City,US","state":"MI","country":"United States","canonicalUrl":"https://foursquare.com/v/northern-natural/51420404e4b0101def8775c4","categoryId":"4bf58dd8d48988d123941735","category":"Wine Bar","checkinsCount":484,"usersCount":322,"tipCount":13,"visitsCount":524,"url":"http://www.northernnaturalwinery.com","tier":2,"message":"Moderate","currency":"$","rating":7.8},{"name":"Side Traxx","phone":"2319351666","address":"520 Franklin St","lat":44.758454540075064,"lng":-85.61131493219467,"city_fetched":"Traverse City,US","state":"MI","country":"United States","canonicalUrl":"https://foursquare.com/v/side-traxx/4bb7f8a298c7ef3be9a93002","categoryId":"4bf58dd8d48988d1d8941735","category":"Gay Bar","checkinsCount":1799,"usersCount":457,"tipCount":13,"visitsCount":2034,"url":"http://www.sidetraxxtc.com","tier":"","message":"","currency":"","rating":7.8},{"name":"Traverse City Whiskey Co.","phone":"2319228292","address":"201 E Fourteenth St","lat":44.75187406092288,"lng":-85.62076854861562,"city_fetched":"Traverse City,US","state":"MI","country":"United States","canonicalUrl":"https://foursquare.com/v/traverse-city-whiskey-co/55048ef5498eded0dbf262b8","categoryId":"4bf58dd8d48988d122941735","category":"Whisky Bar","checkinsCount":120,"usersCount":189,"tipCount":1,"visitsCount":239,"url":"http://tcwhiskey.com","tier":"","message":"","currency":"","rating":7.7},{"name":"U&I Lounge","phone":"2319468932","address":"214 E Front St","lat":44.763911963746544,"lng":-85.62013099676435,"city_fetched":"Traverse City,US","state":"MI","country":"United States","canonicalUrl":"https://foursquare.com/v/ui-lounge/4b7df551f964a52026dc2fe3","categoryId":"4bf58dd8d48988d116941735","category":"Bar","checkinsCount":3030,"usersCount":1406,"tipCount":25,"visitsCount":3218,"url":"http://www.uandilounge.com","tier":1,"message":"Cheap","currency":"$","rating":7.4},{"name":"Mulligans Pub & Grill","phone":"2319322166","address":"2430 West Crown Dr","lat":44.72029198736419,"lng":-85.68752867808068,"city_fetched":"Traverse City,US","state":"MI","country":"United States","canonicalUrl":"https://foursquare.com/v/mulligans-pub--grill/4b817047f964a5200ba630e3","categoryId":"4bf58dd8d48988d11b941735","category":"Pub","checkinsCount":433,"usersCount":140,"tipCount":5,"visitsCount":473,"tier":"","message":"","currency":"","rating":6.9},{"name":"TASTES of Black Star Farms","phone":"2319441349","twitter":"bstar2009","address":"800 Cottageview Dr","lat":44.755784964435485,"lng":-85.6433629989624,"city_fetched":"Traverse City,US","state":"MI","country":"United States","canonicalUrl":"https://foursquare.com/v/tastes-of-black-star-farms/4cc473edc844721e0564e901","categoryId":"4bf58dd8d48988d123941735","category":"Wine Bar","checkinsCount":325,"usersCount":266,"tipCount":7,"visitsCount":328,"url":"http://www.blackstarfarms.com","tier":"","message":"","currency":"","rating":6.8},{"name":"Union Street Station","phone":"2319411930","address":"117 S Union St","lat":44.76349744957125,"lng":-85.6236148486025,"city_fetched":"Traverse City,US","state":"MI","country":"United States","canonicalUrl":"https://foursquare.com/v/union-street-station/4b9c5f40f964a520aa6336e3","categoryId":"4bf58dd8d48988d116941735","category":"Bar","checkinsCount":2373,"usersCount":952,"tipCount":11,"visitsCount":2409,"url":"http://unionstreetstationtc.net","tier":1,"message":"Cheap","currency":"$","rating":6.7},{"name":"Brewery Ferment","phone":"2317358113","twitter":"breweryferment","address":"511 S Union St","lat":44.758805699948994,"lng":-85.62354147434233,"city_fetched":"Traverse City,US","state":"MI","country":"United States","canonicalUrl":"https://foursquare.com/v/brewery-ferment/505cf805e4b08dae9ac98227","categoryId":"50327c8591d4c4b30a586d5d","category":"Brewery","checkinsCount":1018,"usersCount":509,"tipCount":7,"visitsCount":1155,"url":"http://www.breweryferment.com","tier":"","message":"","currency":"","rating":6.5},{"name":"Dillinger's","phone":"2319412276","address":"121 S Union St","lat":44.763319367291636,"lng":-85.62346369028091,"city_fetched":"Traverse City,US","state":"MI","country":"United States","canonicalUrl":"https://foursquare.com/v/dillingers/4b6ccd2bf964a5206e552ce3","categoryId":"4bf58dd8d48988d116941735","category":"Bar","checkinsCount":3392,"usersCount":1044,"tipCount":4,"visitsCount":3467,"url":"http://dillingerspub.net","tier":"","message":"","currency":"","rating":6.4},{"name":"State Street Grille","phone":"2319474263","address":"221 E State St","lat":44.76307703506311,"lng":-85.6199753727149,"city_fetched":"Traverse City,US","state":"MI","country":"United States","canonicalUrl":"https://foursquare.com/v/state-street-grille/4ba13bd5f964a52084a437e3","categoryId":"4bf58dd8d48988d116941735","category":"Bar","checkinsCount":1953,"usersCount":720,"tipCount":28,"visitsCount":2044,"tier":1,"message":"Cheap","currency":"$","rating":6.3},{"name":"Jack's Sports Bar","lat":44.7781,"lng":-85.48811425,"city_fetched":"Traverse City,US","state":"MI","country":"United States","canonicalUrl":"https://foursquare.com/v/jacks-sports-bar/4e028dbfb0fb88a1209ac8cd","categoryId":"4bf58dd8d48988d11d941735","category":"Sports Bar","checkinsCount":302,"usersCount":236,"tipCount":3,"visitsCount":304,"tier":"","message":"","currency":"","rating":6.3},{"name":"Ground Zero Nightclub","phone":"2319321300","address":"1669 S Garfield Ave","lat":44.737283800558245,"lng":-85.59349536895752,"city_fetched":"Traverse City,US","state":"MI","country":"United States","canonicalUrl":"https://foursquare.com/v/ground-zero-nightclub/4ba41563f964a520a77f38e3","categoryId":"4bf58dd8d48988d11f941735","category":"Nightclub","checkinsCount":632,"usersCount":265,"tipCount":6,"visitsCount":696,"tier":"","message":"","currency":"","rating":5.8},{"name":"Bootlegger's","phone":"2319227742","address":"119 S Union St","lat":44.763387926608345,"lng":-85.62352538108826,"city_fetched":"Traverse City,US","state":"MI","country":"United States","canonicalUrl":"https://foursquare.com/v/bootleggers/4b80990ff964a520ec7f30e3","categoryId":"4bf58dd8d48988d116941735","category":"Bar","checkinsCount":2949,"usersCount":1042,"tipCount":10,"visitsCount":2970,"tier":"","message":"","currency":"","rating":5.7}]