[{"name":"Griffin Claw Brewing Company","phone":"2487124050","twitter":"griffinclaw","address":"575 S Eton St","lat":42.543540144929,"lng":-83.1955361366272,"city_fetched":"Troy","state":"MI","country":"United States","canonicalUrl":"https://foursquare.com/v/griffin-claw-brewing-company/50f03dbe067d4609d1ff65b6","category":"Brewery","checkinsCount":4521,"usersCount":2773,"tipCount":52,"visitsCount":6484,"url":"http://www.griffinclawbrewingcompany.com","tier":2,"message":"Moderate","currency":"$","rating":9},{"name":"Mon Jin Lau","phone":"2486892332","twitter":"monjinlau","address":"1515 E Maple Rd","lat":42.54950158560057,"lng":-83.12113007982333,"city_fetched":"Troy","state":"MI","country":"United States","canonicalUrl":"https://foursquare.com/v/mon-jin-lau/4abd563bf964a520ca8920e3","category":"Chinese Restaurant","checkinsCount":3664,"usersCount":2348,"tipCount":51,"visitsCount":4345,"url":"http://www.monjinlau.com","tier":2,"message":"Moderate","currency":"$","rating":8.8},{"name":"Granite City Food & Brewery","phone":"2485191040","twitter":"gcfb","address":"699 W Big Beaver Rd","lat":42.561571361531534,"lng":-83.16115490003844,"neighborhood":"Downtown Troy","city_fetched":"Troy","state":"MI","country":"United States","canonicalUrl":"https://foursquare.com/v/granite-city-food--brewery/4f9eadfde4b0a3d1ddece211","category":"Brewery","checkinsCount":9367,"usersCount":5298,"tipCount":102,"visitsCount":11624,"url":"http://gcfb.net","tier":2,"message":"Moderate","currency":"$","rating":8.1},{"name":"The Hills City Grille","phone":"2485281620","twitter":"thehillscity","address":"2490 Rochester Rd","lat":42.56217472,"lng":-83.1285476,"neighborhood":"Rochester Road","city_fetched":"Troy","state":"MI","country":"United States","canonicalUrl":"https://foursquare.com/v/the-hills-city-grille/4c58fd66b05c1b8de3dcd4b1","category":"Breakfast Spot","checkinsCount":3196,"usersCount":1248,"tipCount":40,"visitsCount":3385,"url":"http://www.thehillscity.com","tier":2,"message":"Moderate","currency":"$","rating":7.6},{"name":"CJ Mahoney's","phone":"2482734600","twitter":"morellox","address":"2511 Livernois Rd","lat":42.55769935848194,"lng":-83.14815109602854,"neighborhood":"Downtown Troy","city_fetched":"Troy","state":"MI","country":"United States","canonicalUrl":"https://foursquare.com/v/cj-mahoneys/4bad6d28f964a520f04e3be3","category":"Pub","checkinsCount":5780,"usersCount":1979,"tipCount":19,"visitsCount":6359,"url":"http://www.myspace.com/cjmahoneys","tier":2,"message":"Moderate","currency":"$","rating":7.2},{"name":"Parrot Cove","phone":"2485856080","address":"33475 Dequindre Rd","lat":42.538310302908826,"lng":-83.08785690363582,"city_fetched":"Troy","state":"MI","country":"United States","canonicalUrl":"https://foursquare.com/v/parrot-cove/4c804ce62f1c236addc62543","category":"Bar","checkinsCount":774,"usersCount":392,"tipCount":18,"visitsCount":874,"url":"http://www.parrotcoveyachtclub.com","tier":"","message":"","currency":"","rating":7.2},{"name":"TGI Fridays","phone":"2485249489","twitter":"tgifridays","address":"591 W Big Beaver Rd","lat":42.561758338792195,"lng":-83.15472137747533,"neighborhood":"Downtown Troy","city_fetched":"Troy","state":"MI","country":"United States","canonicalUrl":"https://foursquare.com/v/tgi-fridays/509d636c5d2463e871547f2b","category":"American Restaurant","checkinsCount":3601,"usersCount":1977,"tipCount":27,"visitsCount":3871,"url":"http://tgifridays.com","tier":2,"message":"Moderate","currency":"$","rating":6.9},{"name":"Bailey's","phone":"2484353044","twitter":"baileyspubtroy","address":"1965 West Maple Road","lat":42.54615461,"lng":-83.17207788,"city_fetched":"Troy","state":"MI","country":"United States","canonicalUrl":"https://foursquare.com/v/baileys/4af34dacf964a52073ec21e3","category":"Sports Bar","checkinsCount":6466,"usersCount":2597,"tipCount":51,"visitsCount":7465,"url":"http://t.co/IGrH8HORCs","tier":2,"message":"Moderate","currency":"$","rating":6.8},{"name":"Norm's Field Of Dreams","phone":"2485779188","twitter":"normsfod","address":"1090 Rochester Rd","lat":42.542604374089564,"lng":-83.1333432876931,"city_fetched":"Troy","state":"MI","country":"United States","canonicalUrl":"https://foursquare.com/v/norms-field-of-dreams/4b456e56f964a520a10c26e3","category":"Sports Bar","checkinsCount":2734,"usersCount":877,"tipCount":18,"visitsCount":3082,"url":"http://www.normsfieldofdreams.com","tier":1,"message":"Cheap","currency":"$","rating":6.7},{"name":"Hamlin Pub & Grill","phone":"2482477962","address":"3946 Rochester Rd","lat":42.5767686192361,"lng":-83.12775021502355,"neighborhood":"Rochester Road","city_fetched":"Troy","state":"MI","country":"United States","canonicalUrl":"https://foursquare.com/v/hamlin-pub--grill/4b1ab268f964a520a1ef23e3","category":"Pub","checkinsCount":936,"usersCount":461,"tipCount":14,"visitsCount":1036,"tier":"","message":"","currency":"","rating":6.4},{"name":"Gathering Place","phone":"2486892039","address":"3985 John R Rd","lat":42.57783605229995,"lng":-83.10923415002968,"city_fetched":"Troy","state":"MI","country":"United States","canonicalUrl":"https://foursquare.com/v/gathering-place/41326e00f964a520960e1fe3","category":"Bar","checkinsCount":1184,"usersCount":534,"tipCount":5,"visitsCount":1279,"tier":1,"message":"Cheap","currency":"$","rating":6.3},{"name":"Riparian Grille","phone":"2488797500","twitter":"embassysuites","address":"850 Tower Dr","lat":42.59732,"lng":-83.163442,"city_fetched":"Troy","state":"MI","country":"United States","canonicalUrl":"https://foursquare.com/v/riparian-grille/4ba80e02f964a52080c939e3","category":"Hotel Bar","checkinsCount":528,"usersCount":172,"tipCount":3,"visitsCount":554,"tier":"","message":"","currency":"","rating":6},{"name":"Big Beaver Tavern","phone":"2486800066","address":"645 E Big Beaver Rd","lat":42.563393,"lng":-83.135215,"neighborhood":"Downtown Troy","city_fetched":"Troy","state":"MI","country":"United States","canonicalUrl":"https://foursquare.com/v/big-beaver-tavern/4b2030caf964a520782e24e3","category":"Sports Bar","checkinsCount":3811,"usersCount":1541,"tipCount":26,"visitsCount":4317,"url":"http://www.bigbeavertavern.com","tier":2,"message":"Moderate","currency":"$","rating":6}]