[{"name":"The Lodge Restaurant & Pub","phone":"5305879455","twitter":"tahoedonner","address":"12850 Northwoods Blvd","lat":39.35225984531641,"lng":-120.23350992138573,"city_fetched":"Truckee","state":"CA","country":"United States","canonicalUrl":"https://foursquare.com/v/the-lodge-restaurant--pub/4c01bcde27dcc9286c15e152","category":"Pub","checkinsCount":379,"usersCount":351,"tipCount":5,"visitsCount":666,"url":"http://www.thelodge-tahoe.com","tier":"","message":"","currency":"","rating":8.8},{"name":"FiftyFifty Brewing Co.","phone":"5305872337","twitter":"5050brewtruckee","address":"11197 Brockway Rd Spc 1","lat":39.32195198421805,"lng":-120.16325748393868,"city_fetched":"Truckee","state":"CA","country":"United States","canonicalUrl":"https://foursquare.com/v/fiftyfifty-brewing-co/4b3e77a8f964a5209c9d25e3","category":"Brewery","checkinsCount":2793,"usersCount":2174,"tipCount":36,"visitsCount":3440,"url":"http://fiftyfiftybrewing.com","tier":2,"message":"Moderate","currency":"$","rating":8.6},{"name":"Moody's Bistro Bar & Beats","phone":"5305878688","twitter":"bistrobarbeats","address":"10007 Bridge St","lat":39.32838322810338,"lng":-120.1840823328135,"city_fetched":"Truckee","state":"CA","country":"United States","canonicalUrl":"https://foursquare.com/v/moodys-bistro-bar--beats/4a91dc9df964a520261c20e3","category":"American Restaurant","checkinsCount":1505,"usersCount":1275,"tipCount":36,"visitsCount":1710,"url":"http://www.moodysbistro.com","tier":3,"message":"Expensive","currency":"$","rating":8.5},{"name":"Mellow Fellow","phone":"5302148927","address":"10192 Donner Pass Rd","lat":39.327216086869726,"lng":-120.1880225633128,"city_fetched":"Truckee","state":"CA","country":"United States","canonicalUrl":"https://foursquare.com/v/mellow-fellow/51b01597498ecd61ed05251f","category":"Bar","checkinsCount":410,"usersCount":275,"tipCount":5,"visitsCount":428,"tier":2,"message":"Moderate","currency":"$","rating":8.3},{"name":"Cottonwood Restaurant & Bar","phone":"5305875711","address":"10142 Rue Hilltop","lat":39.3252557516098,"lng":-120.182522,"city_fetched":"Truckee","state":"CA","country":"United States","canonicalUrl":"https://foursquare.com/v/cottonwood-restaurant--bar/4b381660f964a520754b25e3","category":"American Restaurant","checkinsCount":949,"usersCount":901,"tipCount":15,"visitsCount":1231,"url":"http://www.cottonwoodrestaurant.com","tier":3,"message":"Expensive","currency":"$","rating":8.1},{"name":"Bar of America","phone":"5305873110","address":"10042 Donner Pass Rd","lat":39.32828,"lng":-120.18434346666666,"city_fetched":"Truckee","state":"CA","country":"United States","canonicalUrl":"https://foursquare.com/v/bar-of-america/45c4b513f964a5204a421fe3","category":"Bar","checkinsCount":2222,"usersCount":1758,"tipCount":23,"visitsCount":2489,"url":"http://barofamerica.com","tier":3,"message":"Expensive","currency":"$","rating":8},{"name":"Blue Coyote Bar and Grill","phone":"5305877777","address":"10015 Palisades Dr","lat":39.325568,"lng":-120.176761,"city_fetched":"Truckee","state":"CA","country":"United States","canonicalUrl":"https://foursquare.com/v/blue-coyote-bar-and-grill/4b78c008f964a520bfe02ee3","category":"Sports Bar","checkinsCount":737,"usersCount":480,"tipCount":9,"visitsCount":901,"url":"http://bluecoyotetruckee.com","tier":"","message":"","currency":"","rating":7.9},{"name":"Tahoe Mountain Brewery","twitter":"tahoebrewing","address":"10990 Industrial Way","lat":39.33843313886652,"lng":-120.18015325967455,"city_fetched":"Truckee","state":"CA","country":"United States","canonicalUrl":"https://foursquare.com/v/tahoe-mountain-brewery/52db38a8498e80be5479dfff","category":"Beer Garden","checkinsCount":147,"usersCount":189,"tipCount":1,"visitsCount":273,"url":"http://tahoebrewing.com","tier":"","message":"","currency":"","rating":7.7},{"name":"Tahoe Donner","address":"Ski View Loop","lat":39.354634982428564,"lng":-120.24197895069464,"city_fetched":"Truckee","state":"CA","country":"United States","canonicalUrl":"https://foursquare.com/v/tahoe-donner/4d1af61d95d5f04df61db982","category":"Housing Development","checkinsCount":616,"usersCount":666,"tipCount":0,"visitsCount":1570,"tier":"","message":"","currency":"","rating":7.7},{"name":"Tourist Club","phone":"5305877775","address":"10110 Donner Pass Rd","lat":39.32769963450389,"lng":-120.18593126814139,"city_fetched":"Truckee","state":"CA","country":"United States","canonicalUrl":"https://foursquare.com/v/tourist-club/4b4ffa56f964a520ad1a27e3","category":"Bar","checkinsCount":754,"usersCount":410,"tipCount":7,"visitsCount":780,"tier":"","message":"","currency":"","rating":7.4},{"name":"Uncorked","address":"10118 Donner Pass Rd","lat":39.32783240412794,"lng":-120.18623002661371,"city_fetched":"Truckee","state":"CA","country":"United States","canonicalUrl":"https://foursquare.com/v/uncorked/4f2dcfcfe4b062ad2b7ea9f7","category":"Wine Bar","checkinsCount":243,"usersCount":179,"tipCount":3,"visitsCount":248,"tier":"","message":"","currency":"","rating":7.3},{"name":"Pastime Club","phone":"5305829219","address":"10096 Donner Pass Rd","lat":39.327983,"lng":-120.185575,"city_fetched":"Truckee","state":"CA","country":"United States","canonicalUrl":"https://foursquare.com/v/pastime-club/4ac2dbbcf964a520e39a20e3","category":"Bar","checkinsCount":456,"usersCount":318,"tipCount":5,"visitsCount":462,"tier":"","message":"","currency":"","rating":7.3}]