[{"name":"Tap & Bottle","phone":"5203448999","twitter":"thetapandbottle","address":"403 N 6th Ave Ste 135","lat":32.2266687614494,"lng":-110.96886364969467,"city_fetched":"Tucson,US","state":"AZ","country":"United States","canonicalUrl":"https://foursquare.com/thetapandbottle","categoryId":"4bf58dd8d48988d116941735","category":"Bar","checkinsCount":3165,"usersCount":933,"tipCount":29,"visitsCount":3814,"url":"http://www.thetapandbottle.com","tier":2,"message":"Moderate","currency":"$","rating":9.2},{"name":"Barrio Brewing Co.","phone":"5207912739","twitter":"barriobrewing","address":"800 E 16th St","lat":32.21457019039307,"lng":-110.95954383507843,"city_fetched":"Tucson,US","state":"AZ","country":"United States","canonicalUrl":"https://foursquare.com/v/barrio-brewing-co/4b0600eff964a52048e722e3","categoryId":"50327c8591d4c4b30a586d5d","category":"Brewery","checkinsCount":5355,"usersCount":2147,"tipCount":45,"visitsCount":6178,"url":"http://barriobrewing.com","tier":2,"message":"Moderate","currency":"$","rating":9.1},{"name":"Dragoon Brewing Co.","phone":"5203293606","twitter":"dragoonbrewing","address":"1859 W Grant Rd","lat":32.24884931285789,"lng":-111.00628852844237,"city_fetched":"Tucson,US","state":"AZ","country":"United States","canonicalUrl":"https://foursquare.com/v/dragoon-brewing-co/4f9b16a8e4b0ec21f46ae12d","categoryId":"50327c8591d4c4b30a586d5d","category":"Brewery","checkinsCount":1033,"usersCount":538,"tipCount":14,"visitsCount":1363,"url":"http://www.dragoonbrewing.com","tier":"","message":"","currency":"","rating":8.8},{"name":"Ermanos Craft Beer & Wine Bar","twitter":"ermanosbar","address":"220 N 4th Ave","lat":32.22443018806554,"lng":-110.96525447115027,"city_fetched":"Tucson,US","state":"AZ","country":"United States","canonicalUrl":"https://foursquare.com/v/ermanos-craft-beer--wine-bar/550de881498e5f9032ef8d59","categoryId":"4bf58dd8d48988d116941735","category":"Bar","checkinsCount":330,"usersCount":268,"tipCount":5,"visitsCount":498,"url":"http://ermanosbrew.com","tier":"","message":"","currency":"","rating":8.7},{"name":"R Bar","address":"350 E Congress St #110, Tucson, AZ 85701","lat":32.22180231424026,"lng":-110.96616258631698,"city_fetched":"Tucson,US","state":"AZ","country":"United States","canonicalUrl":"https://foursquare.com/v/r-bar/53bf38f7498e2e581dbd7389","categoryId":"4bf58dd8d48988d11e941735","category":"Cocktail Bar","checkinsCount":349,"usersCount":186,"tipCount":4,"visitsCount":372,"tier":"","message":"","currency":"","rating":8.6},{"name":"Sakura Teppan Steak And Seafood LLC","phone":"5202987777","address":"6534 E Tanque Verde Rd","lat":32.24540789754835,"lng":-110.85328084191214,"city_fetched":"Tucson,US","state":"AZ","country":"United States","canonicalUrl":"https://foursquare.com/v/sakura-teppan-steak-and-seafood-llc/4cf6fe7c0a71224be44b2193","categoryId":"4bf58dd8d48988d11d941735","category":"Sports Bar","checkinsCount":1481,"usersCount":746,"tipCount":17,"visitsCount":1583,"tier":"","message":"","currency":"","rating":8.5},{"name":"Reilly Beer Garden","address":"101 E Pennington St","lat":32.22349153055588,"lng":-110.96974848173697,"city_fetched":"Tucson,US","state":"AZ","country":"United States","canonicalUrl":"https://foursquare.com/v/reilly-beer-garden/525341b311d2a8037d6a70c3","categoryId":"4bf58dd8d48988d117941735","category":"Beer Garden","checkinsCount":282,"usersCount":116,"tipCount":5,"visitsCount":284,"url":"http://reillypizza.com","tier":2,"message":"Moderate","currency":"$","rating":8.4},{"name":"Bison Witches Bar & Deli","phone":"5207401541","address":"326 N 4th Ave","lat":32.22585593114907,"lng":-110.96541164489417,"city_fetched":"Tucson,US","state":"AZ","country":"United States","canonicalUrl":"https://foursquare.com/v/bison-witches-bar--deli/4b0586d0f964a520bf6f22e3","categoryId":"4bf58dd8d48988d116941735","category":"Bar","checkinsCount":5294,"usersCount":2569,"tipCount":55,"visitsCount":5601,"url":"http://bisonwitchestucson.com","tier":2,"message":"Moderate","currency":"$","rating":8.4},{"name":"Sidecar","phone":"5207951819","address":"139 S Eastbourne Ave","lat":32.2210581993843,"lng":-110.92759141519852,"city_fetched":"Tucson,US","state":"AZ","country":"United States","canonicalUrl":"https://foursquare.com/v/sidecar/5374f960498ecfe2fa3fdd6a","categoryId":"4bf58dd8d48988d11e941735","category":"Cocktail Bar","checkinsCount":186,"usersCount":104,"tipCount":5,"visitsCount":203,"tier":"","message":"","currency":"","rating":8.4},{"name":"Macayo's Mexican Kitchen Del Norte","phone":"5207422141","twitter":"macayosince1946","address":"7360 N Oracle Rd","lat":32.34007859384245,"lng":-110.97665833723627,"city_fetched":"Tucson,US","state":"AZ","country":"United States","canonicalUrl":"https://foursquare.com/v/macayos-mexican-kitchen-del-norte/4b689875f964a520f8812be3","categoryId":"4bf58dd8d48988d116941735","category":"Bar","checkinsCount":646,"usersCount":470,"tipCount":10,"visitsCount":701,"url":"http://www.macayo.com","tier":2,"message":"Moderate","currency":"$","rating":8.3},{"name":"The World Famous Golden Nugget","phone":"5206229202","address":"2617 N 1st Ave","lat":32.25463066631684,"lng":-110.9613600597354,"neighborhood":"Keeling","city_fetched":"Tucson,US","state":"AZ","country":"United States","canonicalUrl":"https://foursquare.com/v/the-world-famous-golden-nugget/4ba04cc1f964a5202d6737e3","categoryId":"4bf58dd8d48988d118941735","category":"Dive Bar","checkinsCount":1052,"usersCount":383,"tipCount":8,"visitsCount":1149,"url":"http://goldennuggettucson.com","tier":"","message":"","currency":"","rating":8.3},{"name":"CataVinos Wines","phone":"5203233063","address":"3063 N Alvernon Way","lat":32.26307988166809,"lng":-110.910227,"city_fetched":"Tucson,US","state":"AZ","country":"United States","canonicalUrl":"https://foursquare.com/v/catavinos-wines/4b5a4dfbf964a520b7bb28e3","categoryId":"4bf58dd8d48988d123941735","category":"Wine Bar","checkinsCount":130,"usersCount":95,"tipCount":2,"visitsCount":174,"url":"http://www.catavinoswines.com","tier":"","message":"","currency":"","rating":8.3},{"name":"Trident Grill / Saloon","phone":"5207955755","address":"2033 E Speedway Blvd","lat":32.236334620272025,"lng":-110.94172514665617,"neighborhood":"Blenman-Elm","city_fetched":"Tucson,US","state":"AZ","country":"United States","canonicalUrl":"https://foursquare.com/v/trident-grill--saloon/4b0586d9f964a520367122e3","categoryId":"4bf58dd8d48988d11d941735","category":"Sports Bar","checkinsCount":2676,"usersCount":1220,"tipCount":29,"visitsCount":3309,"url":"http://www.tridentsaloon.com","tier":2,"message":"Moderate","currency":"$","rating":8.3},{"name":"Tilted Kilt Tucson","phone":"5207775431","twitter":"tiltedkiltpub","address":"250 S Craycroft Rd","lat":32.2184386671512,"lng":-110.87566792745747,"city_fetched":"Tucson,US","state":"AZ","country":"United States","canonicalUrl":"https://foursquare.com/v/tilted-kilt-tucson/53b3191711d296b7f0f09f5b","categoryId":"4bf58dd8d48988d11d941735","category":"Sports Bar","checkinsCount":211,"usersCount":269,"tipCount":10,"visitsCount":464,"url":"http://www.tiltedkilt.com","tier":2,"message":"Moderate","currency":"$","rating":8.2},{"name":"The Buffet","phone":"5206236811","twitter":"thebuffetbar","address":"538 E 9th St","lat":32.22373151023802,"lng":-110.96286776054392,"city_fetched":"Tucson,US","state":"AZ","country":"United States","canonicalUrl":"https://foursquare.com/v/the-buffet/4b0586cff964a5207a6f22e3","categoryId":"4bf58dd8d48988d116941735","category":"Bar","checkinsCount":2541,"usersCount":1021,"tipCount":21,"visitsCount":2883,"url":"https://thebuffetbar.com","tier":"","message":"","currency":"","rating":8.2},{"name":"Playground","phone":"5203963691","twitter":"hubtucson","address":"278 E Congress St","lat":32.22195493295901,"lng":-110.96729190970503,"city_fetched":"Tucson,US","state":"AZ","country":"United States","canonicalUrl":"https://foursquare.com/v/playground/4eacc12730f855f5b30ca6ef","categoryId":"4bf58dd8d48988d116941735","category":"Bar","checkinsCount":5522,"usersCount":1892,"tipCount":22,"visitsCount":5675,"url":"https://www.facebook.com/HUBdowntown","tier":2,"message":"Moderate","currency":"$","rating":8.2},{"name":"Salud Lobby Lounge at JW Marriott Starr Pass Resort","phone":"5207923500","address":"3800 W Starr Pass Blvd","lat":32.215813693669446,"lng":-111.04997315032568,"city_fetched":"Tucson,US","state":"AZ","country":"United States","canonicalUrl":"https://foursquare.com/v/salud-lobby-lounge-at-jw-marriott-starr-pass-resort/4f7a32111081951d7178bdf0","categoryId":"4bf58dd8d48988d116941735","category":"Bar","checkinsCount":706,"usersCount":355,"tipCount":8,"visitsCount":714,"tier":"","message":"","currency":"","rating":8.2},{"name":"Arizona Beer House","phone":"5202078077","address":"150 S Kolb Rd","lat":32.21963457752868,"lng":-110.8412317737651,"city_fetched":"Tucson,US","state":"AZ","country":"United States","canonicalUrl":"https://foursquare.com/v/arizona-beer-house/55a09198498e890ad5eabe65","categoryId":"4bf58dd8d48988d11b941735","category":"Pub","checkinsCount":215,"usersCount":163,"tipCount":1,"visitsCount":372,"tier":"","message":"","currency":"","rating":8.2},{"name":"Red Garter Saloon","address":"3143 E Speedway Blvd","lat":32.23634213333333,"lng":-110.92526193,"city_fetched":"Tucson,US","state":"AZ","country":"United States","canonicalUrl":"https://foursquare.com/v/red-garter-saloon/4b0586d0f964a520a46f22e3","categoryId":"4bf58dd8d48988d116941735","category":"Bar","checkinsCount":1802,"usersCount":632,"tipCount":13,"visitsCount":1981,"url":"http://redgartertucson.com","tier":2,"message":"Moderate","currency":"$","rating":8.2},{"name":"Pueblo Vida Brewing Company","phone":"5205763830","twitter":"pueblovida","address":"115 E Broadway Blvd","lat":32.221322068799005,"lng":-110.96802413463593,"city_fetched":"Tucson,US","state":"AZ","country":"United States","canonicalUrl":"https://foursquare.com/v/pueblo-vida-brewing-company/525deb7011d28493b2b8b0a4","categoryId":"50327c8591d4c4b30a586d5d","category":"Brewery","checkinsCount":640,"usersCount":265,"tipCount":5,"visitsCount":784,"url":"http://pueblovidabrewing.com","tier":"","message":"","currency":"","rating":8.2},{"name":"The Meet Rack","address":"210 W Drachman St","lat":32.23972151,"lng":-110.97518563270569,"city_fetched":"Tucson,US","state":"AZ","country":"United States","canonicalUrl":"https://foursquare.com/v/the-meet-rack/4c5ba6f09b28d13a21da5470","categoryId":"4bf58dd8d48988d116941735","category":"Bar","checkinsCount":630,"usersCount":424,"tipCount":13,"visitsCount":768,"tier":"","message":"","currency":"","rating":8.1},{"name":"Schrier's Sports Grill","phone":"5203448338","twitter":"schrierstucson","address":"1118 E 6th St","lat":32.22766744669646,"lng":-110.95426980928929,"city_fetched":"Tucson,US","state":"AZ","country":"United States","canonicalUrl":"https://foursquare.com/v/schriers-sports-grill/548391df498e6de1ea7de0e5","categoryId":"4bf58dd8d48988d11d941735","category":"Sports Bar","checkinsCount":297,"usersCount":142,"tipCount":2,"visitsCount":589,"url":"http://www.brewofa.com","tier":"","message":"","currency":"","rating":8.1},{"name":"The Good Oak Bar","phone":"5208822007","twitter":"goodoakbar","address":"316 E Congress St","lat":32.222014152305015,"lng":-110.96663475036621,"city_fetched":"Tucson,US","state":"AZ","country":"United States","canonicalUrl":"https://foursquare.com/goodoakbar","categoryId":"4bf58dd8d48988d116941735","category":"Bar","checkinsCount":499,"usersCount":231,"tipCount":11,"visitsCount":524,"url":"http://goodoakbar.com","tier":1,"message":"Cheap","currency":"$","rating":8.1},{"name":"The Auld Dubliner","phone":"5202060323","twitter":"dublinertucson","address":"800 E University Blvd","lat":32.23148526145847,"lng":-110.95925859484659,"neighborhood":"West University","city_fetched":"Tucson,US","state":"AZ","country":"United States","canonicalUrl":"https://foursquare.com/v/the-auld-dubliner/4b1060fff964a520156f23e3","categoryId":"4bf58dd8d48988d116941735","category":"Bar","checkinsCount":3811,"usersCount":1447,"tipCount":22,"visitsCount":3849,"url":"http://www.aulddubliner.com","tier":2,"message":"Moderate","currency":"$","rating":8},{"name":"Mr. Head's Gallery & Bar","phone":"5207922710","address":"513 N 4th Ave","lat":32.228127,"lng":-110.965816,"neighborhood":"West University","city_fetched":"Tucson,US","state":"AZ","country":"United States","canonicalUrl":"https://foursquare.com/v/mr-heads-gallery--bar/4cfdad64d7206ea854864a69","categoryId":"4bf58dd8d48988d116941735","category":"Bar","checkinsCount":3778,"usersCount":1415,"tipCount":17,"visitsCount":3937,"tier":1,"message":"Cheap","currency":"$","rating":8},{"name":"Grumpy's Grill","phone":"5202975452","address":"2960 W Ina Rd","lat":32.33861320847197,"lng":-111.03170529845846,"city_fetched":"Tucson,US","state":"AZ","country":"United States","canonicalUrl":"https://foursquare.com/v/grumpys-grill/4b2e7b94f964a520fee024e3","categoryId":"4bf58dd8d48988d11d941735","category":"Sports Bar","checkinsCount":798,"usersCount":328,"tipCount":18,"visitsCount":953,"url":"http://www.grumpysgrill.com","tier":"","message":"","currency":"","rating":8},{"name":"Old Chicago Pizza and Tap Room","phone":"5203276200","address":"2960 N Campbell Ave","lat":32.26019375208439,"lng":-110.94327357778228,"city_fetched":"Tucson,US","state":"AZ","country":"United States","canonicalUrl":"https://foursquare.com/v/old-chicago-pizza-and-tap-room/4b0586d0f964a520c66f22e3","categoryId":"4bf58dd8d48988d11d941735","category":"Sports Bar","checkinsCount":7705,"usersCount":1911,"tipCount":28,"visitsCount":8588,"url":"http://oldchicago.com","tier":2,"message":"Moderate","currency":"$","rating":8},{"name":"Unplugged","phone":"5208841800","twitter":"unpluggedtucson","address":"118 E Congress St","lat":32.22180539324502,"lng":-110.96925258636475,"city_fetched":"Tucson,US","state":"AZ","country":"United States","canonicalUrl":"https://foursquare.com/v/unplugged/523e556e93cdb27bf83b1470","categoryId":"4bf58dd8d48988d123941735","category":"Wine Bar","checkinsCount":142,"usersCount":101,"tipCount":4,"visitsCount":144,"url":"http://unpluggedtucson.com","tier":"","message":"","currency":"","rating":7.9},{"name":"Sentinel Peak Brewing Co","address":"4746 E Grant Rd","lat":32.24950422215765,"lng":-110.89118657909297,"city_fetched":"Tucson,US","state":"AZ","country":"United States","canonicalUrl":"https://foursquare.com/v/sentinel-peak-brewing-co/525c4d8a11d28a1b6184b191","categoryId":"50327c8591d4c4b30a586d5d","category":"Brewery","checkinsCount":433,"usersCount":260,"tipCount":4,"visitsCount":506,"tier":"","message":"","currency":"","rating":7.9},{"name":"Nimbus Brewing Company","address":"3850 E 44th St","lat":32.184793,"lng":-110.90982074,"city_fetched":"Tucson,US","state":"AZ","country":"United States","canonicalUrl":"https://foursquare.com/v/nimbus-brewing-company/4b0586cff964a5207b6f22e3","categoryId":"50327c8591d4c4b30a586d5d","category":"Brewery","checkinsCount":1135,"usersCount":830,"tipCount":16,"visitsCount":1321,"tier":"","message":"","currency":"","rating":7.9},{"name":"Frog & Firkin","phone":"5206237507","address":"874 E University Blvd","lat":32.23149396023199,"lng":-110.9583097348337,"neighborhood":"West University","city_fetched":"Tucson,US","state":"AZ","country":"United States","canonicalUrl":"https://foursquare.com/v/frog--firkin/4b0586cff964a520846f22e3","categoryId":"4bf58dd8d48988d11b941735","category":"Pub","checkinsCount":6161,"usersCount":2897,"tipCount":47,"visitsCount":6258,"url":"http://www.frogandfirkin.com","tier":1,"message":"Cheap","currency":"$","rating":7.9},{"name":"Outlaw Saloon","address":"1302 W Roger Rd","lat":32.27972564918203,"lng":-110.99314430472776,"city_fetched":"Tucson,US","state":"AZ","country":"United States","canonicalUrl":"https://foursquare.com/v/outlaw-saloon/4f077fb4e4b06fab1876ea1f","categoryId":"4bf58dd8d48988d116941735","category":"Bar","checkinsCount":161,"usersCount":119,"tipCount":2,"visitsCount":245,"tier":"","message":"","currency":"","rating":7.9},{"name":"Thunder Canyon Brewery","phone":"5207972652","address":"7401 N LA Cholla Blvd","lat":32.341536075333536,"lng":-111.01436734199524,"city_fetched":"Tucson,US","state":"AZ","country":"United States","canonicalUrl":"https://foursquare.com/v/thunder-canyon-brewery/4b0586cff964a520836f22e3","categoryId":"50327c8591d4c4b30a586d5d","category":"Brewery","checkinsCount":3136,"usersCount":1419,"tipCount":38,"visitsCount":3334,"url":"http://thundercanyonbrewery.com","tier":2,"message":"Moderate","currency":"$","rating":7.8},{"name":"Breeze Patio Bar & Grill","phone":"5207311414","address":"6555 E Speedway Blvd","lat":32.236286,"lng":-110.85326201,"city_fetched":"Tucson,US","state":"AZ","country":"United States","canonicalUrl":"https://foursquare.com/v/breeze-patio-bar--grill/4da0b05dbf22a143944c89f8","categoryId":"4bf58dd8d48988d1d5941735","category":"Hotel Bar","checkinsCount":272,"usersCount":163,"tipCount":0,"visitsCount":272,"url":"http://www.radisson.com","tier":"","message":"","currency":"","rating":7.8},{"name":"The Canyon's Crown","phone":"5208858277","twitter":"canyonscrownpub","address":"6958 E Tanque Verde Rd","lat":32.25030544500478,"lng":-110.84325740709784,"city_fetched":"Tucson,US","state":"AZ","country":"United States","canonicalUrl":"https://foursquare.com/v/the-canyons-crown/4bb683921344b71389a59d04","categoryId":"4bf58dd8d48988d11b941735","category":"Pub","checkinsCount":1467,"usersCount":690,"tipCount":24,"visitsCount":1906,"url":"http://canyonscrown.com","tier":2,"message":"Moderate","currency":"$","rating":7.8},{"name":"Thunder Canyon Brewery Downtown","phone":"5203963480","address":"220 E Broadway Blvd","lat":32.22095258783175,"lng":-110.96652932527267,"neighborhood":"Armory Park","city_fetched":"Tucson,US","state":"AZ","country":"United States","canonicalUrl":"https://foursquare.com/v/thunder-canyon-brewery-downtown/50d4bc48e4b0cc0bbfdc024d","categoryId":"50327c8591d4c4b30a586d5d","category":"Brewery","checkinsCount":2119,"usersCount":1092,"tipCount":22,"visitsCount":2305,"url":"http://thundercanyonbrewery.com","tier":2,"message":"Moderate","currency":"$","rating":7.8},{"name":"Public Brewhouse","address":"209 N Hoff Ave","lat":32.224273,"lng":-110.964897,"city_fetched":"Tucson,US","state":"AZ","country":"United States","canonicalUrl":"https://foursquare.com/v/public-brewhouse/55b03f16498e6282c1123c44","categoryId":"50327c8591d4c4b30a586d5d","category":"Brewery","checkinsCount":121,"usersCount":76,"tipCount":1,"visitsCount":134,"tier":"","message":"","currency":"","rating":7.8},{"name":"Sky Bar","phone":"5206224300","twitter":"skybartucson","address":"536 N 4th Ave","lat":32.22872293589683,"lng":-110.96541164489417,"neighborhood":"West University","city_fetched":"Tucson,US","state":"AZ","country":"United States","canonicalUrl":"https://foursquare.com/v/sky-bar/4b58ea53f964a520b57228e3","categoryId":"4bf58dd8d48988d116941735","category":"Bar","checkinsCount":6496,"usersCount":2041,"tipCount":44,"visitsCount":6717,"url":"http://www.skybartucson.com","tier":1,"message":"Cheap","currency":"$","rating":7.7},{"name":"Che's Lounge","phone":"5206232088","address":"350 N 4th Ave","lat":32.22628313268337,"lng":-110.96541164489417,"city_fetched":"Tucson,US","state":"AZ","country":"United States","canonicalUrl":"https://foursquare.com/v/ches-lounge/4b0586d0f964a520c36f22e3","categoryId":"4bf58dd8d48988d11e941735","category":"Cocktail Bar","checkinsCount":4871,"usersCount":1595,"tipCount":23,"visitsCount":5207,"url":"http://www.cheslounge.com","tier":1,"message":"Cheap","currency":"$","rating":7.7},{"name":"Hooters","phone":"4385946273","twitter":"hooters","address":"4385 W Ina Rd","lat":32.336285737583005,"lng":-111.05840855530849,"city_fetched":"Tucson,US","state":"AZ","country":"United States","canonicalUrl":"https://foursquare.com/v/hooters/4b0586d1f964a520d26f22e3","categoryId":"4bf58dd8d48988d116941735","category":"Bar","checkinsCount":1569,"usersCount":732,"tipCount":13,"visitsCount":1759,"url":"http://www.hooters.com","tier":2,"message":"Moderate","currency":"$","rating":7.7},{"name":"Takamatsu Tucson Sushi","phone":"5205120800","address":"5532 E Speedway Blvd","lat":32.23595778333333,"lng":-110.874046,"city_fetched":"Tucson,US","state":"AZ","country":"United States","canonicalUrl":"https://foursquare.com/v/takamatsu-tucson-sushi/4e175fad183880768f35da00","categoryId":"4bf58dd8d48988d11c941735","category":"Sake Bar","checkinsCount":1181,"usersCount":716,"tipCount":15,"visitsCount":1505,"url":"http://www.takatucson.net","tier":2,"message":"Moderate","currency":"$","rating":7.7},{"name":"Surly Wench Pub","phone":"5208820009","address":"424 N 4th Ave","lat":32.227062874748235,"lng":-110.96540000239413,"city_fetched":"Tucson,US","state":"AZ","country":"United States","canonicalUrl":"https://foursquare.com/v/surly-wench-pub/4b3e9607f964a520529f25e3","categoryId":"4bf58dd8d48988d116941735","category":"Bar","checkinsCount":3768,"usersCount":1179,"tipCount":12,"visitsCount":3892,"url":"http://www.surlywench.com","tier":2,"message":"Moderate","currency":"$","rating":7.7},{"name":"Scott & Co.","address":"49 Scott Ave","lat":32.22269352,"lng":-110.97014245,"city_fetched":"Tucson,US","state":"AZ","country":"United States","canonicalUrl":"https://foursquare.com/v/scott--co/4cab9265d971b1f7e2112ce1","categoryId":"4bf58dd8d48988d11e941735","category":"Cocktail Bar","checkinsCount":1559,"usersCount":578,"tipCount":23,"visitsCount":1581,"url":"http://www.47scott.com","tier":"","message":"","currency":"","rating":7.6},{"name":"HighWire Lounge","address":"14 S Arizona Ave","lat":32.221842,"lng":-110.968081,"city_fetched":"Tucson,US","state":"AZ","country":"United States","canonicalUrl":"https://foursquare.com/v/highwire-lounge/557bc6c9498e77dcb62652f8","categoryId":"4bf58dd8d48988d121941735","category":"Lounge","checkinsCount":202,"usersCount":95,"tipCount":6,"visitsCount":211,"url":"http://highwiretucson.com","tier":"","message":"","currency":"","rating":7.6},{"name":"Le Rendez-vous","phone":"5203237373","address":"3844 E Fort Lowell Rd","lat":32.2649392124368,"lng":-110.91050653235577,"city_fetched":"Tucson,US","state":"AZ","country":"United States","canonicalUrl":"https://foursquare.com/v/le-rendezvous/4b0586cff964a520756f22e3","categoryId":"4bf58dd8d48988d123941735","category":"Wine Bar","checkinsCount":101,"usersCount":96,"tipCount":5,"visitsCount":123,"url":"http://www.lerendez-vous.com","tier":"","message":"","currency":"","rating":7.6},{"name":"River's Edge Lounge","phone":"5208879027","address":"4635 N Flowing Wells Rd","lat":32.29104263333333,"lng":-110.995698,"city_fetched":"Tucson,US","state":"AZ","country":"United States","canonicalUrl":"https://foursquare.com/v/rivers-edge-lounge/4b183574f964a520d5ce23e3","categoryId":"4bf58dd8d48988d120941735","category":"Karaoke Bar","checkinsCount":551,"usersCount":263,"tipCount":25,"visitsCount":647,"url":"http://riversedgelounge.com","tier":"","message":"","currency":"","rating":7.5},{"name":"Elliott's on Congress","phone":"5206225500","address":"135 E Congress St","lat":32.22215736797728,"lng":-110.96898007493704,"city_fetched":"Tucson,US","state":"AZ","country":"United States","canonicalUrl":"https://foursquare.com/v/elliotts-on-congress/4f6a0395e4b06dfbd3567056","categoryId":"4bf58dd8d48988d116941735","category":"Bar","checkinsCount":1235,"usersCount":518,"tipCount":15,"visitsCount":1264,"url":"http://elliottsoncongress.com","tier":2,"message":"Moderate","currency":"$","rating":7.5},{"name":"The District Tavern","phone":"5207920081","address":"260 E Congress St","lat":32.222041,"lng":-110.96760256666667,"city_fetched":"Tucson,US","state":"AZ","country":"United States","canonicalUrl":"https://foursquare.com/v/the-district-tavern/4b19fee2f964a520dce623e3","categoryId":"4bf58dd8d48988d116941735","category":"Bar","checkinsCount":1588,"usersCount":558,"tipCount":13,"visitsCount":1601,"url":"http://www.thedistricttavern.com","tier":"","message":"","currency":"","rating":7.5},{"name":"Gentle Ben's Brewing Co.","phone":"5206244177","twitter":"gentlebens","address":"865 E University Blvd","lat":32.231879740265,"lng":-110.95821261405945,"neighborhood":"West University","city_fetched":"Tucson,US","state":"AZ","country":"United States","canonicalUrl":"https://foursquare.com/v/gentle-bens-brewing-co/4b0586cff964a5208f6f22e3","categoryId":"4bf58dd8d48988d117941735","category":"Beer Garden","checkinsCount":5551,"usersCount":2679,"tipCount":31,"visitsCount":5670,"url":"http://gentlebens.com","tier":2,"message":"Moderate","currency":"$","rating":7.5},{"name":"Fox & Hound","phone":"5205751980","twitter":"the_foxandhound","address":"7625 N LaCholla Blvd.","lat":32.34441836,"lng":-111.013422,"city_fetched":"Tucson,US","state":"AZ","country":"United States","canonicalUrl":"https://foursquare.com/v/fox--hound/4b0703c5f964a52073f522e3","categoryId":"4bf58dd8d48988d120941735","category":"Karaoke Bar","checkinsCount":3644,"usersCount":1393,"tipCount":26,"visitsCount":4263,"url":"http://t.co/6Wlr3nrgdg","tier":2,"message":"Moderate","currency":"$","rating":7.5},{"name":"Pockets","phone":"5205719421","address":"1062 S Wilmot Rd","lat":32.20844328403473,"lng":-110.85846026666667,"city_fetched":"Tucson,US","state":"AZ","country":"United States","canonicalUrl":"https://foursquare.com/v/pockets/413ba880f964a520f01b1fe3","categoryId":"4bf58dd8d48988d11a941735","category":"Other Nightlife","checkinsCount":746,"usersCount":245,"tipCount":12,"visitsCount":849,"url":"http://www.pocketstucson.com","tier":"","message":"","currency":"","rating":7.5},{"name":"Zen Rock","phone":"5206249100","twitter":"clubzenrock","address":"121 E Congress St","lat":32.222085879580945,"lng":-110.96926531681461,"city_fetched":"Tucson,US","state":"AZ","country":"United States","canonicalUrl":"https://foursquare.com/v/zen-rock/4b58241df964a520034c28e3","categoryId":"4bf58dd8d48988d11f941735","category":"Nightclub","checkinsCount":1401,"usersCount":533,"tipCount":4,"visitsCount":1412,"tier":"","message":"","currency":"","rating":7.5},{"name":"Kon Tiki","phone":"5203237193","address":"4625 E Broadway Blvd","lat":32.222137,"lng":-110.89361429214478,"city_fetched":"Tucson,US","state":"AZ","country":"United States","canonicalUrl":"https://foursquare.com/v/kon-tiki/4b0586d1f964a520dd6f22e3","categoryId":"4bf58dd8d48988d116941735","category":"Bar","checkinsCount":1815,"usersCount":1260,"tipCount":17,"visitsCount":2055,"url":"http://www.kontiki-tucson.com","tier":"","message":"","currency":"","rating":7.4},{"name":"Taproom @ Congress","lat":32.222476,"lng":-110.96668303012848,"city_fetched":"Tucson,US","state":"AZ","country":"United States","canonicalUrl":"https://foursquare.com/v/taproom--congress/4bde36a56198c9b6086c13ff","categoryId":"4bf58dd8d48988d116941735","category":"Bar","checkinsCount":1246,"usersCount":417,"tipCount":6,"visitsCount":1246,"tier":"","message":"","currency":"","rating":7.4},{"name":"the Independent Distillery","phone":"5202847334","twitter":"azspiritbarons","address":"30 S Arizona Ave","lat":32.22171423960294,"lng":-110.96786239294013,"city_fetched":"Tucson,US","state":"AZ","country":"United States","canonicalUrl":"https://foursquare.com/v/the-independent-distillery/5609b576498e624fddbaee2a","categoryId":"4bf58dd8d48988d11e941735","category":"Cocktail Bar","checkinsCount":125,"usersCount":69,"tipCount":2,"visitsCount":126,"tier":"","message":"","currency":"","rating":7.4},{"name":"IBTs","phone":"5208823053","twitter":"ibts","address":"616 N 4th Ave","lat":32.22957834,"lng":-110.96525913,"neighborhood":"West University","city_fetched":"Tucson,US","state":"AZ","country":"United States","canonicalUrl":"https://foursquare.com/v/ibts/4bdc9f74ccf52d7f0d9c786d","categoryId":"4bf58dd8d48988d1d8941735","category":"Gay Bar","checkinsCount":5059,"usersCount":1200,"tipCount":15,"visitsCount":5295,"url":"http://www.ibtstucson.com","tier":1,"message":"Cheap","currency":"$","rating":7.4},{"name":"The Shanty","phone":"5206232664","address":"401 E 9th St","lat":32.22395109922412,"lng":-110.96528357739804,"city_fetched":"Tucson,US","state":"AZ","country":"United States","canonicalUrl":"https://foursquare.com/v/the-shanty/4b0586cff964a520796f22e3","categoryId":"4bf58dd8d48988d116941735","category":"Bar","checkinsCount":2189,"usersCount":1111,"tipCount":20,"visitsCount":2272,"tier":2,"message":"Moderate","currency":"$","rating":7.4},{"name":"The Flycatcher","phone":"5207981298","address":"340 E 6th St","lat":32.22759830743837,"lng":-110.96582495369798,"city_fetched":"Tucson,US","state":"AZ","country":"United States","canonicalUrl":"https://foursquare.com/v/the-flycatcher/534dfa50498eb080948efb27","categoryId":"4bf58dd8d48988d116941735","category":"Bar","checkinsCount":723,"usersCount":354,"tipCount":0,"visitsCount":999,"tier":1,"message":"Cheap","currency":"$","rating":7.3},{"name":"Borderlands Brewing Company","phone":"5202618773","twitter":"borderlandsbeer","address":"119 E Toole Ave","lat":32.22607905566296,"lng":-110.97021418299698,"city_fetched":"Tucson,US","state":"AZ","country":"United States","canonicalUrl":"https://foursquare.com/v/borderlands-brewing-company/4daf6f596a23d0da7ea008a1","categoryId":"50327c8591d4c4b30a586d5d","category":"Brewery","checkinsCount":1144,"usersCount":690,"tipCount":16,"visitsCount":1420,"tier":"","message":"","currency":"","rating":7.3},{"name":"Freedom Smoke USA","phone":"5205729254","address":"101 W River Rd","lat":32.321247875256624,"lng":-111.04657920544363,"city_fetched":"Tucson,US","state":"AZ","country":"United States","canonicalUrl":"https://foursquare.com/v/freedom-smoke-usa/509abe0ce4b0aed8040d2cc7","categoryId":"4bf58dd8d48988d121941735","category":"Lounge","checkinsCount":319,"usersCount":92,"tipCount":8,"visitsCount":332,"url":"https://freedomsmokeusa.com","tier":"","message":"","currency":"","rating":7.3},{"name":"Brodie's Tavern","phone":"5206220447","address":"2449 N Stone Ave","lat":32.25201097,"lng":-110.972333,"city_fetched":"Tucson,US","state":"AZ","country":"United States","canonicalUrl":"https://foursquare.com/v/brodies-tavern/4c6ded4065eda093064a50d0","categoryId":"4bf58dd8d48988d116941735","category":"Bar","checkinsCount":2410,"usersCount":456,"tipCount":25,"visitsCount":2816,"url":"http://brodiestavernbackpocket.net","tier":2,"message":"Moderate","currency":"$","rating":7.3},{"name":"R & R Grill","address":"7060 S Tucson Blvd","lat":32.12395109408419,"lng":-110.93539755058093,"city_fetched":"Tucson,US","state":"AZ","country":"United States","canonicalUrl":"https://foursquare.com/v/r--r-grill/4e84029d775b5a11344ace67","categoryId":"4bf58dd8d48988d1d5941735","category":"Hotel Bar","checkinsCount":266,"usersCount":159,"tipCount":11,"visitsCount":266,"tier":"","message":"","currency":"","rating":7.3},{"name":"Wooden Nickel Tavern","phone":"5203238830","address":"1908 S Country Club Rd","lat":32.19939,"lng":-110.926988,"city_fetched":"Tucson,US","state":"AZ","country":"United States","canonicalUrl":"https://foursquare.com/v/wooden-nickel-tavern/4b2c7b3bf964a52050c724e3","categoryId":"4bf58dd8d48988d118941735","category":"Dive Bar","checkinsCount":650,"usersCount":205,"tipCount":8,"visitsCount":767,"tier":"","message":"","currency":"","rating":7.2},{"name":"Tough Luck Club","address":"101 E Pennington St","lat":32.22327632545242,"lng":-110.96982415818304,"city_fetched":"Tucson,US","state":"AZ","country":"United States","canonicalUrl":"https://foursquare.com/v/tough-luck-club/54a8eb55498ee74ea1a825b7","categoryId":"4bf58dd8d48988d11e941735","category":"Cocktail Bar","checkinsCount":247,"usersCount":121,"tipCount":4,"visitsCount":258,"tier":"","message":"","currency":"","rating":7.2},{"name":"The Hut","phone":"5206233200","address":"305 N 4th Ave","lat":32.22541795,"lng":-110.96589446666667,"city_fetched":"Tucson,US","state":"AZ","country":"United States","canonicalUrl":"https://foursquare.com/v/the-hut/4b0586d1f964a520d46f22e3","categoryId":"4bf58dd8d48988d116941735","category":"Bar","checkinsCount":2114,"usersCount":1229,"tipCount":22,"visitsCount":2368,"url":"http://www.myspace.com/thehuttucson","tier":"","message":"","currency":"","rating":7.2},{"name":"Old Father Inn","phone":"5207441200","address":"4080 W Ina Rd","lat":32.338086010479174,"lng":-111.05315170444149,"city_fetched":"Tucson,US","state":"AZ","country":"United States","canonicalUrl":"https://foursquare.com/v/old-father-inn/4b070421f964a52088f522e3","categoryId":"4bf58dd8d48988d116941735","category":"Bar","checkinsCount":560,"usersCount":286,"tipCount":7,"visitsCount":674,"url":"http://www.oldfatherinn.com","tier":"","message":"","currency":"","rating":7.2},{"name":"Tino's Pizza","phone":"5202969656","address":"6610 E Tanque Verde Rd","lat":32.24660232145296,"lng":-110.85149384811223,"city_fetched":"Tucson,US","state":"AZ","country":"United States","canonicalUrl":"https://foursquare.com/v/tinos-pizza/4b0586d1f964a520c86f22e3","categoryId":"4bf58dd8d48988d123941735","category":"Wine Bar","checkinsCount":143,"usersCount":89,"tipCount":7,"visitsCount":146,"url":"http://www.tinospizza.com","tier":"","message":"","currency":"","rating":7.2},{"name":"Music Box","lat":32.207064,"lng":-110.84355629,"city_fetched":"Tucson,US","state":"AZ","country":"United States","canonicalUrl":"https://foursquare.com/v/music-box/4b778868f964a5203ea02ee3","categoryId":"4bf58dd8d48988d121941735","category":"Lounge","checkinsCount":394,"usersCount":169,"tipCount":2,"visitsCount":403,"tier":"","message":"","currency":"","rating":7.2},{"name":"R Place Bar and Grill","phone":"5208819048","address":"3412 N Dodge Blvd","lat":32.269064183333334,"lng":-110.91414934,"city_fetched":"Tucson,US","state":"AZ","country":"United States","canonicalUrl":"https://foursquare.com/v/r-place-bar-and-grill/4bff373668c7a59316684044","categoryId":"4bf58dd8d48988d116941735","category":"Bar","checkinsCount":790,"usersCount":107,"tipCount":14,"visitsCount":863,"tier":"","message":"","currency":"","rating":7.1},{"name":"Rusty's Family Restaurant & Sports Grille","phone":"5206233363","address":"2075 W Grant Rd, Tucson, AZ","lat":32.25042247152051,"lng":-111.01148745316986,"city_fetched":"Tucson,US","state":"AZ","country":"United States","canonicalUrl":"https://foursquare.com/v/rustys-family-restaurant--sports-grille/4b5cdc32f964a520d94729e3","categoryId":"4bf58dd8d48988d11d941735","category":"Sports Bar","checkinsCount":1905,"usersCount":713,"tipCount":10,"visitsCount":2185,"url":"http://www.rustystucson.com","tier":"","message":"","currency":"","rating":7.1},{"name":"Second Saturdays Downtown Tucson","address":"Congress Street","lat":32.2219610876405,"lng":-110.96892768357698,"city_fetched":"Tucson,US","state":"AZ","country":"United States","canonicalUrl":"https://foursquare.com/v/second-saturdays-downtown-tucson/4c6755638e9120a150b3da64","categoryId":"4bf58dd8d48988d11a941735","category":"Other Nightlife","checkinsCount":195,"usersCount":110,"tipCount":6,"visitsCount":195,"url":"http://2ndsaturdaysdowntown.com","tier":"","message":"","currency":"","rating":7.1},{"name":"The Shelter","address":"4155 E Grant Rd","lat":32.251004333333334,"lng":-110.904233,"city_fetched":"Tucson,US","state":"AZ","country":"United States","canonicalUrl":"https://foursquare.com/v/the-shelter/4b0586d0f964a520c46f22e3","categoryId":"4bf58dd8d48988d116941735","category":"Bar","checkinsCount":1911,"usersCount":845,"tipCount":23,"visitsCount":2113,"tier":"","message":"","currency":"","rating":7.1},{"name":"The Station","phone":"5207897040","address":"8235 N Silverbell Rd #105","lat":32.355898,"lng":-111.113232,"city_fetched":"Tucson,US","state":"AZ","country":"United States","canonicalUrl":"https://foursquare.com/v/the-station/4fb57b27e4b006bb8acfec23","categoryId":"4bf58dd8d48988d11b941735","category":"Pub","checkinsCount":377,"usersCount":171,"tipCount":5,"visitsCount":470,"tier":"","message":"","currency":"","rating":7.1},{"name":"Famous Sam's","phone":"5205319464","address":"8058 N Oracle Rd","lat":32.35263036412691,"lng":-110.97328662872314,"city_fetched":"Tucson,US","state":"AZ","country":"United States","canonicalUrl":"https://foursquare.com/v/famous-sams/4b1f5d97f964a520d92524e3","categoryId":"4bf58dd8d48988d11b941735","category":"Pub","checkinsCount":550,"usersCount":228,"tipCount":7,"visitsCount":720,"url":"http://www.famoussams.com","tier":"","message":"","currency":"","rating":7},{"name":"Ten Fifty-Five Brewing","phone":"5204618073","address":"3810 E 44th St","lat":32.18503543826411,"lng":-110.91159506960501,"city_fetched":"Tucson,US","state":"AZ","country":"United States","canonicalUrl":"https://foursquare.com/v/ten-fiftyfive-brewing/50ccab40b0ed089cd4220824","categoryId":"50327c8591d4c4b30a586d5d","category":"Brewery","checkinsCount":199,"usersCount":148,"tipCount":3,"visitsCount":229,"url":"http://1055brewing.com","tier":"","message":"","currency":"","rating":7},{"name":"Royal Hookah Lounge","phone":"5206228355","address":"347 N 4th Ave","lat":32.22637873624892,"lng":-110.96568524366847,"city_fetched":"Tucson,US","state":"AZ","country":"United States","canonicalUrl":"https://foursquare.com/v/royal-hookah-lounge/5265d4bf11d289a32cbbe170","categoryId":"4bf58dd8d48988d119941735","category":"Hookah Bar","checkinsCount":141,"usersCount":47,"tipCount":2,"visitsCount":147,"tier":"","message":"","currency":"","rating":7},{"name":"Las Margaritas","phone":"5202978341","address":"6011 N Oracle Rd","lat":32.316109759147636,"lng":-110.97719971715213,"city_fetched":"Tucson,US","state":"AZ","country":"United States","canonicalUrl":"https://foursquare.com/v/las-margaritas/4b0586cff964a5208b6f22e3","categoryId":"4bf58dd8d48988d116941735","category":"Bar","checkinsCount":407,"usersCount":251,"tipCount":7,"visitsCount":438,"url":"http://www.lasmargaritas.com","tier":"","message":"","currency":"","rating":7},{"name":"Sir Veza's Taco Garage","phone":"5203238226","address":"4699 E Speedway Blvd","lat":32.236397,"lng":-110.892937,"city_fetched":"Tucson,US","state":"AZ","country":"United States","canonicalUrl":"https://foursquare.com/v/sir-vezas-taco-garage/4b4d0361f964a520c1c726e3","categoryId":"4bf58dd8d48988d11d941735","category":"Sports Bar","checkinsCount":2420,"usersCount":1462,"tipCount":35,"visitsCount":2767,"url":"http://www.sirvezas.com","tier":2,"message":"Moderate","currency":"$","rating":7},{"name":"Medusa","address":"521 N 4th Ave","lat":32.228346,"lng":-110.965803,"neighborhood":"West University","city_fetched":"Tucson,US","state":"AZ","country":"United States","canonicalUrl":"https://foursquare.com/v/medusa/4b234d87f964a520095524e3","categoryId":"4bf58dd8d48988d119941735","category":"Hookah Bar","checkinsCount":434,"usersCount":190,"tipCount":7,"visitsCount":437,"tier":"","message":"","currency":"","rating":7},{"name":"Amigos","lat":32.13622283935547,"lng":-110.96178436279297,"neighborhood":"Sunnyside","city_fetched":"Tucson,US","state":"AZ","country":"United States","canonicalUrl":"https://foursquare.com/v/amigos/516f846be4b04eccd3586954","categoryId":"4bf58dd8d48988d116941735","category":"Bar","checkinsCount":41,"usersCount":65,"tipCount":2,"visitsCount":101,"tier":"","message":"","currency":"","rating":7},{"name":"Famous Sam's","phone":"5203231880","address":"3933 E Pima St","lat":32.24383210541576,"lng":-110.90830035491771,"city_fetched":"Tucson,US","state":"AZ","country":"United States","canonicalUrl":"https://foursquare.com/v/famous-sams/4c199662834e2d7f41bb2a80","categoryId":"4bf58dd8d48988d11d941735","category":"Sports Bar","checkinsCount":495,"usersCount":217,"tipCount":8,"visitsCount":601,"url":"http://famoussams-hub.com","tier":"","message":"","currency":"","rating":7},{"name":"Petra Mediterranean Grill","phone":"5203264444","twitter":"petratucson","address":"3699 N Campbell Ave","lat":32.273962090204314,"lng":-110.9443187713623,"neighborhood":"Campus Farm","city_fetched":"Tucson,US","state":"AZ","country":"United States","canonicalUrl":"https://foursquare.com/v/petra-mediterranean-grill/50fbb2ddf31c0f684107424b","categoryId":"4bf58dd8d48988d119941735","category":"Hookah Bar","checkinsCount":122,"usersCount":64,"tipCount":3,"visitsCount":122,"tier":"","message":"","currency":"","rating":6.9},{"name":"Chicago Bar","address":"5954 E Speedway Blvd","lat":32.23581,"lng":-110.86519584,"city_fetched":"Tucson,US","state":"AZ","country":"United States","canonicalUrl":"https://foursquare.com/v/chicago-bar/4b0586cff964a520986f22e3","categoryId":"4bf58dd8d48988d116941735","category":"Bar","checkinsCount":408,"usersCount":197,"tipCount":6,"visitsCount":494,"url":"http://chicagobartucson.com","tier":"","message":"","currency":"","rating":6.9},{"name":"ALJs Tavern","phone":"5205142774","address":"4970 E 22nd St","lat":32.20648678793376,"lng":-110.88583710830274,"neighborhood":"Myers","city_fetched":"Tucson,US","state":"AZ","country":"United States","canonicalUrl":"https://foursquare.com/v/aljs-tavern/4c4e3a159932e21efe1667cd","categoryId":"4bf58dd8d48988d118941735","category":"Dive Bar","checkinsCount":547,"usersCount":121,"tipCount":2,"visitsCount":679,"tier":"","message":"","currency":"","rating":6.9},{"name":"Danny's Baboquivari Restaurant & Lounge","phone":"5207953178","address":"2910 E Fort Lowell Rd","lat":32.26463481684617,"lng":-110.92894191464828,"city_fetched":"Tucson,US","state":"AZ","country":"United States","canonicalUrl":"https://foursquare.com/v/dannys-baboquivari-restaurant--lounge/4b0c5adcf964a520bb3b23e3","categoryId":"4bf58dd8d48988d118941735","category":"Dive Bar","checkinsCount":887,"usersCount":453,"tipCount":7,"visitsCount":1116,"tier":"","message":"","currency":"","rating":6.9},{"name":"Montgomery's Irish Pub","address":"9155 E Tanque Verde Rd","lat":32.2580102872288,"lng":-110.7966394821423,"neighborhood":"Bear Canyon","city_fetched":"Tucson,US","state":"AZ","country":"United States","canonicalUrl":"https://foursquare.com/v/montgomerys-irish-pub/4b0586d0f964a520a26f22e3","categoryId":"4bf58dd8d48988d11b941735","category":"Pub","checkinsCount":202,"usersCount":122,"tipCount":8,"visitsCount":205,"tier":"","message":"","currency":"","rating":6.9},{"name":"Micha's","phone":"5203889472","address":"2908 S 4th Ave","lat":32.18923067771128,"lng":-110.96566195866467,"city_fetched":"Tucson,US","state":"AZ","country":"United States","canonicalUrl":"https://foursquare.com/v/michas/4b0586cff964a520856f22e3","categoryId":"4bf58dd8d48988d116941735","category":"Bar","checkinsCount":601,"usersCount":484,"tipCount":6,"visitsCount":841,"url":"http://www.michascatering.com","tier":"","message":"","currency":"","rating":6.9},{"name":"Bob Dobb's","phone":"5203253767","address":"2501 E 6th St","lat":32.228093816666664,"lng":-110.93512901,"neighborhood":"Sam Hughes","city_fetched":"Tucson,US","state":"AZ","country":"United States","canonicalUrl":"https://foursquare.com/v/bob-dobbs/4aa46739f964a520b24620e3","categoryId":"4bf58dd8d48988d116941735","category":"Bar","checkinsCount":1051,"usersCount":541,"tipCount":9,"visitsCount":1183,"url":"http://bobdobbs.net","tier":1,"message":"Cheap","currency":"$","rating":6.8},{"name":"Pearsons Pub","phone":"5207472181","address":"1120 S Wilmot Rd","lat":32.20748246666667,"lng":-110.85819956666667,"city_fetched":"Tucson,US","state":"AZ","country":"United States","canonicalUrl":"https://foursquare.com/v/pearsons-pub/4da166dcb521224b3dfdf3ed","categoryId":"4bf58dd8d48988d116941735","category":"Bar","checkinsCount":439,"usersCount":124,"tipCount":5,"visitsCount":483,"tier":"","message":"","currency":"","rating":6.7},{"name":"World of Beer","phone":"5207776482","address":"350 E Congress St Ste A","lat":32.22203195,"lng":-110.9661859,"city_fetched":"Tucson,US","state":"AZ","country":"United States","canonicalUrl":"https://foursquare.com/v/world-of-beer/526ec21411d2476e8f514200","categoryId":"4bf58dd8d48988d116941735","category":"Bar","checkinsCount":1142,"usersCount":700,"tipCount":21,"visitsCount":1226,"url":"http://worldofbeer.com/Locations/Tucson","tier":2,"message":"Moderate","currency":"$","rating":6.7},{"name":"Rileys Tavern","address":"5150 N LA Cholla Blvd","lat":32.30039914435204,"lng":-111.01085292031239,"city_fetched":"Tucson,US","state":"AZ","country":"United States","canonicalUrl":"https://foursquare.com/v/rileys-tavern/4b76505bf964a520dc472ee3","categoryId":"4bf58dd8d48988d11b941735","category":"Pub","checkinsCount":205,"usersCount":86,"tipCount":5,"visitsCount":224,"tier":"","message":"","currency":"","rating":6.7},{"name":"Diablos Sports Bar & Grill","phone":"5205149202","twitter":"diablosbar_az","address":"2545 S Craycroft Rd","lat":32.192957,"lng":-110.874706,"city_fetched":"Tucson,US","state":"AZ","country":"United States","canonicalUrl":"https://foursquare.com/v/diablos-sports-bar--grill/4bafd1def964a52068233ce3","categoryId":"4bf58dd8d48988d11d941735","category":"Sports Bar","checkinsCount":485,"usersCount":286,"tipCount":5,"visitsCount":517,"tier":"","message":"","currency":"","rating":6.7},{"name":"Curves Cabaret","phone":"5208847210","address":"2130 N Oracle Rd","lat":32.24791508037985,"lng":-110.9774674965284,"city_fetched":"Tucson,US","state":"AZ","country":"United States","canonicalUrl":"https://foursquare.com/v/curves-cabaret/4b08cbf3f964a5205a1223e3","categoryId":"4bf58dd8d48988d1d6941735","category":"Strip Club","checkinsCount":780,"usersCount":450,"tipCount":6,"visitsCount":1070,"tier":"","message":"","currency":"","rating":6.6},{"name":"Boondocks Lounge","address":"3306 N 1st Ave","lat":32.26669838775433,"lng":-110.96076629376556,"city_fetched":"Tucson,US","state":"AZ","country":"United States","canonicalUrl":"https://foursquare.com/v/boondocks-lounge/4b0586cff964a520996f22e3","categoryId":"4bf58dd8d48988d116941735","category":"Bar","checkinsCount":419,"usersCount":209,"tipCount":5,"visitsCount":509,"tier":"","message":"","currency":"","rating":6.6},{"name":"Jeff's Pub","phone":"5208861001","address":"112 S Camino Seco","lat":32.21908484709202,"lng":-110.80732613359258,"city_fetched":"Tucson,US","state":"AZ","country":"United States","canonicalUrl":"https://foursquare.com/v/jeffs-pub/4c340f3466e40f47d30bc98b","categoryId":"4bf58dd8d48988d11b941735","category":"Pub","checkinsCount":1537,"usersCount":496,"tipCount":11,"visitsCount":1850,"url":"http://jeffspub.com","tier":"","message":"","currency":"","rating":6.6},{"name":"Dirtbag's","address":"1800 E Speedway Blvd","lat":32.23586409543419,"lng":-110.94508396340426,"city_fetched":"Tucson,US","state":"AZ","country":"United States","canonicalUrl":"https://foursquare.com/v/dirtbags/4b0586d0f964a520bd6f22e3","categoryId":"4bf58dd8d48988d116941735","category":"Bar","checkinsCount":1748,"usersCount":868,"tipCount":12,"visitsCount":2011,"tier":1,"message":"Cheap","currency":"$","rating":6.5},{"name":"Hi Fi Kitchen & Cocktails","phone":"5202689110","twitter":"hifitucson","address":"345 E Congress St #101","lat":32.22211602970849,"lng":-110.96595302123517,"city_fetched":"Tucson,US","state":"AZ","country":"United States","canonicalUrl":"https://foursquare.com/v/hi-fi-kitchen--cocktails/5318e0c711d203667c43853d","categoryId":"4bf58dd8d48988d11d941735","category":"Sports Bar","checkinsCount":541,"usersCount":321,"tipCount":9,"visitsCount":603,"tier":"","message":"","currency":"","rating":6.5},{"name":"Rj's Replays","phone":"5204955136","address":"5769 E Speedway Blvd","lat":32.236387138980376,"lng":-110.86922418370895,"city_fetched":"Tucson,US","state":"AZ","country":"United States","canonicalUrl":"https://foursquare.com/v/rjs-replays/4e2b43e06284b96d7b84b672","categoryId":"4bf58dd8d48988d116941735","category":"Bar","checkinsCount":858,"usersCount":392,"tipCount":12,"visitsCount":1013,"url":"http://www.rjsreplays.com","tier":"","message":"","currency":"","rating":6.5},{"name":"Home Plate Sports Pub","address":"4886 E 22nd St.","lat":32.20645776440988,"lng":-110.88778713082512,"neighborhood":"Myers","city_fetched":"Tucson,US","state":"AZ","country":"United States","canonicalUrl":"https://foursquare.com/v/home-plate-sports-pub/4d3d0da614aa8cfaf7d4af5e","categoryId":"4bf58dd8d48988d11d941735","category":"Sports Bar","checkinsCount":607,"usersCount":414,"tipCount":7,"visitsCount":751,"tier":"","message":"","currency":"","rating":6.4},{"name":"Famous Sam's","phone":"5202920492","twitter":"famous_sams","address":"2480 W Ruthrauff Rd","lat":32.294717115791975,"lng":-111.01974804327706,"city_fetched":"Tucson,US","state":"AZ","country":"United States","canonicalUrl":"https://foursquare.com/v/famous-sams/4bfdb694bf6576b091b8adb8","categoryId":"4bf58dd8d48988d11d941735","category":"Sports Bar","checkinsCount":192,"usersCount":114,"tipCount":2,"visitsCount":219,"url":"http://www.famoussams3.com","tier":1,"message":"Cheap","currency":"$","rating":6.4},{"name":"Bayhorse","lat":32.25011538161894,"lng":-110.93088034904098,"neighborhood":"Blenman-Elm","city_fetched":"Tucson,US","state":"AZ","country":"United States","canonicalUrl":"https://foursquare.com/v/bayhorse/4ba06f5ef964a520966d37e3","categoryId":"4bf58dd8d48988d118941735","category":"Dive Bar","checkinsCount":423,"usersCount":128,"tipCount":9,"visitsCount":469,"tier":"","message":"","currency":"","rating":6.3},{"name":"O'Malley's","phone":"5206238600","address":"247 N 4th Ave","lat":32.22482881824409,"lng":-110.96578420493817,"city_fetched":"Tucson,US","state":"AZ","country":"United States","canonicalUrl":"https://foursquare.com/v/omalleys/4b0586cff964a5209b6f22e3","categoryId":"4bf58dd8d48988d116941735","category":"Bar","checkinsCount":4810,"usersCount":2256,"tipCount":19,"visitsCount":5383,"url":"http://www.myspace.com/omalleysonfourthave","tier":1,"message":"Cheap","currency":"$","rating":6.3},{"name":"Putney's Sports Bar & Grille","phone":"5205751767","twitter":"putneystucson","address":"6090 N Oracle Rd","lat":32.317107074276194,"lng":-110.97535436910749,"city_fetched":"Tucson,US","state":"AZ","country":"United States","canonicalUrl":"https://foursquare.com/putneystucson","categoryId":"4bf58dd8d48988d11d941735","category":"Sports Bar","checkinsCount":1430,"usersCount":548,"tipCount":10,"visitsCount":1580,"url":"http://www.putneyssportsbar.com","tier":1,"message":"Cheap","currency":"$","rating":6.2},{"name":"Risky Business","phone":"5205770021","address":"6866 E Sunrise Dr","lat":32.307933418842474,"lng":-110.84577781121779,"city_fetched":"Tucson,US","state":"AZ","country":"United States","canonicalUrl":"https://foursquare.com/v/risky-business/4b0586cff964a5209a6f22e3","categoryId":"4bf58dd8d48988d116941735","category":"Bar","checkinsCount":1180,"usersCount":572,"tipCount":12,"visitsCount":1446,"url":"http://riskybusinesstucson.com","tier":"","message":"","currency":"","rating":6.2},{"name":"Famous Sams","phone":"5202961245","address":"7129 E Golf Links Rd","lat":32.193331997213605,"lng":-110.83886853853113,"city_fetched":"Tucson,US","state":"AZ","country":"United States","canonicalUrl":"https://foursquare.com/v/famous-sams/4c226c6613c00f47147887de","categoryId":"4bf58dd8d48988d120941735","category":"Karaoke Bar","checkinsCount":568,"usersCount":312,"tipCount":4,"visitsCount":642,"url":"http://famoussamstucson.com","tier":"","message":"","currency":"","rating":6.2},{"name":"Skybox Restaurant & Sports Bar","address":"5605 E River Rd","lat":32.27511181,"lng":-110.87337638,"city_fetched":"Tucson,US","state":"AZ","country":"United States","canonicalUrl":"https://foursquare.com/v/skybox-restaurant--sports-bar/4b42bb59f964a52062d925e3","categoryId":"4bf58dd8d48988d11d941735","category":"Sports Bar","checkinsCount":759,"usersCount":499,"tipCount":15,"visitsCount":807,"tier":"","message":"","currency":"","rating":6.2},{"name":"Batch Cafe & Bar","phone":"5202037370","twitter":"batchtucson","address":"118 E Congress St","lat":32.22182624521813,"lng":-110.96926531681461,"city_fetched":"Tucson,US","state":"AZ","country":"United States","canonicalUrl":"https://foursquare.com/batchtucson","categoryId":"4bf58dd8d48988d122941735","category":"Whisky Bar","checkinsCount":98,"usersCount":84,"tipCount":8,"visitsCount":138,"url":"http://batchtucson.com","tier":"","message":"","currency":"","rating":6.1},{"name":"Shooters Steak House & Saloon","phone":"5203220779","address":"3115 E Prince Rd","lat":32.27297239,"lng":-110.92611941666667,"city_fetched":"Tucson,US","state":"AZ","country":"United States","canonicalUrl":"https://foursquare.com/v/shooters-steak-house--saloon/4b0586d0f964a520bb6f22e3","categoryId":"4bf58dd8d48988d116941735","category":"Bar","checkinsCount":1255,"usersCount":598,"tipCount":11,"visitsCount":1402,"tier":"","message":"","currency":"","rating":6.1},{"name":"The Whiskey Tango","address":"7010 E Broadway Blvd","lat":32.21951343,"lng":-110.84154725074768,"city_fetched":"Tucson,US","state":"AZ","country":"United States","canonicalUrl":"https://foursquare.com/v/the-whiskey-tango/4d01d2ab37caa1cdebdee047","categoryId":"4bf58dd8d48988d116941735","category":"Bar","checkinsCount":515,"usersCount":214,"tipCount":2,"visitsCount":540,"tier":"","message":"","currency":"","rating":6.1},{"name":"Javelina Cantina","phone":"5208814200","address":"445 S Alvernon Way","lat":32.21502522079599,"lng":-110.90894066994673,"city_fetched":"Tucson,US","state":"AZ","country":"United States","canonicalUrl":"https://foursquare.com/v/javelina-cantina/4b18391ff964a52016cf23e3","categoryId":"4bf58dd8d48988d1d5941735","category":"Hotel Bar","checkinsCount":357,"usersCount":259,"tipCount":7,"visitsCount":372,"tier":"","message":"","currency":"","rating":6},{"name":"Maloney's","address":"301 E Stevens Ave.","lat":32.22444817397858,"lng":-110.96643618521291,"city_fetched":"Tucson,US","state":"AZ","country":"United States","canonicalUrl":"https://foursquare.com/v/maloneys/4b0586d0f964a520a36f22e3","categoryId":"4bf58dd8d48988d116941735","category":"Bar","checkinsCount":2751,"usersCount":1416,"tipCount":19,"visitsCount":2920,"tier":"","message":"","currency":"","rating":6},{"name":"Frank's Sports Grill & Bar","phone":"5202909666","address":"7930 E Speedway Blvd #170","lat":32.23445925,"lng":-110.82287907600403,"city_fetched":"Tucson,US","state":"AZ","country":"United States","canonicalUrl":"https://foursquare.com/v/franks-sports-grill--bar/4d8bccd27aeb5941a93f8859","categoryId":"4bf58dd8d48988d11d941735","category":"Sports Bar","checkinsCount":423,"usersCount":211,"tipCount":11,"visitsCount":596,"tier":"","message":"","currency":"","rating":5.9},{"name":"The wreck","address":"213 N 4th Ave","lat":32.224618096547765,"lng":-110.96638379393154,"city_fetched":"Tucson,US","state":"AZ","country":"United States","canonicalUrl":"https://foursquare.com/v/the-wreck/4f4351e0e4b0561bff4f7b5c","categoryId":"4bf58dd8d48988d11f941735","category":"Nightclub","checkinsCount":1387,"usersCount":641,"tipCount":7,"visitsCount":1420,"tier":"","message":"","currency":"","rating":5.8},{"name":"HiFI Kitchen & Coctails","address":"345 E. Congress Suit #101","lat":32.22207018714086,"lng":-110.9659588424871,"city_fetched":"Tucson,US","state":"AZ","country":"United States","canonicalUrl":"https://foursquare.com/v/hifi-kitchen--coctails/5357014811d245bcb4470bf3","categoryId":"4bf58dd8d48988d11e941735","category":"Cocktail Bar","checkinsCount":145,"usersCount":82,"tipCount":6,"visitsCount":146,"tier":"","message":"","currency":"","rating":5.8},{"name":"Venture-N","phone":"5208828224","twitter":"venture_n","address":"1239 N 6th Ave","lat":32.23828953781932,"lng":-110.96916635534146,"city_fetched":"Tucson,US","state":"AZ","country":"United States","canonicalUrl":"https://foursquare.com/v/venturen/4b52654cf964a520347b27e3","categoryId":"4bf58dd8d48988d1d8941735","category":"Gay Bar","checkinsCount":1078,"usersCount":308,"tipCount":5,"visitsCount":1389,"url":"http://venture-n.com","tier":1,"message":"Cheap","currency":"$","rating":5.8},{"name":"Margarita Bay","phone":"5202908977","address":"7415 E 22nd St","lat":32.207036027243156,"lng":-110.83428759872469,"city_fetched":"Tucson,US","state":"AZ","country":"United States","canonicalUrl":"https://foursquare.com/v/margarita-bay/4b0586d1f964a520dc6f22e3","categoryId":"4bf58dd8d48988d11f941735","category":"Nightclub","checkinsCount":267,"usersCount":175,"tipCount":2,"visitsCount":299,"tier":"","message":"","currency":"","rating":5.7},{"name":"Fuku Sushi","phone":"5207983858","address":"940 E University Blvd","lat":32.2316562,"lng":-110.9574698,"neighborhood":"West University","city_fetched":"Tucson,US","state":"AZ","country":"United States","canonicalUrl":"https://foursquare.com/v/fuku-sushi/4b933221f964a5208c3a34e3","categoryId":"4bf58dd8d48988d11c941735","category":"Sake Bar","checkinsCount":1657,"usersCount":802,"tipCount":14,"visitsCount":1667,"url":"http://www.tucsonfukusushi.com","tier":"","message":"","currency":"","rating":5.7},{"name":"Bashful Bandit","phone":"5207958996","address":"3686 E Speedway Blvd","lat":32.23592795749512,"lng":-110.91358587231358,"city_fetched":"Tucson,US","state":"AZ","country":"United States","canonicalUrl":"https://foursquare.com/v/bashful-bandit/4b6baf18f964a52070152ce3","categoryId":"4bf58dd8d48988d118941735","category":"Dive Bar","checkinsCount":395,"usersCount":228,"tipCount":5,"visitsCount":410,"url":"http://www.thebashfulbandit.com","tier":"","message":"","currency":"","rating":5.7},{"name":"Salty Dawg II","address":"6121 E Broadway Blvd","lat":32.22263,"lng":-110.86200888,"city_fetched":"Tucson,US","state":"AZ","country":"United States","canonicalUrl":"https://foursquare.com/v/salty-dawg-ii/4bbe7bbe4e7bd13a8e1a9b7f","categoryId":"4bf58dd8d48988d116941735","category":"Bar","checkinsCount":356,"usersCount":181,"tipCount":1,"visitsCount":407,"tier":"","message":"","currency":"","rating":5.6},{"name":"Finnegans Lounge","phone":"5205730700","address":"7051 S Tucson Blvd","lat":32.12400705194795,"lng":-110.93395390747322,"city_fetched":"Tucson,US","state":"AZ","country":"United States","canonicalUrl":"https://foursquare.com/v/finnegans-lounge/4bef5f74f2712d7fe0b8fbd8","categoryId":"4bf58dd8d48988d1d5941735","category":"Hotel Bar","checkinsCount":270,"usersCount":171,"tipCount":3,"visitsCount":279,"tier":"","message":"","currency":"","rating":5.3}]