[{"name":"Andolini's Pizzeria","phone":"9187286111","twitter":"andopizza","address":"1552 E 15th St","lat":36.14046471,"lng":-95.969695,"city_fetched":"Tulsa","state":"OK","country":"United States","canonicalUrl":"https://foursquare.com/v/andolinis-pizzeria/4dc4a32445dd2645525cd1db","category":"Pizza Place","checkinsCount":2850,"usersCount":1752,"tipCount":59,"visitsCount":3625,"url":"http://andopizza.com","tier":2,"message":"Moderate","currency":"$","rating":9.4},{"name":"Hodge's Bend","address":"823 E 3rd St","lat":36.15676197160206,"lng":-95.98117412405979,"neighborhood":"Blue Dome District","city_fetched":"Tulsa","state":"OK","country":"United States","canonicalUrl":"https://foursquare.com/v/hodges-bend/51171311e4b0e74f56dcc375","category":"Cocktail Bar","checkinsCount":787,"usersCount":640,"tipCount":22,"visitsCount":1325,"url":"http://hodges-bend.com","tier":"","message":"","currency":"","rating":9.2},{"name":"Kilkennys Irish Pub","phone":"9185828282","twitter":"kilkennystulsa","address":"1413 E 15th St","lat":36.140740745669774,"lng":-95.97290781228561,"city_fetched":"Tulsa","state":"OK","country":"United States","canonicalUrl":"https://foursquare.com/kilkennystulsa","category":"Restaurant","checkinsCount":4451,"usersCount":2678,"tipCount":79,"visitsCount":5471,"url":"http://www.tulsairishpub.com","tier":2,"message":"Moderate","currency":"$","rating":9.2},{"name":"McNellie's","phone":"9183827468","twitter":"mcnelliestulsa","address":"409 E 1st St","lat":36.15722153747524,"lng":-95.98707637116736,"neighborhood":"Blue Dome District","city_fetched":"Tulsa","state":"OK","country":"United States","canonicalUrl":"https://foursquare.com/v/mcnellies/4b2c476df964a5201ec524e3","category":"Pub","checkinsCount":9596,"usersCount":4346,"tipCount":82,"visitsCount":10960,"url":"http://www.mcnellies.com","tier":2,"message":"Moderate","currency":"$","rating":9.1},{"name":"The Phoenix","phone":"9187287828","twitter":"thephoenixtulsa","address":"1302 E 6th St","lat":36.152050902747504,"lng":-95.97533440785847,"neighborhood":"Pearl District","city_fetched":"Tulsa","state":"OK","country":"United States","canonicalUrl":"https://foursquare.com/v/the-phoenix/50cbf4d5e4b044ef63bf43f2","category":"Café","checkinsCount":1605,"usersCount":861,"tipCount":33,"visitsCount":2458,"url":"http://thephoenixtulsa.com","tier":1,"message":"Cheap","currency":"$","rating":9.1},{"name":"Main Street Tavern","phone":"9188721414","twitter":"mainsttavernba","address":"200 S Main St","lat":36.051319,"lng":-95.790984,"city_fetched":"Tulsa","state":"OK","country":"United States","canonicalUrl":"https://foursquare.com/v/main-street-tavern/4dcc198dd22d7ffe9d3d58d4","category":"Gastropub","checkinsCount":1667,"usersCount":732,"tipCount":25,"visitsCount":2104,"url":"http://www.mainstreettavernba.com","tier":2,"message":"Moderate","currency":"$","rating":9},{"name":"Fat Guy's Burger Bar","phone":"9187947782","address":"140 N Greenwood Ave","lat":36.16052999748073,"lng":-95.98641020955823,"neighborhood":"Downtown Tulsa","city_fetched":"Tulsa","state":"OK","country":"United States","canonicalUrl":"https://foursquare.com/v/fat-guys-burger-bar/4bbe13a0f57ba5934ce4aeb9","category":"Burger Joint","checkinsCount":2707,"usersCount":1579,"tipCount":51,"visitsCount":3283,"url":"http://www.fatguysburgers.com","tier":2,"message":"Moderate","currency":"$","rating":8.9},{"name":"Classic Cigars And Lounge","address":"118 N Boston Ave","lat":36.158225,"lng":-95.992727,"neighborhood":"Brady Arts District","city_fetched":"Tulsa","state":"OK","country":"United States","canonicalUrl":"https://foursquare.com/v/classic-cigars-and-lounge/4eb89711f790d87d0411da66","category":"Bar","checkinsCount":564,"usersCount":215,"tipCount":10,"visitsCount":590,"tier":"","message":"","currency":"","rating":8.9},{"name":"Valkyrie","phone":"9182952160","twitter":"tulsavalkyrie","address":"13 E Brady St","lat":36.15859453370137,"lng":-95.99317028170779,"neighborhood":"Brady Arts District","city_fetched":"Tulsa","state":"OK","country":"United States","canonicalUrl":"https://foursquare.com/v/valkyrie/4fc6c67ae4b0785353907a1c","category":"Cocktail Bar","checkinsCount":1546,"usersCount":692,"tipCount":28,"visitsCount":1632,"url":"http://valkyrietulsa.com","tier":3,"message":"Expensive","currency":"$","rating":8.8},{"name":"Baker St. Pub & Grill","phone":"9182862227","address":"6620 S Memorial Dr","lat":36.06667567477702,"lng":-95.88714301586151,"city_fetched":"Tulsa","state":"OK","country":"United States","canonicalUrl":"https://foursquare.com/v/baker-st-pub--grill/4bd6112b29eb9c74597d94e1","category":"Pub","checkinsCount":3638,"usersCount":1747,"tipCount":51,"visitsCount":4036,"url":"http://sherlockspubco.com","tier":2,"message":"Moderate","currency":"$","rating":8.7},{"name":"Fassler Hall","phone":"9185767898","address":"304 S Elgin Ave","lat":36.154740092704216,"lng":-95.98643602963945,"neighborhood":"Downtown Tulsa","city_fetched":"Tulsa","state":"OK","country":"United States","canonicalUrl":"https://foursquare.com/v/fassler-hall/4cae666bb4b0a35d4ffb38ce","category":"Beer Garden","checkinsCount":3695,"usersCount":1575,"tipCount":32,"visitsCount":4278,"url":"http://fasslerhall.com","tier":2,"message":"Moderate","currency":"$","rating":8.6},{"name":"The Brook Restaurant","phone":"9187489977","twitter":"thebrooktulsa","address":"3401 S Peoria Ave","lat":36.114151762506324,"lng":-95.97545206546783,"neighborhood":"Brookside","city_fetched":"Tulsa","state":"OK","country":"United States","canonicalUrl":"https://foursquare.com/v/the-brook-restaurant/4b51fbb1f964a520475f27e3","category":"American Restaurant","checkinsCount":3262,"usersCount":1524,"tipCount":54,"visitsCount":3420,"url":"http://brookrestaurant.com","tier":2,"message":"Moderate","currency":"$","rating":8.5},{"name":"George's Pub","address":"108 N 1st St","lat":36.02301657996972,"lng":-95.96972240763829,"city_fetched":"Tulsa","state":"OK","country":"United States","canonicalUrl":"https://foursquare.com/v/georges-pub/4cc35f7d42d1b60cbaf41613","category":"Bar","checkinsCount":798,"usersCount":278,"tipCount":14,"visitsCount":932,"tier":2,"message":"Moderate","currency":"$","rating":8.5},{"name":"Mixed Company","address":"302 S Cheyenne Ave","lat":36.15231382118249,"lng":-95.99416705577426,"neighborhood":"Downtown Tulsa","city_fetched":"Tulsa","state":"OK","country":"United States","canonicalUrl":"https://foursquare.com/v/mixed-company/532e450b498edeac82c0e7a1","category":"Cocktail Bar","checkinsCount":277,"usersCount":222,"tipCount":4,"visitsCount":370,"url":"http://mixcotulsa.com","tier":"","message":"","currency":"","rating":8.4},{"name":"The Tavern","phone":"9189499801","address":"201 N Main St","lat":36.158459725,"lng":-95.9935657,"neighborhood":"Brady Arts District","city_fetched":"Tulsa","state":"OK","country":"United States","canonicalUrl":"https://foursquare.com/v/the-tavern/4d18e658cc216ea89c6779d3","category":"Bar","checkinsCount":1867,"usersCount":1090,"tipCount":34,"visitsCount":1979,"url":"http://taverntulsa.com","tier":2,"message":"Moderate","currency":"$","rating":8.4},{"name":"Cosmo Cafe & Bar","phone":"9189334848","twitter":"cosmocafe","address":"3334 S Peoria Ave","lat":36.114426255226135,"lng":-95.975885,"neighborhood":"Brookside","city_fetched":"Tulsa","state":"OK","country":"United States","canonicalUrl":"https://foursquare.com/v/cosmo-cafe--bar/4b299f48f964a520d1a124e3","category":"Coffee Shop","checkinsCount":4334,"usersCount":1197,"tipCount":53,"visitsCount":4390,"url":"http://www.cosmo-cafe.com","tier":2,"message":"Moderate","currency":"$","rating":8.4},{"name":"Lucky's","phone":"9185925825","twitter":"luckystulsa","address":"1536 E 15th St","lat":36.140491,"lng":-95.970408,"city_fetched":"Tulsa","state":"OK","country":"United States","canonicalUrl":"https://foursquare.com/v/luckys/4b71a146f964a5203c522de3","category":"American Restaurant","checkinsCount":665,"usersCount":358,"tipCount":16,"visitsCount":693,"url":"http://www.luckystulsa.com","tier":2,"message":"Moderate","currency":"$","rating":8.3},{"name":"Polo Grill","phone":"9187744280","twitter":"pologrilltulsa","address":"2038 Utica Sq","lat":36.131964,"lng":-95.962838,"neighborhood":"Utica Square","city_fetched":"Tulsa","state":"OK","country":"United States","canonicalUrl":"https://foursquare.com/pologrilltulsa","category":"American Restaurant","checkinsCount":586,"usersCount":404,"tipCount":14,"visitsCount":651,"url":"http://www.pologrill.com","tier":4,"message":"Very Expensive","currency":"$","rating":8.3},{"name":"Cellar Dweller Bar","address":"417 W 7th St","lat":36.14808722558542,"lng":-95.99406892703146,"neighborhood":"Downtown Tulsa","city_fetched":"Tulsa","state":"OK","country":"United States","canonicalUrl":"https://foursquare.com/v/cellar-dweller-bar/4b9ea1a7f964a52051f536e3","category":"Bar","checkinsCount":1209,"usersCount":556,"tipCount":13,"visitsCount":1500,"tier":"","message":"","currency":"","rating":8.3},{"name":"Mayo Hotel The Penthouse Lounge and Bar","twitter":"themayohotel","address":"115 W 5th St","lat":36.150909662246704,"lng":-95.992134,"neighborhood":"Downtown Tulsa","city_fetched":"Tulsa","state":"OK","country":"United States","canonicalUrl":"https://foursquare.com/v/mayo-hotel-the-penthouse-lounge-and-bar/4bdbafe8c79cc928d42384e9","category":"Hotel Bar","checkinsCount":864,"usersCount":567,"tipCount":8,"visitsCount":881,"tier":"","message":"","currency":"","rating":8.3},{"name":"The Saturn Room","address":"209 W Brady St","lat":36.158256195479304,"lng":-95.9945544076227,"neighborhood":"Brady Arts District","city_fetched":"Tulsa","state":"OK","country":"United States","canonicalUrl":"https://foursquare.com/v/the-saturn-room/5528ada9498e816af265e2a5","category":"Tiki Bar","checkinsCount":106,"usersCount":108,"tipCount":2,"visitsCount":136,"tier":"","message":"","currency":"","rating":8.2},{"name":"Doc's Wine & Food","phone":"9189493663","address":"3509 S Peoria Ave","lat":36.11327636745932,"lng":-95.97546815872192,"neighborhood":"Brookside","city_fetched":"Tulsa","state":"OK","country":"United States","canonicalUrl":"https://foursquare.com/v/docs-wine--food/4c0d0a703561ef3b9092da2d","category":"New American Restaurant","checkinsCount":1088,"usersCount":484,"tipCount":15,"visitsCount":1133,"url":"http://www.docswineandfood.com","tier":2,"message":"Moderate","currency":"$","rating":8.2},{"name":"SMOKE. on Cherry Street","phone":"9189494440","twitter":"smokeoncherry","address":"1542 E 15th St","lat":36.140507,"lng":-95.970074,"city_fetched":"Tulsa","state":"OK","country":"United States","canonicalUrl":"https://foursquare.com/v/smoke-on-cherry-street/4d1aa8ab83c5a1cd45cb254e","category":"New American Restaurant","checkinsCount":1529,"usersCount":1042,"tipCount":39,"visitsCount":1820,"url":"http://www.smoketusa.com","tier":2,"message":"Moderate","currency":"$","rating":8.2},{"name":"Cork Wine Café","phone":"9186153383","twitter":"corktulsa","address":"8922 S Memorial Dr Ste C3","lat":36.03342067026215,"lng":-95.88751235501732,"city_fetched":"Tulsa","state":"OK","country":"United States","canonicalUrl":"https://foursquare.com/v/cork-wine-caf%C3%A9/4ee95303b8f7eaddf6afe02e","category":"Wine Bar","checkinsCount":372,"usersCount":181,"tipCount":9,"visitsCount":421,"url":"http://www.corktulsa.com","tier":"","message":"","currency":"","rating":8.1},{"name":"Soundpony","phone":"9185827669","address":"409 N Main St","lat":36.16060736183511,"lng":-95.9947358071804,"neighborhood":"Brady Arts District","city_fetched":"Tulsa","state":"OK","country":"United States","canonicalUrl":"https://foursquare.com/v/soundpony/4b0b5f79f964a520ec3023e3","category":"Rock Club","checkinsCount":3163,"usersCount":1032,"tipCount":21,"visitsCount":3336,"tier":"","message":"","currency":"","rating":8.1},{"name":"Vintage 1740","phone":"9185820700","twitter":"vintage1740","address":"1740 S Boston Ave","lat":36.13646328449249,"lng":-95.98533710000001,"city_fetched":"Tulsa","state":"OK","country":"United States","canonicalUrl":"https://foursquare.com/v/vintage-1740/4b2db4edf964a520a9da24e3","category":"Wine Bar","checkinsCount":827,"usersCount":380,"tipCount":9,"visitsCount":838,"url":"http://vintage1740.com","tier":2,"message":"Moderate","currency":"$","rating":8.1},{"name":"McNellie's South City","phone":"9189335258","twitter":"mcnelliestulsa","address":"7031 S Zurich Ave","lat":36.062022759082126,"lng":-95.92057943344116,"city_fetched":"Tulsa","state":"OK","country":"United States","canonicalUrl":"https://foursquare.com/v/mcnellies-south-city/51d35456498ee12c3786837c","category":"Pub","checkinsCount":1608,"usersCount":1076,"tipCount":22,"visitsCount":2619,"url":"http://mcnelliessouthcity.com","tier":2,"message":"Moderate","currency":"$","rating":8.1},{"name":"Jameson's Pub","address":"1385 N Aspen Ave","lat":36.064366,"lng":-95.814536,"city_fetched":"Tulsa","state":"OK","country":"United States","canonicalUrl":"https://foursquare.com/v/jamesons-pub/4ffb20a7e4b01ead03d9f45e","category":"Bar","checkinsCount":313,"usersCount":194,"tipCount":3,"visitsCount":347,"tier":"","message":"","currency":"","rating":8},{"name":"Empire","phone":"9185999512","address":"1516 S Peoria Ave","lat":36.1399455329713,"lng":-95.9758973121643,"city_fetched":"Tulsa","state":"OK","country":"United States","canonicalUrl":"https://foursquare.com/v/empire/4b627548f964a52068482ae3","category":"Bar","checkinsCount":1605,"usersCount":535,"tipCount":8,"visitsCount":1692,"url":"http://www.empiretulsa.com","tier":"","message":"","currency":"","rating":8},{"name":"Market Pub","phone":"9186273777","address":"5058 S 79th East Ave","lat":36.09104803214649,"lng":-95.88936656713486,"neighborhood":"Fontana","city_fetched":"Tulsa","state":"OK","country":"United States","canonicalUrl":"https://foursquare.com/v/market-pub/4bbfbe3f74a9a5937f08cff6","category":"Bar","checkinsCount":2388,"usersCount":325,"tipCount":10,"visitsCount":2504,"tier":1,"message":"Cheap","currency":"$","rating":8},{"name":"Bricktown Brewery","phone":"9183212739","address":"11909 East 96th St. N","lat":36.2934897292425,"lng":-95.84089310093624,"city_fetched":"Tulsa","state":"OK","country":"United States","canonicalUrl":"https://foursquare.com/v/bricktown-brewery/536a6547498eb63303d59c1c","category":"American Restaurant","checkinsCount":272,"usersCount":302,"tipCount":5,"visitsCount":495,"url":"http://www.bricktownbrewery.com","tier":"","message":"","currency":"","rating":8},{"name":"White Lion","phone":"9184916533","address":"6927 S Canton Ave","lat":36.061803,"lng":-95.91862,"city_fetched":"Tulsa","state":"OK","country":"United States","canonicalUrl":"https://foursquare.com/v/white-lion/4b4e4f9ff964a520fce826e3","category":"Pub","checkinsCount":522,"usersCount":330,"tipCount":12,"visitsCount":622,"tier":2,"message":"Moderate","currency":"$","rating":8},{"name":"Star Avenue Hookah Lounge","phone":"9186199149","twitter":"star_ave_hookah","address":"2625 E 11th St","lat":36.14797240215816,"lng":-95.95280694595132,"neighborhood":"Kendall-Whittier","city_fetched":"Tulsa","state":"OK","country":"United States","canonicalUrl":"https://foursquare.com/v/star-avenue-hookah-lounge/4bc00869f8219c749824b110","category":"Hookah Bar","checkinsCount":845,"usersCount":190,"tipCount":9,"visitsCount":1070,"tier":"","message":"","currency":"","rating":7.9},{"name":"The Bramble","lat":36.156003,"lng":-95.987783,"neighborhood":"Blue Dome District","city_fetched":"Tulsa","state":"OK","country":"United States","canonicalUrl":"https://foursquare.com/v/the-bramble/547e4547498e7e00f7475770","category":"Cocktail Bar","checkinsCount":155,"usersCount":63,"tipCount":0,"visitsCount":158,"tier":"","message":"","currency":"","rating":7.9},{"name":"PJ's Pub and Grill","lat":36.017799377441406,"lng":-95.86712646484375,"city_fetched":"Tulsa","state":"OK","country":"United States","canonicalUrl":"https://foursquare.com/v/pjs-pub-and-grill/54485dfb498e04004ed66e60","category":"Sports Bar","checkinsCount":209,"usersCount":186,"tipCount":2,"visitsCount":548,"tier":"","message":"","currency":"","rating":7.9},{"name":"Fuji","phone":"9182501821","address":"8226 E 71st St","lat":36.06005270947777,"lng":-95.8848469818934,"city_fetched":"Tulsa","state":"OK","country":"United States","canonicalUrl":"https://foursquare.com/v/fuji/4b6e0aa4f964a520bda52ce3","category":"Sushi Restaurant","checkinsCount":985,"usersCount":536,"tipCount":23,"visitsCount":1148,"url":"http://www.fujitulsa.com","tier":2,"message":"Moderate","currency":"$","rating":7.9},{"name":"Marshall Brewing Company","twitter":"marshallbrewing","address":"618 S Wheeling Ave","lat":36.15157660315626,"lng":-95.96518993377686,"neighborhood":"Kendall-Whittier","city_fetched":"Tulsa","state":"OK","country":"United States","canonicalUrl":"https://foursquare.com/v/marshall-brewing-company/4bfd72fc83bbd13a710163c5","category":"Brewery","checkinsCount":270,"usersCount":213,"tipCount":8,"visitsCount":464,"url":"http://marshallbrewing.com","tier":"","message":"","currency":"","rating":7.9},{"name":"Roosevelt's","twitter":"rooseveltstulsa","address":"1551 E 15th St","lat":36.14077730920934,"lng":-95.97028613090515,"city_fetched":"Tulsa","state":"OK","country":"United States","canonicalUrl":"https://foursquare.com/v/roosevelts/570e7326498ef6867ff0bdd2","category":"Gastropub","checkinsCount":66,"usersCount":51,"tipCount":3,"visitsCount":74,"tier":"","message":"","currency":"","rating":7.9},{"name":"Prairie Brewpub","phone":"9189364395","address":"223 N Main St","lat":36.159036290911786,"lng":-95.99408442103294,"neighborhood":"Brady Arts District","city_fetched":"Tulsa","state":"OK","country":"United States","canonicalUrl":"https://foursquare.com/v/prairie-brewpub/5723ea57498ea2e8ce2dcde6","category":"Pub","checkinsCount":200,"usersCount":175,"tipCount":7,"visitsCount":260,"url":"http://prairieales.com","tier":"","message":"","currency":"","rating":7.9},{"name":"The Fur Shop","address":"520 E 3rd St","lat":36.1556998805295,"lng":-95.98422070662467,"neighborhood":"Downtown Tulsa","city_fetched":"Tulsa","state":"OK","country":"United States","canonicalUrl":"https://foursquare.com/v/the-fur-shop/5296a34411d2dd1024328dc7","category":"Dive Bar","checkinsCount":741,"usersCount":409,"tipCount":5,"visitsCount":933,"url":"http://www.furshoptulsa.com","tier":2,"message":"Moderate","currency":"$","rating":7.8},{"name":"R Bar & Grill","phone":"9187245555","address":"3421 S Peoria Ave","lat":36.11354828203188,"lng":-95.9755254418455,"neighborhood":"Brookside","city_fetched":"Tulsa","state":"OK","country":"United States","canonicalUrl":"https://foursquare.com/v/r-bar--grill/4f14b886e4b0678414143eb5","category":"Gastropub","checkinsCount":2248,"usersCount":1051,"tipCount":15,"visitsCount":3018,"url":"http://rbartulsa.com","tier":2,"message":"Moderate","currency":"$","rating":7.8},{"name":"The Cigar Box","phone":"9182997110","twitter":"cigarboxtulsa","address":"500 Riverwalk Ter","lat":36.02741003036499,"lng":-95.95928370952606,"city_fetched":"Tulsa","state":"OK","country":"United States","canonicalUrl":"https://foursquare.com/v/the-cigar-box/4b81f86af964a520edc530e3","category":"Smoke Shop","checkinsCount":518,"usersCount":185,"tipCount":4,"visitsCount":518,"url":"http://www.cigarboxtulsa.com","tier":"","message":"","currency":"","rating":7.7},{"name":"Hop Bunz Crafted Burgers & Beer","phone":"9189496595","twitter":"hopbunz","address":"3330 S Peoria Ave","lat":36.114629450712776,"lng":-95.97587653290431,"neighborhood":"Brookside","city_fetched":"Tulsa","state":"OK","country":"United States","canonicalUrl":"https://foursquare.com/hopbunz","category":"Burger Joint","checkinsCount":233,"usersCount":162,"tipCount":7,"visitsCount":278,"url":"http://www.hopbunz.com","tier":2,"message":"Moderate","currency":"$","rating":7.7},{"name":"Arnie's Bar","phone":"9185830797","address":"318 E 2nd St","lat":36.15582406453815,"lng":-95.98717965269152,"neighborhood":"Blue Dome District","city_fetched":"Tulsa","state":"OK","country":"United States","canonicalUrl":"https://foursquare.com/v/arnies-bar/4b368b5bf964a520a83725e3","category":"Dive Bar","checkinsCount":2851,"usersCount":990,"tipCount":14,"visitsCount":3058,"url":"http://arniesbar.com","tier":"","message":"","currency":"","rating":7.7},{"name":"Cimarron Bar","phone":"9186214644","address":"2619 S Memorial Dr","lat":36.125988138868394,"lng":-95.88370710611343,"city_fetched":"Tulsa","state":"OK","country":"United States","canonicalUrl":"https://foursquare.com/v/cimarron-bar/4bf8c685b182c9b6cd1b785a","category":"Bar","checkinsCount":208,"usersCount":89,"tipCount":3,"visitsCount":221,"url":"http://cimarronbar.com","tier":"","message":"","currency":"","rating":7.7},{"name":"Warehouse Bar & Grill","phone":"9187429005","twitter":"phillips360","address":"3346 S Peoria Ave","lat":36.11409109187721,"lng":-95.97587317228317,"neighborhood":"Brookside","city_fetched":"Tulsa","state":"OK","country":"United States","canonicalUrl":"https://foursquare.com/v/warehouse-bar--grill/4c06c60188ba95210fe7e78f","category":"Bar","checkinsCount":2004,"usersCount":579,"tipCount":14,"visitsCount":2136,"tier":"","message":"","currency":"","rating":7.7},{"name":"Caz's Pub","phone":"9185858587","address":"21 E Brady St","lat":36.15872116700156,"lng":-95.9928086400032,"neighborhood":"Brady Arts District","city_fetched":"Tulsa","state":"OK","country":"United States","canonicalUrl":"https://foursquare.com/v/cazs-pub/4b47d44cf964a5209e4026e3","category":"Bar","checkinsCount":1569,"usersCount":624,"tipCount":5,"visitsCount":1707,"url":"http://www.cazspub.com","tier":2,"message":"Moderate","currency":"$","rating":7.6},{"name":"The Wild Fork","phone":"9187420712","address":"1820 Utica Sq","lat":36.132547,"lng":-95.964955,"neighborhood":"Utica Square","city_fetched":"Tulsa","state":"OK","country":"United States","canonicalUrl":"https://foursquare.com/v/the-wild-fork/4b801edff964a520025430e3","category":"American Restaurant","checkinsCount":1189,"usersCount":722,"tipCount":25,"visitsCount":1200,"url":"http://www.wildfork.com","tier":2,"message":"Moderate","currency":"$","rating":7.6},{"name":"Electric Circus","phone":"9185517447","address":"222 E 1st St","lat":36.15620689185038,"lng":-95.98896503448486,"neighborhood":"Downtown Tulsa","city_fetched":"Tulsa","state":"OK","country":"United States","canonicalUrl":"https://foursquare.com/v/electric-circus/4b80e798f964a5204a9130e3","category":"Nightclub","checkinsCount":769,"usersCount":378,"tipCount":3,"visitsCount":798,"url":"http://electriccircusclub.com","tier":"","message":"","currency":"","rating":7.6},{"name":"Hey Mambo","phone":"9185087000","address":"114 N Boston Ave","lat":36.158256,"lng":-95.99243340383812,"neighborhood":"Brady Arts District","city_fetched":"Tulsa","state":"OK","country":"United States","canonicalUrl":"https://foursquare.com/v/hey-mambo/4c0aed987e3fc928db8bf482","category":"Italian Restaurant","checkinsCount":1245,"usersCount":609,"tipCount":17,"visitsCount":1264,"url":"http://heymambo.com","tier":"","message":"","currency":"","rating":7.6},{"name":"Cigar Box","phone":"9185851424","twitter":"cigarboxtulsa","address":"1326 E 15th St","lat":36.13970339298248,"lng":-95.97460985183716,"city_fetched":"Tulsa","state":"OK","country":"United States","canonicalUrl":"https://foursquare.com/v/cigar-box/4c7db767b53db1f7a5259e11","category":"Smoke Shop","checkinsCount":700,"usersCount":169,"tipCount":9,"visitsCount":707,"url":"http://www.cigarboxtulsa.com","tier":"","message":"","currency":"","rating":7.5},{"name":"Recess Lounge","twitter":"recesslounge918","address":"1660 E 71st St","lat":36.05991187364798,"lng":-95.96772451639174,"city_fetched":"Tulsa","state":"OK","country":"United States","canonicalUrl":"https://foursquare.com/v/recess-lounge/506238abe4b0521ecbb083d4","category":"Nightclub","checkinsCount":1075,"usersCount":99,"tipCount":7,"visitsCount":1169,"tier":"","message":"","currency":"","rating":7.5},{"name":"New Age Renegade","phone":"9185853405","address":"1649 S Main St","lat":36.13806510287904,"lng":-95.98717448861115,"city_fetched":"Tulsa","state":"OK","country":"United States","canonicalUrl":"https://foursquare.com/v/new-age-renegade/4b74e057f964a5206af62de3","category":"Gay Bar","checkinsCount":2043,"usersCount":553,"tipCount":10,"visitsCount":2248,"tier":2,"message":"Moderate","currency":"$","rating":7.5},{"name":"Sutures","phone":"9184815007","address":"7133 S Yale Ave","lat":36.059949,"lng":-95.9210825,"city_fetched":"Tulsa","state":"OK","country":"United States","canonicalUrl":"https://foursquare.com/v/sutures/4b70e2ebf964a52016332de3","category":"Bar","checkinsCount":1150,"usersCount":290,"tipCount":6,"visitsCount":1313,"tier":"","message":"","currency":"","rating":7.5},{"name":"Prairie Artisan Ales","lat":36.13728948181398,"lng":-96.04613554831073,"city_fetched":"Tulsa","state":"OK","country":"United States","canonicalUrl":"https://foursquare.com/v/prairie-artisan-ales/51b148f2498e99ebe122560c","category":"Brewery","checkinsCount":576,"usersCount":298,"tipCount":4,"visitsCount":842,"tier":"","message":"","currency":"","rating":7.5},{"name":"Fleming's Prime Steakhouse & Wine Bar","phone":"9187127500","address":"1976 Utica Sq","lat":36.13160716308303,"lng":-95.96408511632502,"neighborhood":"Utica Square","city_fetched":"Tulsa","state":"OK","country":"United States","canonicalUrl":"https://foursquare.com/v/flemings-prime-steakhouse--wine-bar/4c2162599a67a59306f3da87","category":"Steakhouse","checkinsCount":683,"usersCount":579,"tipCount":16,"visitsCount":830,"url":"http://www.flemingssteakhouse.com/locations/ok/tulsa","tier":4,"message":"Very Expensive","currency":"$","rating":7.5},{"name":"Fat Daddy's Pub & Grille","phone":"9188726206","twitter":"fatdaddystulsa","address":"8056 S Memorial Dr","lat":36.046865042895426,"lng":-95.88694008894487,"city_fetched":"Tulsa","state":"OK","country":"United States","canonicalUrl":"https://foursquare.com/v/fat-daddys-pub--grille/4b3018bef964a520fff524e3","category":"American Restaurant","checkinsCount":1848,"usersCount":476,"tipCount":27,"visitsCount":2099,"url":"http://fatdaddyspub.com","tier":1,"message":"Cheap","currency":"$","rating":7.5},{"name":"The Hunt Club","phone":"9185999200","twitter":"huntclubtulsa","address":"224 N Main St","lat":36.15899283,"lng":-95.994305,"neighborhood":"Brady Arts District","city_fetched":"Tulsa","state":"OK","country":"United States","canonicalUrl":"https://foursquare.com/v/the-hunt-club/4b6d09e7f964a52038642ce3","category":"Dive Bar","checkinsCount":1887,"usersCount":794,"tipCount":9,"visitsCount":1951,"url":"http://thehuntclubtulsa.com","tier":"","message":"","currency":"","rating":7.5},{"name":"Lot No. 6","phone":"9185829999","address":"1323 E 6th St","lat":36.1523339095124,"lng":-95.97455478890703,"neighborhood":"Pearl District","city_fetched":"Tulsa","state":"OK","country":"United States","canonicalUrl":"https://foursquare.com/v/lot-no-6/4e0eac04d4c0f6d6b3fceec3","category":"Bar","checkinsCount":1688,"usersCount":264,"tipCount":11,"visitsCount":1811,"tier":1,"message":"Cheap","currency":"$","rating":7.5},{"name":"Broken Arrow Lanes","phone":"9184554616","twitter":"bowlbrokenarrow","address":"4701 S Elm Pl","lat":36.00451023652149,"lng":-95.7962301252653,"city_fetched":"Tulsa","state":"OK","country":"United States","canonicalUrl":"https://foursquare.com/v/broken-arrow-lanes/4b5c12daf964a520442329e3","category":"Bowling Alley","checkinsCount":781,"usersCount":387,"tipCount":8,"visitsCount":874,"tier":"","message":"","currency":"","rating":7.4},{"name":"Rooster's Cocktails","address":"8215 E Regal Ct","lat":36.012089586781684,"lng":-95.88358393525881,"city_fetched":"Tulsa","state":"OK","country":"United States","canonicalUrl":"https://foursquare.com/v/roosters-cocktails/4c0f109e7189c928b69fd9b6","category":"Bar","checkinsCount":935,"usersCount":322,"tipCount":6,"visitsCount":1008,"tier":"","message":"","currency":"","rating":7.4},{"name":"The Bar Tulsa","phone":"9182544917","twitter":"thebartulsa","address":"8278 E 71st St","lat":36.059651666076384,"lng":-95.88398604518945,"city_fetched":"Tulsa","state":"OK","country":"United States","canonicalUrl":"https://foursquare.com/v/the-bar-tulsa/4bc96298937ca5931ecda592","category":"Bar","checkinsCount":1909,"usersCount":221,"tipCount":8,"visitsCount":2003,"tier":"","message":"","currency":"","rating":7.4},{"name":"The Buzz","lat":36.013532,"lng":-95.885185,"city_fetched":"Tulsa","state":"OK","country":"United States","canonicalUrl":"https://foursquare.com/v/the-buzz/4e0e87bf52b1b27c1b887849","category":"Hookah Bar","checkinsCount":357,"usersCount":86,"tipCount":3,"visitsCount":380,"tier":"","message":"","currency":"","rating":7.3},{"name":"Lefty's","lat":36.1596241905668,"lng":-95.98602807364011,"neighborhood":"Downtown Tulsa","city_fetched":"Tulsa","state":"OK","country":"United States","canonicalUrl":"https://foursquare.com/v/leftys/550cdea4498ec85c114af8ab","category":"Sports Bar","checkinsCount":131,"usersCount":213,"tipCount":2,"visitsCount":392,"tier":"","message":"","currency":"","rating":7.3},{"name":"Mercury Lounge","twitter":"twitter","address":"1747 S Boston Ave","lat":36.13643396060303,"lng":-95.98501836,"city_fetched":"Tulsa","state":"OK","country":"United States","canonicalUrl":"https://foursquare.com/v/mercury-lounge/4b2dd693f964a520acdb24e3","category":"Dive Bar","checkinsCount":2621,"usersCount":582,"tipCount":19,"visitsCount":2934,"url":"http://mercurylounge918.com","tier":1,"message":"Cheap","currency":"$","rating":7.3},{"name":"Tulsa Eagle","phone":"9185921188","address":"1338 E 3rd St","lat":36.156310842808395,"lng":-95.97415924072266,"neighborhood":"Pearl District","city_fetched":"Tulsa","state":"OK","country":"United States","canonicalUrl":"https://foursquare.com/v/tulsa-eagle/4b9c8e96f964a520fd6f36e3","category":"Gay Bar","checkinsCount":1302,"usersCount":390,"tipCount":16,"visitsCount":1560,"tier":"","message":"","currency":"","rating":7.3},{"name":"Elephant Run","twitter":"elephantrun","address":"3141 E Skelly Dr","lat":36.09138195476223,"lng":-95.94236683317297,"city_fetched":"Tulsa","state":"OK","country":"United States","canonicalUrl":"https://foursquare.com/v/elephant-run/4b888b75f964a520a8ff31e3","category":"Hotel Bar","checkinsCount":277,"usersCount":160,"tipCount":6,"visitsCount":291,"tier":"","message":"","currency":"","rating":7.3},{"name":"The Campbell Lounge","phone":"9187445500","twitter":"campbellhotel","address":"2636 E 11th St","lat":36.14767159506461,"lng":-95.9520998720646,"city_fetched":"Tulsa","state":"OK","country":"United States","canonicalUrl":"https://foursquare.com/v/the-campbell-lounge/4f4ece2ee4b0f03ee64c9760","category":"Lounge","checkinsCount":242,"usersCount":76,"tipCount":5,"visitsCount":254,"url":"http://thecampbellhotel.com/lounge","tier":"","message":"","currency":"","rating":7.3},{"name":"On The Rocks","address":"3120 S Yale Ave","lat":36.1179671051089,"lng":-95.92266815880012,"city_fetched":"Tulsa","state":"OK","country":"United States","canonicalUrl":"https://foursquare.com/v/on-the-rocks/4ea89c5030f8719c8ff04513","category":"Lounge","checkinsCount":546,"usersCount":145,"tipCount":6,"visitsCount":593,"tier":"","message":"","currency":"","rating":7.2},{"name":"Yellow Brick Road Pub","phone":"9182930304","address":"2630 E 15th St","lat":36.14038611165864,"lng":-95.95241469956352,"city_fetched":"Tulsa","state":"OK","country":"United States","canonicalUrl":"https://foursquare.com/v/yellow-brick-road-pub/4b9d9c57f964a5204cb636e3","category":"Gay Bar","checkinsCount":1379,"usersCount":241,"tipCount":10,"visitsCount":1483,"tier":"","message":"","currency":"","rating":7.2},{"name":"Potbellys","phone":"9184557682","address":"3724 S Elm Pl","lat":36.015711726679946,"lng":-95.79905115100674,"city_fetched":"Tulsa","state":"OK","country":"United States","canonicalUrl":"https://foursquare.com/v/potbellys/4c48ef70fbafc928b9433bda","category":"Bar","checkinsCount":625,"usersCount":194,"tipCount":11,"visitsCount":828,"tier":"","message":"","currency":"","rating":7.2},{"name":"Downtown Lounge","phone":"9185859353","twitter":"downtownlounge","address":"25 N Cheyenne Ave","lat":36.156432118751916,"lng":-95.99525213241577,"neighborhood":"Brady Arts District","city_fetched":"Tulsa","state":"OK","country":"United States","canonicalUrl":"https://foursquare.com/v/downtown-lounge/4b763b4df964a5205a442ee3","category":"Bar","checkinsCount":2191,"usersCount":257,"tipCount":12,"visitsCount":2262,"tier":"","message":"","currency":"","rating":7.2},{"name":"The Max Retropub","phone":"9188956200","twitter":"themaxtulsa","address":"114-C S. Elgin Ave.","lat":36.15635869,"lng":-95.987394,"neighborhood":"Blue Dome District","city_fetched":"Tulsa","state":"OK","country":"United States","canonicalUrl":"https://foursquare.com/v/the-max-retropub/4c76ab8eb474a1cd53aabcbf","category":"Bar","checkinsCount":3096,"usersCount":1367,"tipCount":20,"visitsCount":3126,"url":"http://themaxretropub.com","tier":2,"message":"Moderate","currency":"$","rating":7.2},{"name":"IDL Ballroom","address":"230 E 1st St","lat":36.15621,"lng":-95.98888,"neighborhood":"Downtown Tulsa","city_fetched":"Tulsa","state":"OK","country":"United States","canonicalUrl":"https://foursquare.com/v/idl-ballroom/4bb7d8bc7421a5937e28c140","category":"Nightclub","checkinsCount":453,"usersCount":262,"tipCount":2,"visitsCount":459,"tier":"","message":"","currency":"","rating":7.2},{"name":"Brook Alley","phone":"9187420970","address":"4726 S Peoria Ave","lat":36.09524,"lng":-95.975941,"neighborhood":"Brookside","city_fetched":"Tulsa","state":"OK","country":"United States","canonicalUrl":"https://foursquare.com/v/brook-alley/4be3774a660ec928854fcc3b","category":"Dive Bar","checkinsCount":309,"usersCount":132,"tipCount":3,"visitsCount":357,"tier":"","message":"","currency":"","rating":7.2},{"name":"Fishbonz","phone":"9182748202","address":"106 S Atlanta St","lat":36.2645400905221,"lng":-95.85634466953508,"city_fetched":"Tulsa","state":"OK","country":"United States","canonicalUrl":"https://foursquare.com/v/fishbonz/4c117171416620a14720d9e4","category":"Bar","checkinsCount":466,"usersCount":170,"tipCount":5,"visitsCount":483,"url":"http://vaultrocks.com","tier":"","message":"","currency":"","rating":7.1},{"name":"The Colony","phone":"9185764802","address":"2809 S Harvard Ave","lat":36.121979315047795,"lng":-95.9400344392662,"city_fetched":"Tulsa","state":"OK","country":"United States","canonicalUrl":"https://foursquare.com/v/the-colony/4b9b1f2bf964a5203ff435e3","category":"Bar","checkinsCount":2327,"usersCount":383,"tipCount":12,"visitsCount":2434,"url":"http://thecolonytulsa.com","tier":"","message":"","currency":"","rating":7.1},{"name":"Bamboo Lounge","phone":"9188368700","address":"7204 E Pine St","lat":36.17673213828602,"lng":-95.896578,"city_fetched":"Tulsa","state":"OK","country":"United States","canonicalUrl":"https://foursquare.com/v/bamboo-lounge/4c81d8b4d4e23704a9486288","category":"Gay Bar","checkinsCount":416,"usersCount":129,"tipCount":6,"visitsCount":483,"tier":"","message":"","currency":"","rating":7.1},{"name":"Cigar Box","phone":"9183550008","twitter":"cigarboxtulsa","address":"409 Stone Wood Dr","lat":36.0739081849832,"lng":-95.79491746707471,"city_fetched":"Tulsa","state":"OK","country":"United States","canonicalUrl":"https://foursquare.com/v/cigar-box/4b36bd4df964a5209c3b25e3","category":"Smoke Shop","checkinsCount":453,"usersCount":149,"tipCount":6,"visitsCount":466,"url":"http://www.cigarboxtulsa.com","tier":"","message":"","currency":"","rating":7.1},{"name":"Toby Keith's I Love This Bar & Grill","phone":"9187394888","address":"777 S Cherokee St","lat":36.164973445638935,"lng":-95.76476001532448,"city_fetched":"Tulsa","state":"OK","country":"United States","canonicalUrl":"https://foursquare.com/v/toby-keiths-i-love-this-bar--grill/4b5df569f964a520047629e3","category":"American Restaurant","checkinsCount":1720,"usersCount":1335,"tipCount":18,"visitsCount":1763,"url":"http://tobykeithusa.com","tier":2,"message":"Moderate","currency":"$","rating":7},{"name":"Blue Turtle Tavern","phone":"9187452077","address":"6350 S Lewis Ave","lat":36.071279,"lng":-95.958328,"city_fetched":"Tulsa","state":"OK","country":"United States","canonicalUrl":"https://foursquare.com/v/blue-turtle-tavern/4bdba4202a3a0f471c3db0b6","category":"Bar","checkinsCount":629,"usersCount":127,"tipCount":4,"visitsCount":662,"tier":"","message":"","currency":"","rating":7},{"name":"Crawpappie's","phone":"9187433342","address":"3344 E 51st St","lat":36.088776420399995,"lng":-95.93742866308844,"city_fetched":"Tulsa","state":"OK","country":"United States","canonicalUrl":"https://foursquare.com/v/crawpappies/4b9031a7f964a5207e7b33e3","category":"Dive Bar","checkinsCount":998,"usersCount":273,"tipCount":10,"visitsCount":1072,"tier":"","message":"","currency":"","rating":7},{"name":"McGills","phone":"9187428080","address":"1560 E 21st St","lat":36.133189,"lng":-95.96889692,"city_fetched":"Tulsa","state":"OK","country":"United States","canonicalUrl":"https://foursquare.com/v/mcgills/4bdb779c2a3a0f472649afb6","category":"Steakhouse","checkinsCount":196,"usersCount":192,"tipCount":6,"visitsCount":287,"url":"http://www.dinemcgills.com","tier":3,"message":"Expensive","currency":"$","rating":6.8}]