[{"name":"5 Restaurant","phone":"2053456089","address":"2324 6th St","lat":33.209145960328705,"lng":-87.5674724986201,"city_fetched":"Tuscaloosa,US","state":"AL","country":"United States","canonicalUrl":"https://foursquare.com/v/5-restaurant/4d32902ef8c9224be5b1b2d2","categoryId":"4bf58dd8d48988d116941735","category":"Bar","checkinsCount":3037,"usersCount":1243,"tipCount":32,"visitsCount":3175,"url":"http://five-bar.com","tier":2,"message":"Moderate","currency":"$","rating":9},{"name":"The Avenue Pub","phone":"2057594900","twitter":"avepub","address":"405 23rd Ave","lat":33.21096420288086,"lng":-87.56690979003906,"city_fetched":"Tuscaloosa,US","state":"AL","country":"United States","canonicalUrl":"https://foursquare.com/v/the-avenue-pub/52da0363498ee92698ffd8ad","categoryId":"4bf58dd8d48988d11b941735","category":"Pub","checkinsCount":406,"usersCount":288,"tipCount":22,"visitsCount":576,"url":"http://www.avepub.com","tier":2,"message":"Moderate","currency":"$","rating":8.9},{"name":"Catch 22","lat":33.20916409078272,"lng":-87.5673758983612,"city_fetched":"Tuscaloosa,US","state":"AL","country":"United States","canonicalUrl":"https://foursquare.com/v/catch-22/4b4965a7f964a5200f6f26e3","categoryId":"4bf58dd8d48988d116941735","category":"Bar","checkinsCount":1650,"usersCount":565,"tipCount":16,"visitsCount":1680,"tier":2,"message":"Moderate","currency":"$","rating":8.6},{"name":"Alcove","phone":"2054699110","address":"730 22nd Ave","lat":33.20789,"lng":-87.564661,"city_fetched":"Tuscaloosa,US","state":"AL","country":"United States","canonicalUrl":"https://foursquare.com/v/alcove/4b495a05f964a5201d6e26e3","categoryId":"4bf58dd8d48988d116941735","category":"Bar","checkinsCount":1942,"usersCount":717,"tipCount":22,"visitsCount":2237,"url":"http://alcovetavern.com","tier":2,"message":"Moderate","currency":"$","rating":8.6},{"name":"Druid City Brewing Company","twitter":"druidcitybrew","address":"907 14th St","lat":33.199966527177324,"lng":-87.54502998845298,"city_fetched":"Tuscaloosa,US","state":"AL","country":"United States","canonicalUrl":"https://foursquare.com/v/druid-city-brewing-company/50df6b90e4b083ca7152dbec","categoryId":"50327c8591d4c4b30a586d5d","category":"Brewery","checkinsCount":272,"usersCount":196,"tipCount":11,"visitsCount":381,"url":"http://druidcitybrewing.com","tier":"","message":"","currency":"","rating":8.6},{"name":"Innisfree","phone":"2053451199","twitter":"innisfreettown","address":"1925 University Blvd","lat":33.2111,"lng":-87.5625,"city_fetched":"Tuscaloosa,US","state":"AL","country":"United States","canonicalUrl":"https://foursquare.com/v/innisfree/4b4d9cdbf964a520d1d426e3","categoryId":"4bf58dd8d48988d11b941735","category":"Pub","checkinsCount":7218,"usersCount":1703,"tipCount":39,"visitsCount":7742,"url":"http://www.innisfreeirishpub.com","tier":1,"message":"Cheap","currency":"$","rating":8.2},{"name":"Black Warrior Brewing Company","address":"2216 University Blvd","lat":33.21074838076344,"lng":-87.56630830042354,"city_fetched":"Tuscaloosa,US","state":"AL","country":"United States","canonicalUrl":"https://foursquare.com/v/black-warrior-brewing-company/527ff3ff11d22bbf128ff873","categoryId":"50327c8591d4c4b30a586d5d","category":"Brewery","checkinsCount":476,"usersCount":271,"tipCount":13,"visitsCount":577,"tier":2,"message":"Moderate","currency":"$","rating":8.2},{"name":"Wilhagan's","phone":"2053449986","address":"2209 4th St","lat":33.211134,"lng":-87.566508,"city_fetched":"Tuscaloosa,US","state":"AL","country":"United States","canonicalUrl":"https://foursquare.com/v/wilhagans/4b43c362f964a520f4e825e3","categoryId":"4bf58dd8d48988d11d941735","category":"Sports Bar","checkinsCount":2833,"usersCount":1035,"tipCount":27,"visitsCount":3040,"url":"http://wilhaganstaproom.com","tier":2,"message":"Moderate","currency":"$","rating":8.2},{"name":"Buffalo Phil's","phone":"2057583318","address":"1149 University Blvd","lat":33.21081039731288,"lng":-87.55331505623059,"city_fetched":"Tuscaloosa,US","state":"AL","country":"United States","canonicalUrl":"https://foursquare.com/v/buffalo-phils/4b44037ef964a52030f025e3","categoryId":"4bf58dd8d48988d116941735","category":"Bar","checkinsCount":5773,"usersCount":1875,"tipCount":50,"visitsCount":5930,"url":"http://buffalophils.com","tier":2,"message":"Moderate","currency":"$","rating":8.1},{"name":"Loosa Brews","lat":33.2116520174229,"lng":-87.56331212102037,"city_fetched":"Tuscaloosa,US","state":"AL","country":"United States","canonicalUrl":"https://foursquare.com/v/loosa-brews/548a2836498e972164111139","categoryId":"4bf58dd8d48988d116941735","category":"Bar","checkinsCount":272,"usersCount":139,"tipCount":3,"visitsCount":475,"tier":"","message":"","currency":"","rating":8.1},{"name":"Band of Brothers Brewing Co.","twitter":"bndbrobrewery","address":"1605 23rd Ave","lat":33.198339283231284,"lng":-87.56174286833993,"city_fetched":"Tuscaloosa,US","state":"AL","country":"United States","canonicalUrl":"https://foursquare.com/v/band-of-brothers-brewing-co/55fdd1aa498e34fa22eed7bc","categoryId":"50327c8591d4c4b30a586d5d","category":"Brewery","checkinsCount":74,"usersCount":83,"tipCount":2,"visitsCount":141,"tier":"","message":"","currency":"","rating":7.9},{"name":"Five Bar","lat":33.20912477472548,"lng":-87.5674724986201,"city_fetched":"Tuscaloosa,US","state":"AL","country":"United States","canonicalUrl":"https://foursquare.com/v/five-bar/4efd41e4b8f787cacea3c593","categoryId":"4bf58dd8d48988d116941735","category":"Bar","checkinsCount":247,"usersCount":148,"tipCount":8,"visitsCount":250,"url":"http://five-bar.com/bar-locations/tuscaloosa-alabama/","tier":"","message":"","currency":"","rating":7.9},{"name":"The Filling Station","phone":"2057640924","address":"411 23rd Ave","lat":33.210906,"lng":-87.566953,"city_fetched":"Tuscaloosa,US","state":"AL","country":"United States","canonicalUrl":"https://foursquare.com/v/the-filling-station/4b4ff9d6f964a520a41a27e3","categoryId":"4bf58dd8d48988d116941735","category":"Bar","checkinsCount":1846,"usersCount":467,"tipCount":5,"visitsCount":1856,"tier":"","message":"","currency":"","rating":7.8},{"name":"The Strip","address":"University Blvd.","lat":33.211065834791285,"lng":-87.55615847948147,"city_fetched":"Tuscaloosa,US","state":"AL","country":"United States","canonicalUrl":"https://foursquare.com/v/the-strip/4c360722ae2da5935274fcc5","categoryId":"4bf58dd8d48988d11a941735","category":"Other Nightlife","checkinsCount":3027,"usersCount":766,"tipCount":7,"visitsCount":3052,"tier":"","message":"","currency":"","rating":7.7},{"name":"Gallette's","twitter":"uagallettes","address":"1021 University Blvd","lat":33.210434069621755,"lng":-87.5523929576082,"city_fetched":"Tuscaloosa,US","state":"AL","country":"United States","canonicalUrl":"https://foursquare.com/v/gallettes/4b4d9c79f964a520c9d426e3","categoryId":"4bf58dd8d48988d116941735","category":"Bar","checkinsCount":8649,"usersCount":1324,"tipCount":33,"visitsCount":8913,"tier":1,"message":"Cheap","currency":"$","rating":7.6},{"name":"Downtown Pub","phone":"2057500008","address":"2427 University Blvd","lat":33.209072,"lng":-87.569393,"city_fetched":"Tuscaloosa,US","state":"AL","country":"United States","canonicalUrl":"https://foursquare.com/v/downtown-pub/4b43ff79f964a520ddef25e3","categoryId":"4bf58dd8d48988d116941735","category":"Bar","checkinsCount":3366,"usersCount":331,"tipCount":9,"visitsCount":3397,"tier":1,"message":"Cheap","currency":"$","rating":7.5},{"name":"The Red Shed","lat":33.210621747887764,"lng":-87.55435782610144,"city_fetched":"Tuscaloosa,US","state":"AL","country":"United States","canonicalUrl":"https://foursquare.com/v/the-red-shed/4b99bc22f964a5200e8f35e3","categoryId":"4bf58dd8d48988d116941735","category":"Bar","checkinsCount":3190,"usersCount":602,"tipCount":8,"visitsCount":3200,"tier":"","message":"","currency":"","rating":7.4},{"name":"Gray Lady","address":"521 Greensboro Ave","lat":33.20921675130865,"lng":-87.56787789809188,"city_fetched":"Tuscaloosa,US","state":"AL","country":"United States","canonicalUrl":"https://foursquare.com/v/gray-lady/4b5fdabcf964a520d7ce29e3","categoryId":"4bf58dd8d48988d116941735","category":"Bar","checkinsCount":1657,"usersCount":477,"tipCount":6,"visitsCount":1682,"tier":"","message":"","currency":"","rating":7.2},{"name":"Rounders On The Strip","twitter":"roundersua","address":"1137 University Blvd","lat":33.2108534137238,"lng":-87.55394265204296,"city_fetched":"Tuscaloosa,US","state":"AL","country":"United States","canonicalUrl":"https://foursquare.com/roundersua","categoryId":"4bf58dd8d48988d116941735","category":"Bar","checkinsCount":2441,"usersCount":678,"tipCount":14,"visitsCount":2474,"tier":2,"message":"Moderate","currency":"$","rating":7.2},{"name":"The Booth","twitter":"theboothbar","address":"504 21st Ave","lat":33.21054269,"lng":-87.56425461666667,"city_fetched":"Tuscaloosa,US","state":"AL","country":"United States","canonicalUrl":"https://foursquare.com/v/the-booth/4bd3d391caff9521eee0d5f0","categoryId":"4bf58dd8d48988d116941735","category":"Bar","checkinsCount":1024,"usersCount":337,"tipCount":1,"visitsCount":1038,"tier":"","message":"","currency":"","rating":7.1},{"name":"4th & 23rd","phone":"2052480255","address":"401 23rd Ave","lat":33.2111,"lng":-87.56702572,"city_fetched":"Tuscaloosa,US","state":"AL","country":"United States","canonicalUrl":"https://foursquare.com/v/4th--23rd/4b5359c3f964a520a79827e3","categoryId":"4bf58dd8d48988d116941735","category":"Bar","checkinsCount":675,"usersCount":379,"tipCount":4,"visitsCount":679,"tier":"","message":"","currency":"","rating":7.1},{"name":"Bear Trap","phone":"2053452766","address":"508 12th Ave","lat":33.21055462702087,"lng":-87.55303504918056,"city_fetched":"Tuscaloosa,US","state":"AL","country":"United States","canonicalUrl":"https://foursquare.com/v/bear-trap/4b7f904bf964a5209c3430e3","categoryId":"4bf58dd8d48988d116941735","category":"Bar","checkinsCount":3708,"usersCount":970,"tipCount":22,"visitsCount":3714,"url":"http://www.the-bear-trap.com","tier":2,"message":"Moderate","currency":"$","rating":6.8},{"name":"Icon","twitter":"icontuscaloosa","address":"516 Greensboro Ave","lat":33.209185839274014,"lng":-87.56821090212301,"city_fetched":"Tuscaloosa,US","state":"AL","country":"United States","canonicalUrl":"https://foursquare.com/v/icon/4bdba69e2a3a0f47ad48b0b6","categoryId":"4bf58dd8d48988d1d8941735","category":"Gay Bar","checkinsCount":909,"usersCount":227,"tipCount":9,"visitsCount":914,"tier":"","message":"","currency":"","rating":6.8},{"name":"Copper Top","phone":"2053436867","twitter":"the_ctop","address":"2300 4th St","lat":33.21133228,"lng":-87.5675368309021,"city_fetched":"Tuscaloosa,US","state":"AL","country":"United States","canonicalUrl":"https://foursquare.com/v/copper-top/4b535b7cf964a5200a9927e3","categoryId":"4bf58dd8d48988d116941735","category":"Bar","checkinsCount":2339,"usersCount":698,"tipCount":11,"visitsCount":2462,"tier":"","message":"","currency":"","rating":6.7},{"name":"SpeakEasy","address":"2314 4th St","lat":33.211212,"lng":-87.56795525550842,"city_fetched":"Tuscaloosa,US","state":"AL","country":"United States","canonicalUrl":"https://foursquare.com/v/speakeasy/4c1c4d2cb9f876b016d07b46","categoryId":"4bf58dd8d48988d1d4941735","category":"Speakeasy","checkinsCount":1125,"usersCount":228,"tipCount":6,"visitsCount":1132,"tier":"","message":"","currency":"","rating":6.7},{"name":"1831","lat":33.21131276644088,"lng":-87.56756419643293,"city_fetched":"Tuscaloosa,US","state":"Alabama","country":"United States","canonicalUrl":"https://foursquare.com/v/1831/4ba7f3f3f964a52067c139e3","categoryId":"4bf58dd8d48988d116941735","category":"Bar","checkinsCount":1496,"usersCount":368,"tipCount":6,"visitsCount":1499,"tier":"","message":"","currency":"","rating":6.6},{"name":"Egan's","phone":"2057589413","address":"1229 University Blvd","lat":33.21087752028298,"lng":-87.55447851553116,"city_fetched":"Tuscaloosa,US","state":"AL","country":"United States","canonicalUrl":"https://foursquare.com/v/egans/4b4402e8f964a52027f025e3","categoryId":"4bf58dd8d48988d116941735","category":"Bar","checkinsCount":2493,"usersCount":403,"tipCount":3,"visitsCount":2528,"tier":"","message":"","currency":"","rating":6.6},{"name":"Houndstooth","address":"1300 University Blvd","lat":33.211136,"lng":-87.55453,"city_fetched":"Tuscaloosa,US","state":"AL","country":"United States","canonicalUrl":"https://foursquare.com/v/houndstooth/4b6babc6f964a52004152ce3","categoryId":"4bf58dd8d48988d116941735","category":"Bar","checkinsCount":4376,"usersCount":1537,"tipCount":19,"visitsCount":4497,"tier":"","message":"","currency":"","rating":6.6},{"name":"Rhythm and Brews","phone":"2057502992","address":"2308 4th St","lat":33.21129791091472,"lng":-87.56774276533234,"city_fetched":"Tuscaloosa,US","state":"AL","country":"United States","canonicalUrl":"https://foursquare.com/v/rhythm-and-brews/4b4fe4eef964a520de1827e3","categoryId":"4bf58dd8d48988d116941735","category":"Bar","checkinsCount":466,"usersCount":229,"tipCount":3,"visitsCount":477,"url":"http://www.rhythmnbrews.com","tier":"","message":"","currency":"","rating":6.5},{"name":"Jupiter On The Strip","address":"University Blvd","lat":33.210887156863535,"lng":-87.55487437463601,"city_fetched":"Tuscaloosa,US","state":"AL","country":"United States","canonicalUrl":"https://foursquare.com/v/jupiter-on-the-strip/4f320220e4b02344c360fcdc","categoryId":"4bf58dd8d48988d11f941735","category":"Nightclub","checkinsCount":1741,"usersCount":410,"tipCount":4,"visitsCount":1746,"tier":"","message":"","currency":"","rating":6.1},{"name":"Harry's Bar","address":"1227 19th Aly","lat":33.193708,"lng":-87.555534,"city_fetched":"Tuscaloosa,US","state":"AL","country":"United States","canonicalUrl":"https://foursquare.com/v/harrys-bar/4ca6a239931bb60cdaaf95e2","categoryId":"4bf58dd8d48988d116941735","category":"Bar","checkinsCount":445,"usersCount":264,"tipCount":3,"visitsCount":493,"tier":"","message":"","currency":"","rating":5.8},{"name":"Green Bar","phone":"2057522060","twitter":"greenbarttown","address":"2209 4th St","lat":33.21115423717114,"lng":-87.56657481562303,"city_fetched":"Tuscaloosa,US","state":"AL","country":"United States","canonicalUrl":"https://foursquare.com/v/green-bar/4d95469461a3a1cd67808042","categoryId":"4bf58dd8d48988d116941735","category":"Bar","checkinsCount":587,"usersCount":231,"tipCount":3,"visitsCount":588,"tier":"","message":"","currency":"","rating":5.7}]