[{"name":"Elevation 486","phone":"2087370486","address":"274-298 Pinnacle Ct.","lat":42.59782976666667,"lng":-114.47744,"city_fetched":"Twin Falls","state":"ID","country":"United States","canonicalUrl":"https://foursquare.com/v/elevation-486/4d40f3f5c1d4721eb78215c7","category":"Winery","checkinsCount":720,"usersCount":467,"tipCount":12,"visitsCount":973,"url":"http://elevation486.com","tier":"","message":"","currency":"","rating":8.8},{"name":"Canyon Crest","phone":"2087339392","twitter":"canyoncresttf","address":"330 Canyon Crest Dr","lat":42.59707271690335,"lng":-114.47335411578874,"city_fetched":"Twin Falls","state":"ID","country":"United States","canonicalUrl":"https://foursquare.com/v/canyon-crest/4d95330a97d06ea88da6e60a","category":"Restaurant","checkinsCount":525,"usersCount":270,"tipCount":7,"visitsCount":664,"url":"http://www.canyoncrestdining.com","tier":2,"message":"Moderate","currency":"$","rating":8},{"name":"Anchor Bistro & Sports Bar","phone":"2087336566","address":"334 Blue Lakes Blvd N","lat":42.56783316400941,"lng":-114.46006939354626,"city_fetched":"Twin Falls","state":"ID","country":"United States","canonicalUrl":"https://foursquare.com/v/anchor-bistro--sports-bar/4bd254b59854d13a0796fb4d","category":"Sports Bar","checkinsCount":327,"usersCount":188,"tipCount":6,"visitsCount":401,"url":"http://www.anchorbistro.com","tier":"","message":"","currency":"","rating":7.5},{"name":"Buffalo Wild Wings","phone":"2087369453","twitter":"bwwings","address":"1239 Pole Line Rd E Ste 303-B","lat":42.592748066666665,"lng":-114.458471,"city_fetched":"Twin Falls","state":"ID","country":"United States","canonicalUrl":"https://foursquare.com/v/buffalo-wild-wings/4c3a96e517689c74b337aa08","category":"Wings Joint","checkinsCount":1454,"usersCount":546,"tipCount":12,"visitsCount":1646,"url":"http://www.buffalowildwings.com","tier":2,"message":"Moderate","currency":"$","rating":7.5},{"name":"O'Dunkens","address":"110 Main Ave. W","lat":42.55599796772003,"lng":-114.47009861469269,"city_fetched":"Twin Falls","state":"ID","country":"United States","canonicalUrl":"https://foursquare.com/v/odunkens/4ba8051af964a52010c739e3","category":"Pub","checkinsCount":244,"usersCount":112,"tipCount":10,"visitsCount":250,"tier":"","message":"","currency":"","rating":6.9}]