[{"name":"Stanley's Famous Pit Barbecue","phone":"9035930311","twitter":"stanleysfamous","address":"525 S Beckham Ave","lat":32.344177,"lng":-95.294067,"city_fetched":"Tyler","state":"TX","country":"United States","canonicalUrl":"https://foursquare.com/v/stanleys-famous-pit-barbecue/4c69aa1849d7b713f76a8fce","category":"BBQ Joint","checkinsCount":1780,"usersCount":1379,"tipCount":46,"visitsCount":2741,"url":"http://stanleysfamous.com","tier":2,"message":"Moderate","currency":"$","rating":9.6},{"name":"Shogun Sushi & Hibachi Grill","phone":"9035341155","address":"5515 S Broadway Ave","lat":32.288856506347656,"lng":-95.30390167236328,"city_fetched":"Tyler","state":"TX","country":"United States","canonicalUrl":"https://foursquare.com/v/shogun-sushi--hibachi-grill/4bd23ad1a8b3a593d37e675f","category":"Japanese Restaurant","checkinsCount":304,"usersCount":203,"tipCount":6,"visitsCount":325,"url":"http://realshogun.com","tier":"","message":"","currency":"","rating":8.2},{"name":"BJ's Restaurant and Brewhouse","phone":"9039392840","twitter":"bjsrestaurants","address":"210 W Southwest Loop 323","lat":32.30222379,"lng":-95.30373573,"city_fetched":"Tyler","state":"TX","country":"United States","canonicalUrl":"https://foursquare.com/v/bjs-restaurant-and-brewhouse/4d56f8c6cff7721ec8b0bcf5","category":"American Restaurant","checkinsCount":2996,"usersCount":1601,"tipCount":61,"visitsCount":3780,"url":"http://t.co/bl46gcjDLN","tier":2,"message":"Moderate","currency":"$","rating":8.2},{"name":"The Cascades","address":"4511 Briarwood Rd","lat":32.321158502626425,"lng":-95.3526981242566,"city_fetched":"Tyler","state":"TX","country":"United States","canonicalUrl":"https://foursquare.com/v/the-cascades/4b7837baf964a5202fbd2ee3","category":"Bar","checkinsCount":270,"usersCount":192,"tipCount":3,"visitsCount":402,"url":"http://cascadesoftexas.com","tier":"","message":"","currency":"","rating":8.1},{"name":"Cork Food & Drink","phone":"9033639197","twitter":"corktyler","address":"5201 S Broadway Ave Ste 162","lat":32.29293469251233,"lng":-95.30472942883213,"neighborhood":"Times Square","city_fetched":"Tyler","state":"TX","country":"United States","canonicalUrl":"https://foursquare.com/v/cork-food--drink/506e31b2e4b002a93fca8a19","category":"Asian Restaurant","checkinsCount":452,"usersCount":197,"tipCount":3,"visitsCount":546,"url":"http://www.corktyler.com","tier":3,"message":"Expensive","currency":"$","rating":7.8},{"name":"Rick's","phone":"9035312415","twitter":"ricksonsquare","address":"104 W Erwin St","lat":32.350625559661694,"lng":-95.30098268191847,"city_fetched":"Tyler","state":"TX","country":"United States","canonicalUrl":"https://foursquare.com/v/ricks/4b7ae3aff964a520fd432fe3","category":"Bar","checkinsCount":706,"usersCount":425,"tipCount":8,"visitsCount":821,"url":"http://www.rix.com","tier":"","message":"","currency":"","rating":7.5},{"name":"Jake's","phone":"9035260225","address":"111 E Erwin St","lat":32.35062959520136,"lng":-95.30003160238266,"city_fetched":"Tyler","state":"TX","country":"United States","canonicalUrl":"https://foursquare.com/v/jakes/4b7b1ef2f964a52098522fe3","category":"American Restaurant","checkinsCount":356,"usersCount":198,"tipCount":6,"visitsCount":362,"url":"http://jakestyler.com","tier":3,"message":"Expensive","currency":"$","rating":6.9},{"name":"Papa Murphy's Take 'N' Bake Pizza","phone":"9039392828","address":"6878 S Broadway Ave","lat":32.27468842286613,"lng":-95.30639359373188,"city_fetched":"Tyler","state":"TX","country":"United States","canonicalUrl":"https://foursquare.com/v/papa-murphys-take-n-bake-pizza/4c06e3f70ed3c92800c0787d","category":"Pizza Place","checkinsCount":83,"usersCount":54,"tipCount":4,"visitsCount":105,"tier":"","message":"","currency":"","rating":6.8},{"name":"Where's Rufus Sports Bar","phone":"9035819999","twitter":"wheresrufus","address":"6100 S Broadway Ave","lat":32.28330865345678,"lng":-95.3046630674279,"city_fetched":"Tyler","state":"TX","country":"United States","canonicalUrl":"https://foursquare.com/v/wheres-rufus-sports-bar/4c3955060a71c9b6377542c9","category":"Sports Bar","checkinsCount":307,"usersCount":172,"tipCount":9,"visitsCount":312,"url":"http://wheresrufussportsbar-hub.com","tier":"","message":"","currency":"","rating":6.7},{"name":"Coaches And Cowboys","lat":32.26549320833497,"lng":-95.27687459333877,"city_fetched":"Tyler","state":"TX","country":"United States","canonicalUrl":"https://foursquare.com/v/coaches-and-cowboys/513c1a79e4b081263b28a5d4","category":"Nightclub","checkinsCount":118,"usersCount":162,"tipCount":3,"visitsCount":229,"tier":"","message":"","currency":"","rating":6.6},{"name":"XLN on 5th","phone":"9035357956","address":"2109 E 5th St","lat":32.33195841633639,"lng":-95.27458883165208,"city_fetched":"Tyler","state":"TX","country":"United States","canonicalUrl":"https://foursquare.com/v/xln-on-5th/4bf747eb5efe2d7f43d56834","category":"Dive Bar","checkinsCount":149,"usersCount":62,"tipCount":7,"visitsCount":150,"tier":"","message":"","currency":"","rating":6.4},{"name":"Sports Zone.","lat":32.350628,"lng":-95.299894,"city_fetched":"Tyler","state":"TX","country":"United States","canonicalUrl":"https://foursquare.com/v/sports-zone/4c01df2eb58376b07aec443c","category":"Bar","checkinsCount":173,"usersCount":101,"tipCount":4,"visitsCount":173,"tier":"","message":"","currency":"","rating":6.1},{"name":"TGI Fridays","phone":"9035090344","twitter":"tgifridays","address":"4300 S Broadway Ave","lat":32.3025909,"lng":-95.30005369,"neighborhood":"French Quarter","city_fetched":"Tyler","state":"TX","country":"United States","canonicalUrl":"https://foursquare.com/v/tgi-fridays/4b6b7c99f964a520e00b2ce3","category":"American Restaurant","checkinsCount":919,"usersCount":675,"tipCount":13,"visitsCount":1092,"url":"http://tgifridays.com","tier":2,"message":"Moderate","currency":"$","rating":6.1},{"name":"Green Acres Bowling Center- New Management","phone":"9035612911","address":"2311 E Southeast Loop 323","lat":32.31106521360515,"lng":-95.27156850071772,"city_fetched":"Tyler","state":"TX","country":"United States","canonicalUrl":"https://foursquare.com/v/green-acres-bowling-center-new-management/4bbd053d078095212d16da91","category":"Bowling Alley","checkinsCount":419,"usersCount":313,"tipCount":4,"visitsCount":644,"url":"http://www.greenacresbowl.com","tier":"","message":"","currency":"","rating":5.8}]