[{"name":"Mendocino Brewing Ale House","phone":"7074672337","address":"1252 Airport Park Blvd #A3","lat":39.129279685551964,"lng":-123.19922333926776,"city_fetched":"Ukiah","state":"CA","country":"United States","canonicalUrl":"https://foursquare.com/v/mendocino-brewing-ale-house/4df3bf2952b100c2d7fbd1de","category":"Brewery","checkinsCount":322,"usersCount":242,"tipCount":3,"visitsCount":351,"tier":1,"message":"Cheap","currency":"$","rating":7.7},{"name":"Yokayo Bowl","phone":"7074628686","address":"1401 N State St","lat":39.16946921666667,"lng":-123.210851,"city_fetched":"Ukiah","state":"CA","country":"United States","canonicalUrl":"https://foursquare.com/v/yokayo-bowl/4b809251f964a520c47d30e3","category":"Bowling Alley","checkinsCount":325,"usersCount":100,"tipCount":3,"visitsCount":339,"tier":"","message":"","currency":"","rating":7.4},{"name":"Saucy Pizzeria","phone":"7074627007","twitter":"saucyukiah","address":"108 W Standley St","lat":39.150672,"lng":-123.208232,"city_fetched":"Ukiah","state":"CA","country":"United States","canonicalUrl":"https://foursquare.com/v/saucy-pizzeria/508704c4e4b01eff515c690a","category":"Pizza Place","checkinsCount":710,"usersCount":221,"tipCount":17,"visitsCount":848,"url":"http://www.saucyukiah.com","tier":2,"message":"Moderate","currency":"$","rating":7.3},{"name":"Ukiah Brewing Company & Restaurant","phone":"7074685898","address":"102 S State St","lat":39.14989106311491,"lng":-123.20780754089355,"city_fetched":"Ukiah","state":"CA","country":"United States","canonicalUrl":"https://foursquare.com/v/ukiah-brewing-company--restaurant/4b806656f964a520d06e30e3","category":"Brewery","checkinsCount":856,"usersCount":729,"tipCount":17,"visitsCount":873,"url":"http://www.ukiahbrewingco.com","tier":"","message":"","currency":"","rating":6.2}]