[{"name":"Top of The Standard","phone":"2126454646","twitter":"standardculture","address":"848 Washington St","lat":40.74096795529766,"lng":-74.00825638391181,"neighborhood":"Meatpacking District","city_fetched":"Union City,US","state":"NY","country":"United States","canonicalUrl":"https://foursquare.com/v/top-of-the-standard/4ad15b84f964a5202dde20e3","categoryId":"4bf58dd8d48988d121941735","category":"Lounge","checkinsCount":29896,"usersCount":20558,"tipCount":283,"visitsCount":30114,"url":"http://standardhotels.com","tier":3,"message":"Expensive","currency":"$","rating":9.4},{"name":"Casellula","phone":"2122478137","twitter":"casellula","address":"401 W 52nd St","lat":40.76482311821841,"lng":-73.98830296264396,"neighborhood":"Hell's Kitchen","city_fetched":"Union City,US","state":"NY","country":"United States","canonicalUrl":"https://foursquare.com/v/casellula/4aeca57af964a520dac921e3","categoryId":"4bf58dd8d48988d123941735","category":"Wine Bar","checkinsCount":7270,"usersCount":5243,"tipCount":143,"visitsCount":7887,"url":"http://www.casellula.com","tier":3,"message":"Expensive","currency":"$","rating":9.4},{"name":"Manderley Bar at the McKittrick Hotel","twitter":"manderleybar","address":"530 W 27th St","lat":40.7507425248637,"lng":-74.00372300219179,"neighborhood":"Chelsea","city_fetched":"Union City,US","state":"NY","country":"United States","canonicalUrl":"https://foursquare.com/v/manderley-bar-at-the-mckittrick-hotel/4d95141361a3a1cdc6e27b42","categoryId":"4bf58dd8d48988d1d5941735","category":"Hotel Bar","checkinsCount":2937,"usersCount":1419,"tipCount":15,"visitsCount":2940,"url":"http://mckittrickhotel.com","tier":3,"message":"Expensive","currency":"$","rating":9.3},{"name":"The Heath","phone":"2125641662","twitter":"theheathnyc","address":"542 W 27th St","lat":40.75064333448892,"lng":-74.00416486817255,"neighborhood":"Chelsea","city_fetched":"Union City,US","state":"NY","country":"United States","canonicalUrl":"https://foursquare.com/v/the-heath/50e7831ce4b0a9a01671fb98","categoryId":"4bf58dd8d48988d121941735","category":"Lounge","checkinsCount":4233,"usersCount":3469,"tipCount":50,"visitsCount":4335,"url":"http://mckittrickhotel.com","tier":3,"message":"Expensive","currency":"$","rating":9.2},{"name":"As Is NYC","phone":"6468581153","twitter":"asisnyc","address":"734 10th Ave","lat":40.76469113315358,"lng":-73.99184962417858,"neighborhood":"Hell's Kitchen","city_fetched":"Union City,US","state":"NY","country":"United States","canonicalUrl":"https://foursquare.com/v/as-is-nyc/563277f0498e325424c2e5e0","categoryId":"4bf58dd8d48988d116941735","category":"Bar","checkinsCount":1267,"usersCount":926,"tipCount":18,"visitsCount":1642,"url":"http://asisnyc.com","tier":2,"message":"Moderate","currency":"$","rating":9.2},{"name":"Le Bain","phone":"2126454646","twitter":"standardculture","address":"848 Washington St","lat":40.74099801143199,"lng":-74.008229970932,"neighborhood":"Meatpacking District","city_fetched":"Union City,US","state":"NY","country":"United States","canonicalUrl":"https://foursquare.com/v/le-bain/4c22beee99282d7f17b667b0","categoryId":"4bf58dd8d48988d11f941735","category":"Nightclub","checkinsCount":36528,"usersCount":20829,"tipCount":309,"visitsCount":37106,"url":"http://standardhotels.com","tier":3,"message":"Expensive","currency":"$","rating":9.2},{"name":"Lightship Frying Pan @ Pier 66 Maritime","phone":"2129896363","twitter":"pier66maritime","address":"205 12th Ave","lat":40.752375440251605,"lng":-74.00939832008686,"neighborhood":"Chelsea","city_fetched":"Union City,US","state":"NY","country":"United States","canonicalUrl":"https://foursquare.com/v/lightship-frying-pan--pier-66-maritime/3fd66200f964a52023e41ee3","categoryId":"4bf58dd8d48988d116941735","category":"Bar","checkinsCount":62863,"usersCount":44802,"tipCount":388,"visitsCount":70826,"url":"http://www.pier66maritime.com","tier":2,"message":"Moderate","currency":"$","rating":9.1},{"name":"Terroir at The Porch","phone":"6466021300","twitter":"highlinenyc","address":"The High Line","lat":40.74292453063949,"lng":-74.00779008865356,"neighborhood":"Chelsea","city_fetched":"Union City,US","state":"NY","country":"United States","canonicalUrl":"https://foursquare.com/v/terroir-at-the-porch/4fb562fae4b0bbeeeb3e28c1","categoryId":"4bf58dd8d48988d123941735","category":"Wine Bar","checkinsCount":4502,"usersCount":3692,"tipCount":43,"visitsCount":4520,"url":"http://www.thehighline.org","tier":2,"message":"Moderate","currency":"$","rating":9.1},{"name":"Pier 13 - P13R","phone":"2017988065","twitter":"pier13hoboken","address":"1301 Sinatra Dr","lat":40.7518203729923,"lng":-74.02283707619681,"city_fetched":"Union City,US","state":"NJ","country":"United States","canonicalUrl":"https://foursquare.com/v/pier-13--p13r/4ff366cbe4b0e8d00bf52f69","categoryId":"4bf58dd8d48988d117941735","category":"Beer Garden","checkinsCount":9553,"usersCount":5915,"tipCount":57,"visitsCount":12043,"url":"http://pier13hoboken.com","tier":3,"message":"Expensive","currency":"$","rating":9.1},{"name":"Vanguard Wine Bar","phone":"2127999463","twitter":"vanguard_nyc","address":"189 Amsterdam Ave","lat":40.77637722864869,"lng":-73.98325258717293,"neighborhood":"Lincoln Square","city_fetched":"Union City,US","state":"NY","country":"United States","canonicalUrl":"https://foursquare.com/v/vanguard-wine-bar/5364212f498e00c999fe9c00","categoryId":"4bf58dd8d48988d123941735","category":"Wine Bar","checkinsCount":1699,"usersCount":1779,"tipCount":34,"visitsCount":2582,"url":"http://www.vanguard-nyc.com","tier":2,"message":"Moderate","currency":"$","rating":9.1},{"name":"Ardesia","phone":"2122479191","twitter":"ardesiawinebar","address":"510 W 52nd St","lat":40.76637840235331,"lng":-73.9917807575885,"neighborhood":"Hell's Kitchen","city_fetched":"Union City,US","state":"NY","country":"United States","canonicalUrl":"https://foursquare.com/v/ardesia/4ad395b4f964a5200ee520e3","categoryId":"4bf58dd8d48988d123941735","category":"Wine Bar","checkinsCount":6418,"usersCount":4321,"tipCount":87,"visitsCount":6925,"url":"http://www.ardesia-ny.com","tier":2,"message":"Moderate","currency":"$","rating":9.1},{"name":"Beer Culture","phone":"6465902139","twitter":"beerculturenyc","address":"328 W 45th St","lat":40.759585,"lng":-73.989724,"neighborhood":"Hell's Kitchen","city_fetched":"Union City,US","state":"NY","country":"United States","canonicalUrl":"https://foursquare.com/v/beer-culture/51eb44f8498e718fe6450886","categoryId":"4bf58dd8d48988d116941735","category":"Bar","checkinsCount":6349,"usersCount":4370,"tipCount":115,"visitsCount":7530,"url":"http://beerculturenyc.com","tier":2,"message":"Moderate","currency":"$","rating":8.9},{"name":"Briciola","phone":"6466785763","address":"370 W 51st St","lat":40.76402304351006,"lng":-73.98829148466851,"neighborhood":"Hell's Kitchen","city_fetched":"Union City,US","state":"NY","country":"United States","canonicalUrl":"https://foursquare.com/v/briciola/4c8692bbd4e237045f778c88","categoryId":"4bf58dd8d48988d123941735","category":"Wine Bar","checkinsCount":3859,"usersCount":2559,"tipCount":102,"visitsCount":3906,"tier":2,"message":"Moderate","currency":"$","rating":8.9},{"name":"Pocket Bar NYC","phone":"6466829062","twitter":"pocketbarnyc","address":"455 W 48th St","lat":40.76317175483385,"lng":-73.99232595074974,"neighborhood":"Hell's Kitchen","city_fetched":"Union City,US","state":"NY","country":"United States","canonicalUrl":"https://foursquare.com/v/pocket-bar-nyc/537fd165498e15919e87fce5","categoryId":"4bf58dd8d48988d116941735","category":"Bar","checkinsCount":1342,"usersCount":1001,"tipCount":41,"visitsCount":1756,"url":"http://www.pocketbarnyc.com","tier":"","message":"","currency":"","rating":8.8},{"name":"New Jersey Beer Company","phone":"2017588342","twitter":"njbeerco","address":"4201 Tonnelle Ave","lat":40.78347259048788,"lng":-74.03581014352726,"city_fetched":"Union City,US","state":"NJ","country":"United States","canonicalUrl":"https://foursquare.com/v/new-jersey-beer-company/4c1bf6e4b9f876b082257b46","categoryId":"50327c8591d4c4b30a586d5d","category":"Brewery","checkinsCount":1030,"usersCount":499,"tipCount":17,"visitsCount":1381,"url":"http://njbeerco.com","tier":1,"message":"Cheap","currency":"$","rating":8.8},{"name":"Rudy's Bar & Grill","phone":"6467070890","twitter":"rudysbar","address":"627 9th Ave","lat":40.75999389342078,"lng":-73.99179223535523,"neighborhood":"Hell's Kitchen","city_fetched":"Union City,US","state":"NY","country":"United States","canonicalUrl":"https://foursquare.com/v/rudys-bar--grill/3fd66200f964a5208de81ee3","categoryId":"4bf58dd8d48988d118941735","category":"Dive Bar","checkinsCount":20862,"usersCount":11849,"tipCount":236,"visitsCount":21309,"url":"http://www.rudysbarnyc.com","tier":1,"message":"Cheap","currency":"$","rating":8.8},{"name":"The Biergarten at The Standard","phone":"2126454646","twitter":"standardculture","address":"848 Washington St","lat":40.7405579801227,"lng":-74.00777996246534,"neighborhood":"Meatpacking District","city_fetched":"Union City,US","state":"NY","country":"United States","canonicalUrl":"https://foursquare.com/v/the-biergarten-at-the-standard/4a7dff4df964a52091f01fe3","categoryId":"4bf58dd8d48988d117941735","category":"Beer Garden","checkinsCount":75106,"usersCount":47377,"tipCount":358,"visitsCount":77483,"url":"http://standardhotels.com","tier":2,"message":"Moderate","currency":"$","rating":8.8},{"name":"Bin 71","phone":"2123625446","twitter":"bin71nyc","address":"237 Columbus Ave","lat":40.77662441238305,"lng":-73.97948193619018,"neighborhood":"Lincoln Square","city_fetched":"Union City,US","state":"NY","country":"United States","canonicalUrl":"https://foursquare.com/v/bin-71/42accc80f964a52047251fe3","categoryId":"4bf58dd8d48988d123941735","category":"Wine Bar","checkinsCount":3254,"usersCount":1818,"tipCount":44,"visitsCount":3279,"url":"http://bin71.com","tier":3,"message":"Expensive","currency":"$","rating":8.8},{"name":"Bin 14","phone":"2019639463","twitter":"bin14hoboken","address":"1314 Washington St","lat":40.752975451759006,"lng":-74.02613636991552,"city_fetched":"Union City,US","state":"NJ","country":"United States","canonicalUrl":"https://foursquare.com/v/bin-14/49dfb616f964a52002611fe3","categoryId":"4bf58dd8d48988d123941735","category":"Wine Bar","checkinsCount":4566,"usersCount":2282,"tipCount":64,"visitsCount":4670,"url":"http://www.bin14.com","tier":3,"message":"Expensive","currency":"$","rating":8.8},{"name":"Boom Boom Room, NYC","phone":"2126454646","address":"848 Washington St","lat":40.74070664863172,"lng":-74.00799241779545,"neighborhood":"Meatpacking District","city_fetched":"Union City,US","state":"NY","country":"United States","canonicalUrl":"https://foursquare.com/v/boom-boom-room-nyc/55ab43fe498e486cd97ebc76","categoryId":"4bf58dd8d48988d121941735","category":"Lounge","checkinsCount":530,"usersCount":466,"tipCount":9,"visitsCount":531,"tier":"","message":"","currency":"","rating":8.7},{"name":"The Rum House","phone":"6464906923","twitter":"rumhouseny","address":"228 W 47th St","lat":40.759876132074176,"lng":-73.98623691600585,"neighborhood":"Theater District","city_fetched":"Union City,US","state":"NY","country":"United States","canonicalUrl":"https://foursquare.com/v/the-rum-house/41575800f964a520311d1fe3","categoryId":"4bf58dd8d48988d11e941735","category":"Cocktail Bar","checkinsCount":9032,"usersCount":6125,"tipCount":131,"visitsCount":9226,"url":"http://www.edisonrumhouse.com","tier":2,"message":"Moderate","currency":"$","rating":8.7},{"name":"Porchlight","phone":"2129816188","twitter":"porchlightbar","address":"271 11th Ave","lat":40.7519065665407,"lng":-74.005002689179,"neighborhood":"Chelsea","city_fetched":"Union City,US","state":"NY","country":"United States","canonicalUrl":"https://foursquare.com/v/porchlight/54511908498ef875450a0c8f","categoryId":"4bf58dd8d48988d11e941735","category":"Cocktail Bar","checkinsCount":3531,"usersCount":3273,"tipCount":66,"visitsCount":4693,"url":"http://www.porchlightbar.com","tier":3,"message":"Expensive","currency":"$","rating":8.7},{"name":"Joe's","phone":"2125794299","twitter":"joesbarnyc","address":"480 Amsterdam Ave","lat":40.7858990308641,"lng":-73.97655308246613,"neighborhood":"Upper West Side","city_fetched":"Union City,US","state":"NY","country":"United States","canonicalUrl":"https://foursquare.com/v/joes/54ef6b64498e00ad2f2625ba","categoryId":"4bf58dd8d48988d116941735","category":"Bar","checkinsCount":1293,"usersCount":824,"tipCount":30,"visitsCount":1406,"url":"http://joesbarnyc.com","tier":2,"message":"Moderate","currency":"$","rating":8.7},{"name":"Il Baretto","phone":"2127572270","twitter":"ilbarettonyc","address":"750 11th Ave","lat":40.7676259247639,"lng":-73.99320973426613,"neighborhood":"Hell's Kitchen","city_fetched":"Union City,US","state":"NY","country":"United States","canonicalUrl":"https://foursquare.com/v/il-baretto/4e6bd8a2aeb750adf60daf92","categoryId":"4bf58dd8d48988d123941735","category":"Wine Bar","checkinsCount":1413,"usersCount":842,"tipCount":16,"visitsCount":1478,"url":"http://ilbarettonewyork.com","tier":"","message":"","currency":"","rating":8.7},{"name":"The Pony Bar","phone":"2125862707","twitter":"theponybar","address":"637 10th Ave","lat":40.76172345284903,"lng":-73.99415373802185,"neighborhood":"Hell's Kitchen","city_fetched":"Union City,US","state":"NY","country":"United States","canonicalUrl":"https://foursquare.com/v/the-pony-bar/49f8f8a2f964a520446d1fe3","categoryId":"4bf58dd8d48988d116941735","category":"Bar","checkinsCount":29156,"usersCount":16852,"tipCount":284,"visitsCount":30924,"url":"http://www.theponybar.com","tier":2,"message":"Moderate","currency":"$","rating":8.7},{"name":"Gebhard’s Beer Culture","phone":"9176393420","address":"228 W 72nd St","lat":40.779133422343634,"lng":-73.9830459780761,"neighborhood":"Lincoln Square","city_fetched":"Union City,US","state":"NY","country":"United States","canonicalUrl":"https://foursquare.com/v/gebhards-beer-culture/573f347c498ee00a307e3dbe","categoryId":"4bf58dd8d48988d116941735","category":"Bar","checkinsCount":318,"usersCount":245,"tipCount":9,"visitsCount":342,"url":"http://beerculture.nyc/gebhards/","tier":"","message":"","currency":"","rating":8.6},{"name":"Sky Terrace at Hudson Hotel","phone":"2125546303","twitter":"morganshotels","address":"356 W 58th St","lat":40.7679124817876,"lng":-73.98507762454408,"neighborhood":"Hell's Kitchen","city_fetched":"Union City,US","state":"NY","country":"United States","canonicalUrl":"https://foursquare.com/v/sky-terrace-at-hudson-hotel/49fccf09f964a520e06e1fe3","categoryId":"4bf58dd8d48988d1d5941735","category":"Hotel Bar","checkinsCount":3775,"usersCount":3109,"tipCount":30,"visitsCount":3789,"url":"http://backofhouse.morganshotelgroup.com","tier":"","message":"","currency":"","rating":8.6},{"name":"Bettibar","phone":"2122652060","twitter":"bettibarnyc","address":"Hourglass Tavern (2nd Floor)","lat":40.76088948019143,"lng":-73.99032890796661,"neighborhood":"Hell's Kitchen","city_fetched":"Union City,US","state":"NY","country":"United States","canonicalUrl":"https://foursquare.com/v/bettibar/4bc15ff374a9a593eaded1f6","categoryId":"4bf58dd8d48988d11e941735","category":"Cocktail Bar","checkinsCount":2379,"usersCount":1093,"tipCount":17,"visitsCount":2408,"url":"http://hourglasstavern.com","tier":2,"message":"Moderate","currency":"$","rating":8.6},{"name":"The Eagle","phone":"6464731866","address":"554 W 28th St","lat":40.751717757636925,"lng":-74.00414765263396,"neighborhood":"Chelsea","city_fetched":"Union City,US","state":"NY","country":"United States","canonicalUrl":"https://foursquare.com/v/the-eagle/423e0e80f964a52044201fe3","categoryId":"4bf58dd8d48988d1d8941735","category":"Gay Bar","checkinsCount":10170,"usersCount":4701,"tipCount":49,"visitsCount":12907,"url":"http://www.eaglenyc.com","tier":2,"message":"Moderate","currency":"$","rating":8.6},{"name":"Rise","address":"859 9th Ave","lat":40.76700883414425,"lng":-73.98644352167017,"neighborhood":"Hell's Kitchen","city_fetched":"Union City,US","state":"NY","country":"United States","canonicalUrl":"https://foursquare.com/v/rise/563ec374cd109834de9931f2","categoryId":"4bf58dd8d48988d1d8941735","category":"Gay Bar","checkinsCount":1390,"usersCount":902,"tipCount":3,"visitsCount":1878,"tier":"","message":"","currency":"","rating":8.6},{"name":"On the Rocks","phone":"2122472055","twitter":"ontherocks696","address":"696 10th Ave","lat":40.76385,"lng":-73.99229,"neighborhood":"Hell's Kitchen","city_fetched":"Union City,US","state":"NY","country":"United States","canonicalUrl":"https://foursquare.com/v/on-the-rocks/5111a920e4b00a31d5b19bd7","categoryId":"4bf58dd8d48988d122941735","category":"Whisky Bar","checkinsCount":2403,"usersCount":1784,"tipCount":40,"visitsCount":2579,"tier":2,"message":"Moderate","currency":"$","rating":8.5},{"name":"Carpe Diem Pub & Restaurant","phone":"2017920050","twitter":"carpebarhoboken","address":"1405 Grand St","lat":40.754429,"lng":-74.031357,"city_fetched":"Union City,US","state":"NJ","country":"United States","canonicalUrl":"https://foursquare.com/v/carpe-diem-pub--restaurant/4abfb223f964a520b39120e3","categoryId":"4bf58dd8d48988d11b941735","category":"Pub","checkinsCount":4401,"usersCount":1778,"tipCount":47,"visitsCount":4844,"url":"http://www.carpediemhoboken.com","tier":2,"message":"Moderate","currency":"$","rating":8.5},{"name":"Lillie's Times Square","phone":"2129574530","twitter":"lilliesnyc","address":"249 W 49th St","lat":40.761639439251724,"lng":-73.98608770066558,"neighborhood":"Theater District","city_fetched":"Union City,US","state":"NY","country":"United States","canonicalUrl":"https://foursquare.com/v/lillies-times-square/4eefc305be7ba3ed7ae89c9e","categoryId":"4bf58dd8d48988d116941735","category":"Bar","checkinsCount":14040,"usersCount":10521,"tipCount":131,"visitsCount":14975,"url":"http://www.lilliesnyc.com","tier":2,"message":"Moderate","currency":"$","rating":8.5},{"name":"The Carnegie Club","phone":"2129579676","address":"156 W 56th St","lat":40.76455201317638,"lng":-73.97977463777308,"neighborhood":"Theater District","city_fetched":"Union City,US","state":"NY","country":"United States","canonicalUrl":"https://foursquare.com/v/the-carnegie-club/44412e54f964a52042321fe3","categoryId":"4bf58dd8d48988d121941735","category":"Lounge","checkinsCount":4122,"usersCount":2408,"tipCount":34,"visitsCount":4228,"url":"http://hospitalityholdings.com","tier":4,"message":"Very Expensive","currency":"$","rating":8.5},{"name":"Champagne Bar Plaza Hotel","phone":"2125465309","twitter":"fairmonthotels","address":"768 5th Ave","lat":40.764031926929235,"lng":-73.97390330322037,"neighborhood":"Midtown East","city_fetched":"Union City,US","state":"NY","country":"United States","canonicalUrl":"https://foursquare.com/v/champagne-bar-plaza-hotel/4c966879533aa093a188d145","categoryId":"4bf58dd8d48988d123941735","category":"Wine Bar","checkinsCount":750,"usersCount":656,"tipCount":6,"visitsCount":751,"url":"http://bit.ly/wWpDIs","tier":"","message":"","currency":"","rating":8.4},{"name":"Dino & Harrys Steakhouse","phone":"2016596202","twitter":"dinoandharrysnj","address":"163 14th St","lat":40.75353201719665,"lng":-74.02790935808056,"city_fetched":"Union City,US","state":"NJ","country":"United States","canonicalUrl":"https://foursquare.com/v/dino--harrys-steakhouse/4b3ff987f964a52058b325e3","categoryId":"4bf58dd8d48988d116941735","category":"Bar","checkinsCount":2042,"usersCount":1190,"tipCount":35,"visitsCount":2074,"url":"http://www.dinoandharrys.com","tier":3,"message":"Expensive","currency":"$","rating":8.4},{"name":"e's BAR","phone":"2128770961","twitter":"ebarnyc","address":"511 Amsterdam Ave","lat":40.78671596998099,"lng":-73.9756595569741,"neighborhood":"Upper West Side","city_fetched":"Union City,US","state":"NY","country":"United States","canonicalUrl":"https://foursquare.com/v/es-bar/5349cafa11d2adce986d476d","categoryId":"4bf58dd8d48988d116941735","category":"Bar","checkinsCount":4241,"usersCount":2396,"tipCount":62,"visitsCount":4404,"url":"http://e-barnyc.com","tier":2,"message":"Moderate","currency":"$","rating":8.4},{"name":"Karaoke Duet 53","phone":"2127574676","address":"900 8th Ave #B1F","lat":40.763958942950254,"lng":-73.98451519349202,"neighborhood":"Theater District","city_fetched":"Union City,US","state":"NY","country":"United States","canonicalUrl":"https://foursquare.com/v/karaoke-duet-53/4fbc40f5e4b0cc7b013f2642","categoryId":"4bf58dd8d48988d120941735","category":"Karaoke Bar","checkinsCount":4487,"usersCount":3141,"tipCount":35,"visitsCount":4791,"url":"http://karaokeduet.com","tier":1,"message":"Cheap","currency":"$","rating":8.4},{"name":"St. Cloud","address":"6 Times Square","lat":40.75567129033227,"lng":-73.98607048350347,"neighborhood":"Theater District","city_fetched":"Union City,US","state":"NY","country":"United States","canonicalUrl":"https://foursquare.com/v/st-cloud/5554c9ad498e02e9c5441857","categoryId":"4bf58dd8d48988d11e941735","category":"Cocktail Bar","checkinsCount":508,"usersCount":405,"tipCount":12,"visitsCount":510,"tier":"","message":"","currency":"","rating":8.4},{"name":"Barcibo Enoteca","phone":"2125952805","twitter":"barciboenoteca","address":"2020 Broadway","lat":40.776187,"lng":-73.98242,"neighborhood":"Lincoln Square","city_fetched":"Union City,US","state":"NY","country":"United States","canonicalUrl":"https://foursquare.com/v/barcibo-enoteca/49e69d0cf964a5205b641fe3","categoryId":"4bf58dd8d48988d123941735","category":"Wine Bar","checkinsCount":5086,"usersCount":3413,"tipCount":52,"visitsCount":5342,"url":"http://barciboenoteca.com","tier":2,"message":"Moderate","currency":"$","rating":8.4},{"name":"Valhalla","phone":"2127572747","twitter":"valhallabarnyc","address":"815 9th Ave","lat":40.76594135933028,"lng":-73.98704038122938,"neighborhood":"Hell's Kitchen","city_fetched":"Union City,US","state":"NY","country":"United States","canonicalUrl":"https://foursquare.com/v/valhalla/49c18298f964a520b0551fe3","categoryId":"4bf58dd8d48988d116941735","category":"Bar","checkinsCount":18273,"usersCount":10889,"tipCount":140,"visitsCount":18603,"url":"http://valhallabarnyc.com","tier":2,"message":"Moderate","currency":"$","rating":8.4},{"name":"Manhattan Cricket Club","phone":"6468239252","twitter":"cricketclubuws","address":"226 W 79th St","lat":40.78340103809933,"lng":-73.97940158843994,"neighborhood":"Upper West Side","city_fetched":"Union City,US","state":"NY","country":"United States","canonicalUrl":"https://foursquare.com/v/manhattan-cricket-club/525479688bbd5539a72fac63","categoryId":"4bf58dd8d48988d1d4941735","category":"Speakeasy","checkinsCount":1307,"usersCount":986,"tipCount":35,"visitsCount":1331,"url":"http://www.mccnewyork.com","tier":3,"message":"Expensive","currency":"$","rating":8.4},{"name":"The Living Room at Park Hyatt New York","address":"153 W 57th St","lat":40.76526792539831,"lng":-73.97916053786035,"neighborhood":"Theater District","city_fetched":"Union City,US","state":"NY","country":"United States","canonicalUrl":"https://foursquare.com/v/the-living-room-at-park-hyatt-new-york/565624fb498e83162d2bd21c","categoryId":"4bf58dd8d48988d121941735","category":"Lounge","checkinsCount":90,"usersCount":74,"tipCount":4,"visitsCount":90,"tier":"","message":"","currency":"","rating":8.3},{"name":"Wine Escape","phone":"2122627000","address":"405 W 44th St","lat":40.7599430728758,"lng":-73.99234890621727,"neighborhood":"Hell's Kitchen","city_fetched":"Union City,US","state":"NY","country":"United States","canonicalUrl":"https://foursquare.com/v/wine-escape/4f5ab0dde4b0838066b720bb","categoryId":"4bf58dd8d48988d123941735","category":"Wine Bar","checkinsCount":1642,"usersCount":1038,"tipCount":36,"visitsCount":1687,"url":"http://wineescapenyc.com","tier":2,"message":"Moderate","currency":"$","rating":8.3},{"name":"Therapy NYC","phone":"2123971700","twitter":"therapy_nyc","address":"348 W 52nd St","lat":40.76405677516477,"lng":-73.98687394942347,"neighborhood":"Hell's Kitchen","city_fetched":"Union City,US","state":"NY","country":"United States","canonicalUrl":"https://foursquare.com/v/therapy-nyc/42055e00f964a520681f1fe3","categoryId":"4bf58dd8d48988d1d8941735","category":"Gay Bar","checkinsCount":36813,"usersCount":14157,"tipCount":131,"visitsCount":38553,"url":"http://therapy-nyc.com","tier":2,"message":"Moderate","currency":"$","rating":8.3},{"name":"George Keeley NYC","phone":"2128730251","twitter":"georgekeeleynyc","address":"485 Amsterdam Ave","lat":40.785953,"lng":-73.976422,"neighborhood":"Upper West Side","city_fetched":"Union City,US","state":"NY","country":"United States","canonicalUrl":"https://foursquare.com/v/george-keeley-nyc/3fd66200f964a5200ce91ee3","categoryId":"4bf58dd8d48988d11b941735","category":"Pub","checkinsCount":12570,"usersCount":5392,"tipCount":104,"visitsCount":12823,"url":"http://georgekeeley.com","tier":2,"message":"Moderate","currency":"$","rating":8.3},{"name":"Barcelona Bar","phone":"2122453212","twitter":"barcelonabarnyc","address":"923 8th Ave","lat":40.76529210141902,"lng":-73.98381502192187,"neighborhood":"Hell's Kitchen","city_fetched":"Union City,US","state":"NY","country":"United States","canonicalUrl":"https://foursquare.com/v/barcelona-bar/49ecdf7df964a520a7671fe3","categoryId":"4bf58dd8d48988d116941735","category":"Bar","checkinsCount":9847,"usersCount":5503,"tipCount":82,"visitsCount":10244,"url":"http://barcelonabarnyc.com","tier":2,"message":"Moderate","currency":"$","rating":8.3},{"name":"Brass Monkey","phone":"2126756686","twitter":"brassmonkeynyc","address":"55 Little West 12th St","lat":40.740727951827786,"lng":-74.00861104297583,"neighborhood":"Meatpacking District","city_fetched":"Union City,US","state":"NY","country":"United States","canonicalUrl":"https://foursquare.com/v/brass-monkey/4101a680f964a5205a0b1fe3","categoryId":"4bf58dd8d48988d116941735","category":"Bar","checkinsCount":44212,"usersCount":28478,"tipCount":220,"visitsCount":46310,"url":"http://brassmonkeynyc.com","tier":2,"message":"Moderate","currency":"$","rating":8.3},{"name":"Shalel Lounge","phone":"2128732300","address":"65 W 70th St","lat":40.776026507218646,"lng":-73.97938436889685,"neighborhood":"Lincoln Square","city_fetched":"Union City,US","state":"NY","country":"United States","canonicalUrl":"https://foursquare.com/v/shalel-lounge/42586c80f964a520db201fe3","categoryId":"4bf58dd8d48988d121941735","category":"Lounge","checkinsCount":3164,"usersCount":2320,"tipCount":68,"visitsCount":3270,"tier":2,"message":"Moderate","currency":"$","rating":8.3},{"name":"Fox and Crow","twitter":"foxandcrowjc","address":"594 Palisade Ave","lat":40.74871961456269,"lng":-74.04129517273795,"neighborhood":"The Heights","city_fetched":"Union City,US","state":"NJ","country":"United States","canonicalUrl":"https://foursquare.com/v/fox-and-crow/54f126c4498ea308704941fa","categoryId":"4bf58dd8d48988d116941735","category":"Bar","checkinsCount":549,"usersCount":336,"tipCount":7,"visitsCount":893,"url":"http://www.foxandcrowjc.com","tier":"","message":"","currency":"","rating":8.3},{"name":"The Roof","phone":"2127078008","twitter":"theroofny","address":"124 W 57th St","lat":40.76470728765237,"lng":-73.97845460749998,"neighborhood":"Theater District","city_fetched":"Union City,US","state":"NY","country":"United States","canonicalUrl":"https://foursquare.com/v/the-roof/5314de2f498e8cb0eb67f5cd","categoryId":"4bf58dd8d48988d11e941735","category":"Cocktail Bar","checkinsCount":3145,"usersCount":2557,"tipCount":42,"visitsCount":3229,"url":"http://theroofny.com","tier":2,"message":"Moderate","currency":"$","rating":8.3},{"name":"Center Bar","phone":"2128239482","address":"10 Columbus Cir Ste 4","lat":40.7685072188131,"lng":-73.98273606401429,"neighborhood":"Hell's Kitchen","city_fetched":"Union City,US","state":"NY","country":"United States","canonicalUrl":"https://foursquare.com/v/center-bar/506b72aae4b03ac695b5e742","categoryId":"4bf58dd8d48988d121941735","category":"Lounge","checkinsCount":1984,"usersCount":1454,"tipCount":23,"visitsCount":2001,"url":"http://centerbarnyc.com","tier":3,"message":"Expensive","currency":"$","rating":8.3},{"name":"Larry Flynt's Hustler Gentlemen's Club NYC","phone":"2122472460","twitter":"hustlerclubnyc","address":"641 W 51st St","lat":40.76683596447287,"lng":-73.99627425075094,"neighborhood":"Hell's Kitchen","city_fetched":"Union City,US","state":"NY","country":"United States","canonicalUrl":"https://foursquare.com/v/larry-flynts-hustler-gentlemens-club-nyc/4127e200f964a520570c1fe3","categoryId":"4bf58dd8d48988d1d6941735","category":"Strip Club","checkinsCount":3166,"usersCount":1880,"tipCount":54,"visitsCount":3254,"url":"http://www.hustlerny.com","tier":2,"message":"Moderate","currency":"$","rating":8.3},{"name":"Supernova Bar Rooftop  Novotel","address":"226 W 52nd St","lat":40.762098640594076,"lng":-73.98353380475322,"neighborhood":"Theater District","city_fetched":"Union City,US","state":"NY","country":"United States","canonicalUrl":"https://foursquare.com/v/supernova-bar-rooftop--novotel/54277e7c498e4c803e2a0925","categoryId":"4bf58dd8d48988d116941735","category":"Bar","checkinsCount":257,"usersCount":213,"tipCount":6,"visitsCount":264,"tier":"","message":"","currency":"","rating":8.3},{"name":"Times Square Terrace","address":"760 8th Ave","lat":40.760448074349696,"lng":-73.9857089227426,"neighborhood":"Theater District","city_fetched":"Union City,US","state":"NY","country":"United States","canonicalUrl":"https://foursquare.com/v/times-square-terrace/4f878440e4b0202c047f4f54","categoryId":"4bf58dd8d48988d11f941735","category":"Nightclub","checkinsCount":822,"usersCount":706,"tipCount":5,"visitsCount":823,"url":"http://timessquarenyc.org","tier":"","message":"","currency":"","rating":8.3},{"name":"Kiabacca","phone":"2126494675","twitter":"kiabacca","address":"639 10th Ave","lat":40.761626341180815,"lng":-73.99404186437354,"neighborhood":"Hell's Kitchen","city_fetched":"Union City,US","state":"NY","country":"United States","canonicalUrl":"https://foursquare.com/v/kiabacca/54ab16e3498e871f3c510e48","categoryId":"4bf58dd8d48988d116941735","category":"Bar","checkinsCount":1615,"usersCount":854,"tipCount":20,"visitsCount":1696,"url":"http://kiabacca.com","tier":"","message":"","currency":"","rating":8.3},{"name":"The Oak Room at The Plaza Hotel","phone":"2127587777","twitter":"oakroomny","address":"10 Central Park S","lat":40.764469357484714,"lng":-73.97447724411876,"neighborhood":"Midtown East","city_fetched":"Union City,US","state":"NY","country":"United States","canonicalUrl":"https://foursquare.com/v/the-oak-room-at-the-plaza-hotel/4a131d33f964a520bb771fe3","categoryId":"4bf58dd8d48988d1d5941735","category":"Hotel Bar","checkinsCount":4635,"usersCount":3798,"tipCount":70,"visitsCount":4635,"url":"http://www.oakroomny.com","tier":"","message":"","currency":"","rating":8.2},{"name":"Marquee","phone":"6464730202","twitter":"marqueeny","address":"289 10th Ave","lat":40.75008453807527,"lng":-74.0028048358527,"neighborhood":"Chelsea","city_fetched":"Union City,US","state":"NY","country":"United States","canonicalUrl":"https://foursquare.com/marqueeny","categoryId":"4bf58dd8d48988d11f941735","category":"Nightclub","checkinsCount":30162,"usersCount":21957,"tipCount":136,"visitsCount":35265,"url":"http://marqueeny.com","tier":3,"message":"Expensive","currency":"$","rating":8.2},{"name":"Moran's Pub","address":"501 Garden St","lat":40.74247837977377,"lng":-74.03130036715685,"city_fetched":"Union City,US","state":"NJ","country":"United States","canonicalUrl":"https://foursquare.com/v/morans-pub/4ad12c5ef964a5203ddd20e3","categoryId":"4bf58dd8d48988d116941735","category":"Bar","checkinsCount":2494,"usersCount":1196,"tipCount":10,"visitsCount":2906,"tier":1,"message":"Cheap","currency":"$","rating":8.2},{"name":"Hunt & Fish Club","phone":"2125754949","address":"125 W 44th St","lat":40.75665129402911,"lng":-73.98430858575315,"neighborhood":"Theater District","city_fetched":"Union City,US","state":"NY","country":"United States","canonicalUrl":"https://foursquare.com/v/hunt--fish-club/5490c865498ec7f9c477a78c","categoryId":"4bf58dd8d48988d121941735","category":"Lounge","checkinsCount":757,"usersCount":647,"tipCount":7,"visitsCount":765,"url":"http://www.hfcnyc.com","tier":"","message":"","currency":"","rating":8.2},{"name":"BXL Cafe","phone":"2127680200","twitter":"bxlcafe","address":"125 W 43rd St","lat":40.75608789474158,"lng":-73.98485953922959,"neighborhood":"Theater District","city_fetched":"Union City,US","state":"NY","country":"United States","canonicalUrl":"https://foursquare.com/v/bxl-cafe/47676e3bf964a520f14c1fe3","categoryId":"4bf58dd8d48988d116941735","category":"Bar","checkinsCount":8543,"usersCount":5588,"tipCount":80,"visitsCount":8612,"url":"http://bxlcafe.pregraphic.com/bxlcafe/index.php","tier":2,"message":"Moderate","currency":"$","rating":8.2},{"name":"Avenue","phone":"2123370054","twitter":"avenueny","address":"116 10th Ave","lat":40.74421607277608,"lng":-74.00663241268269,"neighborhood":"Chelsea","city_fetched":"Union City,US","state":"NY","country":"United States","canonicalUrl":"https://foursquare.com/v/avenue/4ad9f641f964a5206e1c21e3","categoryId":"4bf58dd8d48988d11f941735","category":"Nightclub","checkinsCount":17296,"usersCount":9702,"tipCount":70,"visitsCount":17471,"url":"http://avenue-newyork.com","tier":4,"message":"Very Expensive","currency":"$","rating":8.2},{"name":"The Lodge at Gallow Green","phone":"2125641662","address":"542 W 27th St","lat":40.75076258165149,"lng":-74.00421651477905,"neighborhood":"Chelsea","city_fetched":"Union City,US","state":"NY","country":"United States","canonicalUrl":"https://foursquare.com/v/the-lodge-at-gallow-green/56576d1e498e91d7852771f9","categoryId":"4bf58dd8d48988d11e941735","category":"Cocktail Bar","checkinsCount":330,"usersCount":307,"tipCount":5,"visitsCount":331,"tier":"","message":"","currency":"","rating":8.1},{"name":"Jimmy's Corner","phone":"2127642366","address":"140 W 44th St","lat":40.75682591796818,"lng":-73.98487675650027,"neighborhood":"Theater District","city_fetched":"Union City,US","state":"NY","country":"United States","canonicalUrl":"https://foursquare.com/v/jimmys-corner/3fd66200f964a52084e81ee3","categoryId":"4bf58dd8d48988d116941735","category":"Bar","checkinsCount":8407,"usersCount":5113,"tipCount":143,"visitsCount":8487,"tier":1,"message":"Cheap","currency":"$","rating":8.1},{"name":"Bourbon Street Bar & Grill","phone":"2122452030","twitter":"bourbonny","address":"346 W 46th St","lat":40.760353,"lng":-73.989636,"neighborhood":"Hell's Kitchen","city_fetched":"Union City,US","state":"NY","country":"United States","canonicalUrl":"https://foursquare.com/bourbonny","categoryId":"4bf58dd8d48988d11d941735","category":"Sports Bar","checkinsCount":20004,"usersCount":13594,"tipCount":169,"visitsCount":21239,"url":"http://www.bourbonny.com","tier":2,"message":"Moderate","currency":"$","rating":8.1},{"name":"The Tangled Vine Wine Bar & Kitchen","phone":"6468633896","twitter":"tangled_vine","address":"434 Amsterdam Ave","lat":40.78442901460216,"lng":-73.97741005538323,"neighborhood":"Upper West Side","city_fetched":"Union City,US","state":"NY","country":"United States","canonicalUrl":"https://foursquare.com/tangled_vine","categoryId":"4bf58dd8d48988d123941735","category":"Wine Bar","checkinsCount":5572,"usersCount":3475,"tipCount":65,"visitsCount":5603,"url":"http://www.tangledvinebar.com","tier":2,"message":"Moderate","currency":"$","rating":8.1},{"name":"Subrosa","address":"63 Gansevoort St","lat":40.739513013290285,"lng":-74.00718904041685,"neighborhood":"Meatpacking District","city_fetched":"Union City,US","state":"NY","country":"United States","canonicalUrl":"https://foursquare.com/v/subrosa/54657c4a498eb1342cc0e7de","categoryId":"4bf58dd8d48988d11f941735","category":"Nightclub","checkinsCount":565,"usersCount":471,"tipCount":4,"visitsCount":605,"url":"http://subrosanyc.com","tier":"","message":"","currency":"","rating":8.1},{"name":"Tarallucci e Vino Wine Bar","phone":"2123625454","twitter":"taralluccinyc","address":"475 Columbus Ave","lat":40.78444480931629,"lng":-73.97363928983235,"neighborhood":"Upper West Side","city_fetched":"Union City,US","state":"NY","country":"United States","canonicalUrl":"https://foursquare.com/v/tarallucci-e-vino-wine-bar/4d3c617784d46ea8b979fd5c","categoryId":"4bf58dd8d48988d123941735","category":"Wine Bar","checkinsCount":2911,"usersCount":1452,"tipCount":38,"visitsCount":2962,"url":"http://www.taralluccievino.net","tier":2,"message":"Moderate","currency":"$","rating":8.1},{"name":"Cielo","phone":"2126455700","twitter":"cieloclub","address":"18 Little West 12th St","lat":40.739826208684335,"lng":-74.00689064224532,"neighborhood":"Meatpacking District","city_fetched":"Union City,US","state":"NY","country":"United States","canonicalUrl":"https://foursquare.com/v/cielo/4320d080f964a52090271fe3","categoryId":"4bf58dd8d48988d11f941735","category":"Nightclub","checkinsCount":14185,"usersCount":8500,"tipCount":160,"visitsCount":14596,"url":"http://www.cieloclub.com","tier":3,"message":"Expensive","currency":"$","rating":8},{"name":"The Dead Poet","phone":"2125955670","twitter":"thedeadpoetbar","address":"450 Amsterdam Ave","lat":40.78482,"lng":-73.977128,"neighborhood":"Upper West Side","city_fetched":"Union City,US","state":"NY","country":"United States","canonicalUrl":"https://foursquare.com/thedeadpoetbar","categoryId":"4bf58dd8d48988d11b941735","category":"Pub","checkinsCount":13215,"usersCount":5989,"tipCount":85,"visitsCount":13336,"url":"http://thedeadpoet.com","tier":2,"message":"Moderate","currency":"$","rating":8},{"name":"O'Lunney's","phone":"2128406688","twitter":"olunneys","address":"145 W 45th St","lat":40.757435680262255,"lng":-73.98449797618893,"neighborhood":"Theater District","city_fetched":"Union City,US","state":"NY","country":"United States","canonicalUrl":"https://foursquare.com/v/olunneys/441e57d6f964a52077311fe3","categoryId":"4bf58dd8d48988d11b941735","category":"Pub","checkinsCount":12275,"usersCount":8308,"tipCount":118,"visitsCount":12676,"url":"http://www.olunneys.com","tier":2,"message":"Moderate","currency":"$","rating":8},{"name":"Penthaus at the Copacabana Rooftop","twitter":"boiparty","address":"760 8th Ave","lat":40.76029476684221,"lng":-73.98734454932946,"neighborhood":"Theater District","city_fetched":"Union City,US","state":"NY","country":"United States","canonicalUrl":"https://foursquare.com/boiparty","categoryId":"4bf58dd8d48988d1d8941735","category":"Gay Bar","checkinsCount":706,"usersCount":459,"tipCount":2,"visitsCount":725,"url":"http://www.boiparty.com","tier":2,"message":"Moderate","currency":"$","rating":8},{"name":"Alfie's Bar & Kitchen","phone":"2127572390","twitter":"alfiesnyc","address":"800 9th Ave","lat":40.765325611213875,"lng":-73.98753393677096,"neighborhood":"Hell's Kitchen","city_fetched":"Union City,US","state":"NY","country":"United States","canonicalUrl":"https://foursquare.com/v/alfies-bar--kitchen/503920e5e4b0fba092d5e890","categoryId":"4bf58dd8d48988d116941735","category":"Bar","checkinsCount":9553,"usersCount":5816,"tipCount":98,"visitsCount":10019,"url":"http://alfiesnyc.com","tier":2,"message":"Moderate","currency":"$","rating":8},{"name":"Ritz Bar & Lounge","phone":"2123334177","twitter":"ritzbarlounge","address":"369 W 46th St","lat":40.760871,"lng":-73.990166,"neighborhood":"Hell's Kitchen","city_fetched":"Union City,US","state":"NY","country":"United States","canonicalUrl":"https://foursquare.com/v/ritz-bar--lounge/4ad04456f964a520c7d720e3","categoryId":"4bf58dd8d48988d1d8941735","category":"Gay Bar","checkinsCount":26585,"usersCount":9549,"tipCount":80,"visitsCount":27710,"url":"http://ritzbarandlounge.com","tier":2,"message":"Moderate","currency":"$","rating":8},{"name":"MObar at Mandarin Oriental Hotel","phone":"2128058876","twitter":"mo_hotels","address":"80 Columbus Cir","lat":40.7685689969209,"lng":-73.98234580115131,"neighborhood":"Hell's Kitchen","city_fetched":"Union City,US","state":"NY","country":"United States","canonicalUrl":"https://foursquare.com/v/mobar-at-mandarin-oriental-hotel/44ae5146f964a52021351fe3","categoryId":"4bf58dd8d48988d1d5941735","category":"Hotel Bar","checkinsCount":2350,"usersCount":1629,"tipCount":23,"visitsCount":2354,"url":"http://www.mandarinoriental.com","tier":4,"message":"Very Expensive","currency":"$","rating":8},{"name":"Réunion Surf Bar","phone":"2125823200","address":"357 W. 44th St.","lat":40.759614629657726,"lng":-73.99125695228577,"neighborhood":"Hell's Kitchen","city_fetched":"Union City,US","state":"NY","country":"United States","canonicalUrl":"https://foursquare.com/v/r%C3%A9union-surf-bar/4c4e37dcea24c9b6aa5f4915","categoryId":"4bf58dd8d48988d11e941735","category":"Cocktail Bar","checkinsCount":14204,"usersCount":9410,"tipCount":158,"visitsCount":14579,"url":"http://reunionbar.com","tier":2,"message":"Moderate","currency":"$","rating":8},{"name":"Hardware Bar","phone":"2129249885","twitter":"hardwarebarny","address":"697 10th Ave","lat":40.763158392475695,"lng":-73.99294574740858,"neighborhood":"Hell's Kitchen","city_fetched":"Union City,US","state":"NY","country":"United States","canonicalUrl":"https://foursquare.com/hardwarebarny","categoryId":"4bf58dd8d48988d1d8941735","category":"Gay Bar","checkinsCount":9800,"usersCount":4062,"tipCount":43,"visitsCount":11700,"url":"http://hardware-bar.com","tier":1,"message":"Cheap","currency":"$","rating":8},{"name":"The Attic Rooftop & Lounge","phone":"2129561300","twitter":"theatticnyc","address":"251 W 48th St","lat":40.76113302616973,"lng":-73.98659273673391,"neighborhood":"Theater District","city_fetched":"Union City,US","state":"NY","country":"United States","canonicalUrl":"https://foursquare.com/v/the-attic-rooftop--lounge/536aac38498eb82bc942572a","categoryId":"4bf58dd8d48988d11e941735","category":"Cocktail Bar","checkinsCount":1023,"usersCount":957,"tipCount":11,"visitsCount":1242,"url":"http://www.theattic-nyc.com","tier":"","message":"","currency":"","rating":8},{"name":"Blondies","phone":"2123624360","twitter":"blondishairnyc","address":"212 W 79th St","lat":40.78344706961169,"lng":-73.97910888450723,"neighborhood":"Upper West Side","city_fetched":"Union City,US","state":"NY","country":"United States","canonicalUrl":"https://foursquare.com/v/blondies/3fd66200f964a52044e81ee3","categoryId":"4bf58dd8d48988d11d941735","category":"Sports Bar","checkinsCount":13560,"usersCount":7313,"tipCount":97,"visitsCount":14211,"url":"http://blondiessports.com","tier":2,"message":"Moderate","currency":"$","rating":8},{"name":"Bar 54","phone":"6463641234","twitter":"hyatttimesquare","address":"135 W 45th St","lat":40.75744130182009,"lng":-73.98417658624808,"neighborhood":"Theater District","city_fetched":"Union City,US","state":"NY","country":"United States","canonicalUrl":"https://foursquare.com/v/bar-54/52f197cc498ebdd2f6b5bc6a","categoryId":"4bf58dd8d48988d116941735","category":"Bar","checkinsCount":1435,"usersCount":1222,"tipCount":24,"visitsCount":1450,"tier":4,"message":"Very Expensive","currency":"$","rating":8},{"name":"Two E Bar/Lounge","phone":"2129408113","twitter":"two_e_bar","address":"2 E 61st St","lat":40.76519153110716,"lng":-73.97134350597584,"neighborhood":"Upper East Side","city_fetched":"Union City,US","state":"NY","country":"United States","canonicalUrl":"https://foursquare.com/v/two-e-barlounge/4b9fa9bcf964a520c43237e3","categoryId":"4bf58dd8d48988d1d5941735","category":"Hotel Bar","checkinsCount":1682,"usersCount":729,"tipCount":23,"visitsCount":1684,"url":"http://twoeny.com","tier":"","message":"","currency":"","rating":8},{"name":"The West 79th Street Boat Basin Café","phone":"2124965542","twitter":"theboatbasin","address":"Henry Hudston Pkwy","lat":40.78580358083455,"lng":-73.98465871810913,"neighborhood":"Upper West Side","city_fetched":"Union City,US","state":"NY","country":"United States","canonicalUrl":"https://foursquare.com/v/the-west-79th-street-boat-basin-caf%C3%A9/40ede000f964a5203c0a1fe3","categoryId":"4bf58dd8d48988d117941735","category":"Beer Garden","checkinsCount":27768,"usersCount":19670,"tipCount":211,"visitsCount":29954,"url":"http://www.boatbasincafe.com","tier":2,"message":"Moderate","currency":"$","rating":8},{"name":"Hudson Terrace","phone":"2123159400","twitter":"hudsonterrace","address":"621 W 46th St","lat":40.76401977376754,"lng":-73.9975740281675,"neighborhood":"Hell's Kitchen","city_fetched":"Union City,US","state":"NY","country":"United States","canonicalUrl":"https://foursquare.com/hudsonterrace","categoryId":"4bf58dd8d48988d11f941735","category":"Nightclub","checkinsCount":23598,"usersCount":18529,"tipCount":110,"visitsCount":24810,"url":"http://www.hudsonterracenyc.com","tier":3,"message":"Expensive","currency":"$","rating":8},{"name":"Lansdowne Road","phone":"2122398020","twitter":"lansdowneroad","address":"599 10th Ave","lat":40.76066701799484,"lng":-73.99494767189026,"neighborhood":"Hell's Kitchen","city_fetched":"Union City,US","state":"NY","country":"United States","canonicalUrl":"https://foursquare.com/v/lansdowne-road/46ea2358f964a520cf4a1fe3","categoryId":"4bf58dd8d48988d11b941735","category":"Pub","checkinsCount":18628,"usersCount":8364,"tipCount":125,"visitsCount":18982,"url":"http://www.lansdowneroadnyc.com","tier":2,"message":"Moderate","currency":"$","rating":8},{"name":"Waterside On The Hudson","phone":"2018617767","address":"7800 B River Rd","lat":40.7948910517707,"lng":-73.9939041327431,"city_fetched":"Union City,US","state":"NJ","country":"United States","canonicalUrl":"https://foursquare.com/v/waterside-on-the-hudson/4fac7ff0e4b08541e8f12653","categoryId":"4bf58dd8d48988d121941735","category":"Lounge","checkinsCount":1242,"usersCount":1018,"tipCount":9,"visitsCount":1393,"url":"http://watersiderestaurantandcatering.com","tier":"","message":"","currency":"","rating":8},{"name":"The New York Beer Company","phone":"2122452337","twitter":"newyorkbeerco","address":"321 W 44th St","lat":40.75908879185482,"lng":-73.99008204054029,"neighborhood":"Hell's Kitchen","city_fetched":"Union City,US","state":"NY","country":"United States","canonicalUrl":"https://foursquare.com/v/the-new-york-beer-company/4f297e04a17c6fd5208ea108","categoryId":"4bf58dd8d48988d116941735","category":"Bar","checkinsCount":13159,"usersCount":8096,"tipCount":86,"visitsCount":13523,"url":"http://nybeercompany.com","tier":3,"message":"Expensive","currency":"$","rating":7.9},{"name":"The Empire Hotel Lobby Bar","phone":"2122657400","twitter":"theempirehotel","address":"44 W 63rd St","lat":40.77168711598557,"lng":-73.98250075855944,"neighborhood":"Lincoln Square","city_fetched":"Union City,US","state":"NY","country":"United States","canonicalUrl":"https://foursquare.com/v/the-empire-hotel-lobby-bar/4b1da7bcf964a520931324e3","categoryId":"4bf58dd8d48988d116941735","category":"Bar","checkinsCount":2786,"usersCount":1915,"tipCount":19,"visitsCount":2792,"url":"http://empirehotelnyc.com","tier":3,"message":"Expensive","currency":"$","rating":7.9},{"name":"Dive 75","phone":"2123627518","twitter":"divebar75","address":"101 W 75th St","lat":40.779471803593665,"lng":-73.9776970208157,"neighborhood":"Upper West Side","city_fetched":"Union City,US","state":"NY","country":"United States","canonicalUrl":"https://foursquare.com/v/dive-75/4133bf80f964a520b31a1fe3","categoryId":"4bf58dd8d48988d118941735","category":"Dive Bar","checkinsCount":10260,"usersCount":6665,"tipCount":89,"visitsCount":11469,"url":"http://divebarnyc.com/dive-75/","tier":1,"message":"Cheap","currency":"$","rating":7.9},{"name":"McGee's Pub","phone":"2129573536","twitter":"mcgeespub","address":"240 W 55th St","lat":40.765006420148175,"lng":-73.98313522338867,"neighborhood":"Theater District","city_fetched":"Union City,US","state":"NY","country":"United States","canonicalUrl":"https://foursquare.com/v/mcgees-pub/3fd66200f964a52092e71ee3","categoryId":"4bf58dd8d48988d11b941735","category":"Pub","checkinsCount":20461,"usersCount":16240,"tipCount":201,"visitsCount":21966,"url":"http://mcgeespub.com","tier":2,"message":"Moderate","currency":"$","rating":7.9},{"name":"Deacon Brodie's Tavern","phone":"2122621452","address":"370 W 46th St","lat":40.760723,"lng":-73.990361,"neighborhood":"Hell's Kitchen","city_fetched":"Union City,US","state":"NY","country":"United States","canonicalUrl":"https://foursquare.com/v/deacon-brodies-tavern/49c66647f964a5203f571fe3","categoryId":"4bf58dd8d48988d11b941735","category":"Pub","checkinsCount":3968,"usersCount":1595,"tipCount":23,"visitsCount":3992,"tier":1,"message":"Cheap","currency":"$","rating":7.9},{"name":"Bar One","address":"560 Fairview Ave","lat":40.81635979147091,"lng":-74.00430833093392,"city_fetched":"Union City,US","state":"NJ","country":"United States","canonicalUrl":"https://foursquare.com/v/bar-one/541dd94f498ec006c3dbea36","categoryId":"4bf58dd8d48988d11d941735","category":"Sports Bar","checkinsCount":171,"usersCount":174,"tipCount":2,"visitsCount":348,"tier":"","message":"","currency":"","rating":7.9},{"name":"Kolo Klub","phone":"2016835465","twitter":"koloklubbar","address":"1422 Grand St","lat":40.75521019317229,"lng":-74.0314954487527,"city_fetched":"Union City,US","state":"NJ","country":"United States","canonicalUrl":"https://foursquare.com/v/kolo-klub/4fee4be9e4b0eb402e557e59","categoryId":"4bf58dd8d48988d11e941735","category":"Cocktail Bar","checkinsCount":927,"usersCount":581,"tipCount":7,"visitsCount":939,"url":"http://koloklub.com","tier":3,"message":"Expensive","currency":"$","rating":7.9},{"name":"Plank Road Inn","phone":"2018659516","twitter":"plankroadinn","address":"1538 Paterson Plank Rd","lat":40.799021,"lng":-74.058392,"city_fetched":"Union City,US","state":"NJ","country":"United States","canonicalUrl":"https://foursquare.com/v/plank-road-inn/4bd26c4a9854d13a4ccffb4d","categoryId":"4bf58dd8d48988d116941735","category":"Bar","checkinsCount":5244,"usersCount":400,"tipCount":28,"visitsCount":5531,"url":"http://plankroadinn.com","tier":"","message":"","currency":"","rating":7.9},{"name":"Flaming Saddles Saloon","phone":"2127130481","twitter":"flamingsaddles","address":"793 9th Ave","lat":40.765162620688834,"lng":-73.98763149992548,"neighborhood":"Hell's Kitchen","city_fetched":"Union City,US","state":"NY","country":"United States","canonicalUrl":"https://foursquare.com/v/flaming-saddles-saloon/4e6dfab3b61cf2b03c254994","categoryId":"4bf58dd8d48988d1d8941735","category":"Gay Bar","checkinsCount":19936,"usersCount":7803,"tipCount":96,"visitsCount":20418,"url":"http://flamingsaddles.com","tier":2,"message":"Moderate","currency":"$","rating":7.9},{"name":"The Library at Hudson Hotel","phone":"2125546000","twitter":"morganshotels","address":"356 W 58th St","lat":40.76781550043964,"lng":-73.98504892912212,"neighborhood":"Hell's Kitchen","city_fetched":"Union City,US","state":"NY","country":"United States","canonicalUrl":"https://foursquare.com/v/the-library-at-hudson-hotel/4b4ce0d1f964a520b9c226e3","categoryId":"4bf58dd8d48988d1d5941735","category":"Hotel Bar","checkinsCount":4560,"usersCount":3697,"tipCount":47,"visitsCount":4575,"url":"http://backofhouse.morganshotelgroup.com","tier":3,"message":"Expensive","currency":"$","rating":7.9},{"name":"Prohibition","phone":"2125793100","address":"503 Columbus Ave","lat":40.785324494092684,"lng":-73.97293333921162,"neighborhood":"Upper West Side","city_fetched":"Union City,US","state":"NY","country":"United States","canonicalUrl":"https://foursquare.com/v/prohibition/3fd66200f964a5203be81ee3","categoryId":"4bf58dd8d48988d116941735","category":"Bar","checkinsCount":9438,"usersCount":6158,"tipCount":69,"visitsCount":9643,"url":"http://prohibition.net","tier":2,"message":"Moderate","currency":"$","rating":7.9},{"name":"City Bistro","phone":"2019638200","twitter":"citybistronj","address":"56 14th St","lat":40.753279631273365,"lng":-74.02540147304535,"city_fetched":"Union City,US","state":"NJ","country":"United States","canonicalUrl":"https://foursquare.com/v/city-bistro/49cc44a5f964a5205b591fe3","categoryId":"4bf58dd8d48988d116941735","category":"Bar","checkinsCount":8878,"usersCount":4601,"tipCount":61,"visitsCount":9963,"url":"http://www.citybistrohobokennj.com","tier":2,"message":"Moderate","currency":"$","rating":7.9},{"name":"Rooftop at the Hotel Americano","phone":"2122160000","twitter":"theiapub","address":"518 W 27th St","lat":40.75049589420506,"lng":-74.00335573618469,"neighborhood":"Chelsea","city_fetched":"Union City,US","state":"NY","country":"United States","canonicalUrl":"https://foursquare.com/v/rooftop-at-the-hotel-americano/51cf72a5498ec004c8bc7105","categoryId":"4bf58dd8d48988d1d5941735","category":"Hotel Bar","checkinsCount":488,"usersCount":456,"tipCount":7,"visitsCount":488,"url":"http://www.hotel-americano.com","tier":"","message":"","currency":"","rating":7.9},{"name":"R Lounge at Two Times Square","phone":"2122615200","twitter":"rentimessquare","address":"714 Seventh Avenue at W. 48th Street, Two Times Square","lat":40.75931671228594,"lng":-73.98476771375992,"neighborhood":"Theater District","city_fetched":"Union City,US","state":"NY","country":"United States","canonicalUrl":"https://foursquare.com/v/r-lounge-at-two-times-square/4c9d054a0e9bb1f7aa43d95f","categoryId":"4bf58dd8d48988d11e941735","category":"Cocktail Bar","checkinsCount":4021,"usersCount":2832,"tipCount":48,"visitsCount":4029,"url":"http://rloungetimessquare.com","tier":3,"message":"Expensive","currency":"$","rating":7.8},{"name":"Grand Vin","address":"500 Grand St","lat":40.743139,"lng":-74.0349,"city_fetched":"Union City,US","state":"NJ","country":"United States","canonicalUrl":"https://foursquare.com/v/grand-vin/56d3b920498ec4e1c67c0907","categoryId":"4bf58dd8d48988d11e941735","category":"Cocktail Bar","checkinsCount":310,"usersCount":264,"tipCount":3,"visitsCount":396,"url":"http://grandvinhoboken.com","tier":"","message":"","currency":"","rating":7.8},{"name":"Industry Bar","phone":"6464762747","address":"355 W 52nd St","lat":40.76421262848506,"lng":-73.9870174251268,"neighborhood":"Hell's Kitchen","city_fetched":"Union City,US","state":"NY","country":"United States","canonicalUrl":"https://foursquare.com/v/industry-bar/4c9bb662e9a7ef3bd0ed2e16","categoryId":"4bf58dd8d48988d1d8941735","category":"Gay Bar","checkinsCount":35152,"usersCount":12077,"tipCount":152,"visitsCount":36221,"url":"http://www.industry-bar.com","tier":2,"message":"Moderate","currency":"$","rating":7.8},{"name":"Howl at the Moon","address":"240 W 52nd St","lat":40.76299682746142,"lng":-73.98430284664612,"neighborhood":"Theater District","city_fetched":"Union City,US","state":"NY","country":"United States","canonicalUrl":"https://foursquare.com/v/howl-at-the-moon/56452c29498eec5cc057c45a","categoryId":"4bf58dd8d48988d11f941735","category":"Nightclub","checkinsCount":1023,"usersCount":967,"tipCount":18,"visitsCount":1186,"url":"http://www.howlatthemoon.com/new-york/","tier":"","message":"","currency":"","rating":7.8},{"name":"Brickyard Gastropub","phone":"2127670077","twitter":"brickyardnyc","address":"785 9th Ave","lat":40.76491850907978,"lng":-73.98778645306899,"neighborhood":"Hell's Kitchen","city_fetched":"Union City,US","state":"NY","country":"United States","canonicalUrl":"https://foursquare.com/v/brickyard-gastropub/4ba29cfdf964a520490938e3","categoryId":"4bf58dd8d48988d116941735","category":"Bar","checkinsCount":12790,"usersCount":7756,"tipCount":101,"visitsCount":13054,"url":"http://www.brickyardnyc.com","tier":2,"message":"Moderate","currency":"$","rating":7.8},{"name":"The Squeeze Lounge","phone":"2013481411","address":"1820 Willow Ave","lat":40.759566734053855,"lng":-74.0280814919753,"city_fetched":"Union City,US","state":"NJ","country":"United States","canonicalUrl":"https://foursquare.com/v/the-squeeze-lounge/4b94757bf964a5204f7a34e3","categoryId":"4bf58dd8d48988d1d6941735","category":"Strip Club","checkinsCount":1761,"usersCount":495,"tipCount":12,"visitsCount":1811,"tier":"","message":"","currency":"","rating":7.8},{"name":"Sky Room","phone":"2123801195","twitter":"skyroomnyc","address":"330 W 40th St","lat":40.756505773099974,"lng":-73.99241777260337,"neighborhood":"Garment District","city_fetched":"Union City,US","state":"NY","country":"United States","canonicalUrl":"https://foursquare.com/skyroomnyc","categoryId":"4bf58dd8d48988d121941735","category":"Lounge","checkinsCount":18431,"usersCount":13412,"tipCount":165,"visitsCount":18516,"url":"http://www.skyroomnyc.com","tier":3,"message":"Expensive","currency":"$","rating":7.8},{"name":"Hibernia Bar","phone":"2129699703","twitter":"hiberniabar","address":"401 W 50th St","lat":40.7636462551771,"lng":-73.98938762822706,"neighborhood":"Hell's Kitchen","city_fetched":"Union City,US","state":"NY","country":"United States","canonicalUrl":"https://foursquare.com/v/hibernia-bar/4ac124e6f964a520059620e3","categoryId":"4bf58dd8d48988d11b941735","category":"Pub","checkinsCount":13082,"usersCount":4132,"tipCount":41,"visitsCount":14006,"url":"http://hiberniabar.com","tier":2,"message":"Moderate","currency":"$","rating":7.8},{"name":"Amsterdam Ale House","phone":"2123627268","twitter":"amsterdamale","address":"340 Amsterdam Ave","lat":40.78127438948975,"lng":-73.97990664030193,"neighborhood":"Upper West Side","city_fetched":"Union City,US","state":"NY","country":"United States","canonicalUrl":"https://foursquare.com/v/amsterdam-ale-house/49ef2aabf964a52083681fe3","categoryId":"4bf58dd8d48988d11b941735","category":"Pub","checkinsCount":14085,"usersCount":7950,"tipCount":102,"visitsCount":14439,"url":"http://www.amsterdamalehouse.nyc","tier":2,"message":"Moderate","currency":"$","rating":7.8},{"name":"Glass House Tavern","phone":"2127304800","twitter":"glasshouseny","address":"252 W 47th St","lat":40.75994375675835,"lng":-73.98658454418182,"neighborhood":"Theater District","city_fetched":"Union City,US","state":"NY","country":"United States","canonicalUrl":"https://foursquare.com/v/glass-house-tavern/4a81c42ff964a52084f71fe3","categoryId":"4bf58dd8d48988d116941735","category":"Bar","checkinsCount":6481,"usersCount":3813,"tipCount":54,"visitsCount":6529,"url":"http://www.glasshousetavern.com","tier":2,"message":"Moderate","currency":"$","rating":7.7},{"name":"The Living Room","phone":"2129307447","twitter":"livingroomnyc","address":"1567 Broadway","lat":40.75933270186101,"lng":-73.98519240618907,"neighborhood":"Theater District","city_fetched":"Union City,US","state":"NY","country":"United States","canonicalUrl":"https://foursquare.com/v/the-living-room/4a739322f964a520dbdc1fe3","categoryId":"4bf58dd8d48988d121941735","category":"Lounge","checkinsCount":3003,"usersCount":1957,"tipCount":27,"visitsCount":3007,"url":"http://www.gerberbars.com/#/new-york/living-room/","tier":"","message":"","currency":"","rating":7.7},{"name":"Executive Club NYC","phone":"2122450002","twitter":"pecnyc","address":"603 W 45th St","lat":40.762827263927136,"lng":-73.99725557432491,"neighborhood":"Hell's Kitchen","city_fetched":"Union City,US","state":"NY","country":"United States","canonicalUrl":"https://foursquare.com/pecnyc","categoryId":"4bf58dd8d48988d1d6941735","category":"Strip Club","checkinsCount":1542,"usersCount":562,"tipCount":8,"visitsCount":1544,"url":"http://www.pecnyc.com","tier":"","message":"","currency":"","rating":7.7},{"name":"The Grand Ballroom at The Plaza Hotel","lat":40.7641277,"lng":-73.974858,"neighborhood":"Midtown East","city_fetched":"Union City,US","state":"NY","country":"United States","canonicalUrl":"https://foursquare.com/v/the-grand-ballroom-at-the-plaza-hotel/4c9a84efdb10b60c7b5c936d","categoryId":"4bf58dd8d48988d1d5941735","category":"Hotel Bar","checkinsCount":627,"usersCount":485,"tipCount":2,"visitsCount":627,"tier":"","message":"","currency":"","rating":7.7},{"name":"BPM New York","phone":"2122392999","twitter":"bpmnightclub","address":"516 W 42nd St","lat":40.76000064275873,"lng":-73.99648189544678,"neighborhood":"Hell's Kitchen","city_fetched":"Union City,US","state":"NY","country":"United States","canonicalUrl":"https://foursquare.com/bpmnightclub","categoryId":"4bf58dd8d48988d11f941735","category":"Nightclub","checkinsCount":12718,"usersCount":6207,"tipCount":84,"visitsCount":12850,"url":"http://bpmny.com","tier":2,"message":"Moderate","currency":"$","rating":7.7},{"name":"Barrage","phone":"2125689390","address":"401 W 47th St","lat":40.761690947411594,"lng":-73.99105310440063,"neighborhood":"Hell's Kitchen","city_fetched":"Union City,US","state":"NY","country":"United States","canonicalUrl":"https://foursquare.com/v/barrage/43cbf323f964a520c52d1fe3","categoryId":"4bf58dd8d48988d1d8941735","category":"Gay Bar","checkinsCount":17307,"usersCount":5128,"tipCount":69,"visitsCount":18188,"tier":2,"message":"Moderate","currency":"$","rating":7.7},{"name":"DC's Tavern","address":"505 8th St","lat":40.747297,"lng":-74.035955,"city_fetched":"Union City,US","state":"NJ","country":"United States","canonicalUrl":"https://foursquare.com/v/dcs-tavern/45c1e0c6f964a52030421fe3","categoryId":"4bf58dd8d48988d118941735","category":"Dive Bar","checkinsCount":1968,"usersCount":792,"tipCount":17,"visitsCount":2222,"url":"http://dcstavern.com","tier":1,"message":"Cheap","currency":"$","rating":7.7},{"name":"Haymaker Bar and Kitchen","phone":"6464298237","twitter":"haymakerbar","address":"252 W 29th St","lat":40.74897773867949,"lng":-73.99527570581625,"neighborhood":"Chelsea","city_fetched":"Union City,US","state":"NY","country":"United States","canonicalUrl":"https://foursquare.com/v/haymaker-bar-and-kitchen/55ef8b4a498ed5005a7564b9","categoryId":"4bf58dd8d48988d11b941735","category":"Pub","checkinsCount":1373,"usersCount":963,"tipCount":12,"visitsCount":1485,"url":"http://haymakernyc.com","tier":2,"message":"Moderate","currency":"$","rating":7.7},{"name":"La Piscine at Hôtel Americano","phone":"2125250000","twitter":"grupohabita","address":"518 W 27th St","lat":40.75048043718523,"lng":-74.00336721325807,"neighborhood":"Chelsea","city_fetched":"Union City,US","state":"NY","country":"United States","canonicalUrl":"https://foursquare.com/v/la-piscine-at-h%C3%B4tel-americano/4f9717bde4b000e74c1efedd","categoryId":"4bf58dd8d48988d1d5941735","category":"Hotel Bar","checkinsCount":1699,"usersCount":1454,"tipCount":22,"visitsCount":1712,"url":"http://www.hotel-americano.com","tier":"","message":"","currency":"","rating":7.7},{"name":"The Gaf West","phone":"2122622883","address":"401 W 48th St","lat":40.76237645120165,"lng":-73.99023699170526,"neighborhood":"Hell's Kitchen","city_fetched":"Union City,US","state":"NY","country":"United States","canonicalUrl":"https://foursquare.com/v/the-gaf-west/40bbc700f964a520af001fe3","categoryId":"4bf58dd8d48988d116941735","category":"Bar","checkinsCount":8593,"usersCount":2855,"tipCount":39,"visitsCount":9159,"url":"http://gafwestnyc.com","tier":2,"message":"Moderate","currency":"$","rating":7.7},{"name":"Turtle Club","phone":"2017105960","address":"936 Park Ave","lat":40.74885179806659,"lng":-74.0302561034515,"city_fetched":"Union City,US","state":"NJ","country":"United States","canonicalUrl":"https://foursquare.com/v/turtle-club/4b5f7ebcf964a520b5bd29e3","categoryId":"4bf58dd8d48988d116941735","category":"Bar","checkinsCount":6486,"usersCount":3018,"tipCount":35,"visitsCount":7289,"url":"http://hobokenturtleclub.com","tier":3,"message":"Expensive","currency":"$","rating":7.7},{"name":"Bottom's Up/Vodka Soda","address":"315 W 46th St","lat":40.76033,"lng":-73.988631,"neighborhood":"Hell's Kitchen","city_fetched":"Union City,US","state":"NY","country":"United States","canonicalUrl":"https://foursquare.com/v/bottoms-upvodka-soda/563b0756cd102a1386bd3973","categoryId":"4bf58dd8d48988d1d8941735","category":"Gay Bar","checkinsCount":1516,"usersCount":1451,"tipCount":6,"visitsCount":2848,"tier":"","message":"","currency":"","rating":7.7},{"name":"The Ale House","phone":"2017985650","address":"1034 Willow Ave","lat":40.750294,"lng":-74.030907,"city_fetched":"Union City,US","state":"NJ","country":"United States","canonicalUrl":"https://foursquare.com/v/the-ale-house/44f98658f964a52063381fe3","categoryId":"4bf58dd8d48988d116941735","category":"Bar","checkinsCount":2020,"usersCount":1052,"tipCount":11,"visitsCount":2681,"tier":1,"message":"Cheap","currency":"$","rating":7.6},{"name":"Posh Bar & Lounge","phone":"2129572222","twitter":"poshbarnyc","address":"405 W 51st St","lat":40.76430758425931,"lng":-73.98882150650024,"neighborhood":"Hell's Kitchen","city_fetched":"Union City,US","state":"NY","country":"United States","canonicalUrl":"https://foursquare.com/v/posh-bar--lounge/4276bf00f964a5208b211fe3","categoryId":"4bf58dd8d48988d1d8941735","category":"Gay Bar","checkinsCount":22809,"usersCount":6729,"tipCount":87,"visitsCount":23897,"url":"http://poshbarnyc.com","tier":2,"message":"Moderate","currency":"$","rating":7.6},{"name":"Broadway Lounge Restaurant","phone":"2127048834","twitter":"mhmarquisnyc","address":"1535 Broadway, 8th Floor of the New York Marriott Marquis","lat":40.758579,"lng":-73.98594,"neighborhood":"Theater District","city_fetched":"Union City,US","state":"NY","country":"United States","canonicalUrl":"https://foursquare.com/v/broadway-lounge-restaurant/4a8b8592f964a520960c20e3","categoryId":"4bf58dd8d48988d11e941735","category":"Cocktail Bar","checkinsCount":1551,"usersCount":1165,"tipCount":20,"visitsCount":1551,"url":"http://ad.doubleclick.net/clk;279451236;106268199;q?http://www.marriott.com/setSCtracking.mi?scid=57d8f3c4-1f61-41da-8b4b-bc62d7f49992&ppc=ppc&mid=/hotel-restaurants/nycmq-new-york-marriott-marquis/broadway-lounge/5272396/home-page.mi","tier":2,"message":"Moderate","currency":"$","rating":7.6},{"name":"Star Lounge - The Ritz Carlton","phone":"2125216125","address":"50 Central Park S","lat":40.765476267432085,"lng":-73.97592930694746,"neighborhood":"Midtown East","city_fetched":"Union City,US","state":"NY","country":"United States","canonicalUrl":"https://foursquare.com/v/star-lounge--the-ritz-carlton/4e4e499abd4101d0d7a6e5be","categoryId":"4bf58dd8d48988d1d5941735","category":"Hotel Bar","checkinsCount":1077,"usersCount":365,"tipCount":6,"visitsCount":1079,"url":"http://ritzcarlton.com","tier":"","message":"","currency":"","rating":7.6},{"name":"On Tap at Whole Foods","phone":"2128239600","twitter":"wfmbeernyc","address":"10 Columbus Circle","lat":40.76822290427747,"lng":-73.98207032100609,"neighborhood":"Hell's Kitchen","city_fetched":"Union City,US","state":"NY","country":"United States","canonicalUrl":"https://foursquare.com/v/on-tap-at-whole-foods/4eb1a0feb8f7fd711df50764","categoryId":"4bf58dd8d48988d116941735","category":"Bar","checkinsCount":3633,"usersCount":1853,"tipCount":48,"visitsCount":3653,"tier":1,"message":"Cheap","currency":"$","rating":7.6},{"name":"DBL Dive Bar Lounge","address":"667 10th Ave","lat":40.76284121228008,"lng":-73.99315808469217,"neighborhood":"Hell's Kitchen","city_fetched":"Union City,US","state":"NY","country":"United States","canonicalUrl":"https://foursquare.com/v/dbl-dive-bar-lounge/54e97374498ee5193590f132","categoryId":"4bf58dd8d48988d118941735","category":"Dive Bar","checkinsCount":1840,"usersCount":1230,"tipCount":13,"visitsCount":2939,"url":"http://divebarnyc.com","tier":"","message":"","currency":"","rating":7.6},{"name":"Landmark Tavern","phone":"2122472562","twitter":"landmark_tavern","address":"626 11th Ave","lat":40.76340897941592,"lng":-73.99658414294873,"neighborhood":"Hell's Kitchen","city_fetched":"Union City,US","state":"NY","country":"United States","canonicalUrl":"https://foursquare.com/v/landmark-tavern/3fd66200f964a5208be81ee3","categoryId":"4bf58dd8d48988d11b941735","category":"Pub","checkinsCount":6511,"usersCount":3568,"tipCount":58,"visitsCount":6626,"url":"http://thelandmarktavern.org","tier":2,"message":"Moderate","currency":"$","rating":7.6},{"name":"10th and Willow","phone":"2016532358","address":"935 Willow Ave","lat":40.749156005568246,"lng":-74.03103643291495,"city_fetched":"Union City,US","state":"NJ","country":"United States","canonicalUrl":"https://foursquare.com/v/10th-and-willow/4b99cb94f964a520259235e3","categoryId":"4bf58dd8d48988d116941735","category":"Bar","checkinsCount":8429,"usersCount":3871,"tipCount":54,"visitsCount":10112,"url":"http://10thandwillow.com","tier":2,"message":"Moderate","currency":"$","rating":7.5},{"name":"Gallo Nero","phone":"2122656660","twitter":"galloneronyc","address":"402 W 44th St","lat":40.759814716997774,"lng":-73.9920562238005,"neighborhood":"Hell's Kitchen","city_fetched":"Union City,US","state":"NY","country":"United States","canonicalUrl":"https://foursquare.com/v/gallo-nero/4a9338e0f964a5203a1f20e3","categoryId":"4bf58dd8d48988d123941735","category":"Wine Bar","checkinsCount":2865,"usersCount":1859,"tipCount":44,"visitsCount":2874,"url":"http://www.gallonerony.com","tier":"","message":"","currency":"","rating":7.5},{"name":"Haven at the Sanctuary Hotel","phone":"2124669000","twitter":"sanctuaryhotel_","address":"132 W 47th St","lat":40.75848095717076,"lng":-73.98319959640503,"neighborhood":"Theater District","city_fetched":"Union City,US","state":"NY","country":"United States","canonicalUrl":"https://foursquare.com/v/haven-at-the-sanctuary-hotel/4fc9352a00397219daa7f088","categoryId":"4bf58dd8d48988d11e941735","category":"Cocktail Bar","checkinsCount":5492,"usersCount":4588,"tipCount":56,"visitsCount":5658,"url":"http://www.havenrooftop.com","tier":"","message":"","currency":"","rating":7.5},{"name":"Don't Tell Mama","phone":"2127570788","twitter":"donttellmamany","address":"343 W 46th St","lat":40.76059166405359,"lng":-73.98954831890319,"neighborhood":"Hell's Kitchen","city_fetched":"Union City,US","state":"NY","country":"United States","canonicalUrl":"https://foursquare.com/v/dont-tell-mama/41d49680f964a520b21e1fe3","categoryId":"4bf58dd8d48988d11e941735","category":"Cocktail Bar","checkinsCount":6374,"usersCount":4461,"tipCount":56,"visitsCount":6451,"url":"http://donttellmamanyc.com","tier":2,"message":"Moderate","currency":"$","rating":7.5},{"name":"St. James Gate Publick House","phone":"2123626202","address":"441 Amsterdam Ave","lat":40.784417,"lng":-73.977345,"neighborhood":"Upper West Side","city_fetched":"Union City,US","state":"NY","country":"United States","canonicalUrl":"https://foursquare.com/v/st-james-gate-publick-house/49f13760f964a5209e691fe3","categoryId":"4bf58dd8d48988d116941735","category":"Bar","checkinsCount":5683,"usersCount":2928,"tipCount":50,"visitsCount":5785,"url":"http://www.stjamesgatenyc.com","tier":2,"message":"Moderate","currency":"$","rating":7.5},{"name":"Mikie Squared","phone":"2017920001","twitter":"mikiesquared","address":"616 Washington St","lat":40.74395992028281,"lng":-74.02894215911623,"city_fetched":"Union City,US","state":"NJ","country":"United States","canonicalUrl":"https://foursquare.com/v/mikie-squared/4a3ad481f964a52057a01fe3","categoryId":"4bf58dd8d48988d11d941735","category":"Sports Bar","checkinsCount":7490,"usersCount":2937,"tipCount":48,"visitsCount":7690,"url":"http://www.mikiesquared.com","tier":2,"message":"Moderate","currency":"$","rating":7.5},{"name":"The Jolly Monk","phone":"6466570080","twitter":"jollymonknyc","address":"701 9th Ave","lat":40.76235809695608,"lng":-73.98986396091094,"neighborhood":"Hell's Kitchen","city_fetched":"Union City,US","state":"NY","country":"United States","canonicalUrl":"https://foursquare.com/v/the-jolly-monk/53ac1eea498e0e151ca3ae24","categoryId":"4bf58dd8d48988d116941735","category":"Bar","checkinsCount":1864,"usersCount":1666,"tipCount":20,"visitsCount":2355,"url":"http://www.jollymonknyc.com","tier":"","message":"","currency":"","rating":7.5},{"name":"Lusso Bar","phone":"2017587070","twitter":"lussobar","address":"40-1 Riverwalk Place","lat":40.78213903345104,"lng":-74.00627089070936,"city_fetched":"Union City,US","state":"NJ","country":"United States","canonicalUrl":"https://foursquare.com/lussobar","categoryId":"4bf58dd8d48988d121941735","category":"Lounge","checkinsCount":684,"usersCount":336,"tipCount":11,"visitsCount":687,"url":"http://www.lussobar.com","tier":"","message":"","currency":"","rating":7.5},{"name":"'Disiac Lounge","phone":"2125869880","twitter":"disiac54","address":"402 W 54th St","lat":40.766075054026054,"lng":-73.98751671973855,"neighborhood":"Hell's Kitchen","city_fetched":"Union City,US","state":"NY","country":"United States","canonicalUrl":"https://foursquare.com/v/disiac-lounge/46dbf48df964a5208a4a1fe3","categoryId":"4bf58dd8d48988d121941735","category":"Lounge","checkinsCount":2800,"usersCount":2015,"tipCount":42,"visitsCount":2844,"url":"http://disiacloungenyc.com","tier":2,"message":"Moderate","currency":"$","rating":7.4},{"name":"The House of Brews","phone":"2122450551","twitter":"houseofbrewsnyc","address":"363 W 46th St","lat":40.76081793921089,"lng":-73.99016238560442,"neighborhood":"Hell's Kitchen","city_fetched":"Union City,US","state":"NY","country":"United States","canonicalUrl":"https://foursquare.com/v/the-house-of-brews/41044980f964a520780b1fe3","categoryId":"4bf58dd8d48988d116941735","category":"Bar","checkinsCount":6934,"usersCount":4728,"tipCount":44,"visitsCount":6982,"url":"http://houseofbrewsny.com","tier":2,"message":"Moderate","currency":"$","rating":7.4},{"name":"Playwright Celtic Pub","phone":"2123548404","twitter":"playwright45nyc","address":"732 8th Ave","lat":40.75950429059436,"lng":-73.98792418909154,"neighborhood":"Theater District","city_fetched":"Union City,US","state":"NY","country":"United States","canonicalUrl":"https://foursquare.com/playwright45nyc","categoryId":"4bf58dd8d48988d11b941735","category":"Pub","checkinsCount":8649,"usersCount":7373,"tipCount":65,"visitsCount":9193,"url":"http://www.playwrightcelticpubnyc.com","tier":2,"message":"Moderate","currency":"$","rating":7.4},{"name":"Juliet Supper Club NYC","phone":"2129292400","address":"539 W 21st St","lat":40.74699683016211,"lng":-74.0066381511212,"neighborhood":"Chelsea","city_fetched":"Union City,US","state":"NY","country":"United States","canonicalUrl":"https://foursquare.com/v/juliet-supper-club-nyc/4c2d5f6ae307d13a79d40dda","categoryId":"4bf58dd8d48988d121941735","category":"Lounge","checkinsCount":4015,"usersCount":2351,"tipCount":24,"visitsCount":4015,"url":"http://www.julietsupperclub.com","tier":"","message":"","currency":"","rating":7.4},{"name":"Hudson Tavern","phone":"2017981117","address":"53 14th St","lat":40.75293979657674,"lng":-74.02513224308886,"city_fetched":"Union City,US","state":"NJ","country":"United States","canonicalUrl":"https://foursquare.com/v/hudson-tavern/4a7e36b0f964a52074f11fe3","categoryId":"4bf58dd8d48988d116941735","category":"Bar","checkinsCount":6062,"usersCount":2175,"tipCount":52,"visitsCount":6383,"url":"http://www.hudsontavern.com","tier":2,"message":"Moderate","currency":"$","rating":7.4},{"name":"Four at Yotel","phone":"6464497790","address":"570 10th Ave","lat":40.759424115489416,"lng":-73.99525848947867,"neighborhood":"Hell's Kitchen","city_fetched":"Union City,US","state":"NY","country":"United States","canonicalUrl":"https://foursquare.com/v/four-at-yotel/4e58670eb0fb4c4d61ffce05","categoryId":"4bf58dd8d48988d11f941735","category":"Nightclub","checkinsCount":3318,"usersCount":2324,"tipCount":26,"visitsCount":3320,"tier":3,"message":"Expensive","currency":"$","rating":7.3},{"name":"Tonic","phone":"2123821059","twitter":"tonicbartimessq","address":"727 7th Ave","lat":40.760018699570765,"lng":-73.98401589107601,"neighborhood":"Theater District","city_fetched":"Union City,US","state":"NY","country":"United States","canonicalUrl":"https://foursquare.com/v/tonic/46d41aa8f964a520604a1fe3","categoryId":"4bf58dd8d48988d11d941735","category":"Sports Bar","checkinsCount":14229,"usersCount":10843,"tipCount":115,"visitsCount":14795,"url":"http://tonicbarnyc.com","tier":2,"message":"Moderate","currency":"$","rating":7.3},{"name":"Scallywag's Bar & Grill","phone":"6464904803","twitter":"scallywagsnyc","address":"508 9th Ave","lat":40.75618712037048,"lng":-73.99432880495256,"neighborhood":"Hell's Kitchen","city_fetched":"Union City,US","state":"NY","country":"United States","canonicalUrl":"https://foursquare.com/v/scallywags-bar--grill/5053c68be4b01f3aa4e55e59","categoryId":"4bf58dd8d48988d11b941735","category":"Pub","checkinsCount":5115,"usersCount":2971,"tipCount":69,"visitsCount":5191,"url":"http://www.scallywagsnyc.com","tier":3,"message":"Expensive","currency":"$","rating":7.3},{"name":"Ink48 Hotel Roof Bar","lat":40.76457590701653,"lng":-73.99598731308397,"neighborhood":"Hell's Kitchen","city_fetched":"Union City,US","state":"NY","country":"United States","canonicalUrl":"https://foursquare.com/v/ink48-hotel-roof-bar/532e1cd6498e1e200b4acd2e","categoryId":"4bf58dd8d48988d1d5941735","category":"Hotel Bar","checkinsCount":345,"usersCount":320,"tipCount":4,"visitsCount":346,"tier":"","message":"","currency":"","rating":7.3},{"name":"XVI Lounge NYC","phone":"2129561300","twitter":"xviloungenyc","address":"251 W 48th St","lat":40.76111793099811,"lng":-73.98661569288727,"neighborhood":"Theater District","city_fetched":"Union City,US","state":"NY","country":"United States","canonicalUrl":"https://foursquare.com/v/xvi-lounge-nyc/4dbb4ef84df044e524c79785","categoryId":"4bf58dd8d48988d116941735","category":"Bar","checkinsCount":4440,"usersCount":3524,"tipCount":24,"visitsCount":4442,"url":"http://www.xviny.com","tier":"","message":"","currency":"","rating":7.3},{"name":"Space Ibiza New York","phone":"2122472447","twitter":"spaceibizany","address":"637 W 50th St","lat":40.766808227283065,"lng":-73.99636033196725,"neighborhood":"Hell's Kitchen","city_fetched":"Union City,US","state":"NY","country":"United States","canonicalUrl":"https://foursquare.com/v/space-ibiza-new-york/540d60ae498e1a6acccfca7d","categoryId":"4bf58dd8d48988d11f941735","category":"Nightclub","checkinsCount":2944,"usersCount":4408,"tipCount":20,"visitsCount":6048,"url":"http://www.spaceibizany.com","tier":"","message":"","currency":"","rating":7.3},{"name":"Billymark's West","phone":"2126290118","address":"332 9th Ave","lat":40.750215534779834,"lng":-73.99858474731445,"neighborhood":"Chelsea","city_fetched":"Union City,US","state":"NY","country":"United States","canonicalUrl":"https://foursquare.com/v/billymarks-west/3fd66200f964a520cde31ee3","categoryId":"4bf58dd8d48988d118941735","category":"Dive Bar","checkinsCount":3874,"usersCount":3132,"tipCount":52,"visitsCount":4542,"url":"http://www.billymarkswest.com","tier":1,"message":"Cheap","currency":"$","rating":7.3},{"name":"Jasper's Taphouse & Kitchen","phone":"2129571000","twitter":"jasperstaphouse","address":"761 9th Ave","lat":40.76417727682499,"lng":-73.98861286772178,"neighborhood":"Hell's Kitchen","city_fetched":"Union City,US","state":"NY","country":"United States","canonicalUrl":"https://foursquare.com/v/jaspers-taphouse--kitchen/531b8bb8498efc58d3204a87","categoryId":"4bf58dd8d48988d116941735","category":"Bar","checkinsCount":3879,"usersCount":2188,"tipCount":46,"visitsCount":4125,"url":"http://jaspersnyc.com","tier":2,"message":"Moderate","currency":"$","rating":7.3},{"name":"Celtic Pub","phone":"2123548404","address":"732 8th Ave","lat":40.760545176033794,"lng":-73.98397571726198,"neighborhood":"Theater District","city_fetched":"Union City,US","state":"NY","country":"United States","canonicalUrl":"https://foursquare.com/v/celtic-pub/51a29a1d498ec1faa7ea3352","categoryId":"4bf58dd8d48988d116941735","category":"Bar","checkinsCount":674,"usersCount":637,"tipCount":8,"visitsCount":674,"url":"http://playwrightcelticpubnyc.com","tier":"","message":"","currency":"","rating":7.3},{"name":"Frim Fram Jam","twitter":"framdj","address":"412 8th Ave","lat":40.75020644,"lng":-73.994769,"neighborhood":"Chelsea","city_fetched":"Union City,US","state":"NY","country":"United States","canonicalUrl":"https://foursquare.com/v/frim-fram-jam/4cc0b629f82ebfb7b4af6f91","categoryId":"4bf58dd8d48988d11f941735","category":"Nightclub","checkinsCount":595,"usersCount":113,"tipCount":6,"visitsCount":602,"tier":"","message":"","currency":"","rating":7.3},{"name":"Walter's Cottage","address":"500 W 43rd St","lat":40.760051293981995,"lng":-73.99526996703725,"neighborhood":"Hell's Kitchen","city_fetched":"Union City,US","state":"NY","country":"United States","canonicalUrl":"https://foursquare.com/v/walters-cottage/56452913498e35cb0dc4cb69","categoryId":"4bf58dd8d48988d11d941735","category":"Sports Bar","checkinsCount":170,"usersCount":84,"tipCount":2,"visitsCount":182,"tier":"","message":"","currency":"","rating":7.3},{"name":"Corkscrew Tavern","phone":"2014590100","address":"61 Congress St","lat":40.74959344517313,"lng":-74.04276967765969,"neighborhood":"The Heights","city_fetched":"Union City,US","state":"NJ","country":"United States","canonicalUrl":"https://foursquare.com/v/corkscrew-tavern/45c1e19af964a52031421fe3","categoryId":"4bf58dd8d48988d116941735","category":"Bar","checkinsCount":3438,"usersCount":760,"tipCount":27,"visitsCount":4645,"url":"http://corkscrewtavern.foodplaces.co.uk","tier":2,"message":"Moderate","currency":"$","rating":7.3},{"name":"Ca Va Lounge @ Ca Va Brasserie","phone":"2128034545","twitter":"cavabrasserie","address":"310 W 44th St","lat":40.75891701995445,"lng":-73.98938762822706,"neighborhood":"Hell's Kitchen","city_fetched":"Union City,US","state":"NY","country":"United States","canonicalUrl":"https://foursquare.com/v/ca-va-lounge--ca-va-brasserie/4ca634fba6e08cfab5607894","categoryId":"4bf58dd8d48988d1d5941735","category":"Hotel Bar","checkinsCount":942,"usersCount":656,"tipCount":6,"visitsCount":943,"url":"http://cavatoddenglish.com","tier":"","message":"","currency":"","rating":7.3},{"name":"The House of Brews","phone":"2125417080","twitter":"houseofbrewsnyc","address":"302 W 51st St","lat":40.763185378541145,"lng":-73.9860819616117,"neighborhood":"Hell's Kitchen","city_fetched":"Union City,US","state":"NY","country":"United States","canonicalUrl":"https://foursquare.com/houseofbrewsnyc","categoryId":"4bf58dd8d48988d117941735","category":"Beer Garden","checkinsCount":15074,"usersCount":9555,"tipCount":111,"visitsCount":16033,"url":"http://houseofbrewsny.com","tier":2,"message":"Moderate","currency":"$","rating":7.3},{"name":"The Gin Mill","phone":"2125809080","twitter":"theginmillnyc","address":"442 Amsterdam Ave","lat":40.78462710069574,"lng":-73.97724935455403,"neighborhood":"Upper West Side","city_fetched":"Union City,US","state":"NY","country":"United States","canonicalUrl":"https://foursquare.com/v/the-gin-mill/40fc6080f964a520250b1fe3","categoryId":"4bf58dd8d48988d116941735","category":"Bar","checkinsCount":22779,"usersCount":10680,"tipCount":110,"visitsCount":23107,"url":"http://www.nycbestbar.com/ginmill/","tier":1,"message":"Cheap","currency":"$","rating":7.3},{"name":"Latitude Bar & Lounge","phone":"2122453034","twitter":"latitudenyc","address":"783 8th Ave","lat":40.76071844654595,"lng":-73.98714942267917,"neighborhood":"Hell's Kitchen","city_fetched":"Union City,US","state":"NY","country":"United States","canonicalUrl":"https://foursquare.com/v/latitude-bar--lounge/42547800f964a520d3201fe3","categoryId":"4bf58dd8d48988d116941735","category":"Bar","checkinsCount":17844,"usersCount":12514,"tipCount":110,"visitsCount":18622,"url":"http://www.latitudebarnyc.com","tier":2,"message":"Moderate","currency":"$","rating":7.3},{"name":"L'ybane Restaurant","phone":"2125822012","twitter":"lybanenyc","address":"709 8th Ave","lat":40.75885337345724,"lng":-73.98865304056562,"neighborhood":"Hell's Kitchen","city_fetched":"Union City,US","state":"NY","country":"United States","canonicalUrl":"https://foursquare.com/v/lybane-restaurant/4c1d4eff63750f47bc12b867","categoryId":"4bf58dd8d48988d11e941735","category":"Cocktail Bar","checkinsCount":3380,"usersCount":2399,"tipCount":42,"visitsCount":3417,"url":"http://www.lybanenyc.com","tier":2,"message":"Moderate","currency":"$","rating":7.3},{"name":"Dakota Bar","phone":"2127870700","address":"53 W 72nd St","lat":40.77737478837984,"lng":-73.97879896409711,"neighborhood":"Lincoln Square","city_fetched":"Union City,US","state":"NY","country":"United States","canonicalUrl":"https://foursquare.com/v/dakota-bar/4ec68ffb4690116a8afb13cf","categoryId":"4bf58dd8d48988d123941735","category":"Wine Bar","checkinsCount":3663,"usersCount":2452,"tipCount":32,"visitsCount":3969,"url":"http://thedakotabar.com","tier":3,"message":"Expensive","currency":"$","rating":7.3},{"name":"Crispín's","phone":"2125860888","twitter":"crispinsnyc","address":"764 10th Ave","lat":40.76597011182025,"lng":-73.9908969674878,"neighborhood":"Hell's Kitchen","city_fetched":"Union City,US","state":"NY","country":"United States","canonicalUrl":"https://foursquare.com/crispinsnyc","categoryId":"4bf58dd8d48988d123941735","category":"Wine Bar","checkinsCount":880,"usersCount":702,"tipCount":17,"visitsCount":905,"url":"https://crispinsnyc.com","tier":2,"message":"Moderate","currency":"$","rating":7.2},{"name":"Tir na nÓg","phone":"6467604526","twitter":"tirnanognyc","address":"315 West 39 St","lat":40.75586993158667,"lng":-73.99198161840714,"neighborhood":"Garment District","city_fetched":"Union City,US","state":"NY","country":"United States","canonicalUrl":"https://foursquare.com/v/tir-na-n%C3%B3g/50244fd2e4b0119b30effd06","categoryId":"4bf58dd8d48988d11b941735","category":"Pub","checkinsCount":6159,"usersCount":3748,"tipCount":55,"visitsCount":6481,"url":"http://www.tirnanognyc.com","tier":2,"message":"Moderate","currency":"$","rating":7.2},{"name":"Crowne Plaza Lobby Bar","address":"1601 Broadway Ste 4","lat":40.760527,"lng":-73.984879,"neighborhood":"Theater District","city_fetched":"Union City,US","state":"NY","country":"United States","canonicalUrl":"https://foursquare.com/v/crowne-plaza-lobby-bar/43713c00f964a520002a1fe3","categoryId":"4bf58dd8d48988d1d5941735","category":"Hotel Bar","checkinsCount":827,"usersCount":450,"tipCount":9,"visitsCount":827,"tier":"","message":"","currency":"","rating":7.2},{"name":"Bar Nine","phone":"2123999336","twitter":"bar9ny","address":"807 9th Ave","lat":40.76568522617511,"lng":-73.9873962004684,"neighborhood":"Hell's Kitchen","city_fetched":"Union City,US","state":"NY","country":"United States","canonicalUrl":"https://foursquare.com/bar9ny","categoryId":"4bf58dd8d48988d116941735","category":"Bar","checkinsCount":9323,"usersCount":5853,"tipCount":69,"visitsCount":9499,"url":"http://www.bar9ny.com","tier":2,"message":"Moderate","currency":"$","rating":7.2},{"name":"INC Lounge","phone":"2129567020","twitter":"incloungeny","address":"224 W 49th St (Time Hotel 2nd Fl)","lat":40.76133933069763,"lng":-73.98524979698584,"neighborhood":"Theater District","city_fetched":"Union City,US","state":"NY","country":"United States","canonicalUrl":"https://foursquare.com/v/inc-lounge/4b5910a5f964a520e27a28e3","categoryId":"4bf58dd8d48988d121941735","category":"Lounge","checkinsCount":2198,"usersCount":1593,"tipCount":7,"visitsCount":2204,"url":"http://www.incloungenyc.com","tier":"","message":"","currency":"","rating":7.2},{"name":"Taboo Lounge","phone":"9293822386","address":"406 8th Ave","lat":40.74989777402811,"lng":-73.99503467694925,"neighborhood":"Chelsea","city_fetched":"Union City,US","state":"NY","country":"United States","canonicalUrl":"https://foursquare.com/v/taboo-lounge/4d98fa73a2c654814587fe53","categoryId":"4bf58dd8d48988d121941735","category":"Lounge","checkinsCount":554,"usersCount":366,"tipCount":8,"visitsCount":559,"tier":2,"message":"Moderate","currency":"$","rating":7.2},{"name":"2E Pierre Hotel Lounge","address":"2 E 61st St","lat":40.76523256275537,"lng":-73.97173953064508,"neighborhood":"Upper East Side","city_fetched":"Union City,US","state":"NY","country":"United States","canonicalUrl":"https://foursquare.com/v/2e-pierre-hotel-lounge/4f7b84e2e4b00b8c4b67e99f","categoryId":"4bf58dd8d48988d121941735","category":"Lounge","checkinsCount":493,"usersCount":171,"tipCount":1,"visitsCount":493,"tier":"","message":"","currency":"","rating":7.2},{"name":"Stage 48","phone":"2129571800","twitter":"stage48nyc","address":"605 W 48th St","lat":40.76481657506616,"lng":-73.99603896189572,"neighborhood":"Hell's Kitchen","city_fetched":"Union City,US","state":"NY","country":"United States","canonicalUrl":"https://foursquare.com/v/stage-48/50bacc5ae4b054161cb7f1f0","categoryId":"4bf58dd8d48988d11f941735","category":"Nightclub","checkinsCount":8661,"usersCount":7001,"tipCount":50,"visitsCount":9741,"url":"https://stage48.com","tier":2,"message":"Moderate","currency":"$","rating":7.2},{"name":"Blue Ruin","phone":"9179453497","address":"538 9th Ave","lat":40.75700585023392,"lng":-73.99364014684153,"neighborhood":"Garment District","city_fetched":"Union City,US","state":"NY","country":"United States","canonicalUrl":"https://foursquare.com/v/blue-ruin/49f92aa0f964a520686d1fe3","categoryId":"4bf58dd8d48988d118941735","category":"Dive Bar","checkinsCount":4022,"usersCount":1737,"tipCount":31,"visitsCount":4045,"tier":1,"message":"Cheap","currency":"$","rating":7.2},{"name":"Rose Club at The Plaza","phone":"2125465310","twitter":"fairmonthotels","address":"768 5th Ave Fl 3","lat":40.764036208578005,"lng":-73.97432228024489,"neighborhood":"Midtown East","city_fetched":"Union City,US","state":"NY","country":"United States","canonicalUrl":"https://foursquare.com/v/rose-club-at-the-plaza/4b0e173ef964a520df5423e3","categoryId":"4bf58dd8d48988d1d5941735","category":"Hotel Bar","checkinsCount":1570,"usersCount":1248,"tipCount":8,"visitsCount":1573,"url":"http://bit.ly/wWpDIs","tier":"","message":"","currency":"","rating":7.2},{"name":"St. Andrews","phone":"2128408413","twitter":"standrewsnyc","address":"140 W 46th St","lat":40.75825278051576,"lng":-73.98391258696583,"neighborhood":"Theater District","city_fetched":"Union City,US","state":"NY","country":"United States","canonicalUrl":"https://foursquare.com/standrewsnyc","categoryId":"4bf58dd8d48988d116941735","category":"Bar","checkinsCount":8638,"usersCount":5789,"tipCount":91,"visitsCount":8705,"url":"http://www.standrewsnyc.com","tier":3,"message":"Expensive","currency":"$","rating":7.2},{"name":"Dublin House","phone":"2128749528","address":"225 W 79th St","lat":40.783637297715025,"lng":-73.97937862964275,"neighborhood":"Upper West Side","city_fetched":"Union City,US","state":"NY","country":"United States","canonicalUrl":"https://foursquare.com/v/dublin-house/3fd66200f964a52059e91ee3","categoryId":"4bf58dd8d48988d118941735","category":"Dive Bar","checkinsCount":3448,"usersCount":1967,"tipCount":29,"visitsCount":3539,"url":"http://www.dublinhousenyc.com","tier":"","message":"","currency":"","rating":7.2},{"name":"Iron Bar & Lounge","phone":"2129617507","twitter":"ironbarnyc","address":"713 8th Ave","lat":40.75923196078819,"lng":-73.98846365422825,"neighborhood":"Hell's Kitchen","city_fetched":"Union City,US","state":"NY","country":"United States","canonicalUrl":"https://foursquare.com/v/iron-bar--lounge/523a352e11d2613a7205088d","categoryId":"4bf58dd8d48988d11e941735","category":"Cocktail Bar","checkinsCount":4235,"usersCount":3711,"tipCount":50,"visitsCount":4688,"url":"http://www.ironbarnyc.com","tier":2,"message":"Moderate","currency":"$","rating":7.1},{"name":"Swing 46","phone":"2122629554","address":"349 W 46th St","lat":40.760695,"lng":-73.9896153,"neighborhood":"Hell's Kitchen","city_fetched":"Union City,US","state":"NY","country":"United States","canonicalUrl":"https://foursquare.com/v/swing-46/42474900f964a52074201fe3","categoryId":"4bf58dd8d48988d11f941735","category":"Nightclub","checkinsCount":2553,"usersCount":1699,"tipCount":46,"visitsCount":2564,"url":"http://swing46.com","tier":3,"message":"Expensive","currency":"$","rating":7.1},{"name":"Boxers HK Sportsbar","phone":"2122555082","twitter":"boxersnyc","address":"742 9th Ave","lat":40.76349294361335,"lng":-73.98868203163147,"neighborhood":"Hell's Kitchen","city_fetched":"Union City,US","state":"NY","country":"United States","canonicalUrl":"https://foursquare.com/v/boxers-hk-sportsbar/50b9a34ce4b0c22ba965f7ff","categoryId":"4bf58dd8d48988d1d8941735","category":"Gay Bar","checkinsCount":15823,"usersCount":7607,"tipCount":84,"visitsCount":19417,"url":"http://boxersnyc.com/hk/","tier":2,"message":"Moderate","currency":"$","rating":7.1},{"name":"Jake's Dilemma","phone":"2125800556","twitter":"jakesdilemma","address":"430 Amsterdam Ave","lat":40.78434331732661,"lng":-73.9775822346941,"neighborhood":"Upper West Side","city_fetched":"Union City,US","state":"NY","country":"United States","canonicalUrl":"https://foursquare.com/v/jakes-dilemma/3fd66200f964a52042e81ee3","categoryId":"4bf58dd8d48988d118941735","category":"Dive Bar","checkinsCount":20481,"usersCount":11224,"tipCount":120,"visitsCount":21144,"url":"http://www.nycbestbar.com/jakes/","tier":2,"message":"Moderate","currency":"$","rating":7.1},{"name":"The Copacabana","phone":"2122212672","twitter":"copacabananyc","address":"268 W 47th St","lat":40.76037488949733,"lng":-73.98721255191126,"neighborhood":"Theater District","city_fetched":"Union City,US","state":"NY","country":"United States","canonicalUrl":"https://foursquare.com/v/the-copacabana/4c9a7efb971676b04a9755e2","categoryId":"4bf58dd8d48988d11f941735","category":"Nightclub","checkinsCount":7487,"usersCount":5522,"tipCount":32,"visitsCount":7541,"url":"http://www.copacabanany.com","tier":2,"message":"Moderate","currency":"$","rating":7.1},{"name":"American Retro Bar & Grill","phone":"2122452203","address":"714 11th Ave","lat":40.76623401736995,"lng":-73.99424272282394,"neighborhood":"Hell's Kitchen","city_fetched":"Union City,US","state":"NY","country":"United States","canonicalUrl":"https://foursquare.com/v/american-retro-bar--grill/4c7afff5278eb71348425e80","categoryId":"4bf58dd8d48988d116941735","category":"Bar","checkinsCount":7441,"usersCount":5289,"tipCount":57,"visitsCount":10111,"url":"http://americanretrony.com","tier":1,"message":"Cheap","currency":"$","rating":7.1},{"name":"The Perfect Pint","phone":"2123541099","twitter":"perfectpintnyc","address":"123 W 45th St","lat":40.757247764426445,"lng":-73.98379780455603,"neighborhood":"Theater District","city_fetched":"Union City,US","state":"NY","country":"United States","canonicalUrl":"https://foursquare.com/v/the-perfect-pint/45c84eb8f964a5206b421fe3","categoryId":"4bf58dd8d48988d11b941735","category":"Pub","checkinsCount":9445,"usersCount":6811,"tipCount":72,"visitsCount":9569,"url":"http://theperfectpintnyc.com","tier":2,"message":"Moderate","currency":"$","rating":7.1},{"name":"The Long Room","phone":"2129973933","twitter":"longroomwest44","address":"120 W 44th St","lat":40.75638422162625,"lng":-73.98432344198227,"neighborhood":"Theater District","city_fetched":"Union City,US","state":"NY","country":"United States","canonicalUrl":"https://foursquare.com/v/the-long-room/4b12f781f964a520ca9123e3","categoryId":"4bf58dd8d48988d11b941735","category":"Pub","checkinsCount":8653,"usersCount":5305,"tipCount":72,"visitsCount":8705,"url":"http://www.thelongroomnyc.com","tier":2,"message":"Moderate","currency":"$","rating":7.1},{"name":"The Waylon","phone":"2122650010","twitter":"thewaylonnyc","address":"736 10th Ave","lat":40.76479079849273,"lng":-73.99172910762971,"neighborhood":"Hell's Kitchen","city_fetched":"Union City,US","state":"NY","country":"United States","canonicalUrl":"https://foursquare.com/v/the-waylon/5473ba2d498ec6c1994d1723","categoryId":"4bf58dd8d48988d116941735","category":"Bar","checkinsCount":1290,"usersCount":581,"tipCount":11,"visitsCount":1443,"url":"http://www.thewaylon.com","tier":"","message":"","currency":"","rating":7.1},{"name":"Heartland Brewery","phone":"6462141000","twitter":"heartlandbrew","address":"625 8th Ave","lat":40.75641066456711,"lng":-73.9906042828557,"neighborhood":"Theater District","city_fetched":"Union City,US","state":"NY","country":"United States","canonicalUrl":"https://foursquare.com/v/heartland-brewery/4bc655c451b376b04b711b6f","categoryId":"50327c8591d4c4b30a586d5d","category":"Brewery","checkinsCount":10430,"usersCount":7815,"tipCount":114,"visitsCount":10523,"url":"http://heartlandbrewery.com","tier":2,"message":"Moderate","currency":"$","rating":7.1},{"name":"Sig3p West Side","address":"698 10th Ave","lat":40.76385646259103,"lng":-73.99226856206892,"neighborhood":"Hell's Kitchen","city_fetched":"Union City,US","state":"NY","country":"United States","canonicalUrl":"https://foursquare.com/v/sig3p-west-side/52da0213498e5fbb9c9244d9","categoryId":"4bf58dd8d48988d121941735","category":"Lounge","checkinsCount":985,"usersCount":83,"tipCount":2,"visitsCount":1065,"tier":"","message":"","currency":"","rating":7.1},{"name":"XL Lounge","address":"512 W 42nd St","lat":40.75988100102223,"lng":-73.99646362937581,"neighborhood":"Hell's Kitchen","city_fetched":"Union City,US","state":"NY","country":"United States","canonicalUrl":"https://foursquare.com/v/xl-lounge/53080470498eb04eb0f7e02d","categoryId":"4bf58dd8d48988d121941735","category":"Lounge","checkinsCount":772,"usersCount":542,"tipCount":3,"visitsCount":802,"url":"http://xlnightclub.com","tier":"","message":"","currency":"","rating":7.1},{"name":"Adella Wine Bar","phone":"2122730737","twitter":"adellanyc","address":"410 W 43rd St","lat":40.75956068038824,"lng":-73.9929572251056,"neighborhood":"Hell's Kitchen","city_fetched":"Union City,US","state":"NY","country":"United States","canonicalUrl":"https://foursquare.com/v/adella-wine-bar/538e4603498ec684c641da5d","categoryId":"4bf58dd8d48988d123941735","category":"Wine Bar","checkinsCount":612,"usersCount":609,"tipCount":12,"visitsCount":853,"url":"http://www.adellanyc.com","tier":3,"message":"Expensive","currency":"$","rating":7.1},{"name":"Molly Wee Pub & Restaurant","phone":"2129672627","address":"402 8th Ave","lat":40.74979655678533,"lng":-73.99521831801827,"neighborhood":"Chelsea","city_fetched":"Union City,US","state":"NY","country":"United States","canonicalUrl":"https://foursquare.com/v/molly-wee-pub--restaurant/3fd66200f964a520b9e31ee3","categoryId":"4bf58dd8d48988d11b941735","category":"Pub","checkinsCount":6070,"usersCount":4230,"tipCount":49,"visitsCount":6135,"url":"http://www.themollywee.com","tier":2,"message":"Moderate","currency":"$","rating":7.1},{"name":"Casa Agave","phone":"2122652229","twitter":"casaagavenyc","address":"693 9th Ave","lat":40.762138,"lng":-73.990314,"neighborhood":"Hell's Kitchen","city_fetched":"Union City,US","state":"NY","country":"United States","canonicalUrl":"https://foursquare.com/v/casa-agave/55149e55498e870a8f3ea3b9","categoryId":"4bf58dd8d48988d116941735","category":"Bar","checkinsCount":501,"usersCount":420,"tipCount":6,"visitsCount":509,"url":"http://www.casaagavenyc.com","tier":"","message":"","currency":"","rating":7.1},{"name":"McHale's Bar & Grill","phone":"2129575138","twitter":"mchalespub51","address":"251 W 51st St","lat":40.76292780609842,"lng":-73.9852096234299,"neighborhood":"Theater District","city_fetched":"Union City,US","state":"NY","country":"United States","canonicalUrl":"https://foursquare.com/v/mchales-bar--grill/4fc00946e4b099ce169cc9c4","categoryId":"4bf58dd8d48988d116941735","category":"Bar","checkinsCount":6397,"usersCount":3438,"tipCount":42,"visitsCount":6463,"url":"http://mchalespub.com","tier":2,"message":"Moderate","currency":"$","rating":7},{"name":"Lincoln Park Grill","phone":"2129742826","twitter":"lpgnyc10019","address":"867 9th Ave","lat":40.76742650335582,"lng":-73.98600735389587,"neighborhood":"Hell's Kitchen","city_fetched":"Union City,US","state":"NY","country":"United States","canonicalUrl":"https://foursquare.com/v/lincoln-park-grill/4a417310f964a52052a51fe3","categoryId":"4bf58dd8d48988d11d941735","category":"Sports Bar","checkinsCount":13167,"usersCount":6072,"tipCount":93,"visitsCount":14276,"url":"http://lpgnyc.com","tier":2,"message":"Moderate","currency":"$","rating":7},{"name":"O'Briens Irish Pub","phone":"2123911516","twitter":"obrienspubnyc","address":"134 W 46th St","lat":40.75829205811737,"lng":-73.98387241313021,"neighborhood":"Theater District","city_fetched":"Union City,US","state":"NY","country":"United States","canonicalUrl":"https://foursquare.com/v/obriens-irish-pub/49cd8f90f964a520ff591fe3","categoryId":"4bf58dd8d48988d11b941735","category":"Pub","checkinsCount":5989,"usersCount":4409,"tipCount":57,"visitsCount":6004,"url":"http://obriensnyc.com","tier":2,"message":"Moderate","currency":"$","rating":7},{"name":"The Roof Top","address":"760 8th Ave","lat":40.760332,"lng":-73.987272,"neighborhood":"Theater District","city_fetched":"Union City,US","state":"NY","country":"United States","canonicalUrl":"https://foursquare.com/v/the-roof-top/4fcaf3a6e4b092ee22eb3465","categoryId":"4bf58dd8d48988d11f941735","category":"Nightclub","checkinsCount":98,"usersCount":83,"tipCount":3,"visitsCount":98,"url":"http://230-fifth.com","tier":"","message":"","currency":"","rating":7},{"name":"Pachita","phone":"2122097500","address":"618 W 46th St","lat":40.763580184935165,"lng":-73.9974621681212,"neighborhood":"Hell's Kitchen","city_fetched":"Union City,US","state":"NY","country":"United States","canonicalUrl":"https://foursquare.com/v/pachita/4d7346cfff6ba35ddcc57a8a","categoryId":"4bf58dd8d48988d11f941735","category":"Nightclub","checkinsCount":262,"usersCount":204,"tipCount":2,"visitsCount":267,"url":"http://pachanyc.com","tier":"","message":"","currency":"","rating":7},{"name":"D.I.P (DIP) Aqua Bar + Lounge at the Roommate Grace Hotel","address":"125 W 45th St","lat":40.75733873427218,"lng":-73.98385519576951,"neighborhood":"Theater District","city_fetched":"Union City,US","state":"NY","country":"United States","canonicalUrl":"https://foursquare.com/v/dip-dip-aqua-bar--lounge-at-the-roommate-grace-hotel/50141a65e4b035d9f4887aae","categoryId":"4bf58dd8d48988d1d5941735","category":"Hotel Bar","checkinsCount":507,"usersCount":187,"tipCount":4,"visitsCount":507,"tier":"","message":"","currency":"","rating":7},{"name":"9th Ave Saloon","phone":"2123071503","address":"656 9th Ave","lat":40.7608782375,"lng":-73.990818,"neighborhood":"Hell's Kitchen","city_fetched":"Union City,US","state":"NY","country":"United States","canonicalUrl":"https://foursquare.com/v/9th-ave-saloon/4ab6ba92f964a520c27820e3","categoryId":"4bf58dd8d48988d1d8941735","category":"Gay Bar","checkinsCount":9862,"usersCount":3024,"tipCount":43,"visitsCount":9979,"url":"http://9thavesaloon.com","tier":2,"message":"Moderate","currency":"$","rating":6.9},{"name":"Doubles Club at the Sherry-Netherland Hotel","address":"781 5th Ave","lat":40.76446164266335,"lng":-73.97301369144537,"neighborhood":"Central Park","city_fetched":"Union City,US","state":"NY","country":"United States","canonicalUrl":"https://foursquare.com/v/doubles-club-at-the-sherrynetherland-hotel/4b1da2d0f964a5205d1324e3","categoryId":"4bf58dd8d48988d1d4941735","category":"Speakeasy","checkinsCount":488,"usersCount":293,"tipCount":0,"visitsCount":488,"tier":"","message":"","currency":"","rating":6.9},{"name":"Cheetah's Gentlemen's Club & Restaurant","phone":"2128199300","twitter":"cheetahsnyc1","address":"252 W 43rd St","lat":40.75747237926475,"lng":-73.98887686054155,"neighborhood":"Theater District","city_fetched":"Union City,US","state":"NY","country":"United States","canonicalUrl":"https://foursquare.com/v/cheetahs-gentlemens-club--restaurant/4e5f1cc9fa768fe5f2d11032","categoryId":"4bf58dd8d48988d1d6941735","category":"Strip Club","checkinsCount":497,"usersCount":384,"tipCount":4,"visitsCount":497,"url":"http://mycheetahsnyc.com","tier":"","message":"","currency":"","rating":6.9},{"name":"McAleer's Pub & Restaurant","phone":"2123627867","address":"425 Amsterdam Ave","lat":40.784031815480944,"lng":-73.97774293524516,"neighborhood":"Upper West Side","city_fetched":"Union City,US","state":"NY","country":"United States","canonicalUrl":"https://foursquare.com/v/mcaleers-pub--restaurant/3fd66200f964a52051e81ee3","categoryId":"4bf58dd8d48988d116941735","category":"Bar","checkinsCount":6426,"usersCount":3699,"tipCount":51,"visitsCount":6488,"url":"http://mcaleerspub.com","tier":2,"message":"Moderate","currency":"$","rating":6.9},{"name":"McCoy's","phone":"2129578055","address":"768 9th Ave","lat":40.76430352123849,"lng":-73.98808658123016,"neighborhood":"Hell's Kitchen","city_fetched":"Union City,US","state":"NY","country":"United States","canonicalUrl":"https://foursquare.com/v/mccoys/4ad27f19f964a520f1e120e3","categoryId":"4bf58dd8d48988d116941735","category":"Bar","checkinsCount":4485,"usersCount":2339,"tipCount":19,"visitsCount":4495,"url":"http://mccoysbarnyc.com","tier":1,"message":"Cheap","currency":"$","rating":6.9},{"name":"Alquimia","phone":"6463719681","address":"506 9th Ave","lat":40.75603033207492,"lng":-73.99416237946903,"neighborhood":"Garment District","city_fetched":"Union City,US","state":"NY","country":"United States","canonicalUrl":"https://foursquare.com/v/alquimia/5251c14a498e85efd6cf22ac","categoryId":"4bf58dd8d48988d121941735","category":"Lounge","checkinsCount":273,"usersCount":200,"tipCount":8,"visitsCount":276,"url":"http://alquimianyc.com","tier":"","message":"","currency":"","rating":6.9},{"name":"District M","phone":"2128693600","twitter":"rownychotel","address":"700 8th Ave","lat":40.758753,"lng":-73.988672,"neighborhood":"Theater District","city_fetched":"Union City,US","state":"NY","country":"United States","canonicalUrl":"https://foursquare.com/v/district-m/52044641498e4e0e5a12e993","categoryId":"4bf58dd8d48988d1d5941735","category":"Hotel Bar","checkinsCount":393,"usersCount":315,"tipCount":9,"visitsCount":393,"url":"http://districtm.com","tier":2,"message":"Moderate","currency":"$","rating":6.9},{"name":"Hi-Bar (Above 6)","phone":"2123970404","twitter":"6_columbus","address":"6 Columbus Cir","lat":40.767654025749266,"lng":-73.983080412941,"neighborhood":"Hell's Kitchen","city_fetched":"Union City,US","state":"NY","country":"United States","canonicalUrl":"https://foursquare.com/v/hibar-above-6/4dcc6d61ae60b8aba871e7a9","categoryId":"4bf58dd8d48988d121941735","category":"Lounge","checkinsCount":534,"usersCount":469,"tipCount":14,"visitsCount":536,"url":"http://www.sixtyhotels.com/6-columbus-dining-and-drinks/","tier":"","message":"","currency":"","rating":6.9},{"name":"Barley & Grain","phone":"6463603231","twitter":"barleyandgrain","address":"421 Amsterdam Ave","lat":40.78390082926814,"lng":-73.977915114258,"neighborhood":"Upper West Side","city_fetched":"Union City,US","state":"NY","country":"United States","canonicalUrl":"https://foursquare.com/v/barley--grain/52001d38498ebd3217fbe9de","categoryId":"4bf58dd8d48988d122941735","category":"Whisky Bar","checkinsCount":1947,"usersCount":1319,"tipCount":28,"visitsCount":1994,"url":"http://barley-grain-nyc.com","tier":2,"message":"Moderate","currency":"$","rating":6.9},{"name":"Homewood Suites","address":"317 37th st","lat":40.754588729894955,"lng":-73.99298591934514,"neighborhood":"Garment District","city_fetched":"Union City,US","state":"NY","country":"United States","canonicalUrl":"https://foursquare.com/v/homewood-suites/53bdbe91498e2e3c8f370128","categoryId":"4bf58dd8d48988d1d5941735","category":"Hotel Bar","checkinsCount":244,"usersCount":150,"tipCount":5,"visitsCount":248,"url":"http://homewoodsuitesmanhattan.com","tier":"","message":"","currency":"","rating":6.9},{"name":"Maple","phone":"2122217200","twitter":"aspensocialclub","address":"157 W 47th St","lat":40.758950745813245,"lng":-73.98383797840725,"neighborhood":"Theater District","city_fetched":"Union City,US","state":"NY","country":"United States","canonicalUrl":"https://foursquare.com/v/maple/49bed279f964a520e4541fe3","categoryId":"4bf58dd8d48988d121941735","category":"Lounge","checkinsCount":8690,"usersCount":6503,"tipCount":78,"visitsCount":8724,"url":"http://www.aspensocialclub.com","tier":2,"message":"Moderate","currency":"$","rating":6.9},{"name":"Broadway 49 Bar & Lounge at the Crowne Plaza Times Square","phone":"2129774000","twitter":"crowneplazanyc","address":"1605 Broadway","lat":40.76049337320681,"lng":-73.98472180100865,"neighborhood":"Theater District","city_fetched":"Union City,US","state":"NY","country":"United States","canonicalUrl":"https://foursquare.com/v/broadway-49-bar--lounge-at-the-crowne-plaza-times-square/4bbbe90c51b89c745fea862a","categoryId":"4bf58dd8d48988d1d5941735","category":"Hotel Bar","checkinsCount":544,"usersCount":350,"tipCount":10,"visitsCount":545,"url":"http://www.cpmanhattantimessquare.com/broadway-49.html","tier":"","message":"","currency":"","rating":6.8},{"name":"O'Donoghues Pub & Restaurant","phone":"2129972262","twitter":"odonoghuests","address":"156 W 44th St","lat":40.757023526777736,"lng":-73.9851235372103,"neighborhood":"Theater District","city_fetched":"Union City,US","state":"NY","country":"United States","canonicalUrl":"https://foursquare.com/v/odonoghues-pub--restaurant/4e8cd404775bde318a4d6454","categoryId":"4bf58dd8d48988d116941735","category":"Bar","checkinsCount":4176,"usersCount":3527,"tipCount":47,"visitsCount":4192,"url":"http://www.odonoghuestimessquare.com","tier":2,"message":"Moderate","currency":"$","rating":6.8},{"name":"Delta Sky360","twitter":"delta","address":"Lounge - Beacon Theater","lat":40.780582052129105,"lng":-73.98134350776672,"neighborhood":"Upper West Side","city_fetched":"Union City,US","state":"NY","country":"United States","canonicalUrl":"https://foursquare.com/v/delta-sky360/4f7de8cf7bebffc0d0283d72","categoryId":"4bf58dd8d48988d121941735","category":"Lounge","checkinsCount":42,"usersCount":22,"tipCount":14,"visitsCount":42,"url":"http://www.delta.com","tier":"","message":"","currency":"","rating":6.8},{"name":"Berlin Fridays","phone":"2123070062","twitter":"boiparty","address":"311 W 57th St","lat":40.7670404409523,"lng":-73.9836141525577,"neighborhood":"Hell's Kitchen","city_fetched":"Union City,US","state":"NY","country":"United States","canonicalUrl":"https://foursquare.com/v/berlin-fridays/52a791b611d2a0c13016f1f3","categoryId":"4bf58dd8d48988d11f941735","category":"Nightclub","checkinsCount":251,"usersCount":158,"tipCount":2,"visitsCount":265,"url":"http://www.boiparty.com/#!berlin-fridays-nyc/cuar","tier":2,"message":"Moderate","currency":"$","rating":6.8},{"name":"Hurley's Saloon","phone":"2127658981","twitter":"hurleysnyc","address":"232 W 48th St","lat":40.76064468176889,"lng":-73.9860647444491,"neighborhood":"Theater District","city_fetched":"Union City,US","state":"NY","country":"United States","canonicalUrl":"https://foursquare.com/hurleysnyc","categoryId":"4bf58dd8d48988d11b941735","category":"Pub","checkinsCount":9121,"usersCount":5346,"tipCount":52,"visitsCount":9192,"url":"http://www.hurleysnyc.com","tier":2,"message":"Moderate","currency":"$","rating":6.8},{"name":"The Mean Fiddler","phone":"2123542950","twitter":"themeanfiddler","address":"266 W 47th St","lat":40.76036455395594,"lng":-73.98713794463474,"neighborhood":"Theater District","city_fetched":"Union City,US","state":"NY","country":"United States","canonicalUrl":"https://foursquare.com/v/the-mean-fiddler/49ccb999f964a5208d591fe3","categoryId":"4bf58dd8d48988d116941735","category":"Bar","checkinsCount":10712,"usersCount":6983,"tipCount":63,"visitsCount":10895,"url":"http://themeanfiddlernyc.com","tier":2,"message":"Moderate","currency":"$","rating":6.8},{"name":"B54","phone":"6466401234","twitter":"hyatttimesquare","address":"135 W 45th St","lat":40.757437979029156,"lng":-73.98412493424314,"neighborhood":"Theater District","city_fetched":"Union City,US","state":"NY","country":"United States","canonicalUrl":"https://foursquare.com/v/b54/52fae202498e74ae5ad501f4","categoryId":"4bf58dd8d48988d1d5941735","category":"Hotel Bar","checkinsCount":128,"usersCount":114,"tipCount":2,"visitsCount":128,"tier":4,"message":"Very Expensive","currency":"$","rating":6.7},{"name":"LOCL","phone":"2123621100","address":"2178 Broadway","lat":40.782274,"lng":-73.980329,"neighborhood":"Upper West Side","city_fetched":"Union City,US","state":"NY","country":"United States","canonicalUrl":"https://foursquare.com/v/locl/5263368e11d269bc90b357ea","categoryId":"4bf58dd8d48988d1d5941735","category":"Hotel Bar","checkinsCount":324,"usersCount":191,"tipCount":5,"visitsCount":325,"tier":"","message":"","currency":"","rating":6.7},{"name":"Hudson Lodge","phone":"2125546502","twitter":"morganshotels","address":"356 W 58th St","lat":40.76789876223448,"lng":-73.98518666710845,"neighborhood":"Hell's Kitchen","city_fetched":"Union City,US","state":"NY","country":"United States","canonicalUrl":"https://foursquare.com/v/hudson-lodge/3fd66200f964a52027e31ee3","categoryId":"4bf58dd8d48988d1d5941735","category":"Hotel Bar","checkinsCount":4778,"usersCount":3727,"tipCount":47,"visitsCount":4784,"url":"http://backofhouse.morganshotelgroup.com","tier":3,"message":"Expensive","currency":"$","rating":6.7},{"name":"Mercury Bar West","phone":"2122627755","twitter":"mercurybarnyc","address":"659 9th Ave","lat":40.760753,"lng":-73.990799,"neighborhood":"Hell's Kitchen","city_fetched":"Union City,US","state":"NY","country":"United States","canonicalUrl":"https://foursquare.com/v/mercury-bar-west/3fd66200f964a520aae81ee3","categoryId":"4bf58dd8d48988d11d941735","category":"Sports Bar","checkinsCount":14938,"usersCount":8952,"tipCount":95,"visitsCount":15138,"url":"http://www.mercurybarnyc.com","tier":1,"message":"Cheap","currency":"$","rating":6.7},{"name":"Dalton's Bar & Grill","phone":"2122455511","twitter":"daltonsbarnyc","address":"611 9th Ave","lat":40.759171,"lng":-73.991959,"neighborhood":"Hell's Kitchen","city_fetched":"Union City,US","state":"NY","country":"United States","canonicalUrl":"https://foursquare.com/v/daltons-bar--grill/423e0e80f964a52049201fe3","categoryId":"4bf58dd8d48988d11d941735","category":"Sports Bar","checkinsCount":9381,"usersCount":5099,"tipCount":40,"visitsCount":9678,"url":"http://www.daltonsbarnyc.com","tier":2,"message":"Moderate","currency":"$","rating":6.7},{"name":"Heartland Brewery","phone":"6463660235","twitter":"heartlandbrew","address":"127 W 43rd St","lat":40.75630295147539,"lng":-73.98517370223999,"neighborhood":"Theater District","city_fetched":"Union City,US","state":"NY","country":"United States","canonicalUrl":"https://foursquare.com/v/heartland-brewery/4ad103f8f964a520f4db20e3","categoryId":"50327c8591d4c4b30a586d5d","category":"Brewery","checkinsCount":12500,"usersCount":10051,"tipCount":107,"visitsCount":12547,"url":"http://heartlandbrewery.com","tier":2,"message":"Moderate","currency":"$","rating":6.7},{"name":"Parkview Lounge","phone":"2128239770","twitter":"parkviewlounge","address":"10 Columbus Circle","lat":40.768568577418876,"lng":-73.98210475604584,"neighborhood":"Lincoln Square","city_fetched":"Union City,US","state":"NY","country":"United States","canonicalUrl":"https://foursquare.com/v/parkview-lounge/5619c98e498e240b6d368663","categoryId":"4bf58dd8d48988d121941735","category":"Lounge","checkinsCount":389,"usersCount":360,"tipCount":2,"visitsCount":389,"url":"http://www.parkviewloungenyc.com","tier":"","message":"","currency":"","rating":6.6},{"name":"Mr. Biggs","phone":"2122462030","address":"596 10th Ave","lat":40.76030792747252,"lng":-73.9949887666545,"neighborhood":"Hell's Kitchen","city_fetched":"Union City,US","state":"NY","country":"United States","canonicalUrl":"https://foursquare.com/v/mr-biggs/40b7d280f964a52095001fe3","categoryId":"4bf58dd8d48988d116941735","category":"Bar","checkinsCount":6406,"usersCount":3981,"tipCount":65,"visitsCount":6753,"tier":2,"message":"Moderate","currency":"$","rating":6.6},{"name":"Concierge Lounge @ Marriott Marquis","address":"30th Floor, Marriott Marquis, Broadway","lat":40.758364726247315,"lng":-73.98511779812762,"neighborhood":"Theater District","city_fetched":"Union City,US","state":"NY","country":"United States","canonicalUrl":"https://foursquare.com/v/concierge-lounge--marriott-marquis/501fa545e4b0af03d0572b95","categoryId":"4bf58dd8d48988d1d5941735","category":"Hotel Bar","checkinsCount":550,"usersCount":205,"tipCount":3,"visitsCount":550,"tier":"","message":"","currency":"","rating":6.6},{"name":"The Green Room","phone":"6468711730","address":"340 W 50th St","lat":40.76280679907186,"lng":-73.98745359060648,"neighborhood":"Hell's Kitchen","city_fetched":"Union City,US","state":"NY","country":"United States","canonicalUrl":"https://foursquare.com/v/the-green-room/4a3969ddf964a5206a9f1fe3","categoryId":"4bf58dd8d48988d121941735","category":"Lounge","checkinsCount":2484,"usersCount":1008,"tipCount":13,"visitsCount":2489,"tier":"","message":"","currency":"","rating":6.6},{"name":"Farside","phone":"2019637677","address":"531 Washington St","lat":40.74317606751424,"lng":-74.02906838996992,"city_fetched":"Union City,US","state":"NJ","country":"United States","canonicalUrl":"https://foursquare.com/v/farside/49e8d1a7f964a52097651fe3","categoryId":"4bf58dd8d48988d116941735","category":"Bar","checkinsCount":4785,"usersCount":1786,"tipCount":30,"visitsCount":4876,"tier":"","message":"","currency":"","rating":6.6},{"name":"Hudson Station Bar & Grill","phone":"2122444406","twitter":"hudsonstation","address":"440 9th Ave","lat":40.75389426358062,"lng":-73.99578645646149,"neighborhood":"Garment District","city_fetched":"Union City,US","state":"NY","country":"United States","canonicalUrl":"https://foursquare.com/v/hudson-station-bar--grill/4ce46872d678a1cd6fc5a90c","categoryId":"4bf58dd8d48988d11d941735","category":"Sports Bar","checkinsCount":8252,"usersCount":5907,"tipCount":53,"visitsCount":9186,"url":"http://www.hudsonstation.com","tier":2,"message":"Moderate","currency":"$","rating":6.6},{"name":"The Tunnel","address":"229 12th Ave.","lat":40.75194207856019,"lng":-74.00566261410133,"neighborhood":"Chelsea","city_fetched":"Union City,US","state":"NY","country":"United States","canonicalUrl":"https://foursquare.com/v/the-tunnel/4d628971ef378cfa865c98a6","categoryId":"4bf58dd8d48988d11f941735","category":"Nightclub","checkinsCount":948,"usersCount":737,"tipCount":10,"visitsCount":959,"url":"http://wfny.com/?mobile=0","tier":"","message":"","currency":"","rating":6.6},{"name":"Skylight Lounge - Holiday Inn","phone":"2125818100","address":"440 W 57th St","lat":40.768186760991306,"lng":-73.98722402995122,"neighborhood":"Hell's Kitchen","city_fetched":"Union City,US","state":"NY","country":"United States","canonicalUrl":"https://foursquare.com/v/skylight-lounge--holiday-inn/4ae8b5faf964a5209fb121e3","categoryId":"4bf58dd8d48988d1d5941735","category":"Hotel Bar","checkinsCount":386,"usersCount":246,"tipCount":9,"visitsCount":387,"tier":"","message":"","currency":"","rating":6.6},{"name":"The Diageo Liquid Cellar","address":"537 W 27th St","lat":40.75099282847399,"lng":-74.00395828160723,"neighborhood":"Chelsea","city_fetched":"Union City,US","state":"NY","country":"United States","canonicalUrl":"https://foursquare.com/v/the-diageo-liquid-cellar/52e97fe1498e39bbfa4b9be9","categoryId":"4bf58dd8d48988d11f941735","category":"Nightclub","checkinsCount":59,"usersCount":59,"tipCount":0,"visitsCount":60,"tier":"","message":"","currency":"","rating":6.6},{"name":"Flash Dancers","phone":"2123155107","twitter":"flashdancersnyc","address":"1674 Broadway","lat":40.76283283322037,"lng":-73.98307467379728,"neighborhood":"Theater District","city_fetched":"Union City,US","state":"NY","country":"United States","canonicalUrl":"https://foursquare.com/flashdancersnyc","categoryId":"4bf58dd8d48988d1d6941735","category":"Strip Club","checkinsCount":1534,"usersCount":1173,"tipCount":21,"visitsCount":1540,"url":"http://flashdancersnyc.com","tier":"","message":"","currency":"","rating":6.6},{"name":"Scores New York","phone":"2128684900","twitter":"scoresnewyork","address":"536 W. 28th St.","lat":40.751051652374024,"lng":-74.00374595629384,"neighborhood":"Chelsea","city_fetched":"Union City,US","state":"NY","country":"United States","canonicalUrl":"https://foursquare.com/v/scores-new-york/43f72e50f964a520b72f1fe3","categoryId":"4bf58dd8d48988d1d6941735","category":"Strip Club","checkinsCount":1886,"usersCount":1014,"tipCount":7,"visitsCount":1892,"url":"http://www.scoresny.com/en","tier":"","message":"","currency":"","rating":6.6},{"name":"Ivy","phone":"2124599444","twitter":"ivybarnyc","address":"944 8th Ave","lat":40.76594572681023,"lng":-73.98339032644736,"neighborhood":"Theater District","city_fetched":"Union City,US","state":"NY","country":"United States","canonicalUrl":"https://foursquare.com/v/ivy/509db553e4b094dc6320dc8c","categoryId":"4bf58dd8d48988d116941735","category":"Bar","checkinsCount":4446,"usersCount":3125,"tipCount":40,"visitsCount":4494,"url":"http://www.ivybarnyc.com","tier":2,"message":"Moderate","currency":"$","rating":6.6},{"name":"Lace Gentlemens Club","phone":"2127646969","address":"725 7th Ave","lat":40.760232487276866,"lng":-73.98389536960873,"neighborhood":"Theater District","city_fetched":"Union City,US","state":"NY","country":"United States","canonicalUrl":"https://foursquare.com/v/lace-gentlemens-club/4b96ec91f964a52012ee34e3","categoryId":"4bf58dd8d48988d1d6941735","category":"Strip Club","checkinsCount":1002,"usersCount":816,"tipCount":7,"visitsCount":1003,"url":"http://lacenyc.com","tier":"","message":"","currency":"","rating":6.5},{"name":"Finnegan's Pub","phone":"2012171512","twitter":"finnegans_pub","address":"734 Willow Ave","lat":40.74629783704357,"lng":-74.03220891952515,"city_fetched":"Union City,US","state":"NJ","country":"United States","canonicalUrl":"https://foursquare.com/finnegans_pub","categoryId":"4bf58dd8d48988d11b941735","category":"Pub","checkinsCount":1645,"usersCount":1021,"tipCount":24,"visitsCount":2505,"url":"http://www.finneganshoboken.com","tier":2,"message":"Moderate","currency":"$","rating":6.5},{"name":"Beacon Bar","phone":"2127871100","twitter":"beaconbarynyc","address":"2130 Broadway","lat":40.780604,"lng":-73.981349,"neighborhood":"Upper West Side","city_fetched":"Union City,US","state":"NY","country":"United States","canonicalUrl":"https://foursquare.com/v/beacon-bar/516f3da6e4b07fa46b62bfaf","categoryId":"4bf58dd8d48988d116941735","category":"Bar","checkinsCount":747,"usersCount":569,"tipCount":9,"visitsCount":761,"url":"http://beaconhotel.com","tier":2,"message":"Moderate","currency":"$","rating":6.5},{"name":"Smith's Bar & Restaurant","phone":"2122472161","address":"701 8th Ave","lat":40.75861358642578,"lng":-73.98886108398438,"neighborhood":"Hell's Kitchen","city_fetched":"Union City,US","state":"NY","country":"United States","canonicalUrl":"https://foursquare.com/v/smiths-bar--restaurant/54fa5f1f498eb438256cc977","categoryId":"4bf58dd8d48988d116941735","category":"Bar","checkinsCount":1568,"usersCount":1256,"tipCount":12,"visitsCount":1696,"url":"http://smithsbar.com","tier":"","message":"","currency":"","rating":6.5},{"name":"StarDust","phone":"2123801761","twitter":"cakeventsnyc","address":"512 W 42nd St","lat":40.762104012919444,"lng":-73.98372893507724,"neighborhood":"Theater District","city_fetched":"Union City,US","state":"NY","country":"United States","canonicalUrl":"https://foursquare.com/v/stardust/512ff93be4b0ef4effd7560b","categoryId":"4bf58dd8d48988d11f941735","category":"Nightclub","checkinsCount":82,"usersCount":72,"tipCount":3,"visitsCount":82,"tier":"","message":"","currency":"","rating":6.5},{"name":"Mickey Spillane's","phone":"2126001672","address":"350 W 49th St","lat":40.76263766176662,"lng":-73.98921310901642,"neighborhood":"Hell's Kitchen","city_fetched":"Union City,US","state":"NY","country":"United States","canonicalUrl":"https://foursquare.com/v/mickey-spillanes/4fb7d7ade4b08c1790e3606b","categoryId":"4bf58dd8d48988d116941735","category":"Bar","checkinsCount":5650,"usersCount":3658,"tipCount":50,"visitsCount":6179,"url":"http://www.mickeyspillaneshellskitchen.com","tier":2,"message":"Moderate","currency":"$","rating":6.5},{"name":"Twins Pub","phone":"2125647288","address":"421 9th Ave Frnt 1","lat":40.7531595793875,"lng":-73.99654397176617,"neighborhood":"Chelsea","city_fetched":"Union City,US","state":"NY","country":"United States","canonicalUrl":"https://foursquare.com/v/twins-pub/4ad2b22af964a52081e220e3","categoryId":"4bf58dd8d48988d11b941735","category":"Pub","checkinsCount":3840,"usersCount":1950,"tipCount":35,"visitsCount":3872,"tier":2,"message":"Moderate","currency":"$","rating":6.4},{"name":"Rosie O'Grady's","phone":"2128690600","address":"149 W 46th St","lat":40.75814811042316,"lng":-73.98415362980316,"neighborhood":"Theater District","city_fetched":"Union City,US","state":"NY","country":"United States","canonicalUrl":"https://foursquare.com/v/rosie-ogradys/4c0580da91d776b0cb82f7f9","categoryId":"4bf58dd8d48988d11b941735","category":"Pub","checkinsCount":1877,"usersCount":1081,"tipCount":11,"visitsCount":1877,"url":"http://rosieogradys.com","tier":"","message":"","currency":"","rating":6.4},{"name":"Whiskey Park","phone":"2123079222","twitter":"whiskeyparknyc","address":"100 Central Park S","lat":40.76550561384916,"lng":-73.9763425402157,"neighborhood":"Theater District","city_fetched":"Union City,US","state":"NY","country":"United States","canonicalUrl":"https://foursquare.com/v/whiskey-park/3fd66200f964a520b0e71ee3","categoryId":"4bf58dd8d48988d116941735","category":"Bar","checkinsCount":5503,"usersCount":4223,"tipCount":30,"visitsCount":5663,"url":"http://www.gerberbars.com/#/new-york/whiskey-park/","tier":2,"message":"Moderate","currency":"$","rating":6.4},{"name":"Paramount Bar and Grill","phone":"2127645500","twitter":"nycparamount","address":"235 W 46th St","lat":40.759357,"lng":-73.987102,"neighborhood":"Theater District","city_fetched":"Union City,US","state":"NY","country":"United States","canonicalUrl":"https://foursquare.com/v/paramount-bar-and-grill/40fc6080f964a520180b1fe3","categoryId":"4bf58dd8d48988d1d5941735","category":"Hotel Bar","checkinsCount":1206,"usersCount":935,"tipCount":14,"visitsCount":1209,"url":"http://www.nycparamount.com/dining","tier":"","message":"","currency":"","rating":6.4},{"name":"West End Bar & Grill","phone":"2127078986","twitter":"westendbargrill","address":"813 8th Ave","lat":40.76176343037994,"lng":-73.98666160518577,"neighborhood":"Hell's Kitchen","city_fetched":"Union City,US","state":"NY","country":"United States","canonicalUrl":"https://foursquare.com/v/west-end-bar--grill/4d97e39c0caaa1435aad9fb3","categoryId":"4bf58dd8d48988d116941735","category":"Bar","checkinsCount":5688,"usersCount":3996,"tipCount":59,"visitsCount":5764,"url":"http://www.westendnyc.com","tier":2,"message":"Moderate","currency":"$","rating":6.4},{"name":"Bourbon Street","phone":"2127211332","address":"407 Amsterdam Ave","lat":40.783368543265446,"lng":-73.97819995880127,"neighborhood":"Upper West Side","city_fetched":"Union City,US","state":"NY","country":"United States","canonicalUrl":"https://foursquare.com/v/bourbon-street/407dd080f964a5207af21ee3","categoryId":"4bf58dd8d48988d118941735","category":"Dive Bar","checkinsCount":8482,"usersCount":4474,"tipCount":45,"visitsCount":8684,"url":"http://www.bourbonstreetnyc.com","tier":1,"message":"Cheap","currency":"$","rating":6.4},{"name":"Perdition","phone":"2125825660","twitter":"perditionnyc","address":"692 10th Ave","lat":40.763595,"lng":-73.992218,"neighborhood":"Hell's Kitchen","city_fetched":"Union City,US","state":"NY","country":"United States","canonicalUrl":"https://foursquare.com/v/perdition/42756d80f964a5207c211fe3","categoryId":"4bf58dd8d48988d11e941735","category":"Cocktail Bar","checkinsCount":4643,"usersCount":2827,"tipCount":20,"visitsCount":4788,"url":"http://www.perditionnyc.com","tier":1,"message":"Cheap","currency":"$","rating":6.4},{"name":"Willie McBride's","phone":"2016101522","twitter":"williemcbrides","address":"616 Grand St","lat":40.745213,"lng":-74.034547,"city_fetched":"Union City,US","state":"NJ","country":"United States","canonicalUrl":"https://foursquare.com/v/willie-mcbrides/49cf90f2f964a520ae5a1fe3","categoryId":"4bf58dd8d48988d116941735","category":"Bar","checkinsCount":7692,"usersCount":3419,"tipCount":27,"visitsCount":8739,"url":"http://www.williemcbrides.com","tier":2,"message":"Moderate","currency":"$","rating":6.4},{"name":"Molloy's Irish Pub","phone":"2122473400","twitter":"molloysirishpub","address":"737 9th Ave","lat":40.76334343252292,"lng":-73.98901459578161,"neighborhood":"Hell's Kitchen","city_fetched":"Union City,US","state":"NY","country":"United States","canonicalUrl":"https://foursquare.com/v/molloys-irish-pub/4cc0b96656bda093199de735","categoryId":"4bf58dd8d48988d116941735","category":"Bar","checkinsCount":4778,"usersCount":2753,"tipCount":33,"visitsCount":4821,"url":"http://molloyspub.com","tier":2,"message":"Moderate","currency":"$","rating":6.3},{"name":"Opus 51","address":"51 Gansevoort St","lat":40.73952727596418,"lng":-74.00698819554492,"neighborhood":"Meatpacking District","city_fetched":"Union City,US","state":"NY","country":"United States","canonicalUrl":"https://foursquare.com/v/opus-51/52e85cd1498ef92600845390","categoryId":"4bf58dd8d48988d11f941735","category":"Nightclub","checkinsCount":177,"usersCount":167,"tipCount":1,"visitsCount":182,"tier":"","message":"","currency":"","rating":6.3},{"name":"The Living Room at The Standard, New York","phone":"2126454646","twitter":"standardculture","address":"848 Washington St","lat":40.740859,"lng":-74.00746,"neighborhood":"Meatpacking District","city_fetched":"Union City,US","state":"NY","country":"United States","canonicalUrl":"https://foursquare.com/v/the-living-room-at-the-standard-new-york/4b01f2a7f964a520c44622e3","categoryId":"4bf58dd8d48988d1d5941735","category":"Hotel Bar","checkinsCount":1241,"usersCount":921,"tipCount":13,"visitsCount":1241,"url":"http://standardhotels.com","tier":"","message":"","currency":"","rating":6.3},{"name":"Dave's Tavern","phone":"2122444408","address":"574 9th Ave","lat":40.75820916152725,"lng":-73.99284244810455,"neighborhood":"Hell's Kitchen","city_fetched":"Union City,US","state":"NY","country":"United States","canonicalUrl":"https://foursquare.com/v/daves-tavern/44de40a3f964a520ce361fe3","categoryId":"4bf58dd8d48988d118941735","category":"Dive Bar","checkinsCount":1417,"usersCount":1055,"tipCount":16,"visitsCount":1423,"url":"http://davestavernnyc.com","tier":1,"message":"Cheap","currency":"$","rating":6.3},{"name":"Back Bar","twitter":"backbarny","address":"85 10th Ave","lat":40.74387307930979,"lng":-74.00838262844736,"neighborhood":"Chelsea","city_fetched":"Union City,US","state":"NY","country":"United States","canonicalUrl":"https://foursquare.com/v/back-bar/52c8873b11d2704eebe23b54","categoryId":"4bf58dd8d48988d1d4941735","category":"Speakeasy","checkinsCount":375,"usersCount":320,"tipCount":8,"visitsCount":382,"url":"http://backbarnyc.com","tier":"","message":"","currency":"","rating":6.3},{"name":"The Parlour","phone":"2125808923","address":"250 W 86th St","lat":40.78849953864365,"lng":-73.97683612323384,"neighborhood":"Upper West Side","city_fetched":"Union City,US","state":"NY","country":"United States","canonicalUrl":"https://foursquare.com/v/the-parlour/3fd66200f964a52064e91ee3","categoryId":"4bf58dd8d48988d116941735","category":"Bar","checkinsCount":9626,"usersCount":5469,"tipCount":53,"visitsCount":11338,"url":"http://theparlour.com","tier":2,"message":"Moderate","currency":"$","rating":6.3},{"name":"Providence","phone":"2123077228","twitter":"providencenyc","address":"311 W 57th St","lat":40.766997223772215,"lng":-73.98350510910063,"neighborhood":"Hell's Kitchen","city_fetched":"Union City,US","state":"NY","country":"United States","canonicalUrl":"https://foursquare.com/v/providence/43eed402f964a520652f1fe3","categoryId":"4bf58dd8d48988d11f941735","category":"Nightclub","checkinsCount":4080,"usersCount":2868,"tipCount":22,"visitsCount":4201,"url":"http://www.providencenyc.com","tier":3,"message":"Expensive","currency":"$","rating":6.3},{"name":"Atlas Social Club","phone":"2122628527","address":"753 9th Ave","lat":40.764008952242904,"lng":-73.98857269486956,"neighborhood":"Hell's Kitchen","city_fetched":"Union City,US","state":"NY","country":"United States","canonicalUrl":"https://foursquare.com/v/atlas-social-club/5231165511d2052fadd8f407","categoryId":"4bf58dd8d48988d1d8941735","category":"Gay Bar","checkinsCount":4635,"usersCount":2070,"tipCount":30,"visitsCount":4799,"url":"http://atlassocialclub.com/Atlas_Social_Club/","tier":2,"message":"Moderate","currency":"$","rating":6.2},{"name":"Meet Me at McAnn's","phone":"2125941374","address":"625 8th Ave","lat":40.75683120568008,"lng":-73.99051666259766,"neighborhood":"Garment District","city_fetched":"Union City,US","state":"NY","country":"United States","canonicalUrl":"https://foursquare.com/v/meet-me-at-mcanns/4bdc77f6c79cc9288bb086e9","categoryId":"4bf58dd8d48988d11b941735","category":"Pub","checkinsCount":1678,"usersCount":625,"tipCount":21,"visitsCount":1683,"tier":"","message":"","currency":"","rating":6.2},{"name":"Firehouse Tavern","phone":"2127873473","twitter":"firehousenyc","address":"522 Columbus Ave","lat":40.785966812580234,"lng":-73.97258897211563,"neighborhood":"Upper West Side","city_fetched":"Union City,US","state":"NY","country":"United States","canonicalUrl":"https://foursquare.com/v/firehouse-tavern/3fd66200f964a52099e31ee3","categoryId":"4bf58dd8d48988d11d941735","category":"Sports Bar","checkinsCount":4130,"usersCount":2347,"tipCount":28,"visitsCount":4182,"url":"http://www.firehousetavern.com","tier":2,"message":"Moderate","currency":"$","rating":6.2},{"name":"Highbar","phone":"2129561300","address":"251 W 48th St","lat":40.761188,"lng":-73.986662,"neighborhood":"Theater District","city_fetched":"Union City,US","state":"NY","country":"United States","canonicalUrl":"https://foursquare.com/v/highbar/4b3d6fadf964a520319425e3","categoryId":"4bf58dd8d48988d116941735","category":"Bar","checkinsCount":1654,"usersCount":1337,"tipCount":11,"visitsCount":1655,"tier":"","message":"","currency":"","rating":6.2},{"name":"Social Bar, Grill & Lounge","phone":"2124590643","twitter":"socialbarlounge","address":"795 8th Ave","lat":40.76119392605275,"lng":-73.98700594707448,"neighborhood":"Hell's Kitchen","city_fetched":"Union City,US","state":"NY","country":"United States","canonicalUrl":"https://foursquare.com/v/social-bar-grill--lounge/40c3b000f964a520e8001fe3","categoryId":"4bf58dd8d48988d116941735","category":"Bar","checkinsCount":13513,"usersCount":9233,"tipCount":70,"visitsCount":13892,"url":"http://socialbarnyc-hub.com","tier":2,"message":"Moderate","currency":"$","rating":6.2},{"name":"The Playwright Tavern","phone":"2122629263","twitter":"playwright49","address":"202 W 49th St","lat":40.76059553512888,"lng":-73.9838781522501,"neighborhood":"Theater District","city_fetched":"Union City,US","state":"NY","country":"United States","canonicalUrl":"https://foursquare.com/playwright49","categoryId":"4bf58dd8d48988d11b941735","category":"Pub","checkinsCount":7385,"usersCount":5479,"tipCount":49,"visitsCount":7439,"url":"http://playwrighttavern.com","tier":2,"message":"Moderate","currency":"$","rating":6.2},{"name":"P.J. Carney's Pub","phone":"2126640056","address":"906 7th Ave","lat":40.765682095761896,"lng":-73.97971150609682,"neighborhood":"Theater District","city_fetched":"Union City,US","state":"NY","country":"United States","canonicalUrl":"https://foursquare.com/v/pj-carneys-pub/3fd66200f964a520b3e71ee3","categoryId":"4bf58dd8d48988d11b941735","category":"Pub","checkinsCount":4039,"usersCount":2921,"tipCount":25,"visitsCount":4244,"url":"http://www.pjcarneys.com","tier":"","message":"","currency":"","rating":6.2},{"name":"McGarry's Bar & Restaurant","phone":"2128102115","twitter":"mcgarrysbar","address":"417 9th Ave","lat":40.75302361800699,"lng":-73.99680376052856,"neighborhood":"Chelsea","city_fetched":"Union City,US","state":"NY","country":"United States","canonicalUrl":"https://foursquare.com/v/mcgarrys-bar--restaurant/4a5fa3caf964a520f9bf1fe3","categoryId":"4bf58dd8d48988d116941735","category":"Bar","checkinsCount":4668,"usersCount":2575,"tipCount":33,"visitsCount":4784,"url":"http://www.mcgarrysbarrestaurant-hub.com","tier":"","message":"","currency":"","rating":6.1},{"name":"Pinnacle Bar","phone":"2128408222","twitter":"hiltonhotels","address":"234 W 42nd St","lat":40.75664433885048,"lng":-73.98860138976487,"neighborhood":"Theater District","city_fetched":"Union City,US","state":"NY","country":"United States","canonicalUrl":"https://foursquare.com/v/pinnacle-bar/50ca02be245f2d4aa8c2ac19","categoryId":"4bf58dd8d48988d1d5941735","category":"Hotel Bar","checkinsCount":320,"usersCount":147,"tipCount":3,"visitsCount":320,"url":"http://www.hilton.com","tier":"","message":"","currency":"","rating":6.1},{"name":"Malachy's","phone":"2128744268","address":"103 W 72nd St","lat":40.777558443010086,"lng":-73.97909166671978,"neighborhood":"Upper West Side","city_fetched":"Union City,US","state":"NY","country":"United States","canonicalUrl":"https://foursquare.com/v/malachys/3fd66200f964a52030e81ee3","categoryId":"4bf58dd8d48988d116941735","category":"Bar","checkinsCount":2951,"usersCount":1853,"tipCount":32,"visitsCount":3013,"tier":2,"message":"Moderate","currency":"$","rating":6.1},{"name":"Walter's Bar","phone":"2125024023","twitter":"waltersbar","address":"389 8th Ave","lat":40.74924813814203,"lng":-73.99540769768645,"neighborhood":"Chelsea","city_fetched":"Union City,US","state":"NY","country":"United States","canonicalUrl":"https://foursquare.com/v/walters-bar/4a71b57cf964a52067d91fe3","categoryId":"4bf58dd8d48988d118941735","category":"Dive Bar","checkinsCount":3026,"usersCount":1431,"tipCount":18,"visitsCount":3191,"url":"http://waltersbar.com","tier":1,"message":"Cheap","currency":"$","rating":6.1},{"name":"Columbus 72","phone":"2127691492","twitter":"columbus72nyc","address":"246 Columbus Ave","lat":40.777209879719976,"lng":-73.97886209607303,"neighborhood":"Lincoln Square","city_fetched":"Union City,US","state":"NY","country":"United States","canonicalUrl":"https://foursquare.com/v/columbus-72/4b2c5f49f964a52065c624e3","categoryId":"4bf58dd8d48988d11f941735","category":"Nightclub","checkinsCount":1290,"usersCount":930,"tipCount":16,"visitsCount":1292,"url":"http://www.columbus72.com","tier":"","message":"","currency":"","rating":6.1},{"name":"Half&Half","address":"356 W 58th St, New York, NY 10019","lat":40.7683327509925,"lng":-73.98464719276438,"neighborhood":"Hell's Kitchen","city_fetched":"Union City,US","state":"NY","country":"United States","canonicalUrl":"https://foursquare.com/v/halfhalf/545ac83e498e188c2f3eb3ce","categoryId":"4bf58dd8d48988d1d5941735","category":"Hotel Bar","checkinsCount":403,"usersCount":392,"tipCount":2,"visitsCount":415,"tier":"","message":"","currency":"","rating":6.1},{"name":"Fairytail Lounge","phone":"6466843897","twitter":"fairytaillounge","address":"500 W 48th St","lat":40.763712358710556,"lng":-73.9929572251056,"neighborhood":"Hell's Kitchen","city_fetched":"Union City,US","state":"NY","country":"United States","canonicalUrl":"https://foursquare.com/v/fairytail-lounge/4eec0f6d722ea77616031adc","categoryId":"4bf58dd8d48988d1d8941735","category":"Gay Bar","checkinsCount":4614,"usersCount":2183,"tipCount":35,"visitsCount":4868,"url":"http://fairytailnyc.com","tier":2,"message":"Moderate","currency":"$","rating":6},{"name":"Characters Bar & Grill","phone":"2124598904","address":"245 W 54th St","lat":40.76439619145385,"lng":-73.98340180471577,"neighborhood":"Theater District","city_fetched":"Union City,US","state":"NY","country":"United States","canonicalUrl":"https://foursquare.com/v/characters-bar--grill/4bec9390b68520a17f5d1287","categoryId":"4bf58dd8d48988d116941735","category":"Bar","checkinsCount":4700,"usersCount":2455,"tipCount":23,"visitsCount":4763,"url":"http://charactersnyc.com","tier":2,"message":"Moderate","currency":"$","rating":6},{"name":"LeGrande Lounge","address":"224 W 49th St Fl 2","lat":40.761368,"lng":-73.985381,"neighborhood":"Theater District","city_fetched":"Union City,US","state":"NY","country":"United States","canonicalUrl":"https://foursquare.com/v/legrande-lounge/56b29e7c498e57357670f6dc","categoryId":"4bf58dd8d48988d121941735","category":"Lounge","checkinsCount":75,"usersCount":70,"tipCount":2,"visitsCount":76,"tier":"","message":"","currency":"","rating":6},{"name":"Mako New York","phone":"2126580938","twitter":"makonewyork","address":"459 12th Avenue","lat":40.76097348758464,"lng":-74.00321227270925,"neighborhood":"Hell's Kitchen","city_fetched":"Union City,US","state":"NY","country":"United States","canonicalUrl":"https://foursquare.com/v/mako-new-york/5387e1c5498e07706959940b","categoryId":"4bf58dd8d48988d121941735","category":"Lounge","checkinsCount":304,"usersCount":265,"tipCount":6,"visitsCount":308,"url":"http://www.makonewyork.com","tier":"","message":"","currency":"","rating":6},{"name":"Holland Bar","phone":"2125024609","address":"532 9th Ave","lat":40.75680347611043,"lng":-73.99379509513214,"neighborhood":"Hell's Kitchen","city_fetched":"Union City,US","state":"NY","country":"United States","canonicalUrl":"https://foursquare.com/v/holland-bar/3fd66200f964a5209be71ee3","categoryId":"4bf58dd8d48988d118941735","category":"Dive Bar","checkinsCount":1293,"usersCount":732,"tipCount":17,"visitsCount":1304,"tier":"","message":"","currency":"","rating":6},{"name":"Greenhouse 36","phone":"6463293210","address":"341 W 36th St","lat":40.75451386234894,"lng":-73.99389839392302,"neighborhood":"Garment District","city_fetched":"Union City,US","state":"NY","country":"United States","canonicalUrl":"https://foursquare.com/v/greenhouse-36/4a8dca53f964a520dd1020e3","categoryId":"4bf58dd8d48988d1d5941735","category":"Hotel Bar","checkinsCount":236,"usersCount":176,"tipCount":6,"visitsCount":236,"url":"http://www.greenhouse36nyc.com","tier":"","message":"","currency":"","rating":5.9},{"name":"Tempest Bar","phone":"2126431502","twitter":"tempestbarnyc","address":"407 8th Ave","lat":40.749970767092904,"lng":-73.9950576320925,"neighborhood":"Chelsea","city_fetched":"Union City,US","state":"NY","country":"United States","canonicalUrl":"https://foursquare.com/v/tempest-bar/41059b00f964a520810b1fe3","categoryId":"4bf58dd8d48988d11b941735","category":"Pub","checkinsCount":4587,"usersCount":2652,"tipCount":38,"visitsCount":4623,"url":"http://www.tempestbarnyc.com","tier":1,"message":"Cheap","currency":"$","rating":5.9},{"name":"Private Eyes Gentleman's Club","phone":"2125824001","twitter":"flashdancersnyc","address":"320 W 45th St","lat":40.75947508453432,"lng":-73.98939336718209,"neighborhood":"Hell's Kitchen","city_fetched":"Union City,US","state":"NY","country":"United States","canonicalUrl":"https://foursquare.com/v/private-eyes-gentlemans-club/4b243d10f964a520726424e3","categoryId":"4bf58dd8d48988d1d6941735","category":"Strip Club","checkinsCount":481,"usersCount":359,"tipCount":4,"visitsCount":481,"url":"http://privateeyesnyc.com","tier":"","message":"","currency":"","rating":5.9},{"name":"OLMA Caviar Boutique & Lounge","phone":"2123900708","address":"420 Amsterdam Ave","lat":40.783880104894315,"lng":-73.97781754616966,"neighborhood":"Upper West Side","city_fetched":"Union City,US","state":"NY","country":"United States","canonicalUrl":"https://foursquare.com/v/olma-caviar-boutique--lounge/56f09384498e87a6c82227d7","categoryId":"4bf58dd8d48988d121941735","category":"Lounge","checkinsCount":54,"usersCount":50,"tipCount":3,"visitsCount":54,"url":"http://www.olmacaviar.com","tier":"","message":"","currency":"","rating":5.9},{"name":"Touch","address":"240 W 52nd St","lat":40.76277520326778,"lng":-73.98436597681402,"neighborhood":"Theater District","city_fetched":"Union City,US","state":"NY","country":"United States","canonicalUrl":"https://foursquare.com/v/touch/4a3838f3f964a520d19e1fe3","categoryId":"4bf58dd8d48988d121941735","category":"Lounge","checkinsCount":638,"usersCount":578,"tipCount":9,"visitsCount":638,"tier":"","message":"","currency":"","rating":5.8},{"name":"Todd English Fireside Lounge","address":"300 W 44th St","lat":40.758748,"lng":-73.989386,"neighborhood":"Hell's Kitchen","city_fetched":"Union City,US","state":"NY","country":"United States","canonicalUrl":"https://foursquare.com/v/todd-english-fireside-lounge/51281616e4b0ef7a919caca9","categoryId":"4bf58dd8d48988d11e941735","category":"Cocktail Bar","checkinsCount":171,"usersCount":148,"tipCount":3,"visitsCount":171,"tier":"","message":"","currency":"","rating":5.8},{"name":"The Distinguished Wakamba Cocktail Lounge","phone":"2122449045","address":"543 8th Ave","lat":40.75420515144392,"lng":-73.99202752942188,"neighborhood":"Garment District","city_fetched":"Union City,US","state":"NY","country":"United States","canonicalUrl":"https://foursquare.com/v/the-distinguished-wakamba-cocktail-lounge/4b95d25ef964a52088b434e3","categoryId":"4bf58dd8d48988d116941735","category":"Bar","checkinsCount":1239,"usersCount":896,"tipCount":29,"visitsCount":1246,"tier":"","message":"","currency":"","rating":5.7},{"name":"Opus","lat":40.73953562339587,"lng":-74.00693654968661,"neighborhood":"Meatpacking District","city_fetched":"Union City,US","state":"NY","country":"United States","canonicalUrl":"https://foursquare.com/v/opus/5205bc2211d23e81b596687e","categoryId":"4bf58dd8d48988d11f941735","category":"Nightclub","checkinsCount":154,"usersCount":127,"tipCount":4,"visitsCount":155,"tier":"","message":"","currency":"","rating":5.7},{"name":"Good Units","phone":"2125546000","twitter":"morganshotels","address":"356 W 58th St","lat":40.76803404177843,"lng":-73.98489971285876,"neighborhood":"Hell's Kitchen","city_fetched":"Union City,US","state":"NY","country":"United States","canonicalUrl":"https://foursquare.com/v/good-units/4b74c8e0f964a520ebf12de3","categoryId":"4bf58dd8d48988d1d5941735","category":"Hotel Bar","checkinsCount":2102,"usersCount":1588,"tipCount":13,"visitsCount":2103,"url":"http://backofhouse.morganshotelgroup.com","tier":"","message":"","currency":"","rating":5.7},{"name":"Rumours Irish Pub & Restaurant","phone":"3472817648","address":"933 8th Ave","lat":40.76556331699278,"lng":-73.98352806562305,"neighborhood":"Theater District","city_fetched":"Union City,US","state":"NY","country":"United States","canonicalUrl":"https://foursquare.com/v/rumours-irish-pub--restaurant/41521200f964a5200c1d1fe3","categoryId":"4bf58dd8d48988d11b941735","category":"Pub","checkinsCount":4522,"usersCount":3091,"tipCount":22,"visitsCount":4541,"url":"http://www.rumoursbar.com","tier":1,"message":"Cheap","currency":"$","rating":5.6},{"name":"Horus Too","phone":"2129569661","twitter":"horuscafe","address":"416 W 46th St","lat":40.76138,"lng":-73.991774,"neighborhood":"Hell's Kitchen","city_fetched":"Union City,US","state":"NY","country":"United States","canonicalUrl":"https://foursquare.com/v/horus-too/4a3c58cdf964a52069a11fe3","categoryId":"4bf58dd8d48988d119941735","category":"Hookah Bar","checkinsCount":2434,"usersCount":1681,"tipCount":46,"visitsCount":2544,"url":"http://www.horuscafe.com","tier":2,"message":"Moderate","currency":"$","rating":5.5},{"name":"Pig 'N' Whistle","address":"144 W 46th St","lat":40.75837520085662,"lng":-73.98403310842231,"neighborhood":"Theater District","city_fetched":"Union City,US","state":"NY","country":"United States","canonicalUrl":"https://foursquare.com/v/pig-n-whistle/55c6dcdf498e156e9b0d2b10","categoryId":"4bf58dd8d48988d116941735","category":"Bar","checkinsCount":592,"usersCount":328,"tipCount":5,"visitsCount":605,"tier":"","message":"","currency":"","rating":5.5},{"name":"La Kasbah","address":"498 9th Ave","lat":40.75576776826357,"lng":-73.99461000630333,"neighborhood":"Hell's Kitchen","city_fetched":"Union City,US","state":"NY","country":"United States","canonicalUrl":"https://foursquare.com/v/la-kasbah/50e27d93e4b0fe5bdef9e5dc","categoryId":"4bf58dd8d48988d119941735","category":"Hookah Bar","checkinsCount":317,"usersCount":236,"tipCount":8,"visitsCount":319,"tier":2,"message":"Moderate","currency":"$","rating":5.5},{"name":"Blarney Stone","phone":"2125945100","address":"410 8th Ave","lat":40.74999405283717,"lng":-73.99497717618942,"neighborhood":"Chelsea","city_fetched":"Union City,US","state":"NY","country":"United States","canonicalUrl":"https://foursquare.com/v/blarney-stone/52e9271611d2eefec4a806ce","categoryId":"4bf58dd8d48988d11d941735","category":"Sports Bar","checkinsCount":1500,"usersCount":1000,"tipCount":4,"visitsCount":1540,"url":"http://www.blarneystonenyc.com","tier":2,"message":"Moderate","currency":"$","rating":5.5},{"name":"HK Lounge","phone":"2129474208","address":"405 W 39th St","lat":40.756668666371866,"lng":-73.99441123008728,"neighborhood":"Hell's Kitchen","city_fetched":"Union City,US","state":"NY","country":"United States","canonicalUrl":"https://foursquare.com/v/hk-lounge/4a79ce2df964a520b2e71fe3","categoryId":"4bf58dd8d48988d121941735","category":"Lounge","checkinsCount":2366,"usersCount":1701,"tipCount":24,"visitsCount":2371,"url":"http://hkhellskitchen.com","tier":3,"message":"Expensive","currency":"$","rating":5.4},{"name":"Coliseum Bar & Restaurant","phone":"2129773523","address":"312 W 58th St","lat":40.767637,"lng":-73.98307242499999,"neighborhood":"Hell's Kitchen","city_fetched":"Union City,US","state":"NY","country":"United States","canonicalUrl":"https://foursquare.com/v/coliseum-bar--restaurant/4a7b560df964a520b7ea1fe3","categoryId":"4bf58dd8d48988d11b941735","category":"Pub","checkinsCount":4454,"usersCount":2664,"tipCount":36,"visitsCount":4500,"url":"http://coliseumnyc.com","tier":2,"message":"Moderate","currency":"$","rating":5.3},{"name":"Bar 10","phone":"2122012798","address":"270 W 43rd St","lat":40.757589164733915,"lng":-73.98938762822706,"neighborhood":"Theater District","city_fetched":"Union City,US","state":"NY","country":"United States","canonicalUrl":"https://foursquare.com/v/bar-10/4cfac12efeec6dcb78254236","categoryId":"4bf58dd8d48988d1d5941735","category":"Hotel Bar","checkinsCount":1267,"usersCount":918,"tipCount":10,"visitsCount":1267,"url":"http://www.westinny.com/dining","tier":"","message":"","currency":"","rating":5.3},{"name":"Atrium Lounge - Marriott Marquis","phone":"2123981900","address":"1535 Broadway Ste 400","lat":40.758421239316206,"lng":-73.98540475205147,"neighborhood":"Theater District","city_fetched":"Union City,US","state":"NY","country":"United States","canonicalUrl":"https://foursquare.com/v/atrium-lounge--marriott-marquis/4cf1c74ec9af6dcb252a9c7f","categoryId":"4bf58dd8d48988d1d5941735","category":"Hotel Bar","checkinsCount":826,"usersCount":643,"tipCount":7,"visitsCount":826,"tier":"","message":"","currency":"","rating":5.2},{"name":"Jake's Saloon","phone":"2123333100","address":"875 10th Ave","lat":40.76923516751136,"lng":-73.98863582363357,"neighborhood":"Hell's Kitchen","city_fetched":"Union City,US","state":"NY","country":"United States","canonicalUrl":"https://foursquare.com/v/jakes-saloon/4913fa79f964a52068521fe3","categoryId":"4bf58dd8d48988d11b941735","category":"Pub","checkinsCount":4401,"usersCount":2820,"tipCount":42,"visitsCount":4468,"url":"http://jakessaloonnyc.com","tier":2,"message":"Moderate","currency":"$","rating":5.2},{"name":"The Green Door","address":"600 W 57th St","lat":40.77059707785974,"lng":-73.99176354093711,"neighborhood":"Hell's Kitchen","city_fetched":"Union City,US","state":"NY","country":"United States","canonicalUrl":"https://foursquare.com/v/the-green-door/4e8263f49adf0a7b336506e6","categoryId":"4bf58dd8d48988d116941735","category":"Bar","checkinsCount":554,"usersCount":467,"tipCount":11,"visitsCount":559,"tier":"","message":"","currency":"","rating":5.1},{"name":"P.D. O'Hurley's @ Pier 84","phone":"2126436233","address":"557 12th Ave","lat":40.76334870445349,"lng":-74.00038719177246,"neighborhood":"Hell's Kitchen","city_fetched":"Union City,US","state":"NY","country":"United States","canonicalUrl":"https://foursquare.com/v/pd-ohurleys--pier-84/49ea0dc4f964a5201a661fe3","categoryId":"4bf58dd8d48988d11b941735","category":"Pub","checkinsCount":2291,"usersCount":1999,"tipCount":38,"visitsCount":2296,"tier":"","message":"","currency":"","rating":5}]