[{"name":"Crane Alley","phone":"2173847526","address":"115 W Main St","lat":40.11229596683492,"lng":-88.20836591376174,"city_fetched":"Urbana","state":"IL","country":"United States","canonicalUrl":"https://foursquare.com/v/crane-alley/4b51f9dbf964a520a05e27e3","category":"Bar","checkinsCount":4923,"usersCount":1594,"tipCount":33,"visitsCount":5483,"url":"http://crane-alley.com","tier":2,"message":"Moderate","currency":"$","rating":8.5},{"name":"Bunny's Tavern","phone":"2173678175","address":"119 W Water St","lat":40.11323124568958,"lng":-88.208327293396,"city_fetched":"Urbana","state":"IL","country":"United States","canonicalUrl":"https://foursquare.com/v/bunnys-tavern/4b9332c4f964a520aa3a34e3","category":"Bar","checkinsCount":3825,"usersCount":585,"tipCount":23,"visitsCount":4050,"url":"http://www.bunnystavern.com","tier":2,"message":"Moderate","currency":"$","rating":8.3},{"name":"The Rose Bowl","phone":"2173677031","address":"106 N Race St","lat":40.113085,"lng":-88.20882,"city_fetched":"Urbana","state":"IL","country":"United States","canonicalUrl":"https://foursquare.com/v/the-rose-bowl/4bb6b2c62ea195219725ac2f","category":"Bar","checkinsCount":374,"usersCount":128,"tipCount":2,"visitsCount":377,"tier":"","message":"","currency":"","rating":7.8},{"name":"The Canopy Club","phone":"2173673140","address":"708 S Goodwin Ave","lat":40.106703759342764,"lng":-88.22364270687103,"city_fetched":"Urbana","state":"IL","country":"United States","canonicalUrl":"https://foursquare.com/v/the-canopy-club/4b591e8df964a520847d28e3","category":"Music Venue","checkinsCount":4231,"usersCount":1414,"tipCount":13,"visitsCount":4313,"tier":"","message":"","currency":"","rating":7.8},{"name":"Murphy's Pub","phone":"2173444372","address":"604 E Green St","lat":40.110435213407825,"lng":-88.23022191192663,"city_fetched":"Urbana","state":"IL","country":"United States","canonicalUrl":"https://foursquare.com/v/murphys-pub/4ad0b23ff964a5202ed920e3","category":"Pub","checkinsCount":9623,"usersCount":3020,"tipCount":45,"visitsCount":9997,"tier":2,"message":"Moderate","currency":"$","rating":7.7},{"name":"Joe's Brewery","phone":"2173841790","twitter":"joesbrewery","address":"706 S 5th St","lat":40.109701239447226,"lng":-88.23184343379354,"city_fetched":"Urbana","state":"IL","country":"United States","canonicalUrl":"https://foursquare.com/joesbrewery","category":"Bar","checkinsCount":6040,"usersCount":1889,"tipCount":30,"visitsCount":6423,"url":"http://www.joesbrewery.com","tier":1,"message":"Cheap","currency":"$","rating":7.7},{"name":"Legends","phone":"2173557674","address":"522 E Green St","lat":40.110507091222935,"lng":-88.2310938835144,"city_fetched":"Urbana","state":"IL","country":"United States","canonicalUrl":"https://foursquare.com/v/legends/4b51fa56f964a520cb5e27e3","category":"Sports Bar","checkinsCount":7735,"usersCount":2287,"tipCount":35,"visitsCount":8052,"url":"http://www.legendsongreen.com","tier":2,"message":"Moderate","currency":"$","rating":7.6},{"name":"White Horse Inn","address":"510 E John St","lat":40.1091613842969,"lng":-88.2307505607605,"city_fetched":"Urbana","state":"IL","country":"United States","canonicalUrl":"https://foursquare.com/v/white-horse-inn/4d3264df5c2db60c09d6c16c","category":"Bar","checkinsCount":1790,"usersCount":720,"tipCount":14,"visitsCount":1883,"tier":1,"message":"Cheap","currency":"$","rating":7.1}]