[{"name":"Saranac Brewery (F.X. Matt Brewing Co.)","phone":"3157320022","twitter":"saranacbrewery","address":"830 Varick St","lat":43.103374887080875,"lng":-75.2446957553467,"neighborhood":"West Utica","city_fetched":"Utica,US","state":"NY","country":"United States","canonicalUrl":"https://foursquare.com/v/saranac-brewery-fx-matt-brewing-co/4b7471eef964a52017dd2de3","categoryId":"50327c8591d4c4b30a586d5d","category":"Brewery","checkinsCount":2777,"usersCount":1595,"tipCount":31,"visitsCount":2981,"url":"http://www.saranac.com","tier":1,"message":"Cheap","currency":"$","rating":9.3},{"name":"Lukin's","phone":"3157358546","address":"640 Varick St","lat":43.103958,"lng":-75.242805,"neighborhood":"West Utica","city_fetched":"Utica,US","state":"NY","country":"United States","canonicalUrl":"https://foursquare.com/v/lukins/536ef298498e693e69623274","categoryId":"4bf58dd8d48988d116941735","category":"Bar","checkinsCount":471,"usersCount":245,"tipCount":3,"visitsCount":606,"url":"http://lukinsonvarick.com","tier":"","message":"","currency":"","rating":8.8},{"name":"Nail Creek Pub & Brewery","phone":"3157937593","twitter":"nailcreek","address":"720 Varick St","lat":43.10362725985257,"lng":-75.2437101469206,"neighborhood":"West Utica","city_fetched":"Utica,US","state":"NY","country":"United States","canonicalUrl":"https://foursquare.com/v/nail-creek-pub--brewery/4b746a7df964a52034db2de3","categoryId":"50327c8591d4c4b30a586d5d","category":"Brewery","checkinsCount":3790,"usersCount":946,"tipCount":37,"visitsCount":4194,"url":"http://www.nailcreekpub.com","tier":2,"message":"Moderate","currency":"$","rating":8.5},{"name":"Packy's Pub","phone":"3157379910","address":"9281 Kellogg Rd","lat":43.053171029107254,"lng":-75.2727735042572,"city_fetched":"Utica,US","state":"NY","country":"United States","canonicalUrl":"https://foursquare.com/v/packys-pub/4b670337f964a52007352be3","categoryId":"4bf58dd8d48988d11b941735","category":"Pub","checkinsCount":776,"usersCount":251,"tipCount":22,"visitsCount":987,"url":"http://packyspub.com","tier":2,"message":"Moderate","currency":"$","rating":8.2},{"name":"woodland hop farm & fermentation","lat":43.15151687458064,"lng":-75.21245799124688,"city_fetched":"Utica,US","state":"NY","country":"United States","canonicalUrl":"https://foursquare.com/v/woodland-hop-farm--fermentation/5685ee4d498e21934dc7adf2","categoryId":"50327c8591d4c4b30a586d5d","category":"Brewery","checkinsCount":142,"usersCount":89,"tipCount":2,"visitsCount":213,"tier":"","message":"","currency":"","rating":8.1},{"name":"Strut","address":"245 Bleecker St","lat":43.10131108838395,"lng":-75.22746664690617,"neighborhood":"Downtown Utica","city_fetched":"Utica,US","state":"NY","country":"United States","canonicalUrl":"https://foursquare.com/v/strut/4d5cae016f6d6ea884d967ec","categoryId":"4bf58dd8d48988d121941735","category":"Lounge","checkinsCount":478,"usersCount":152,"tipCount":6,"visitsCount":515,"tier":"","message":"","currency":"","rating":8},{"name":"Killabrew","phone":"3157329733","address":"10 Clinton Rd","lat":43.0767035233446,"lng":-75.31055776114586,"city_fetched":"Utica,US","state":"NY","country":"United States","canonicalUrl":"https://foursquare.com/v/killabrew/4bbf5950ba9776b0b6f1fec8","categoryId":"4bf58dd8d48988d116941735","category":"Bar","checkinsCount":1973,"usersCount":590,"tipCount":12,"visitsCount":2369,"url":"http://killabrewsaloon.com","tier":1,"message":"Cheap","currency":"$","rating":7.9},{"name":"12 North Sports Bar","phone":"3157329039","address":"10125 Mulaney Rd","lat":43.14251,"lng":-75.216564,"city_fetched":"Utica,US","state":"NY","country":"United States","canonicalUrl":"https://foursquare.com/v/12-north-sports-bar/4b9bd815f964a520412c36e3","categoryId":"4bf58dd8d48988d11d941735","category":"Sports Bar","checkinsCount":1106,"usersCount":276,"tipCount":5,"visitsCount":1238,"url":"http://www.12nsportsbar.com","tier":"","message":"","currency":"","rating":7.7},{"name":"Varick Bar & Grill","address":"616 Varick St","lat":43.10414404413146,"lng":-75.24187564520375,"neighborhood":"West Utica","city_fetched":"Utica,US","state":"NY","country":"United States","canonicalUrl":"https://foursquare.com/v/varick-bar--grill/4ba2ad67f964a520340f38e3","categoryId":"4bf58dd8d48988d116941735","category":"Bar","checkinsCount":787,"usersCount":206,"tipCount":6,"visitsCount":820,"tier":"","message":"","currency":"","rating":7.6},{"name":"Uncles Tavern","phone":"3157656012","address":"435 Main St","lat":43.10244546189756,"lng":-75.29401943325999,"city_fetched":"Utica,US","state":"NY","country":"United States","canonicalUrl":"https://foursquare.com/v/uncles-tavern/4b79e73ef964a52074192fe3","categoryId":"4bf58dd8d48988d116941735","category":"Bar","checkinsCount":447,"usersCount":87,"tipCount":4,"visitsCount":453,"url":"http://www.unclestavernny.com","tier":"","message":"","currency":"","rating":7.5},{"name":"mNo Bar","phone":"3157498414","twitter":"realmno","address":"1112-1114 Whitesboro St","lat":43.10661409182971,"lng":-75.24835897339277,"neighborhood":"West Utica","city_fetched":"Utica,US","state":"NY","country":"United States","canonicalUrl":"https://foursquare.com/v/mno-bar/4dc367df887717c87ff0a1dc","categoryId":"4bf58dd8d48988d116941735","category":"Bar","checkinsCount":468,"usersCount":40,"tipCount":9,"visitsCount":486,"tier":"","message":"","currency":"","rating":7.5},{"name":"The Green Onion Pub","address":"2018 Genesee St","lat":43.08609710240445,"lng":-75.2623987197876,"neighborhood":"South Utica","city_fetched":"Utica,US","state":"NY","country":"United States","canonicalUrl":"https://foursquare.com/v/the-green-onion-pub/4b91ce32f964a520aed833e3","categoryId":"4bf58dd8d48988d116941735","category":"Bar","checkinsCount":1327,"usersCount":302,"tipCount":9,"visitsCount":1457,"url":"http://greenonionpub.com","tier":"","message":"","currency":"","rating":7.3},{"name":"Celtic Harp","phone":"3157974277","address":"805 Varick St","lat":43.103251,"lng":-75.24390883333334,"neighborhood":"West Utica","city_fetched":"Utica,US","state":"NY","country":"United States","canonicalUrl":"https://foursquare.com/v/celtic-harp/4b65a2b3f964a52052f72ae3","categoryId":"4bf58dd8d48988d116941735","category":"Bar","checkinsCount":2128,"usersCount":996,"tipCount":18,"visitsCount":2407,"url":"http://www.thecelticharp.com","tier":"","message":"","currency":"","rating":7.1},{"name":"Shots Sports Bar","address":"700 Varick St","lat":43.10381047293698,"lng":-75.24303218142101,"neighborhood":"West Utica","city_fetched":"Utica,US","state":"NY","country":"United States","canonicalUrl":"https://foursquare.com/v/shots-sports-bar/4fffa812e4b0d7fffef11723","categoryId":"4bf58dd8d48988d116941735","category":"Bar","checkinsCount":467,"usersCount":179,"tipCount":3,"visitsCount":489,"url":"http://shotssportsbarny.com","tier":"","message":"","currency":"","rating":7.1},{"name":"O'Donnell's","address":"715 Varick St","lat":43.10373579265205,"lng":-75.24300369541082,"neighborhood":"West Utica","city_fetched":"Utica,US","state":"NY","country":"United States","canonicalUrl":"https://foursquare.com/v/odonnells/4b8c9c47f964a5202cd832e3","categoryId":"4bf58dd8d48988d116941735","category":"Bar","checkinsCount":447,"usersCount":165,"tipCount":6,"visitsCount":451,"tier":"","message":"","currency":"","rating":7.1},{"name":"Stockdale's","lat":43.15754430270605,"lng":-75.33238403234814,"city_fetched":"Utica,US","state":"NY","country":"United States","canonicalUrl":"https://foursquare.com/v/stockdales/4f2365b6e4b0dc27b8668a16","categoryId":"4bf58dd8d48988d116941735","category":"Bar","checkinsCount":386,"usersCount":129,"tipCount":2,"visitsCount":468,"tier":"","message":"","currency":"","rating":7},{"name":"That Place","phone":"3157370537","address":"210 Bleecker St","lat":43.10130950522548,"lng":-75.2284409629173,"neighborhood":"Downtown Utica","city_fetched":"Utica,US","state":"NY","country":"United States","canonicalUrl":"https://foursquare.com/v/that-place/4c5e130f857ca593dfe9cecb","categoryId":"4bf58dd8d48988d1d8941735","category":"Gay Bar","checkinsCount":593,"usersCount":139,"tipCount":9,"visitsCount":607,"url":"http://www.thatplace.us","tier":"","message":"","currency":"","rating":6.8},{"name":"BBG'S Beers Bites Games","lat":43.103022824901934,"lng":-75.29917361393399,"city_fetched":"Utica,US","state":"NY","country":"United States","canonicalUrl":"https://foursquare.com/v/bbgs-beers-bites-games/50ad3debe4b013e1bd4a6384","categoryId":"4bf58dd8d48988d11d941735","category":"Sports Bar","checkinsCount":247,"usersCount":157,"tipCount":6,"visitsCount":345,"tier":"","message":"","currency":"","rating":6.8},{"name":"Griffin's Pub","phone":"3157245792","address":"226 Genesee St","lat":43.10047666152785,"lng":-75.23314152457128,"neighborhood":"West Utica","city_fetched":"Utica,US","state":"NY","country":"United States","canonicalUrl":"https://foursquare.com/v/griffins-pub/4b9077d4f964a520e38b33e3","categoryId":"4bf58dd8d48988d11b941735","category":"Pub","checkinsCount":330,"usersCount":142,"tipCount":0,"visitsCount":376,"tier":"","message":"","currency":"","rating":6.7},{"name":"Knuckleheads Brewhouse","phone":"3158531351","address":"7362 E Main St","lat":43.11687532052523,"lng":-75.40018916130066,"city_fetched":"Utica,US","state":"NY","country":"United States","canonicalUrl":"https://foursquare.com/v/knuckleheads-brewhouse/4b76e3d4f964a520a1672ee3","categoryId":"4bf58dd8d48988d116941735","category":"Bar","checkinsCount":1321,"usersCount":301,"tipCount":11,"visitsCount":1502,"tier":"","message":"","currency":"","rating":6.7},{"name":"The Columbia Bar & Grill","lat":43.10371471124825,"lng":-75.23817239245317,"neighborhood":"West Utica","city_fetched":"Utica,US","state":"NY","country":"United States","canonicalUrl":"https://foursquare.com/v/the-columbia-bar--grill/510087c9e4b08a44ff74cf52","categoryId":"4bf58dd8d48988d116941735","category":"Bar","checkinsCount":234,"usersCount":86,"tipCount":1,"visitsCount":252,"tier":"","message":"","currency":"","rating":6.5},{"name":"The Stiefvater Room","address":"622 Varick St","lat":43.104181,"lng":-75.241822,"neighborhood":"West Utica","city_fetched":"Utica,US","state":"NY","country":"United States","canonicalUrl":"https://foursquare.com/v/the-stiefvater-room/4be61fc3910020a10d07d414","categoryId":"4bf58dd8d48988d116941735","category":"Bar","checkinsCount":503,"usersCount":185,"tipCount":7,"visitsCount":509,"tier":"","message":"","currency":"","rating":6.5},{"name":"Sickenburger Lane","address":"628 Varick Street","lat":43.10422969157624,"lng":-75.24224596562017,"neighborhood":"West Utica","city_fetched":"Utica,US","state":"NY","country":"United States","canonicalUrl":"https://foursquare.com/v/sickenburger-lane/4c1a823ce9c4ef3bc97945aa","categoryId":"4bf58dd8d48988d11e941735","category":"Cocktail Bar","checkinsCount":711,"usersCount":283,"tipCount":3,"visitsCount":728,"tier":"","message":"","currency":"","rating":6.4},{"name":"Griffs","phone":"3157380570","address":"728 Columbia St","lat":43.105115611189426,"lng":-75.24268465173935,"neighborhood":"West Utica","city_fetched":"Utica,US","state":"NY","country":"United States","canonicalUrl":"https://foursquare.com/v/griffs/4d7989d1542ab1f773677f41","categoryId":"4bf58dd8d48988d116941735","category":"Bar","checkinsCount":1518,"usersCount":110,"tipCount":4,"visitsCount":1549,"tier":"","message":"","currency":"","rating":6.4},{"name":"Gerber's 1933 Tavern","phone":"3155344835","address":"16 Liberty St","lat":43.10325190867801,"lng":-75.22912468980722,"city_fetched":"Utica,US","state":"NY","country":"United States","canonicalUrl":"https://foursquare.com/v/gerbers-1933-tavern/4dd87048fa76ad96d13ef508","categoryId":"4bf58dd8d48988d116941735","category":"Bar","checkinsCount":225,"usersCount":141,"tipCount":6,"visitsCount":264,"tier":"","message":"","currency":"","rating":6.4},{"name":"Tony's Sports Bar","phone":"3157379172","address":"Oneida St","lat":43.05153996215263,"lng":-75.2734921237301,"city_fetched":"Utica,US","state":"NY","country":"United States","canonicalUrl":"https://foursquare.com/v/tonys-sports-bar/4e9766d12c5b50b457bc2f57","categoryId":"4bf58dd8d48988d116941735","category":"Bar","checkinsCount":776,"usersCount":316,"tipCount":13,"visitsCount":912,"tier":"","message":"","currency":"","rating":6.3},{"name":"The Village Tavern","phone":"3158538010","address":"14 College St","lat":43.048217,"lng":-75.379313,"city_fetched":"Utica,US","state":"NY","country":"United States","canonicalUrl":"https://foursquare.com/v/the-village-tavern/4b758ce8f964a52082132ee3","categoryId":"4bf58dd8d48988d116941735","category":"Bar","checkinsCount":425,"usersCount":183,"tipCount":4,"visitsCount":433,"tier":1,"message":"Cheap","currency":"$","rating":6.2},{"name":"Piers And Blake","lat":43.10369431972504,"lng":-75.223558,"city_fetched":"Utica,US","state":"NY","country":"United States","canonicalUrl":"https://foursquare.com/v/piers-and-blake/4d93a45ed07eb1f72379fcbb","categoryId":"4bf58dd8d48988d11e941735","category":"Cocktail Bar","checkinsCount":343,"usersCount":177,"tipCount":6,"visitsCount":343,"tier":"","message":"","currency":"","rating":6.2},{"name":"Tony's AUDelicious","phone":"3156249932","address":"470 Whitesboro St","lat":43.105610446799396,"lng":-75.23487357448303,"city_fetched":"Utica,US","state":"NY","country":"United States","canonicalUrl":"https://foursquare.com/v/tonys-audelicious/532f2200498e08612757ebb3","categoryId":"4bf58dd8d48988d11d941735","category":"Sports Bar","checkinsCount":120,"usersCount":69,"tipCount":5,"visitsCount":142,"url":"http://tonysaudelicious.com","tier":"","message":"","currency":"","rating":6},{"name":"Galleria Cafe","phone":"3157360230","address":"471 Main St","lat":43.10099906965302,"lng":-75.29498763506,"city_fetched":"Utica,US","state":"NY","country":"United States","canonicalUrl":"https://foursquare.com/v/galleria-cafe/4bd8261535aad13abd2690f3","categoryId":"4bf58dd8d48988d116941735","category":"Bar","checkinsCount":625,"usersCount":102,"tipCount":5,"visitsCount":632,"tier":"","message":"","currency":"","rating":5.3}]