[{"name":"Bleu Pub","address":"118 W Hill Ave","lat":30.830756345216155,"lng":-83.27970761390492,"city_fetched":"Valdosta,US","state":"GA","country":"United States","canonicalUrl":"https://foursquare.com/v/bleu-pub/4ba593a9f964a520be1339e3","categoryId":"4bf58dd8d48988d116941735","category":"Bar","checkinsCount":868,"usersCount":411,"tipCount":19,"visitsCount":1003,"tier":"","message":"","currency":"","rating":8.2},{"name":"Ashley Street Station","twitter":"ashleyststation","address":"607 Baytree Rd Ste A","lat":30.84657529827543,"lng":-83.29868181532619,"city_fetched":"Valdosta,US","state":"GA","country":"United States","canonicalUrl":"https://foursquare.com/v/ashley-street-station/4fc987e2e4b081923620d0bf","categoryId":"4bf58dd8d48988d118941735","category":"Dive Bar","checkinsCount":238,"usersCount":100,"tipCount":4,"visitsCount":298,"tier":"","message":"","currency":"","rating":7.2},{"name":"Lucky's Pub & Grill","phone":"2292428006","address":"1903 Baytree Pl","lat":30.84606874857013,"lng":-83.30765500093823,"city_fetched":"Valdosta,US","state":"GA","country":"United States","canonicalUrl":"https://foursquare.com/v/luckys-pub--grill/50b16beae4b03b4497d2ab25","categoryId":"4bf58dd8d48988d11b941735","category":"Pub","checkinsCount":289,"usersCount":112,"tipCount":2,"visitsCount":335,"url":"http://luckysremerton.com","tier":"","message":"","currency":"","rating":6.8},{"name":"Cuz's Sports Bar and Grill","phone":"2292490800","address":"4333 Bemiss Rd","lat":30.920075351811143,"lng":-83.25390168943814,"city_fetched":"Valdosta,US","state":"GA","country":"United States","canonicalUrl":"https://foursquare.com/v/cuzs-sports-bar-and-grill/4c4781b1699476b076dbb121","categoryId":"4bf58dd8d48988d116941735","category":"Bar","checkinsCount":223,"usersCount":125,"tipCount":2,"visitsCount":360,"tier":"","message":"","currency":"","rating":6.6}]