[{"name":"Va de Vi Bistro & Wine Bar","phone":"9259790100","twitter":"vadevibistro","address":"1511 MT Diablo Blvd","lat":37.89704689325576,"lng":-122.06018686294556,"neighborhood":"Downtown Walnut Creek","city_fetched":"Vallejo,US","state":"CA","country":"United States","canonicalUrl":"https://foursquare.com/v/va-de-vi-bistro--wine-bar/4ad15593f964a52018de20e3","categoryId":"4bf58dd8d48988d123941735","category":"Wine Bar","checkinsCount":3283,"usersCount":2040,"tipCount":54,"visitsCount":3495,"url":"http://www.va-de-vi-bistro.com","tier":3,"message":"Expensive","currency":"$","rating":9},{"name":"Heretic Brewing Company","phone":"9255266364","address":"1052 Horizon Dr","lat":38.2735481262207,"lng":-122.01544189453125,"city_fetched":"Vallejo,US","state":"CA","country":"United States","canonicalUrl":"https://foursquare.com/v/heretic-brewing-company/521e737511d26870e6f70833","categoryId":"50327c8591d4c4b30a586d5d","category":"Brewery","checkinsCount":653,"usersCount":575,"tipCount":11,"visitsCount":1034,"url":"http://hereticbrewing.com","tier":"","message":"","currency":"","rating":9},{"name":"The Hop Grenade Taproom & Bottleshop","phone":"9253327354","twitter":"thehopgrenade","address":"2151 Salvio St, Sute J-K","lat":37.97790865558608,"lng":-122.03402012038879,"neighborhood":"Downtown Concord","city_fetched":"Vallejo,US","state":"CA","country":"United States","canonicalUrl":"https://foursquare.com/v/the-hop-grenade-taproom--bottleshop/53601f55498e020aaec2a003","categoryId":"4bf58dd8d48988d11b941735","category":"Pub","checkinsCount":1580,"usersCount":552,"tipCount":25,"visitsCount":1832,"url":"http://thehopgrenade.com","tier":"","message":"","currency":"","rating":8.9},{"name":"1313 Main - Restaurant and Wine Bar","phone":"7072581313","twitter":"1313main","address":"1313 Main St","lat":38.301506524885816,"lng":-122.28756592963781,"neighborhood":"Central Napa","city_fetched":"Vallejo,US","state":"CA","country":"United States","canonicalUrl":"https://foursquare.com/1313main","categoryId":"4bf58dd8d48988d123941735","category":"Wine Bar","checkinsCount":1890,"usersCount":1136,"tipCount":36,"visitsCount":2075,"url":"http://1313main.com","tier":3,"message":"Expensive","currency":"$","rating":8.8},{"name":"The Kingfish Pub & Cafe","phone":"5106557373","address":"5239 Telegraph Ave","lat":37.83843507235434,"lng":-122.26245597490326,"neighborhood":"North Oakland","city_fetched":"Vallejo,US","state":"CA","country":"United States","canonicalUrl":"https://foursquare.com/v/the-kingfish-pub--cafe/4aa926c4f964a520325220e3","categoryId":"4bf58dd8d48988d116941735","category":"Bar","checkinsCount":3395,"usersCount":1548,"tipCount":37,"visitsCount":4026,"url":"http://kingfishpubandcafe.com","tier":1,"message":"Cheap","currency":"$","rating":8.7},{"name":"Creek Monkey Tap House","phone":"9252288787","twitter":"crkmnky","address":"611 Escobar St","lat":38.01772406095503,"lng":-122.1378324514422,"city_fetched":"Vallejo,US","state":"CA","country":"United States","canonicalUrl":"https://foursquare.com/v/creek-monkey-tap-house/4da14aece7b8a090f4011821","categoryId":"50327c8591d4c4b30a586d5d","category":"Brewery","checkinsCount":1743,"usersCount":715,"tipCount":22,"visitsCount":2037,"url":"http://www.creekmonkey.com","tier":2,"message":"Moderate","currency":"$","rating":8.7},{"name":"Warehouse Cafe","phone":"5107871827","address":"5 Canyon Lake Dr","lat":38.04651123762721,"lng":-122.18326057540303,"city_fetched":"Vallejo,US","state":"CA","country":"United States","canonicalUrl":"https://foursquare.com/v/warehouse-cafe/4b514c66f964a5202e4a27e3","categoryId":"4bf58dd8d48988d118941735","category":"Dive Bar","checkinsCount":1247,"usersCount":809,"tipCount":21,"visitsCount":1341,"tier":"","message":"","currency":"","rating":8.7},{"name":"The Trappist Provisions","phone":"5105942339","twitter":"thetrappist","address":"6309 College Ave","lat":37.850536,"lng":-122.252525,"neighborhood":"North Oakland","city_fetched":"Vallejo,US","state":"CA","country":"United States","canonicalUrl":"https://foursquare.com/v/the-trappist-provisions/50dd14e7e4b0a46e0cb32a59","categoryId":"4bf58dd8d48988d116941735","category":"Bar","checkinsCount":2300,"usersCount":1073,"tipCount":20,"visitsCount":2432,"url":"http://www.thetrappist.com","tier":2,"message":"Moderate","currency":"$","rating":8.6},{"name":"Oxbow Wine Merchant & Wine Bar","phone":"7072575200","twitter":"oxbowwine","address":"610 1st St","lat":38.301782,"lng":-122.28180170059204,"neighborhood":"Central Napa","city_fetched":"Vallejo,US","state":"CA","country":"United States","canonicalUrl":"https://foursquare.com/v/oxbow-wine-merchant--wine-bar/4b59130bf964a520507b28e3","categoryId":"4bf58dd8d48988d123941735","category":"Wine Bar","checkinsCount":934,"usersCount":547,"tipCount":9,"visitsCount":945,"tier":"","message":"","currency":"","rating":8.6},{"name":"Anheuser-Busch Brewery","phone":"7074297595","twitter":"homeofbud","address":"3101 Busch Dr","lat":38.23766066503848,"lng":-122.09216013060635,"city_fetched":"Vallejo,US","state":"CA","country":"United States","canonicalUrl":"https://foursquare.com/v/anheuserbusch-brewery/4ba663aef964a5202d4d39e3","categoryId":"50327c8591d4c4b30a586d5d","category":"Brewery","checkinsCount":2810,"usersCount":1733,"tipCount":13,"visitsCount":3100,"url":"http://www.budweisertours.com","tier":1,"message":"Cheap","currency":"$","rating":8.6},{"name":"Temescal Brewing","twitter":"temescalbeer","address":"4115 Telegraph Ave","lat":37.83037757188758,"lng":-122.26434468867625,"neighborhood":"Temescal","city_fetched":"Vallejo,US","state":"CA","country":"United States","canonicalUrl":"https://foursquare.com/v/temescal-brewing/55d7ca6b498e5e695486ae31","categoryId":"50327c8591d4c4b30a586d5d","category":"Brewery","checkinsCount":625,"usersCount":488,"tipCount":6,"visitsCount":876,"url":"http://www.temescalbrewing.com","tier":"","message":"","currency":"","rating":8.6},{"name":"Cadet Wine & Beer Bar","phone":"7072244400","twitter":"cadetwinebar","address":"930 Franklin St","lat":38.297469325496024,"lng":-122.28796462836999,"neighborhood":"Central Napa","city_fetched":"Vallejo,US","state":"CA","country":"United States","canonicalUrl":"https://foursquare.com/v/cadet-wine--beer-bar/53154470498eead764aca1d9","categoryId":"4bf58dd8d48988d123941735","category":"Wine Bar","checkinsCount":328,"usersCount":259,"tipCount":8,"visitsCount":386,"url":"http://www.cadetbeerandwinebar.com","tier":"","message":"","currency":"","rating":8.4},{"name":"Blackwater Station","phone":"5105932387","address":"4901 Telegraph Ave","lat":37.83589949598932,"lng":-122.26292115125942,"neighborhood":"Temescal","city_fetched":"Vallejo,US","state":"CA","country":"United States","canonicalUrl":"https://foursquare.com/v/blackwater-station/5602faf1498e7034bad7e7c3","categoryId":"4bf58dd8d48988d11e941735","category":"Cocktail Bar","checkinsCount":253,"usersCount":256,"tipCount":5,"visitsCount":340,"url":"https://bwscocktailbar.com","tier":"","message":"","currency":"","rating":8.4},{"name":"Club Mallard","phone":"5105248450","address":"752 San Pablo Ave","lat":37.89239487811964,"lng":-122.29988060009424,"city_fetched":"Vallejo,US","state":"CA","country":"United States","canonicalUrl":"https://foursquare.com/v/club-mallard/4a8c8890f964a520640e20e3","categoryId":"4bf58dd8d48988d116941735","category":"Bar","checkinsCount":3935,"usersCount":1596,"tipCount":31,"visitsCount":4440,"url":"http://clubmallard.com","tier":1,"message":"Cheap","currency":"$","rating":8.4},{"name":"Carpe Diem Wine Bar","phone":"7072240800","twitter":"carpediemnapa","address":"1001 2nd St","lat":38.29839552051261,"lng":-122.28526230769023,"neighborhood":"Central Napa","city_fetched":"Vallejo,US","state":"CA","country":"United States","canonicalUrl":"https://foursquare.com/v/carpe-diem-wine-bar/4c16ce8096040f47077873a5","categoryId":"4bf58dd8d48988d123941735","category":"Wine Bar","checkinsCount":3443,"usersCount":1901,"tipCount":68,"visitsCount":3458,"url":"http://www.carpediemwinebar.com","tier":2,"message":"Moderate","currency":"$","rating":8.4},{"name":"Rockridge Improvement Club","address":"5515 College Avenue","lat":37.842842,"lng":-122.251755,"neighborhood":"North Oakland","city_fetched":"Vallejo,US","state":"CA","country":"United States","canonicalUrl":"https://foursquare.com/v/rockridge-improvement-club/574bc430498ed6a750163ab3","categoryId":"4bf58dd8d48988d116941735","category":"Bar","checkinsCount":138,"usersCount":76,"tipCount":1,"visitsCount":148,"tier":"","message":"","currency":"","rating":8.4},{"name":"Spoontonic Lounge","phone":"9259771888","twitter":"spoontonic","address":"2580 N Main St Ste A","lat":37.91915609603041,"lng":-122.06454943804809,"city_fetched":"Vallejo,US","state":"CA","country":"United States","canonicalUrl":"https://foursquare.com/v/spoontonic-lounge/4b2aef0ef964a5205cb224e3","categoryId":"4bf58dd8d48988d116941735","category":"Bar","checkinsCount":4179,"usersCount":758,"tipCount":27,"visitsCount":4440,"url":"http://spoontonic.com","tier":"","message":"","currency":"","rating":8.3},{"name":"Free House","phone":"5106472300","twitter":"freehouse2700","address":"2700 Bancroft Way","lat":37.86907935618035,"lng":-122.25431916843111,"neighborhood":"Southside","city_fetched":"Vallejo,US","state":"CA","country":"United States","canonicalUrl":"https://foursquare.com/v/free-house/4f29f1a8e4b0f10bf4d418a2","categoryId":"4bf58dd8d48988d117941735","category":"Beer Garden","checkinsCount":3011,"usersCount":1476,"tipCount":27,"visitsCount":3324,"url":"http://www.berkeleyfreehouse.com","tier":2,"message":"Moderate","currency":"$","rating":8.2},{"name":"McNally's Irish Pub","phone":"5106553929","address":"5352 College Ave","lat":37.83935935995243,"lng":-122.25130024979092,"neighborhood":"Rockridge","city_fetched":"Vallejo,US","state":"CA","country":"United States","canonicalUrl":"https://foursquare.com/v/mcnallys-irish-pub/4645c699f964a52088461fe3","categoryId":"4bf58dd8d48988d11b941735","category":"Pub","checkinsCount":2159,"usersCount":671,"tipCount":8,"visitsCount":2224,"tier":1,"message":"Cheap","currency":"$","rating":8.2},{"name":"Residual Sugar Wine Bar + Merchant","address":"1684 Locust St","lat":37.9017698764801,"lng":-122.063033,"neighborhood":"Downtown Walnut Creek","city_fetched":"Vallejo,US","state":"CA","country":"United States","canonicalUrl":"https://foursquare.com/v/residual-sugar-wine-bar--merchant/4b8a045bf964a520d25b32e3","categoryId":"4bf58dd8d48988d123941735","category":"Wine Bar","checkinsCount":1254,"usersCount":665,"tipCount":18,"visitsCount":1275,"url":"http://residualsugarwine.com","tier":"","message":"","currency":"","rating":8.2},{"name":"The Rellik Tavern","phone":"7077461137","twitter":"relliktavern","address":"726 1st St","lat":38.050212,"lng":-122.158041,"city_fetched":"Vallejo,US","state":"CA","country":"United States","canonicalUrl":"https://foursquare.com/relliktavern","categoryId":"4bf58dd8d48988d121941735","category":"Lounge","checkinsCount":1962,"usersCount":714,"tipCount":20,"visitsCount":2154,"url":"http://www.therelliktavern.com","tier":2,"message":"Moderate","currency":"$","rating":8},{"name":"Ben & Nick's","phone":"5109230327","address":"5612 College Ave","lat":37.84356331,"lng":-122.251569,"neighborhood":"Rockridge","city_fetched":"Vallejo,US","state":"CA","country":"United States","canonicalUrl":"https://foursquare.com/v/ben--nicks/43c2bb5ef964a520492d1fe3","categoryId":"4bf58dd8d48988d116941735","category":"Bar","checkinsCount":6720,"usersCount":2270,"tipCount":46,"visitsCount":7023,"url":"http://benandnicks.com","tier":2,"message":"Moderate","currency":"$","rating":8},{"name":"White Horse Bar","phone":"5106523820","twitter":"whiteho","address":"6551 Telegraph Ave","lat":37.8519043,"lng":-122.260558,"neighborhood":"Bushrod","city_fetched":"Vallejo,US","state":"CA","country":"United States","canonicalUrl":"https://foursquare.com/whiteho","categoryId":"4bf58dd8d48988d1d8941735","category":"Gay Bar","checkinsCount":2763,"usersCount":1452,"tipCount":16,"visitsCount":3398,"url":"http://www.whitehorsebar.com","tier":1,"message":"Cheap","currency":"$","rating":8},{"name":"Up & Under","phone":"5107781313","address":"2 W Richmond Ave","lat":37.925372,"lng":-122.384547,"neighborhood":"Point Richmond","city_fetched":"Vallejo,US","state":"CA","country":"United States","canonicalUrl":"https://foursquare.com/v/up--under/4b5a708bf964a5203fc528e3","categoryId":"4bf58dd8d48988d11b941735","category":"Pub","checkinsCount":2113,"usersCount":890,"tipCount":22,"visitsCount":2589,"tier":"","message":"","currency":"","rating":8},{"name":"The Barrel Room","phone":"5106551700","address":"5330 College Ave","lat":37.838803,"lng":-122.251165,"neighborhood":"Rockridge","city_fetched":"Vallejo,US","state":"CA","country":"United States","canonicalUrl":"https://foursquare.com/v/the-barrel-room/52abd7da11d2f73700fcea55","categoryId":"4bf58dd8d48988d123941735","category":"Wine Bar","checkinsCount":277,"usersCount":185,"tipCount":9,"visitsCount":286,"url":"http://barrelroomsf.com","tier":"","message":"","currency":"","rating":8},{"name":"Hotsy Totsy Club","phone":"5105265986","twitter":"hotsytotsyclub","address":"601 San Pablo Ave","lat":37.89497262213258,"lng":-122.30031967163086,"city_fetched":"Vallejo,US","state":"CA","country":"United States","canonicalUrl":"https://foursquare.com/v/hotsy-totsy-club/4a8a406ef964a520160a20e3","categoryId":"4bf58dd8d48988d116941735","category":"Bar","checkinsCount":3124,"usersCount":1471,"tipCount":37,"visitsCount":3595,"url":"http://hotsytotsyclub.com","tier":2,"message":"Moderate","currency":"$","rating":8},{"name":"Rookies Sports Bar and Grill","phone":"7077467665","twitter":"rookiesbenicia","address":"321 First St. Benicia","lat":38.04706135699741,"lng":-122.16062098332101,"city_fetched":"Vallejo,US","state":"CA","country":"United States","canonicalUrl":"https://foursquare.com/rookiesbenicia","categoryId":"4bf58dd8d48988d11d941735","category":"Sports Bar","checkinsCount":900,"usersCount":433,"tipCount":8,"visitsCount":1010,"url":"http://rookiesbenicia.com","tier":2,"message":"Moderate","currency":"$","rating":7.9},{"name":"Casa Belicoso","address":"2540 N Main St","lat":37.91825534917177,"lng":-122.06514872806093,"city_fetched":"Vallejo,US","state":"CA","country":"United States","canonicalUrl":"https://foursquare.com/v/casa-belicoso/4bb556046edc76b005a72f1c","categoryId":"4bf58dd8d48988d121941735","category":"Lounge","checkinsCount":394,"usersCount":162,"tipCount":7,"visitsCount":429,"url":"http://casabelicoso.com","tier":"","message":"","currency":"","rating":7.8},{"name":"Flat Iron Saloon","phone":"4154534318","twitter":"flatironsanraf","address":"724 B St","lat":37.97124080377937,"lng":-122.52949828721322,"neighborhood":"Downtown San Rafael","city_fetched":"Vallejo,US","state":"CA","country":"United States","canonicalUrl":"https://foursquare.com/v/flat-iron-saloon/4bf4b1c1ff90c9b6fb9d5528","categoryId":"4bf58dd8d48988d116941735","category":"Bar","checkinsCount":1247,"usersCount":684,"tipCount":11,"visitsCount":1663,"url":"http://flatironsanrafael.com","tier":2,"message":"Moderate","currency":"$","rating":7.8},{"name":"Tower Grille","phone":"9258206996","address":"1950 Grant St","lat":37.97762051,"lng":-122.03308034,"neighborhood":"Downtown Concord","city_fetched":"Vallejo,US","state":"CA","country":"United States","canonicalUrl":"https://foursquare.com/v/tower-grille/4d7c1d41f260a09325ca34ba","categoryId":"4bf58dd8d48988d11d941735","category":"Sports Bar","checkinsCount":1550,"usersCount":494,"tipCount":33,"visitsCount":1571,"url":"http://towergrille.com","tier":2,"message":"Moderate","currency":"$","rating":7.8},{"name":"Powder Keg","address":"2132 Railroad Ave","lat":38.01810264587402,"lng":-122.28744021292201,"city_fetched":"Vallejo,US","state":"CA","country":"United States","canonicalUrl":"https://foursquare.com/v/powder-keg/4b3c3871f964a520188325e3","categoryId":"4bf58dd8d48988d11b941735","category":"Pub","checkinsCount":1543,"usersCount":581,"tipCount":19,"visitsCount":1812,"url":"http://powderkegpub.com","tier":2,"message":"Moderate","currency":"$","rating":7.8},{"name":"Mikey's Rock Band Lounge","phone":"5107582002","twitter":"mikeysrblounge","address":"367 McAllister Dr","lat":38.08058202266693,"lng":-122.14776482,"city_fetched":"Vallejo,US","state":"CA","country":"United States","canonicalUrl":"https://foursquare.com/v/mikeys-rock-band-lounge/4bb93c0598c7ef3b34f33102","categoryId":"4bf58dd8d48988d121941735","category":"Lounge","checkinsCount":778,"usersCount":57,"tipCount":3,"visitsCount":883,"tier":1,"message":"Cheap","currency":"$","rating":7.8},{"name":"Schmidt's Pub","phone":"5105251900","address":"1492 Solano Ave","lat":37.89071895512557,"lng":-122.28829133871652,"city_fetched":"Vallejo,US","state":"CA","country":"United States","canonicalUrl":"https://foursquare.com/v/schmidts-pub/4ae3e80cf964a5208b9921e3","categoryId":"4bf58dd8d48988d11b941735","category":"Pub","checkinsCount":1393,"usersCount":653,"tipCount":8,"visitsCount":1511,"url":"http://schmidtspub.com","tier":"","message":"","currency":"","rating":7.8},{"name":"Mr. Lucky's","phone":"9259337778","address":"2618 Pleasant Hill Rd","lat":37.95485319046475,"lng":-122.08869338035583,"city_fetched":"Vallejo,US","state":"CA","country":"United States","canonicalUrl":"https://foursquare.com/v/mr-luckys/4c26f4c63703d13ae15ca636","categoryId":"4bf58dd8d48988d116941735","category":"Bar","checkinsCount":528,"usersCount":277,"tipCount":6,"visitsCount":623,"url":"http://mrluckysph.com","tier":"","message":"","currency":"","rating":7.7},{"name":"Calicraft Brewing Co.","phone":"9254788103","twitter":"calicraft","address":"2700 Mitchell Dr","lat":37.930645990020764,"lng":-122.0262934747039,"city_fetched":"Vallejo,US","state":"CA","country":"United States","canonicalUrl":"https://foursquare.com/v/calicraft-brewing-co/579bc455498e1326756922bf","categoryId":"50327c8591d4c4b30a586d5d","category":"Brewery","checkinsCount":53,"usersCount":57,"tipCount":2,"visitsCount":82,"url":"http://www.calicraft.com","tier":"","message":"","currency":"","rating":7.7},{"name":"Schug Winery","phone":"7079399363","address":"602 Bonneau Rd","lat":38.230637629284566,"lng":-122.47660735458763,"city_fetched":"Vallejo,US","state":"CA","country":"United States","canonicalUrl":"https://foursquare.com/v/schug-winery/4b085ebdf964a5204a0a23e3","categoryId":"4bf58dd8d48988d123941735","category":"Wine Bar","checkinsCount":1084,"usersCount":1109,"tipCount":17,"visitsCount":1286,"url":"http://schugwinery.com","tier":"","message":"","currency":"","rating":7.7},{"name":"E.J. Phair Brewing Company & Alehouse","phone":"9256914253","twitter":"ejphair","address":"2151 Salvio St","lat":37.978065959072914,"lng":-122.03380919911643,"neighborhood":"Downtown Concord","city_fetched":"Vallejo,US","state":"CA","country":"United States","canonicalUrl":"https://foursquare.com/v/ej-phair-brewing-company--alehouse/43fa2ce1f964a520da2f1fe3","categoryId":"50327c8591d4c4b30a586d5d","category":"Brewery","checkinsCount":3542,"usersCount":1408,"tipCount":46,"visitsCount":3654,"url":"http://ejphair.com/alehouse/","tier":2,"message":"Moderate","currency":"$","rating":7.6},{"name":"Elevation 66 Brewing Company","phone":"5105254800","address":"10082 San Pablo Ave","lat":37.90204152508305,"lng":-122.30301441155196,"city_fetched":"Vallejo,US","state":"CA","country":"United States","canonicalUrl":"https://foursquare.com/v/elevation-66-brewing-company/4e07b906315117c55a20d892","categoryId":"50327c8591d4c4b30a586d5d","category":"Brewery","checkinsCount":2669,"usersCount":1052,"tipCount":41,"visitsCount":2813,"url":"http://www.elevation66.com","tier":2,"message":"Moderate","currency":"$","rating":7.6},{"name":"Black Diamond Brewery","phone":"9253560120","address":"2470 Bates Ave","lat":38.01394449788296,"lng":-122.03102277977065,"city_fetched":"Vallejo,US","state":"CA","country":"United States","canonicalUrl":"https://foursquare.com/v/black-diamond-brewery/4b6a2831f964a520baca2be3","categoryId":"50327c8591d4c4b30a586d5d","category":"Brewery","checkinsCount":353,"usersCount":192,"tipCount":5,"visitsCount":405,"url":"http://www.bdbrewing.com","tier":"","message":"","currency":"","rating":7.6},{"name":"George's Nightclub","phone":"8775682726","twitter":"georgesclub","address":"842 4th St","lat":37.97287794,"lng":-122.52476155757904,"neighborhood":"Downtown San Rafael","city_fetched":"Vallejo,US","state":"CA","country":"United States","canonicalUrl":"https://foursquare.com/v/georges-nightclub/4c85699d2f1c236a09b05443","categoryId":"4bf58dd8d48988d11f941735","category":"Nightclub","checkinsCount":424,"usersCount":256,"tipCount":4,"visitsCount":427,"url":"http://www.georgesnightclub.com","tier":"","message":"","currency":"","rating":7.6},{"name":"Chris' Club","address":"656 Benicia Rd","lat":38.094642162323,"lng":-122.22835063934326,"neighborhood":"East Vallejo","city_fetched":"Vallejo,US","state":"CA","country":"United States","canonicalUrl":"https://foursquare.com/v/chris-club/4bde95cfffdec9282e06e9a1","categoryId":"4bf58dd8d48988d116941735","category":"Bar","checkinsCount":264,"usersCount":127,"tipCount":5,"visitsCount":265,"url":"http://chrisclub.com","tier":"","message":"","currency":"","rating":7.5},{"name":"Siena Restaurant at The Meritage Resort","phone":"7072511950","twitter":"meritageresort","address":"875 Bordeaux Way","lat":38.24591795646372,"lng":-122.27326162405075,"city_fetched":"Vallejo,US","state":"CA","country":"United States","canonicalUrl":"https://foursquare.com/v/siena-restaurant-at-the-meritage-resort/4b778bf8f964a520f3a02ee3","categoryId":"4bf58dd8d48988d1d5941735","category":"Hotel Bar","checkinsCount":859,"usersCount":619,"tipCount":12,"visitsCount":865,"url":"http://meritagecollection.com/meritageresort/","tier":"","message":"","currency":"","rating":7.5},{"name":"Club 1220","phone":"9259384550","address":"1220 Pine St.","lat":37.910953,"lng":-122.06056237220764,"neighborhood":"Downtown Walnut Creek","city_fetched":"Vallejo,US","state":"CA","country":"United States","canonicalUrl":"https://foursquare.com/v/club-1220/4a9b111df964a520473420e3","categoryId":"4bf58dd8d48988d1d8941735","category":"Gay Bar","checkinsCount":3010,"usersCount":621,"tipCount":19,"visitsCount":3223,"tier":"","message":"","currency":"","rating":7.5},{"name":"Bottom Of The Fifth Sports Bar and Grill","phone":"7077459949","twitter":"bottomfive","address":"498A Military East","lat":38.05093395943848,"lng":-122.14718686753046,"city_fetched":"Vallejo,US","state":"CA","country":"United States","canonicalUrl":"https://foursquare.com/bottomfive","categoryId":"4bf58dd8d48988d11d941735","category":"Sports Bar","checkinsCount":325,"usersCount":180,"tipCount":3,"visitsCount":391,"url":"http://www.bottom5th.com","tier":"","message":"","currency":"","rating":7.5},{"name":"Albany Taproom","phone":"5105262998","address":"745 San Pablo Ave","lat":37.892356417245736,"lng":-122.2994828224182,"city_fetched":"Vallejo,US","state":"CA","country":"United States","canonicalUrl":"https://foursquare.com/v/albany-taproom/51322c14fe7021753815e56f","categoryId":"4bf58dd8d48988d116941735","category":"Bar","checkinsCount":1086,"usersCount":576,"tipCount":15,"visitsCount":1283,"url":"http://www.albanytaproom.com","tier":2,"message":"Moderate","currency":"$","rating":7.4},{"name":"Gentleman Jim's","lat":38.10820506666666,"lng":-122.229113,"neighborhood":"East Vallejo","city_fetched":"Vallejo,US","state":"CA","country":"United States","canonicalUrl":"https://foursquare.com/v/gentleman-jims/4c50e069d797e21e5e1e1b7b","categoryId":"4bf58dd8d48988d118941735","category":"Dive Bar","checkinsCount":249,"usersCount":144,"tipCount":2,"visitsCount":300,"tier":"","message":"","currency":"","rating":7.4},{"name":"Kona Club","phone":"5106547100","address":"4401 Piedmont Ave","lat":37.830420908758946,"lng":-122.24730312824249,"neighborhood":"Piedmont Avenue","city_fetched":"Vallejo,US","state":"CA","country":"United States","canonicalUrl":"https://foursquare.com/v/kona-club/4a05c14ef964a5206e721fe3","categoryId":"56aa371be4b08b9a8d57354d","category":"Tiki Bar","checkinsCount":3296,"usersCount":1898,"tipCount":32,"visitsCount":3645,"url":"http://konaclub.net","tier":1,"message":"Cheap","currency":"$","rating":7.4},{"name":"Mare Island Brewing Co.","address":"295 Mare Island Way","lat":38.100441009434334,"lng":-122.263032008458,"neighborhood":"West Vallejo","city_fetched":"Vallejo,US","state":"CA","country":"United States","canonicalUrl":"https://foursquare.com/v/mare-island-brewing-co/53dd7f96498ead52230c16bb","categoryId":"50327c8591d4c4b30a586d5d","category":"Brewery","checkinsCount":342,"usersCount":217,"tipCount":11,"visitsCount":370,"url":"http://mareislandbrewingco.com","tier":"","message":"","currency":"","rating":7.4},{"name":"Twenty Rows Tasting Room","lat":38.30454308963699,"lng":-122.28691250348265,"neighborhood":"Central Napa","city_fetched":"Vallejo,US","state":"CA","country":"United States","canonicalUrl":"https://foursquare.com/v/twenty-rows-tasting-room/4c4271c1520fa593e251cbac","categoryId":"4bf58dd8d48988d123941735","category":"Wine Bar","checkinsCount":303,"usersCount":289,"tipCount":5,"visitsCount":340,"tier":"","message":"","currency":"","rating":7.4},{"name":"Mercantile Social","phone":"7076871234","address":"1450 1st St","lat":38.297488816561255,"lng":-122.28927700113579,"neighborhood":"Central Napa","city_fetched":"Vallejo,US","state":"CA","country":"United States","canonicalUrl":"https://foursquare.com/v/mercantile-social/505be4f1e4b0d44483890136","categoryId":"4bf58dd8d48988d1d5941735","category":"Hotel Bar","checkinsCount":198,"usersCount":142,"tipCount":4,"visitsCount":198,"url":"http://andaznapa.com","tier":"","message":"","currency":"","rating":7.4},{"name":"Tiki Tom's","phone":"9259329202","address":"1535 Olympic Blvd","lat":37.896165,"lng":-122.06076667,"neighborhood":"Downtown Walnut Creek","city_fetched":"Vallejo,US","state":"CA","country":"United States","canonicalUrl":"https://foursquare.com/v/tiki-toms/4ad7f54af964a5204a1021e3","categoryId":"4bf58dd8d48988d121941735","category":"Lounge","checkinsCount":2900,"usersCount":1367,"tipCount":13,"visitsCount":2961,"tier":2,"message":"Moderate","currency":"$","rating":7.4},{"name":"Napa Smith Brewery","phone":"7072547167","twitter":"napa_smith","address":"1 Executive Way","lat":38.224740442941375,"lng":-122.25707766524894,"city_fetched":"Vallejo,US","state":"CA","country":"United States","canonicalUrl":"https://foursquare.com/v/napa-smith-brewery/4bd619b17b1876b0cdfe8b86","categoryId":"50327c8591d4c4b30a586d5d","category":"Brewery","checkinsCount":1702,"usersCount":1384,"tipCount":21,"visitsCount":2072,"url":"http://www.napasmithbrewery.com","tier":1,"message":"Cheap","currency":"$","rating":7.3},{"name":"Schellville Grill","phone":"7079965151","address":"22900 Broadway","lat":38.2444001166667,"lng":-122.448923483333,"city_fetched":"Vallejo,US","state":"CA","country":"United States","canonicalUrl":"https://foursquare.com/v/schellville-grill/4bc8b501ab62d13a22d717d4","categoryId":"4bf58dd8d48988d117941735","category":"Beer Garden","checkinsCount":1107,"usersCount":858,"tipCount":22,"visitsCount":1394,"url":"http://www.schellvillegrill.com","tier":"","message":"","currency":"","rating":7.3},{"name":"Cullen's Tannery Pub","phone":"7076375300","twitter":"tannerypub","address":"131 1st St Ste B","lat":38.04609077098867,"lng":-122.16145259036571,"city_fetched":"Vallejo,US","state":"CA","country":"United States","canonicalUrl":"https://foursquare.com/v/cullens-tannery-pub/4dc1dfff45ddd5b5b6a08b45","categoryId":"4bf58dd8d48988d11b941735","category":"Pub","checkinsCount":152,"usersCount":88,"tipCount":2,"visitsCount":161,"url":"http://www.tannerypub.com","tier":"","message":"","currency":"","rating":7.3},{"name":"Wicked Mirage Hookah Lounge","phone":"9254056641","address":"3425 Chestnut Ave","lat":37.971889487643786,"lng":-122.01415842742352,"city_fetched":"Vallejo,US","state":"CA","country":"United States","canonicalUrl":"https://foursquare.com/v/wicked-mirage-hookah-lounge/4d301379b8e78eecfc439752","categoryId":"4bf58dd8d48988d119941735","category":"Hookah Bar","checkinsCount":705,"usersCount":205,"tipCount":11,"visitsCount":830,"url":"https://wickedmirage.com","tier":"","message":"","currency":"","rating":7.2},{"name":"The Mayflower Pub","phone":"4154561011","address":"1533 4th St","lat":37.973676204577906,"lng":-122.53482402147375,"neighborhood":"Downtown San Rafael","city_fetched":"Vallejo,US","state":"CA","country":"United States","canonicalUrl":"https://foursquare.com/v/the-mayflower-pub/416f1300f964a520a41d1fe3","categoryId":"4bf58dd8d48988d11b941735","category":"Pub","checkinsCount":1992,"usersCount":994,"tipCount":15,"visitsCount":2413,"url":"http://www.themayflowerpub.com","tier":2,"message":"Moderate","currency":"$","rating":7.2},{"name":"The Avenue","phone":"5106541423","address":"4822 Telegraph Ave","lat":37.834987,"lng":-122.26280120000001,"neighborhood":"Temescal","city_fetched":"Vallejo,US","state":"CA","country":"United States","canonicalUrl":"https://foursquare.com/v/the-avenue/4a8a4baef964a5201a0a20e3","categoryId":"4bf58dd8d48988d118941735","category":"Dive Bar","checkinsCount":2150,"usersCount":864,"tipCount":15,"visitsCount":2219,"tier":1,"message":"Cheap","currency":"$","rating":7.2},{"name":"Carneros Brewing Company","phone":"7079381880","twitter":"carnerosbrewing","address":"22985 Burndale Rd","lat":38.2458383084073,"lng":-122.42270521543897,"city_fetched":"Vallejo,US","state":"CA","country":"United States","canonicalUrl":"https://foursquare.com/v/carneros-brewing-company/50469a4fe4b05a8c8975d7ff","categoryId":"50327c8591d4c4b30a586d5d","category":"Brewery","checkinsCount":605,"usersCount":568,"tipCount":13,"visitsCount":719,"url":"http://www.carnerosbrewing.com","tier":"","message":"","currency":"","rating":7.2},{"name":"1515 Restaurant & Lounge","phone":"9259391515","twitter":"1515loungeca","address":"1515 N Main St","lat":37.90027148449146,"lng":-122.06133652132623,"neighborhood":"Downtown Walnut Creek","city_fetched":"Vallejo,US","state":"CA","country":"United States","canonicalUrl":"https://foursquare.com/v/1515-restaurant--lounge/4ba0091bf964a5204b5437e3","categoryId":"4bf58dd8d48988d121941735","category":"Lounge","checkinsCount":3163,"usersCount":1945,"tipCount":33,"visitsCount":3304,"url":"http://1515wc.com","tier":"","message":"","currency":"","rating":7.1},{"name":"The Greenery","address":"1551-1577 Marchbanks Dr","lat":37.917372908499786,"lng":-122.0435944059241,"neighborhood":"Diablo Hills","city_fetched":"Vallejo,US","state":"CA","country":"United States","canonicalUrl":"https://foursquare.com/v/the-greenery/4bc3dbc94cdfc9b63a079821","categoryId":"4bf58dd8d48988d11d941735","category":"Sports Bar","checkinsCount":733,"usersCount":381,"tipCount":5,"visitsCount":857,"url":"http://diablohillsgolfcourse.com","tier":"","message":"","currency":"","rating":7.1},{"name":"Mel-O-Dee","phone":"5105262131","address":"240 El Cerrito Plz","lat":37.899103,"lng":-122.29894643,"city_fetched":"Vallejo,US","state":"CA","country":"United States","canonicalUrl":"https://foursquare.com/v/melodee/4a9b33e1f964a520bd3420e3","categoryId":"4bf58dd8d48988d116941735","category":"Bar","checkinsCount":709,"usersCount":388,"tipCount":4,"visitsCount":716,"url":"http://melodeelounge.com","tier":"","message":"","currency":"","rating":7.1},{"name":"Thompson's Corner","address":"2147 Cordelia Rd","lat":38.21109820347456,"lng":-122.13341280367848,"city_fetched":"Vallejo,US","state":"CA","country":"United States","canonicalUrl":"https://foursquare.com/v/thompsons-corner/4ad17dd9f964a5208ede20e3","categoryId":"4bf58dd8d48988d118941735","category":"Dive Bar","checkinsCount":360,"usersCount":231,"tipCount":4,"visitsCount":488,"tier":"","message":"","currency":"","rating":7.1},{"name":"Kensington Circus Pub","phone":"5105248814","address":"389 Colusa Avenue","lat":37.89969602140693,"lng":-122.28723367955227,"city_fetched":"Vallejo,US","state":"CA","country":"United States","canonicalUrl":"https://foursquare.com/v/kensington-circus-pub/4b318a55f964a520b90825e3","categoryId":"4bf58dd8d48988d11b941735","category":"Pub","checkinsCount":695,"usersCount":367,"tipCount":19,"visitsCount":810,"url":"http://kensingtoncircuspub.com","tier":"","message":"","currency":"","rating":7.1},{"name":"Artie's Countrywood Lounge","phone":"9259345662","address":"2068 Treat Blvd","lat":37.93022728107502,"lng":-122.03956604003906,"city_fetched":"Vallejo,US","state":"CA","country":"United States","canonicalUrl":"https://foursquare.com/v/arties-countrywood-lounge/4b60ddfcf964a5209bfe29e3","categoryId":"4bf58dd8d48988d116941735","category":"Bar","checkinsCount":689,"usersCount":255,"tipCount":5,"visitsCount":704,"tier":"","message":"","currency":"","rating":7},{"name":"George Kaye's","phone":"5105479374","address":"4044 Broadway","lat":37.82823035990504,"lng":-122.25606322288513,"neighborhood":"Piedmont Avenue","city_fetched":"Vallejo,US","state":"CA","country":"United States","canonicalUrl":"https://foursquare.com/v/george-kayes/49f4fdeaf964a520816b1fe3","categoryId":"4bf58dd8d48988d116941735","category":"Bar","checkinsCount":932,"usersCount":300,"tipCount":4,"visitsCount":956,"tier":"","message":"","currency":"","rating":7},{"name":"the Graduate","phone":"5106558847","address":"6202 Claremont Ave","lat":37.849641,"lng":-122.2520812993196,"neighborhood":"Rockridge","city_fetched":"Vallejo,US","state":"CA","country":"United States","canonicalUrl":"https://foursquare.com/v/the-graduate/4a69439df964a520dacb1fe3","categoryId":"4bf58dd8d48988d116941735","category":"Bar","checkinsCount":2772,"usersCount":1301,"tipCount":17,"visitsCount":2945,"tier":1,"message":"Cheap","currency":"$","rating":7},{"name":"Pint Size Lounge","phone":"4154572673","address":"1615 4th St","lat":37.973944,"lng":-122.537182,"neighborhood":"Downtown San Rafael","city_fetched":"Vallejo,US","state":"CA","country":"United States","canonicalUrl":"https://foursquare.com/v/pint-size-lounge/4a62af83f964a52074c41fe3","categoryId":"4bf58dd8d48988d121941735","category":"Lounge","checkinsCount":741,"usersCount":224,"tipCount":9,"visitsCount":773,"tier":"","message":"","currency":"","rating":6.9},{"name":"The Lodge","address":"3758 Piedmont Ave","lat":37.82329715347064,"lng":-122.256390817291,"neighborhood":"Piedmont Avenue","city_fetched":"Vallejo,US","state":"CA","country":"United States","canonicalUrl":"https://foursquare.com/v/the-lodge/55e7e141498ea4b130f74cdd","categoryId":"4bf58dd8d48988d116941735","category":"Bar","checkinsCount":172,"usersCount":195,"tipCount":4,"visitsCount":284,"tier":"","message":"","currency":"","rating":6.9},{"name":"Dan's Irish Sports Bar","phone":"9259321331","address":"1524 Civic Dr","lat":37.90174331903733,"lng":-122.06244634786177,"neighborhood":"Downtown Walnut Creek","city_fetched":"Vallejo,US","state":"CA","country":"United States","canonicalUrl":"https://foursquare.com/v/dans-irish-sports-bar/4afa70d2f964a520e21722e3","categoryId":"4bf58dd8d48988d118941735","category":"Dive Bar","checkinsCount":2338,"usersCount":856,"tipCount":13,"visitsCount":2401,"url":"http://dansbar.com","tier":"","message":"","currency":"","rating":6.9},{"name":"The Fourth Bore","lat":37.87843336324559,"lng":-122.18269519801767,"city_fetched":"Vallejo,US","state":"CA","country":"United States","canonicalUrl":"https://foursquare.com/v/the-fourth-bore/56622dca498e3ab0b7de3916","categoryId":"50327c8591d4c4b30a586d5d","category":"Brewery","checkinsCount":97,"usersCount":81,"tipCount":1,"visitsCount":135,"url":"http://www.thefourthbore.com","tier":"","message":"","currency":"","rating":6.9},{"name":"Stadium Pub Bar & Grill","phone":"9252567302","address":"1420 Lincoln Ave","lat":37.90065797700781,"lng":-122.06113120217456,"neighborhood":"Downtown Walnut Creek","city_fetched":"Vallejo,US","state":"CA","country":"United States","canonicalUrl":"https://foursquare.com/v/stadium-pub-bar--grill/4bc66a90d35d9c743cc7e23a","categoryId":"4bf58dd8d48988d11d941735","category":"Sports Bar","checkinsCount":3960,"usersCount":1777,"tipCount":39,"visitsCount":4071,"tier":"","message":"","currency":"","rating":6.9},{"name":"BANK Cafe and Bar","phone":"7072575151","address":"1314 McKinstry St","lat":38.30398879058982,"lng":-122.28366192556713,"neighborhood":"Central Napa","city_fetched":"Vallejo,US","state":"CA","country":"United States","canonicalUrl":"https://foursquare.com/v/bank-cafe-and-bar/4be79b27947820a10403b4db","categoryId":"4bf58dd8d48988d1d5941735","category":"Hotel Bar","checkinsCount":883,"usersCount":527,"tipCount":13,"visitsCount":902,"url":"http://bankcafenapa.com","tier":2,"message":"Moderate","currency":"$","rating":6.8},{"name":"Right Eye Brewing","twitter":"righteyebrewing","address":"221 Benton Ct","lat":38.24155436389211,"lng":-122.04206812695698,"city_fetched":"Vallejo,US","state":"CA","country":"United States","canonicalUrl":"https://foursquare.com/v/right-eye-brewing/52926dfc11d20c6560ec4ce9","categoryId":"50327c8591d4c4b30a586d5d","category":"Brewery","checkinsCount":41,"usersCount":31,"tipCount":4,"visitsCount":42,"url":"http://righteyebrewing.com","tier":"","message":"","currency":"","rating":6.8},{"name":"Crush Ultra Lounge","phone":"7072513066","twitter":"meritageresort","address":"875 Bordeaux Way","lat":38.24640431553509,"lng":-122.27444171905518,"city_fetched":"Vallejo,US","state":"CA","country":"United States","canonicalUrl":"https://foursquare.com/v/crush-ultra-lounge/4fb6f080e4b07c52a6487bb4","categoryId":"4bf58dd8d48988d116941735","category":"Bar","checkinsCount":641,"usersCount":466,"tipCount":5,"visitsCount":655,"url":"http://goo.gl/IxpkfE","tier":"","message":"","currency":"","rating":6.7},{"name":"Stones Sports Bar","phone":"7072551633","address":"1679 W Imola Ave","lat":38.281047422688154,"lng":-122.2928707153538,"neighborhood":"Central Napa","city_fetched":"Vallejo,US","state":"CA","country":"United States","canonicalUrl":"https://foursquare.com/v/stones-sports-bar/4e4f5752d164978659c955c7","categoryId":"4bf58dd8d48988d116941735","category":"Bar","checkinsCount":814,"usersCount":151,"tipCount":3,"visitsCount":848,"tier":"","message":"","currency":"","rating":6.7},{"name":"Trevor's Pub","phone":"4154567044","twitter":"trevorspub","address":"927 Tamalpais Ave","lat":37.97209590804843,"lng":-122.52322749300598,"neighborhood":"Downtown San Rafael","city_fetched":"Vallejo,US","state":"CA","country":"United States","canonicalUrl":"https://foursquare.com/v/trevors-pub/4b3c47c6f964a520988325e3","categoryId":"4bf58dd8d48988d116941735","category":"Bar","checkinsCount":1117,"usersCount":268,"tipCount":6,"visitsCount":1143,"url":"http://www.trevorspub.com","tier":"","message":"","currency":"","rating":6.7},{"name":"Marc 49","phone":"5106522100","twitter":"marc49_ca","address":"4915 Telegraph Ave","lat":37.836052004256004,"lng":-122.26286030647411,"neighborhood":"Temescal","city_fetched":"Vallejo,US","state":"CA","country":"United States","canonicalUrl":"https://foursquare.com/v/marc-49/4a6139f8f964a52020c21fe3","categoryId":"4bf58dd8d48988d123941735","category":"Wine Bar","checkinsCount":1410,"usersCount":886,"tipCount":14,"visitsCount":1442,"url":"http://www.marc49.com","tier":2,"message":"Moderate","currency":"$","rating":6.7},{"name":"Jaguar Karaoke","phone":"5106588995","address":"4390 Telegraph Ave","lat":37.832058532038694,"lng":-122.2633366403292,"neighborhood":"Temescal","city_fetched":"Vallejo,US","state":"CA","country":"United States","canonicalUrl":"https://foursquare.com/v/jaguar-karaoke/44413b53f964a52043321fe3","categoryId":"4bf58dd8d48988d120941735","category":"Karaoke Bar","checkinsCount":582,"usersCount":423,"tipCount":1,"visitsCount":594,"url":"http://www.jaguarkaraoke.com","tier":"","message":"","currency":"","rating":6.7},{"name":"Vinnies Bar & Grill","phone":"9256859515","address":"2045 Mount Diablo St","lat":37.97790477565714,"lng":-122.0352301345337,"neighborhood":"Downtown Concord","city_fetched":"Vallejo,US","state":"CA","country":"United States","canonicalUrl":"https://foursquare.com/v/vinnies-bar--grill/49cf4bbcf964a520a55a1fe3","categoryId":"4bf58dd8d48988d116941735","category":"Bar","checkinsCount":959,"usersCount":609,"tipCount":7,"visitsCount":1159,"url":"http://vinniesbar.com","tier":"","message":"","currency":"","rating":6.7},{"name":"Ivy Room","phone":"5105265888","address":"860 San Pablo Ave","lat":37.890458,"lng":-122.29916095733643,"city_fetched":"Vallejo,US","state":"CA","country":"United States","canonicalUrl":"https://foursquare.com/v/ivy-room/40ede000f964a520450a1fe3","categoryId":"4bf58dd8d48988d11e941735","category":"Cocktail Bar","checkinsCount":811,"usersCount":430,"tipCount":12,"visitsCount":831,"url":"http://www.ivyroom.com","tier":2,"message":"Moderate","currency":"$","rating":6.6},{"name":"Redux Lounge","phone":"9259349490","twitter":"reduxlounge","address":"1411 Locust St","lat":37.899217,"lng":-122.062279,"neighborhood":"Downtown Walnut Creek","city_fetched":"Vallejo,US","state":"CA","country":"United States","canonicalUrl":"https://foursquare.com/reduxlounge","categoryId":"4bf58dd8d48988d11f941735","category":"Nightclub","checkinsCount":1452,"usersCount":681,"tipCount":5,"visitsCount":1493,"url":"http://www.reduxlounge.com","tier":2,"message":"Moderate","currency":"$","rating":6.6},{"name":"Barclays Restaurant & Pub","phone":"5106541650","twitter":"barclayspub","address":"5940 College Ave","lat":37.847865,"lng":-122.252081,"neighborhood":"Rockridge","city_fetched":"Vallejo,US","state":"CA","country":"United States","canonicalUrl":"https://foursquare.com/v/barclays-restaurant--pub/43bff8def964a520272d1fe3","categoryId":"4bf58dd8d48988d11b941735","category":"Pub","checkinsCount":4106,"usersCount":1858,"tipCount":37,"visitsCount":4724,"url":"http://www.barclayspub.com","tier":"","message":"","currency":"","rating":6.6},{"name":"Toots Tavern","phone":"5107879860","address":"627 2nd Ave","lat":38.053183,"lng":-122.22355484962463,"city_fetched":"Vallejo,US","state":"CA","country":"United States","canonicalUrl":"https://foursquare.com/v/toots-tavern/4abd50b7f964a520ae8920e3","categoryId":"4bf58dd8d48988d116941735","category":"Bar","checkinsCount":505,"usersCount":211,"tipCount":5,"visitsCount":645,"url":"http://tootstavern.com","tier":"","message":"","currency":"","rating":6.6},{"name":"Fenix","phone":"4158135600","twitter":"thefenixclub","address":"919 4th St","lat":37.97293703845132,"lng":-122.5265535472598,"neighborhood":"Downtown San Rafael","city_fetched":"Vallejo,US","state":"CA","country":"United States","canonicalUrl":"https://foursquare.com/v/fenix/5101f97be4b052bb7947ab43","categoryId":"4bf58dd8d48988d11f941735","category":"Nightclub","checkinsCount":226,"usersCount":147,"tipCount":6,"visitsCount":231,"tier":"","message":"","currency":"","rating":6.5},{"name":"Farrington's Sports Bar","phone":"9256872259","address":"1938 Contra Costa Blvd","lat":37.94833168708138,"lng":-122.05912238352215,"city_fetched":"Vallejo,US","state":"CA","country":"United States","canonicalUrl":"https://foursquare.com/v/farringtons-sports-bar/4c8b1909012b95216102b22c","categoryId":"4bf58dd8d48988d11d941735","category":"Sports Bar","checkinsCount":1486,"usersCount":647,"tipCount":9,"visitsCount":1618,"tier":"","message":"","currency":"","rating":6.5},{"name":"The Roundup Saloon","phone":"9252844817","address":"3553 MT Diablo Blvd","lat":37.89166867733002,"lng":-122.120434,"neighborhood":"Downtown Lafayette","city_fetched":"Vallejo,US","state":"CA","country":"United States","canonicalUrl":"https://foursquare.com/v/the-roundup-saloon/4a612668f964a520fec11fe3","categoryId":"4bf58dd8d48988d118941735","category":"Dive Bar","checkinsCount":2137,"usersCount":900,"tipCount":19,"visitsCount":2224,"tier":"","message":"","currency":"","rating":6.5},{"name":"Tap Haus","address":"2518 Durant Ave","lat":37.86774892105489,"lng":-122.25826302147973,"neighborhood":"Southside","city_fetched":"Vallejo,US","state":"CA","country":"United States","canonicalUrl":"https://foursquare.com/v/tap-haus/551b4a67498e6700b735152f","categoryId":"4bf58dd8d48988d117941735","category":"Beer Garden","checkinsCount":218,"usersCount":169,"tipCount":1,"visitsCount":224,"tier":"","message":"","currency":"","rating":6.4},{"name":"Henry's","phone":"5108094132","twitter":"henrysberkeley1","address":"2600 Durant Ave","lat":37.868065055009964,"lng":-122.25665115534409,"neighborhood":"Southside","city_fetched":"Vallejo,US","state":"CA","country":"United States","canonicalUrl":"https://foursquare.com/v/henrys/4b6c93acf964a52054442ce3","categoryId":"4bf58dd8d48988d116941735","category":"Bar","checkinsCount":3719,"usersCount":2194,"tipCount":25,"visitsCount":3784,"url":"http://www.henrysberkeley.com","tier":2,"message":"Moderate","currency":"$","rating":6.4},{"name":"The Freeway","lat":38.050588014796524,"lng":-122.5318904817028,"neighborhood":"Southwest Novato","city_fetched":"Vallejo,US","state":"CA","country":"United States","canonicalUrl":"https://foursquare.com/v/the-freeway/4e531ed062e14e02e8af6c3c","categoryId":"4bf58dd8d48988d121941735","category":"Lounge","checkinsCount":303,"usersCount":134,"tipCount":1,"visitsCount":303,"tier":"","message":"","currency":"","rating":6.4},{"name":"Mass√©s Billiards & Sports Bar","phone":"9252567665","address":"2721 N Main St","lat":37.92262992514119,"lng":-122.0643163799279,"neighborhood":"Larkey Park Area","city_fetched":"Vallejo,US","state":"CA","country":"United States","canonicalUrl":"https://foursquare.com/v/mass%C3%A9s-billiards--sports-bar/4bd7558e35aad13ac3a68ef3","categoryId":"4bf58dd8d48988d11d941735","category":"Sports Bar","checkinsCount":2626,"usersCount":1380,"tipCount":15,"visitsCount":3388,"url":"http://masseswc.com","tier":2,"message":"Moderate","currency":"$","rating":6.3},{"name":"Behind the Plate Clubhouse and Grill","lat":37.99275252995265,"lng":-122.1205687348281,"city_fetched":"Vallejo,US","state":"CA","country":"United States","canonicalUrl":"https://foursquare.com/v/behind-the-plate-clubhouse-and-grill/54026a91498ed19800ecb401","categoryId":"4bf58dd8d48988d116941735","category":"Bar","checkinsCount":237,"usersCount":63,"tipCount":5,"visitsCount":261,"tier":"","message":"","currency":"","rating":6.2},{"name":"Red Hat Sports Bar","phone":"9256852122","address":"1860 Monument Blvd","lat":37.955339618171585,"lng":-122.03983426094055,"city_fetched":"Vallejo,US","state":"CA","country":"United States","canonicalUrl":"https://foursquare.com/v/red-hat-sports-bar/4ba2e95af964a5200d2238e3","categoryId":"4bf58dd8d48988d11d941735","category":"Sports Bar","checkinsCount":425,"usersCount":247,"tipCount":2,"visitsCount":467,"tier":"","message":"","currency":"","rating":6.2},{"name":"Mr. Lucky's","phone":"9259357778","address":"1527 Locust St","lat":37.90035891533486,"lng":-122.06266831180845,"neighborhood":"Downtown Walnut Creek","city_fetched":"Vallejo,US","state":"CA","country":"United States","canonicalUrl":"https://foursquare.com/v/mr-luckys/4a56c189f964a520c2b51fe3","categoryId":"4bf58dd8d48988d118941735","category":"Dive Bar","checkinsCount":1956,"usersCount":821,"tipCount":10,"visitsCount":2045,"tier":1,"message":"Cheap","currency":"$","rating":6.2},{"name":"Kerry House","phone":"5106524032","address":"4092 Piedmont Ave","lat":37.826464710823196,"lng":-122.25225301866192,"neighborhood":"Piedmont Avenue","city_fetched":"Vallejo,US","state":"CA","country":"United States","canonicalUrl":"https://foursquare.com/v/kerry-house/4bcff9b4462cb713ccacd707","categoryId":"4bf58dd8d48988d116941735","category":"Bar","checkinsCount":1436,"usersCount":339,"tipCount":10,"visitsCount":1511,"tier":"","message":"","currency":"","rating":6.2},{"name":"Blu42 Sports Lounge","phone":"9259790132","twitter":"blu42lounge","address":"1251 Arroyo Way","lat":37.904859353196464,"lng":-122.06011014982053,"neighborhood":"Downtown Walnut Creek","city_fetched":"Vallejo,US","state":"CA","country":"United States","canonicalUrl":"https://foursquare.com/v/blu42-sports-lounge/513d3c6be4b0ec8664931856","categoryId":"4bf58dd8d48988d11d941735","category":"Sports Bar","checkinsCount":342,"usersCount":274,"tipCount":4,"visitsCount":491,"url":"http://www.goblu42.com","tier":"","message":"","currency":"","rating":6.2},{"name":"Henry's","address":"823 Main St","lat":38.298149436106755,"lng":-122.28478607192831,"neighborhood":"Central Napa","city_fetched":"Vallejo,US","state":"CA","country":"United States","canonicalUrl":"https://foursquare.com/v/henrys/4c550b21479fc9283a702494","categoryId":"4bf58dd8d48988d118941735","category":"Dive Bar","checkinsCount":1079,"usersCount":524,"tipCount":11,"visitsCount":1081,"tier":"","message":"","currency":"","rating":6.2},{"name":"Vice Ultra Lounge","phone":"9259790132","address":"1251 Arroyo Way","lat":37.90488808710397,"lng":-122.06008240369876,"neighborhood":"Downtown Walnut Creek","city_fetched":"Vallejo,US","state":"CA","country":"United States","canonicalUrl":"https://foursquare.com/v/vice-ultra-lounge/4b80a743f964a520dd8330e3","categoryId":"4bf58dd8d48988d11f941735","category":"Nightclub","checkinsCount":962,"usersCount":455,"tipCount":5,"visitsCount":962,"url":"http://www.viceultralounge.com","tier":"","message":"","currency":"","rating":6.1},{"name":"Empire","address":"1400 1st St","lat":38.29771720262508,"lng":-122.28901674284562,"neighborhood":"Central Napa","city_fetched":"Vallejo,US","state":"CA","country":"United States","canonicalUrl":"https://foursquare.com/v/empire/5197161e498eaee011bde3cc","categoryId":"4bf58dd8d48988d121941735","category":"Lounge","checkinsCount":250,"usersCount":172,"tipCount":3,"visitsCount":252,"tier":"","message":"","currency":"","rating":6.1},{"name":"Green Door","phone":"7072559663","address":"2955 Solano Ave","lat":38.31337693333333,"lng":-122.307144,"city_fetched":"Vallejo,US","state":"CA","country":"United States","canonicalUrl":"https://foursquare.com/v/green-door/4be7a925d837c9b63e7aa406","categoryId":"4bf58dd8d48988d118941735","category":"Dive Bar","checkinsCount":979,"usersCount":220,"tipCount":2,"visitsCount":1023,"tier":"","message":"","currency":"","rating":5.9},{"name":"Pappy's Bar and Grill","phone":"5104051000","address":"2367 Telegraph Ave","lat":37.86758155541368,"lng":-122.25884461668034,"neighborhood":"Southside","city_fetched":"Vallejo,US","state":"CA","country":"United States","canonicalUrl":"https://foursquare.com/v/pappys-bar-and-grill/4f0a0696e4b0ca3a5de6cc99","categoryId":"4bf58dd8d48988d11d941735","category":"Sports Bar","checkinsCount":4504,"usersCount":2397,"tipCount":31,"visitsCount":4871,"url":"http://www.pappysontelegraph.com","tier":2,"message":"Moderate","currency":"$","rating":5.9},{"name":"George & Walt's","phone":"5106537441","address":"5445 College Ave","lat":37.84112072440258,"lng":-122.25163815135261,"neighborhood":"North Oakland","city_fetched":"Vallejo,US","state":"CA","country":"United States","canonicalUrl":"https://foursquare.com/v/george--walts/46918310f964a520af481fe3","categoryId":"4bf58dd8d48988d116941735","category":"Bar","checkinsCount":1357,"usersCount":824,"tipCount":11,"visitsCount":1491,"tier":1,"message":"Cheap","currency":"$","rating":5.9},{"name":"Captain's Chest","phone":"9256872800","address":"785 Oak Grove Rd","lat":37.93699719738374,"lng":-122.02482801459541,"city_fetched":"Vallejo,US","state":"CA","country":"United States","canonicalUrl":"https://foursquare.com/v/captains-chest/4c551b4406901b8d7bbde24c","categoryId":"4bf58dd8d48988d118941735","category":"Dive Bar","checkinsCount":482,"usersCount":229,"tipCount":5,"visitsCount":506,"tier":"","message":"","currency":"","rating":5.9},{"name":"Lift Lounge & Grill","phone":"9256984857","twitter":"liftloungewc","address":"1321 Locust St","lat":37.897715727400346,"lng":-122.061710357666,"neighborhood":"Downtown Walnut Creek","city_fetched":"Vallejo,US","state":"CA","country":"United States","canonicalUrl":"https://foursquare.com/v/lift-lounge--grill/4ba46642f964a520d99a38e3","categoryId":"4bf58dd8d48988d121941735","category":"Lounge","checkinsCount":1437,"usersCount":824,"tipCount":16,"visitsCount":1448,"url":"http://www.liftloungeandgrill.com","tier":"","message":"","currency":"","rating":5.8},{"name":"WPLJ's","address":"2112 N Main St","lat":37.908926010131836,"lng":-122.0646457,"neighborhood":"Downtown Walnut Creek","city_fetched":"Vallejo,US","state":"CA","country":"United States","canonicalUrl":"https://foursquare.com/v/wpljs/4a558b73f964a5203bb41fe3","categoryId":"4bf58dd8d48988d116941735","category":"Bar","checkinsCount":564,"usersCount":228,"tipCount":11,"visitsCount":589,"tier":"","message":"","currency":"","rating":5.7},{"name":"Ye Olde Hut","phone":"5106532565","address":"5515 College Ave","lat":37.84289053,"lng":-122.2517982,"neighborhood":"North Oakland","city_fetched":"Vallejo,US","state":"CA","country":"United States","canonicalUrl":"https://foursquare.com/v/ye-olde-hut/469186b6f964a520b8481fe3","categoryId":"4bf58dd8d48988d118941735","category":"Dive Bar","checkinsCount":1120,"usersCount":656,"tipCount":11,"visitsCount":1153,"tier":1,"message":"Cheap","currency":"$","rating":5.7},{"name":"Descanso Latin American Restaurant, Bar & Grill","phone":"5109850990","twitter":"eatdescanso","address":"4184 Piedmont Ave","lat":37.827074,"lng":-122.2511276,"neighborhood":"Piedmont Avenue","city_fetched":"Vallejo,US","state":"CA","country":"United States","canonicalUrl":"https://foursquare.com/v/descanso-latin-american-restaurant-bar--grill/4a5958baf964a52046b91fe3","categoryId":"4bf58dd8d48988d116941735","category":"Bar","checkinsCount":662,"usersCount":431,"tipCount":11,"visitsCount":664,"url":"http://www.parkavebar.com","tier":"","message":"","currency":"","rating":5.7},{"name":"Kip's Bar","phone":"5108484340","twitter":"kipsberkeley","address":"2439 Durant Ave","lat":37.867942491463474,"lng":-122.25972175598145,"neighborhood":"Southside","city_fetched":"Vallejo,US","state":"CA","country":"United States","canonicalUrl":"https://foursquare.com/v/kips-bar/4a726ca5f964a5200cdb1fe3","categoryId":"4bf58dd8d48988d116941735","category":"Bar","checkinsCount":3237,"usersCount":1671,"tipCount":24,"visitsCount":3443,"url":"http://kipsberkeley.com","tier":"","message":"","currency":"","rating":5.6},{"name":"Broken Drum Brewery","phone":"4154564677","address":"1132 4th St","lat":37.973243,"lng":-122.528985,"neighborhood":"Downtown San Rafael","city_fetched":"Vallejo,US","state":"CA","country":"United States","canonicalUrl":"https://foursquare.com/v/broken-drum-brewery/4af1ec91f964a52071e421e3","categoryId":"50327c8591d4c4b30a586d5d","category":"Brewery","checkinsCount":928,"usersCount":547,"tipCount":13,"visitsCount":942,"tier":"","message":"","currency":"","rating":5.4},{"name":"Crogan's Bar & Grill","phone":"9259337800","address":"1387 Locust St","lat":37.89877732997174,"lng":-122.06222993257713,"neighborhood":"Downtown Walnut Creek","city_fetched":"Vallejo,US","state":"CA","country":"United States","canonicalUrl":"https://foursquare.com/v/crogans-bar--grill/4b40673bf964a5200ab825e3","categoryId":"4bf58dd8d48988d116941735","category":"Bar","checkinsCount":1589,"usersCount":946,"tipCount":8,"visitsCount":1631,"url":"http://www.crogansbarandgrill.com","tier":"","message":"","currency":"","rating":5}]