[{"name":"Roadhouse","phone":"6056247336","address":"911 E Cherry St","lat":42.78680311929191,"lng":-96.91759943962097,"city_fetched":"Vermillion","state":"SD","country":"United States","canonicalUrl":"https://foursquare.com/v/roadhouse/4b7d569df964a52006b92fe3","category":"American Restaurant","checkinsCount":611,"usersCount":211,"tipCount":9,"visitsCount":611,"tier":"","message":"","currency":"","rating":8.1},{"name":"Carey's Bar","phone":"6056249921","address":"18 W Main St","lat":42.7792603,"lng":-96.933287,"city_fetched":"Vermillion","state":"SD","country":"United States","canonicalUrl":"https://foursquare.com/v/careys-bar/4b9339e1f964a520203c34e3","category":"Bar","checkinsCount":3013,"usersCount":427,"tipCount":15,"visitsCount":3085,"tier":"","message":"","currency":"","rating":7.7},{"name":"Main Street Pub","phone":"6056247670","address":"11 W Main St","lat":42.77955288,"lng":-96.93274671666667,"city_fetched":"Vermillion","state":"SD","country":"United States","canonicalUrl":"https://foursquare.com/v/main-street-pub/4b930d8df964a520ac3134e3","category":"Pub","checkinsCount":1033,"usersCount":260,"tipCount":10,"visitsCount":1040,"tier":"","message":"","currency":"","rating":7.4},{"name":"Bunyans","phone":"6056249971","address":"1201 W Main St","lat":42.781577663316085,"lng":-96.9493445814548,"city_fetched":"Vermillion","state":"SD","country":"United States","canonicalUrl":"https://foursquare.com/v/bunyans/4baeb465f964a52097d03be3","category":"Bar","checkinsCount":400,"usersCount":195,"tipCount":5,"visitsCount":505,"tier":"","message":"","currency":"","rating":7.3},{"name":"Leo's Bar and Grill","phone":"6056249991","address":"11 Market St","lat":42.77899351335872,"lng":-96.93408821864924,"city_fetched":"Vermillion","state":"SD","country":"United States","canonicalUrl":"https://foursquare.com/v/leos-bar-and-grill/4b9abb7ef964a520d3d035e3","category":"Sports Bar","checkinsCount":1325,"usersCount":220,"tipCount":4,"visitsCount":1358,"tier":"","message":"","currency":"","rating":6.7},{"name":"Raziel's","phone":"6056249696","address":"13 W Main St","lat":42.77945701666667,"lng":-96.93289425,"city_fetched":"Vermillion","state":"SD","country":"United States","canonicalUrl":"https://foursquare.com/v/raziels/4b933058f964a520343a34e3","category":"Restaurant","checkinsCount":512,"usersCount":172,"tipCount":9,"visitsCount":512,"url":"http://raziels.com","tier":2,"message":"Moderate","currency":"$","rating":6.3},{"name":"Old Lumber Company","phone":"6056589663","address":"15 Court St","lat":42.77853943658493,"lng":-96.93267810135464,"city_fetched":"Vermillion","state":"SD","country":"United States","canonicalUrl":"https://foursquare.com/v/old-lumber-company/500c6633e4b084af1eb2651e","category":"Sports Bar","checkinsCount":475,"usersCount":228,"tipCount":8,"visitsCount":563,"url":"http://oldlumbercompany.com","tier":2,"message":"Moderate","currency":"$","rating":6.2},{"name":"Howler's Bar & Grille","phone":"6056242657","address":"912 N Dakota St","lat":42.788901,"lng":-96.92939,"city_fetched":"Vermillion","state":"SD","country":"United States","canonicalUrl":"https://foursquare.com/v/howlers-bar--grille/51e0bc2c498e1d7e83e5f47d","category":"Bar","checkinsCount":129,"usersCount":87,"tipCount":3,"visitsCount":158,"tier":"","message":"","currency":"","rating":6},{"name":"Charcoal Lounge","phone":"6056244221","address":"8 E Main St","lat":42.77947662136752,"lng":-96.93175027116858,"city_fetched":"Vermillion","state":"SD","country":"United States","canonicalUrl":"https://foursquare.com/v/charcoal-lounge/4b93232af964a5202c3734e3","category":"Bar","checkinsCount":1032,"usersCount":212,"tipCount":12,"visitsCount":1040,"tier":"","message":"","currency":"","rating":5}]