[{"name":"Krogh's Restaurant & Brew Pub","phone":"9737298428","twitter":"kroghsbrew","address":"23 White Deer Plz","lat":41.03120653960585,"lng":-74.64036057586665,"city_fetched":"Vernon,US","state":"NJ","country":"United States","canonicalUrl":"https://foursquare.com/kroghsbrew","categoryId":"4bf58dd8d48988d11b941735","category":"Pub","checkinsCount":4613,"usersCount":1639,"tipCount":41,"visitsCount":5212,"url":"http://www.kroghs.com","tier":2,"message":"Moderate","currency":"$","rating":8.9},{"name":"Nina","phone":"8453446800","twitter":"ninarestaurant","address":"27 W Main St","lat":41.44509083709669,"lng":-74.42117214202881,"city_fetched":"Vernon,US","state":"NY","country":"United States","canonicalUrl":"https://foursquare.com/v/nina/4b89d24cf964a520eb4e32e3","categoryId":"4bf58dd8d48988d123941735","category":"Wine Bar","checkinsCount":1180,"usersCount":459,"tipCount":15,"visitsCount":1290,"url":"http://www.nina-restaurant.com","tier":2,"message":"Moderate","currency":"$","rating":8.6},{"name":"Penning's Beer Garden","phone":"8459861059","address":"161 State Route 94 N","lat":41.23559095869313,"lng":-74.38256372800495,"city_fetched":"Vernon,US","state":"NY","country":"United States","canonicalUrl":"https://foursquare.com/v/pennings-beer-garden/4e88b26f82317e10c2ab60f6","categoryId":"4bf58dd8d48988d117941735","category":"Beer Garden","checkinsCount":601,"usersCount":400,"tipCount":14,"visitsCount":612,"tier":"","message":"","currency":"","rating":8.6},{"name":"Rushing Duck Brewing Company","address":"1 Battiato Ln","lat":41.362124516261325,"lng":-74.27039845886061,"city_fetched":"Vernon,US","state":"NY","country":"United States","canonicalUrl":"https://foursquare.com/v/rushing-duck-brewing-company/4f2e9d3ee4b0fed2af97e2b5","categoryId":"50327c8591d4c4b30a586d5d","category":"Brewery","checkinsCount":552,"usersCount":434,"tipCount":9,"visitsCount":739,"url":"http://rushingduck.com","tier":"","message":"","currency":"","rating":8.6},{"name":"Clemson Brothers Brewery","address":"22 Cottage St","lat":41.4474348192804,"lng":-74.41537514958786,"city_fetched":"Vernon,US","state":"NY","country":"United States","canonicalUrl":"https://foursquare.com/v/clemson-brothers-brewery/5619b2fd498e8f457bb97624","categoryId":"50327c8591d4c4b30a586d5d","category":"Brewery","checkinsCount":178,"usersCount":183,"tipCount":4,"visitsCount":306,"tier":"","message":"","currency":"","rating":8.4},{"name":"Westtown Brew Works","address":"236 Schefflers Rd","lat":41.31194987654471,"lng":-74.53068219997621,"city_fetched":"Vernon,US","state":"New York","country":"United States","canonicalUrl":"https://foursquare.com/v/westtown-brew-works/54319f6f498e412e7dbbf331","categoryId":"50327c8591d4c4b30a586d5d","category":"Brewery","checkinsCount":110,"usersCount":128,"tipCount":3,"visitsCount":179,"url":"http://westtownbrewworks.com","tier":"","message":"","currency":"","rating":8.2},{"name":"Thatcher McGhee's","phone":"9738393377","twitter":"thatchermcghees","address":"6 Wanaque Ave","lat":41.007633448993175,"lng":-74.29512977600098,"city_fetched":"Vernon,US","state":"NJ","country":"United States","canonicalUrl":"https://foursquare.com/thatchermcghees","categoryId":"4bf58dd8d48988d11b941735","category":"Pub","checkinsCount":10723,"usersCount":2930,"tipCount":45,"visitsCount":12118,"url":"http://www.thatchermcghees.com/pompton","tier":2,"message":"Moderate","currency":"$","rating":8.2},{"name":"Gatwyn's II","phone":"9736632596","address":"900 State Route 15 N","lat":40.97005886676332,"lng":-74.59838282874674,"city_fetched":"Vernon,US","state":"NJ","country":"United States","canonicalUrl":"https://foursquare.com/v/gatwyns-ii/4bf1ee063fa220a1c7e81820","categoryId":"4bf58dd8d48988d118941735","category":"Dive Bar","checkinsCount":502,"usersCount":278,"tipCount":7,"visitsCount":709,"tier":"","message":"","currency":"","rating":8.2},{"name":"River Of Beer","phone":"9737501820","twitter":"riverobeer","address":"133 Main St","lat":41.00363261611658,"lng":-74.33371338191911,"city_fetched":"Vernon,US","state":"NJ","country":"United States","canonicalUrl":"https://foursquare.com/v/river-of-beer/56183d84498e1deab74ad289","categoryId":"4bf58dd8d48988d11b941735","category":"Pub","checkinsCount":213,"usersCount":96,"tipCount":4,"visitsCount":306,"url":"http://www.riverofbeer.com","tier":"","message":"","currency":"","rating":8.2},{"name":"Flatbrook Taphouse","phone":"9739484785","address":"Sandyston, NJ","lat":41.22527121666667,"lng":-74.802991,"city_fetched":"Vernon,US","state":"NJ","country":"United States","canonicalUrl":"https://foursquare.com/v/flatbrook-taphouse/4d72f3563815f04dc8949567","categoryId":"4bf58dd8d48988d11b941735","category":"Pub","checkinsCount":224,"usersCount":120,"tipCount":3,"visitsCount":272,"tier":"","message":"","currency":"","rating":8.1},{"name":"Jimmy Geez North","phone":"9736974339","address":"3219 State Rt 23","lat":41.0606842636929,"lng":-74.48020138108161,"city_fetched":"Vernon,US","state":"NJ","country":"United States","canonicalUrl":"https://foursquare.com/v/jimmy-geez-north/5175bbb3e4b090a0743c1621","categoryId":"4bf58dd8d48988d116941735","category":"Bar","checkinsCount":1331,"usersCount":569,"tipCount":16,"visitsCount":1921,"url":"http://jimmygeeznorth.com","tier":2,"message":"Moderate","currency":"$","rating":8},{"name":"The Blarney Station","phone":"8459861509","address":"10 Railroad Ave","lat":41.25610272,"lng":-74.35969563333333,"city_fetched":"Vernon,US","state":"NY","country":"United States","canonicalUrl":"https://foursquare.com/v/the-blarney-station/4bc90677fb84c9b6c85c1a3e","categoryId":"4bf58dd8d48988d116941735","category":"Bar","checkinsCount":599,"usersCount":288,"tipCount":7,"visitsCount":628,"url":"http://theblarneystation.com","tier":"","message":"","currency":"","rating":8},{"name":"Blue Boar Inn","address":"600 Route 17A, Tuxedo, NY","lat":41.24886996249759,"lng":-74.23133630473535,"city_fetched":"Vernon,US","state":"NY","country":"United States","canonicalUrl":"https://foursquare.com/v/blue-boar-inn/4c3a537d2c8020a1b0418e00","categoryId":"4bf58dd8d48988d116941735","category":"Bar","checkinsCount":173,"usersCount":125,"tipCount":4,"visitsCount":174,"tier":"","message":"","currency":"","rating":8},{"name":"The Sweet Onion Brewhouse","phone":"8456512337","address":"28 N Main St","lat":41.33273978333333,"lng":-74.35706365,"city_fetched":"Vernon,US","state":"NY","country":"United States","canonicalUrl":"https://foursquare.com/v/the-sweet-onion-brewhouse/4ba60581f964a520bf2e39e3","categoryId":"4bf58dd8d48988d116941735","category":"Bar","checkinsCount":324,"usersCount":86,"tipCount":7,"visitsCount":324,"tier":"","message":"","currency":"","rating":7.9},{"name":"Angry Eriks Brewing","address":"10 Millpond Dr Unit 8","lat":41.09344093536325,"lng":-74.71710626215446,"city_fetched":"Vernon,US","state":"NJ","country":"United States","canonicalUrl":"https://foursquare.com/v/angry-eriks-brewing/52ffc1f4498eb2cddec02c57","categoryId":"50327c8591d4c4b30a586d5d","category":"Brewery","checkinsCount":503,"usersCount":300,"tipCount":6,"visitsCount":672,"tier":"","message":"","currency":"","rating":7.9},{"name":"Amazing Grapes","phone":"9738315700","twitter":"pomptongrapes","address":"23 Wanaque Ave","lat":41.008429,"lng":-74.29329,"city_fetched":"Vernon,US","state":"NJ","country":"United States","canonicalUrl":"https://foursquare.com/v/amazing-grapes/4c2a17a0fe6e2d7f69cf553c","categoryId":"4bf58dd8d48988d123941735","category":"Wine Bar","checkinsCount":559,"usersCount":204,"tipCount":5,"visitsCount":597,"url":"http://www.amazinggrapes.net","tier":"","message":"","currency":"","rating":7.9},{"name":"Erie Hotel","address":"9 Jersey Ave","lat":41.37269854545593,"lng":-74.69166145,"city_fetched":"Vernon,US","state":"NY","country":"United States","canonicalUrl":"https://foursquare.com/v/erie-hotel/4b81aa3af964a5205fb630e3","categoryId":"4bf58dd8d48988d11b941735","category":"Pub","checkinsCount":811,"usersCount":434,"tipCount":3,"visitsCount":911,"url":"http://theeriehotel.com","tier":"","message":"","currency":"","rating":7.8},{"name":"Lamp Post","phone":"9738759134","lat":41.21016329825238,"lng":-74.5514517242307,"city_fetched":"Vernon,US","state":"NJ","country":"United States","canonicalUrl":"https://foursquare.com/v/lamp-post/4ba4278ff964a520258738e3","categoryId":"4bf58dd8d48988d118941735","category":"Dive Bar","checkinsCount":449,"usersCount":281,"tipCount":8,"visitsCount":617,"tier":"","message":"","currency":"","rating":7.8},{"name":"The Switch Inn","phone":"8453411347","address":"126 E Main St","lat":41.44593486588261,"lng":-74.41333678013036,"city_fetched":"Vernon,US","state":"NY","country":"United States","canonicalUrl":"https://foursquare.com/v/the-switch-inn/4b74cd4ff964a520d8f22de3","categoryId":"4bf58dd8d48988d118941735","category":"Dive Bar","checkinsCount":358,"usersCount":127,"tipCount":7,"visitsCount":403,"url":"http://switchinn.com","tier":"","message":"","currency":"","rating":7.8},{"name":"Halligan's Public House","phone":"8459862914","address":"22 West St","lat":41.2567351,"lng":-74.36111506666667,"city_fetched":"Vernon,US","state":"NY","country":"United States","canonicalUrl":"https://foursquare.com/v/halligans-public-house/4bca61800687ef3ba802dccc","categoryId":"4bf58dd8d48988d11b941735","category":"Pub","checkinsCount":1243,"usersCount":596,"tipCount":17,"visitsCount":1405,"url":"http://www.halliganswarwick.com","tier":"","message":"","currency":"","rating":7.7},{"name":"Old School Pub","phone":"9738537474","address":"551 Warwick Tpke","lat":41.16792457460449,"lng":-74.39306633041596,"city_fetched":"Vernon,US","state":"NJ","country":"United States","canonicalUrl":"https://foursquare.com/v/old-school-pub/4b4b75a1f964a5208e9c26e3","categoryId":"4bf58dd8d48988d11b941735","category":"Pub","checkinsCount":1721,"usersCount":195,"tipCount":3,"visitsCount":1775,"tier":"","message":"","currency":"","rating":7.7},{"name":"Touch Base","phone":"8454692688","address":"9 Winkler Pl","lat":41.362631598120835,"lng":-74.27058755989728,"city_fetched":"Vernon,US","state":"NY","country":"United States","canonicalUrl":"https://foursquare.com/v/touch-base/4c4bdd3ebad7a5932c1d70ac","categoryId":"4bf58dd8d48988d116941735","category":"Bar","checkinsCount":217,"usersCount":133,"tipCount":3,"visitsCount":221,"url":"http://touchbasebar.com","tier":"","message":"","currency":"","rating":7.7},{"name":"Horse & Sulky Pub & Grill","phone":"8456145928","address":"206 Sarah Wells Trl","lat":41.43554569290129,"lng":-74.25878269517852,"city_fetched":"Vernon,US","state":"NY","country":"United States","canonicalUrl":"https://foursquare.com/v/horse--sulky-pub--grill/4ee6bb5f0e61681b98653064","categoryId":"4bf58dd8d48988d11b941735","category":"Pub","checkinsCount":258,"usersCount":164,"tipCount":11,"visitsCount":373,"tier":"","message":"","currency":"","rating":7.6},{"name":"The Grill","phone":"5704919000","address":"1012 Pennsylvania Ave","lat":41.362383,"lng":-74.706839,"city_fetched":"Vernon,US","state":"PA","country":"United States","canonicalUrl":"https://foursquare.com/v/the-grill/4bd053929854d13a2274f74d","categoryId":"4bf58dd8d48988d11d941735","category":"Sports Bar","checkinsCount":1464,"usersCount":591,"tipCount":14,"visitsCount":1708,"url":"http://the-grill.net","tier":2,"message":"Moderate","currency":"$","rating":7.6},{"name":"The Lounge: Uncorked Wines","phone":"9737281355","address":"9 Marshall Hill Rd","lat":41.13237113522774,"lng":-74.36659675809686,"city_fetched":"Vernon,US","state":"NJ","country":"United States","canonicalUrl":"https://foursquare.com/v/the-lounge-uncorked-wines/4e5ffadafa76cd64cd29d7bb","categoryId":"4bf58dd8d48988d121941735","category":"Lounge","checkinsCount":785,"usersCount":109,"tipCount":3,"visitsCount":794,"tier":"","message":"","currency":"","rating":7.5},{"name":"Flip's Bar","address":"18 Railroad Ave","lat":41.049278197410636,"lng":-74.28908413060608,"city_fetched":"Vernon,US","state":"NJ","country":"United States","canonicalUrl":"https://foursquare.com/v/flips-bar/4b10bc52f964a520387523e3","categoryId":"4bf58dd8d48988d116941735","category":"Bar","checkinsCount":468,"usersCount":185,"tipCount":9,"visitsCount":532,"tier":"","message":"","currency":"","rating":7.5},{"name":"Gyp's Tavern","phone":"9739485013","address":"25 US Highway 206 S","lat":41.17833904000281,"lng":-74.79409575462341,"city_fetched":"Vernon,US","state":"NJ","country":"United States","canonicalUrl":"https://foursquare.com/v/gyps-tavern/4b019bf8f964a520d74322e3","categoryId":"4bf58dd8d48988d116941735","category":"Bar","checkinsCount":1065,"usersCount":273,"tipCount":1,"visitsCount":1246,"tier":"","message":"","currency":"","rating":7.5},{"name":"The Vineyards Wine & Spirit Shop","phone":"8456929077","address":"10 Tower Dr","lat":41.46383279095405,"lng":-74.37248431445727,"city_fetched":"Vernon,US","state":"NY","country":"United States","canonicalUrl":"https://foursquare.com/v/the-vineyards-wine--spirit-shop/4e419fe07d8bec1e4d0e2e7f","categoryId":"4bf58dd8d48988d123941735","category":"Wine Bar","checkinsCount":803,"usersCount":185,"tipCount":3,"visitsCount":862,"tier":"","message":"","currency":"","rating":7.4},{"name":"Village Saloon","phone":"9737295110","address":"712 Woodport Rd","lat":41.001278,"lng":-74.616145,"city_fetched":"Vernon,US","state":"NJ","country":"United States","canonicalUrl":"https://foursquare.com/v/village-saloon/4c0ae7f7ffb8c9b601776c61","categoryId":"4bf58dd8d48988d118941735","category":"Dive Bar","checkinsCount":223,"usersCount":157,"tipCount":8,"visitsCount":282,"tier":"","message":"","currency":"","rating":7.4},{"name":"Emerald Point","phone":"8454772275","address":"40 Sterling Rd","lat":41.21788135,"lng":-74.29205505,"city_fetched":"Vernon,US","state":"NY","country":"United States","canonicalUrl":"https://foursquare.com/v/emerald-point/4ba50de9f964a52066d638e3","categoryId":"4bf58dd8d48988d116941735","category":"Bar","checkinsCount":951,"usersCount":669,"tipCount":11,"visitsCount":1231,"url":"http://www.donlewisband.com","tier":"","message":"","currency":"","rating":7.4},{"name":"Lakeside Tavern","phone":"9739483334","address":"436 US Highway 206","lat":41.1619523950502,"lng":-74.78723466396332,"city_fetched":"Vernon,US","state":"NJ","country":"United States","canonicalUrl":"https://foursquare.com/v/lakeside-tavern/4c2bb571b34ad13a4c36eace","categoryId":"4bf58dd8d48988d116941735","category":"Bar","checkinsCount":951,"usersCount":184,"tipCount":5,"visitsCount":978,"tier":"","message":"","currency":"","rating":7.3},{"name":"The Milton Inn","address":"3 Ridge Rd","lat":41.0357294273392,"lng":-74.50700283050537,"city_fetched":"Vernon,US","state":"NJ","country":"United States","canonicalUrl":"https://foursquare.com/v/the-milton-inn/4b8ef4e7f964a5200f4133e3","categoryId":"4bf58dd8d48988d116941735","category":"Bar","checkinsCount":1242,"usersCount":333,"tipCount":8,"visitsCount":1463,"tier":"","message":"","currency":"","rating":6.9},{"name":"Players","phone":"8453426263","address":"30 Henry St","lat":41.4459443209478,"lng":-74.42201686537105,"city_fetched":"Vernon,US","state":"NY","country":"United States","canonicalUrl":"https://foursquare.com/v/players/4b89d221f964a520d94e32e3","categoryId":"4bf58dd8d48988d116941735","category":"Bar","checkinsCount":1995,"usersCount":165,"tipCount":3,"visitsCount":2226,"tier":1,"message":"Cheap","currency":"$","rating":6.9},{"name":"Poor Bobby's Hard Times Tavern","phone":"8453444273","address":"29 Center St","lat":41.4466714301484,"lng":-74.42040798977274,"city_fetched":"Vernon,US","state":"NY","country":"United States","canonicalUrl":"https://foursquare.com/v/poor-bobbys-hard-times-tavern/4b89d1eff964a520c94e32e3","categoryId":"4bf58dd8d48988d116941735","category":"Bar","checkinsCount":1407,"usersCount":324,"tipCount":13,"visitsCount":1577,"tier":1,"message":"Cheap","currency":"$","rating":6.9},{"name":"Island of Spirits","phone":"9736975100","address":"3025 State Rt 23","lat":41.05579165,"lng":-74.46421171,"city_fetched":"Vernon,US","state":"NJ","country":"United States","canonicalUrl":"https://foursquare.com/v/island-of-spirits/4be8bf0f88ed2d7f2750cc1d","categoryId":"4bf58dd8d48988d116941735","category":"Bar","checkinsCount":1214,"usersCount":222,"tipCount":16,"visitsCount":1241,"tier":2,"message":"Moderate","currency":"$","rating":6.9},{"name":"Mountain Rest Inn","phone":"9736979751","address":"17 Wooley Rd","lat":41.08545,"lng":-74.40371632575989,"city_fetched":"Vernon,US","state":"NJ","country":"United States","canonicalUrl":"https://foursquare.com/v/mountain-rest-inn/4b9d49c6f964a5207ca036e3","categoryId":"4bf58dd8d48988d118941735","category":"Dive Bar","checkinsCount":177,"usersCount":103,"tipCount":2,"visitsCount":229,"tier":"","message":"","currency":"","rating":6.9},{"name":"Big John's Pub","phone":"9736973899","address":"49 Old Rt 23","lat":41.0461138988648,"lng":-74.43656478968714,"city_fetched":"Vernon,US","state":"NJ","country":"United States","canonicalUrl":"https://foursquare.com/v/big-johns-pub/4bcce91068f976b00b8a6383","categoryId":"4bf58dd8d48988d116941735","category":"Bar","checkinsCount":666,"usersCount":213,"tipCount":5,"visitsCount":767,"tier":"","message":"","currency":"","rating":6.8},{"name":"Jack's Pub & Restaurant","phone":"8453553555","address":"2853-2869 Route 6","lat":41.39237359254696,"lng":-74.46744868374168,"city_fetched":"Vernon,US","state":"NY","country":"United States","canonicalUrl":"https://foursquare.com/v/jacks-pub--restaurant/4db892e60cb6ddfae423b989","categoryId":"4bf58dd8d48988d11b941735","category":"Pub","checkinsCount":356,"usersCount":159,"tipCount":5,"visitsCount":357,"tier":"","message":"","currency":"","rating":6.8},{"name":"Murphy's Tavern","phone":"8454778519","address":"85 Windermere Ave","lat":41.2237,"lng":-74.293378,"city_fetched":"Vernon,US","state":"NY","country":"United States","canonicalUrl":"https://foursquare.com/v/murphys-tavern/4b9c3bf9f964a520815736e3","categoryId":"4bf58dd8d48988d116941735","category":"Bar","checkinsCount":581,"usersCount":304,"tipCount":7,"visitsCount":750,"tier":"","message":"","currency":"","rating":6.8},{"name":"W's Grill","phone":"2016510005","address":"20 Elm St","lat":41.024818,"lng":-74.242815,"city_fetched":"Vernon,US","state":"NJ","country":"United States","canonicalUrl":"https://foursquare.com/v/ws-grill/541e42b3498ea8146c09859b","categoryId":"4bf58dd8d48988d11d941735","category":"Sports Bar","checkinsCount":145,"usersCount":61,"tipCount":2,"visitsCount":173,"tier":"","message":"","currency":"","rating":6.7},{"name":"Slattery's Florida Bar & Grill","phone":"8456518031","address":"14 N Main St","lat":41.33238580160327,"lng":-74.3571424484253,"city_fetched":"Vernon,US","state":"NY","country":"United States","canonicalUrl":"https://foursquare.com/v/slatterys-florida-bar--grill/4ba603f3f964a520642e39e3","categoryId":"4bf58dd8d48988d116941735","category":"Bar","checkinsCount":442,"usersCount":90,"tipCount":2,"visitsCount":517,"tier":"","message":"","currency":"","rating":6.6},{"name":"Mason Street Pub","phone":"9736634412","address":"24 Mason St","lat":40.98147545260407,"lng":-74.61671859025955,"city_fetched":"Vernon,US","state":"NJ","country":"United States","canonicalUrl":"https://foursquare.com/v/mason-street-pub/4bafdda3f964a52043273ce3","categoryId":"4bf58dd8d48988d116941735","category":"Bar","checkinsCount":990,"usersCount":573,"tipCount":10,"visitsCount":1176,"tier":"","message":"","currency":"","rating":6.5},{"name":"The George Inn","phone":"9738275758","address":"84 State Rt 94","lat":41.17829866395368,"lng":-74.54048752784729,"city_fetched":"Vernon,US","state":"NJ","country":"United States","canonicalUrl":"https://foursquare.com/v/the-george-inn/4b773472f964a520a6872ee3","categoryId":"4bf58dd8d48988d11b941735","category":"Pub","checkinsCount":1085,"usersCount":518,"tipCount":20,"visitsCount":1240,"url":"http://www.georgeinn1872.com","tier":2,"message":"Moderate","currency":"$","rating":6.5},{"name":"The Side Door Bar and Grill","phone":"9738394231","twitter":"sidedoorbar","address":"33 Colfax Ave","lat":41.00599273087591,"lng":-74.29010402310377,"city_fetched":"Vernon,US","state":"NJ","country":"United States","canonicalUrl":"https://foursquare.com/v/the-side-door-bar-and-grill/4bd32b3777b29c748c189082","categoryId":"4bf58dd8d48988d116941735","category":"Bar","checkinsCount":368,"usersCount":109,"tipCount":6,"visitsCount":417,"url":"http://thesidedoorbarandgrill.com","tier":"","message":"","currency":"","rating":6.4},{"name":"Airport Pub And Package","address":"65 County Rd 639","lat":41.199471,"lng":-74.62749616666666,"city_fetched":"Vernon,US","state":"NJ","country":"United States","canonicalUrl":"https://foursquare.com/v/airport-pub-and-package/4b126ab0f964a520ba8923e3","categoryId":"4bf58dd8d48988d116941735","category":"Bar","checkinsCount":1679,"usersCount":350,"tipCount":16,"visitsCount":1887,"tier":"","message":"","currency":"","rating":6.4},{"name":"The Vernon Inn","phone":"9737649888","address":"340 State Rt 94","lat":41.201315990241525,"lng":-74.47995526506281,"city_fetched":"Vernon,US","state":"NJ","country":"United States","canonicalUrl":"https://foursquare.com/v/the-vernon-inn/4bb4a2a9531c9521b937eaa8","categoryId":"4bf58dd8d48988d116941735","category":"Bar","checkinsCount":895,"usersCount":418,"tipCount":9,"visitsCount":1090,"tier":"","message":"","currency":"","rating":6.4},{"name":"Likquid Lounge","phone":"8456105222","address":"69 Brookside Ave","lat":41.35438274791051,"lng":-74.28148059440703,"city_fetched":"Vernon,US","state":"NY","country":"United States","canonicalUrl":"https://foursquare.com/v/likquid-lounge/51eb1a55498e036d13329dcb","categoryId":"4bf58dd8d48988d121941735","category":"Lounge","checkinsCount":138,"usersCount":33,"tipCount":3,"visitsCount":161,"tier":"","message":"","currency":"","rating":6.4},{"name":"The Naughty Monkey Bar & Grill","phone":"8453450272","address":"67 N Main St","lat":41.312916700594116,"lng":-74.15808387241076,"city_fetched":"Vernon,US","state":"NY","country":"United States","canonicalUrl":"https://foursquare.com/v/the-naughty-monkey-bar--grill/504bd2a2e4b03c3db17c0812","categoryId":"4bf58dd8d48988d116941735","category":"Bar","checkinsCount":217,"usersCount":70,"tipCount":8,"visitsCount":231,"url":"http://naughtymonkeybar.com","tier":"","message":"","currency":"","rating":6.2},{"name":"Pompton Lakes Elks Lodge","phone":"9738351895","address":"15 Perrin Ave","lat":41.00853992688399,"lng":-74.27545827657039,"city_fetched":"Vernon,US","state":"NJ","country":"United States","canonicalUrl":"https://foursquare.com/v/pompton-lakes-elks-lodge/4b919811f964a52057c833e3","categoryId":"4bf58dd8d48988d116941735","category":"Bar","checkinsCount":218,"usersCount":167,"tipCount":3,"visitsCount":315,"tier":"","message":"","currency":"","rating":6.2},{"name":"J Towne Tavern","phone":"9738102810","twitter":"jtownetavern1","address":"5 Bowling Green Pkwy Ste 12","lat":40.96239245899777,"lng":-74.59744691848755,"city_fetched":"Vernon,US","state":"NJ","country":"United States","canonicalUrl":"https://foursquare.com/jtownetavern1","categoryId":"4bf58dd8d48988d116941735","category":"Bar","checkinsCount":1147,"usersCount":486,"tipCount":19,"visitsCount":1187,"url":"http://www.jtownetavern.com","tier":"","message":"","currency":"","rating":6.1},{"name":"Biergarten @ Mountain Creek","address":"Mountain Creek","lat":41.19069316431803,"lng":-74.5055666509973,"city_fetched":"Vernon,US","state":"NJ","country":"United States","canonicalUrl":"https://foursquare.com/v/biergarten--mountain-creek/4f08806de4b0671f27a94a0a","categoryId":"4bf58dd8d48988d117941735","category":"Beer Garden","checkinsCount":698,"usersCount":477,"tipCount":4,"visitsCount":714,"tier":"","message":"","currency":"","rating":6.1},{"name":"Irish Cottage Inn","phone":"9738272090","address":"602 State Rt 23","lat":41.136814981961884,"lng":-74.57182404203766,"city_fetched":"Vernon,US","state":"NJ","country":"United States","canonicalUrl":"https://foursquare.com/v/irish-cottage-inn/4b317e09f964a520e50725e3","categoryId":"4bf58dd8d48988d116941735","category":"Bar","checkinsCount":1961,"usersCount":835,"tipCount":17,"visitsCount":2187,"url":"http://irishcottageinn.net","tier":"","message":"","currency":"","rating":6.1},{"name":"Wes' Tavern","phone":"9738394070","address":"57 Hamburg Tpke","lat":40.998320424070066,"lng":-74.30332199916187,"city_fetched":"Vernon,US","state":"NJ","country":"United States","canonicalUrl":"https://foursquare.com/v/wes-tavern/4d14200f81cea35dcd9cd0ec","categoryId":"4bf58dd8d48988d116941735","category":"Bar","checkinsCount":650,"usersCount":202,"tipCount":3,"visitsCount":800,"tier":"","message":"","currency":"","rating":5.9},{"name":"Stadium Bar & Grill","phone":"9733001323","address":"214 Swartswood Rd","lat":41.062973629088795,"lng":-74.7675290698229,"city_fetched":"Vernon,US","state":"NJ","country":"United States","canonicalUrl":"https://foursquare.com/v/stadium-bar--grill/4e5e687a483bbc5f696d5b96","categoryId":"4bf58dd8d48988d116941735","category":"Bar","checkinsCount":1032,"usersCount":326,"tipCount":8,"visitsCount":1093,"url":"http://www.stadiumbarandgrillnj.comâ€Ž","tier":"","message":"","currency":"","rating":5.7},{"name":"Sneaky Pete's","phone":"9732089277","address":"54 Ridge Rd","lat":41.037868,"lng":-74.51323938333333,"city_fetched":"Vernon,US","state":"NJ","country":"United States","canonicalUrl":"https://foursquare.com/v/sneaky-petes/4b88590ff964a52018f131e3","categoryId":"4bf58dd8d48988d116941735","category":"Bar","checkinsCount":671,"usersCount":219,"tipCount":9,"visitsCount":791,"tier":"","message":"","currency":"","rating":5.7},{"name":"Schuss Bar","address":"200 State Rt 94","lat":41.19083270173552,"lng":-74.50536063020047,"city_fetched":"Vernon,US","state":"NJ","country":"United States","canonicalUrl":"https://foursquare.com/v/schuss-bar/4eef44e60e01899e01b8dc43","categoryId":"4bf58dd8d48988d116941735","category":"Bar","checkinsCount":626,"usersCount":280,"tipCount":6,"visitsCount":632,"tier":"","message":"","currency":"","rating":5.6},{"name":"Pioneer Bar & Grill","phone":"9738530132","address":"350 Warwick Tpke","lat":41.165006,"lng":-74.379359,"city_fetched":"Vernon,US","state":"NJ","country":"United States","canonicalUrl":"https://foursquare.com/v/pioneer-bar--grill/4b4b7627f964a520a99c26e3","categoryId":"4bf58dd8d48988d116941735","category":"Bar","checkinsCount":1349,"usersCount":172,"tipCount":2,"visitsCount":1420,"tier":"","message":"","currency":"","rating":5.6},{"name":"Empty Bottle Saloon","phone":"8453444446","address":"30 W Main St","lat":41.445025396452266,"lng":-74.42126109644298,"city_fetched":"Vernon,US","state":"NY","country":"United States","canonicalUrl":"https://foursquare.com/v/empty-bottle-saloon/4b89d2aff964a5200e4f32e3","categoryId":"4bf58dd8d48988d11f941735","category":"Nightclub","checkinsCount":631,"usersCount":243,"tipCount":4,"visitsCount":633,"tier":"","message":"","currency":"","rating":5.2},{"name":"Kink Bar","phone":"9738272000","address":"200 State Rt 94","lat":41.178799325203514,"lng":-74.53118562698364,"city_fetched":"Vernon,US","state":"NJ","country":"United States","canonicalUrl":"https://foursquare.com/v/kink-bar/4b6eedb9f964a5208ad12ce3","categoryId":"4bf58dd8d48988d11f941735","category":"Nightclub","checkinsCount":626,"usersCount":241,"tipCount":7,"visitsCount":631,"tier":"","message":"","currency":"","rating":4.8}]