[{"name":"Martin's At Midtown","phone":"6016362353","twitter":"martinsmidtown","address":"1101 Belmont St","lat":32.34220146492877,"lng":-90.87997355635078,"city_fetched":"Vicksburg","state":"MS","country":"United States","canonicalUrl":"https://foursquare.com/martinsmidtown","category":"Sandwich Place","checkinsCount":249,"usersCount":67,"tipCount":6,"visitsCount":270,"url":"http://www.martinsatmidtown.com","tier":1,"message":"Cheap","currency":"$","rating":8.1},{"name":"Ameristar Casino Hotel Vicksburg","phone":"6016381000","twitter":"ameristar","address":"4116 Washington St","lat":32.315472928197515,"lng":-90.90033505114498,"city_fetched":"Vicksburg","state":"MS","country":"United States","canonicalUrl":"https://foursquare.com/v/ameristar-casino-hotel-vicksburg/4bb16c6cf964a5208a923ce3","category":"Casino","checkinsCount":1649,"usersCount":1188,"tipCount":18,"visitsCount":2079,"tier":"","message":"","currency":"","rating":6.6},{"name":"DiamondJack's Casino","phone":"6016365700","address":"3990 Washington St","lat":32.32419557715096,"lng":-90.89639888421067,"city_fetched":"Vicksburg","state":"MS","country":"United States","canonicalUrl":"https://foursquare.com/v/diamondjacks-casino/4bb4f5060ef1c9b644abf412","category":"Casino","checkinsCount":355,"usersCount":353,"tipCount":2,"visitsCount":552,"url":"http://www.diamondjacks.com","tier":"","message":"","currency":"","rating":5.9},{"name":"Monsours At The Biscuit Co.","phone":"6016310099","address":"1100 Washington St","lat":32.35206625013243,"lng":-90.88214335139226,"city_fetched":"Vicksburg","state":"MS","country":"United States","canonicalUrl":"https://foursquare.com/v/monsours-at-the-biscuit-co/4bca0d2d511f9521d4e4aec7","category":"Gastropub","checkinsCount":405,"usersCount":178,"tipCount":5,"visitsCount":432,"tier":"","message":"","currency":"","rating":5.4}]