[{"name":"Greeks 205","lat":28.798527639612317,"lng":-97.00496847856967,"city_fetched":"Victoria","state":"Texas","country":"United States","canonicalUrl":"https://foursquare.com/v/greeks-205/4ea227868b81a02f8979ea45","category":"Cocktail Bar","checkinsCount":421,"usersCount":164,"tipCount":7,"visitsCount":498,"tier":"","message":"","currency":"","rating":8.3},{"name":"Golden Gecko","address":"200-298 N Liberty St","lat":28.799874515525275,"lng":-97.0046955951345,"city_fetched":"Victoria","state":"TX","country":"United States","canonicalUrl":"https://foursquare.com/v/golden-gecko/4c6f30dcd97fa1438971f2ca","category":"Cocktail Bar","checkinsCount":274,"usersCount":65,"tipCount":2,"visitsCount":276,"tier":"","message":"","currency":"","rating":7.6},{"name":"Brown Bag Saloon","address":"374-998 Bingham Rd","lat":28.873898565356814,"lng":-96.99765440394823,"city_fetched":"Victoria","state":"TX","country":"United States","canonicalUrl":"https://foursquare.com/v/brown-bag-saloon/4b53512ef964a520119727e3","category":"Bar","checkinsCount":206,"usersCount":91,"tipCount":3,"visitsCount":207,"tier":"","message":"","currency":"","rating":7.1},{"name":"Cactus Canyon","phone":"3615764875","twitter":"cactus_canyon","address":"3613 N Navarro St","lat":28.8281,"lng":-97.0012,"city_fetched":"Victoria","state":"TX","country":"United States","canonicalUrl":"https://foursquare.com/v/cactus-canyon/4b64a252f964a52015c42ae3","category":"Bar","checkinsCount":268,"usersCount":113,"tipCount":8,"visitsCount":269,"url":"http://www.cactuscanyonvictoria.com","tier":"","message":"","currency":"","rating":6.1},{"name":"Sports","address":"5803 John Stockbauer Dr #I","lat":28.861674070358276,"lng":-96.9939146,"city_fetched":"Victoria","state":"TX","country":"United States","canonicalUrl":"https://foursquare.com/v/sports/4e5e8a54e4cdfc603edcce4b","category":"Sports Bar","checkinsCount":184,"usersCount":98,"tipCount":3,"visitsCount":199,"tier":"","message":"","currency":"","rating":5.9},{"name":"Hampton Inn Victoria","phone":"3615739911","twitter":"hampton","address":"7006 N Navarro St","lat":28.861260136278403,"lng":-96.99583274390827,"city_fetched":"Victoria","state":"TX","country":"United States","canonicalUrl":"https://foursquare.com/v/hampton-inn-victoria/4bf6c46013aed13a2828eaf7","category":"Hotel","checkinsCount":348,"usersCount":133,"tipCount":5,"visitsCount":368,"url":"http://www.hampton.com","tier":"","message":"","currency":"","rating":5.8},{"name":"Down Town Bar & Grill","phone":"3615764493","address":"125 E Constitution St","lat":28.798731803514926,"lng":-97.00526760209091,"city_fetched":"Victoria","state":"TX","country":"United States","canonicalUrl":"https://foursquare.com/v/down-town-bar--grill/4ba1b00ef964a52001c837e3","category":"Bar","checkinsCount":174,"usersCount":80,"tipCount":5,"visitsCount":174,"tier":"","message":"","currency":"","rating":5.7},{"name":"Shooters Bar","lat":28.832705,"lng":-97.000373,"city_fetched":"Victoria","state":"TX","country":"United States","canonicalUrl":"https://foursquare.com/v/shooters-bar/4ba19485f964a520ebc137e3","category":"Bar","checkinsCount":266,"usersCount":123,"tipCount":2,"visitsCount":284,"tier":"","message":"","currency":"","rating":5.5}]