[{"name":"Tomfoolery Brewing Co","address":"334 Washington St N","lat":39.63776957164032,"lng":-74.81118984595045,"city_fetched":"Vineland,US","state":"NJ","country":"United States","canonicalUrl":"https://foursquare.com/v/tomfoolery-brewing-co/56621a8f498e79f35c719b9e","categoryId":"50327c8591d4c4b30a586d5d","category":"Brewery","checkinsCount":104,"usersCount":95,"tipCount":2,"visitsCount":170,"tier":"","message":"","currency":"","rating":8.4},{"name":"Glasstown Brewing Co.","address":"10 Peterson St","lat":39.3727125837084,"lng":-75.07195433694397,"city_fetched":"Vineland,US","state":"NJ","country":"United States","canonicalUrl":"https://foursquare.com/v/glasstown-brewing-co/52bf1281498e1205ab222e44","categoryId":"50327c8591d4c4b30a586d5d","category":"Brewery","checkinsCount":285,"usersCount":211,"tipCount":7,"visitsCount":399,"url":"http://glasstownbrewingcompany.com","tier":"","message":"","currency":"","rating":8.3},{"name":"P.J. Whelihan's Pub & Restaurant","phone":"8565827774","twitter":"pjspub","address":"425 Hurffville Cross Keys Rd","lat":39.73417866661125,"lng":-75.06485914644935,"neighborhood":"Washington Township","city_fetched":"Vineland,US","state":"NJ","country":"United States","canonicalUrl":"https://foursquare.com/v/pj-whelihans-pub--restaurant/4b9b1266f964a52081f035e3","categoryId":"4bf58dd8d48988d11d941735","category":"Sports Bar","checkinsCount":5068,"usersCount":2299,"tipCount":33,"visitsCount":6059,"url":"https://www.pjspub.com","tier":2,"message":"Moderate","currency":"$","rating":8.1},{"name":"Kegler's Bar","lat":39.71393577193167,"lng":-75.1123863210427,"city_fetched":"Vineland,US","state":"NJ","country":"United States","canonicalUrl":"https://foursquare.com/v/keglers-bar/4df2d81422718759f81dfed0","categoryId":"4bf58dd8d48988d116941735","category":"Bar","checkinsCount":428,"usersCount":147,"tipCount":4,"visitsCount":442,"tier":"","message":"","currency":"","rating":7.9},{"name":"West End Grill","address":"201 12th St","lat":39.633658526457026,"lng":-74.80649977792243,"city_fetched":"Vineland,US","state":"NJ","country":"United States","canonicalUrl":"https://foursquare.com/v/west-end-grill/4bb621491344b7136d039d04","categoryId":"4bf58dd8d48988d116941735","category":"Bar","checkinsCount":820,"usersCount":303,"tipCount":11,"visitsCount":1019,"tier":"","message":"","currency":"","rating":7.6},{"name":"House of Brews","phone":"8563181261","address":"3501 Route 42","lat":39.72898521279476,"lng":-75.03338327276171,"city_fetched":"Vineland,US","state":"NJ","country":"United States","canonicalUrl":"https://foursquare.com/v/house-of-brews/4e8ce90861af7424da6fac3a","categoryId":"4bf58dd8d48988d116941735","category":"Bar","checkinsCount":3283,"usersCount":1339,"tipCount":42,"visitsCount":3987,"url":"http://www.housebrews.com","tier":2,"message":"Moderate","currency":"$","rating":7.6},{"name":"RUSSELL'S PIC II","phone":"6095679886","address":"388 U.S. Route 30","lat":39.70539460287893,"lng":-74.84907685004237,"city_fetched":"Vineland,US","state":"NJ","country":"United States","canonicalUrl":"https://foursquare.com/v/russells-pic-ii/4c673cdae75ac9285f28fada","categoryId":"4bf58dd8d48988d116941735","category":"Bar","checkinsCount":551,"usersCount":119,"tipCount":7,"visitsCount":575,"tier":"","message":"","currency":"","rating":7.5},{"name":"Old Oar House Irish Pub","phone":"8562931200","twitter":"oldoarhouse","address":"123 High St N","lat":39.39674223584618,"lng":-75.0381695104918,"city_fetched":"Vineland,US","state":"NJ","country":"United States","canonicalUrl":"https://foursquare.com/v/old-oar-house-irish-pub/4b63b11ff964a520698c2ae3","categoryId":"4bf58dd8d48988d11b941735","category":"Pub","checkinsCount":1645,"usersCount":532,"tipCount":19,"visitsCount":1761,"url":"http://www.oldoarhouse.com","tier":2,"message":"Moderate","currency":"$","rating":7.5},{"name":"Luna's Outdoor Bar & Grill","phone":"8566918051","address":"4940 Landis Ave","lat":39.481738,"lng":-74.9212,"city_fetched":"Vineland,US","state":"NJ","country":"United States","canonicalUrl":"https://foursquare.com/v/lunas-outdoor-bar--grill/4f8a0ecde4b01832066f28ea","categoryId":"4bf58dd8d48988d116941735","category":"Bar","checkinsCount":225,"usersCount":103,"tipCount":18,"visitsCount":251,"tier":"","message":"","currency":"","rating":7.5},{"name":"Kavanaghs Irish Pub","phone":"8566941223","address":"326 Dutch Mill Rd.","lat":39.57376552,"lng":-75.04540106666667,"city_fetched":"Vineland,US","state":"NJ","country":"United States","canonicalUrl":"https://foursquare.com/v/kavanaghs-irish-pub/4b919405f964a5201ac733e3","categoryId":"4bf58dd8d48988d11b941735","category":"Pub","checkinsCount":455,"usersCount":244,"tipCount":10,"visitsCount":536,"tier":"","message":"","currency":"","rating":7.4},{"name":"The Watering Hole","phone":"6096259300","address":"6494 Weymouth Rd","lat":39.472741,"lng":-74.751937,"city_fetched":"Vineland,US","state":"NJ","country":"United States","canonicalUrl":"https://foursquare.com/v/the-watering-hole/4c6da64c920bef3b00334952","categoryId":"4bf58dd8d48988d116941735","category":"Bar","checkinsCount":687,"usersCount":309,"tipCount":7,"visitsCount":843,"url":"http://wateringholecafe.com","tier":"","message":"","currency":"","rating":7.3},{"name":"Gleason's Place","phone":"8566297470","twitter":"gleasonsplacenj","address":"1973 Clayton Williamstown Rd","lat":39.656454,"lng":-75.04660028333333,"city_fetched":"Vineland,US","state":"NJ","country":"United States","canonicalUrl":"https://foursquare.com/v/gleasons-place/4c0ef8ac7189c928ee77d9b6","categoryId":"4bf58dd8d48988d116941735","category":"Bar","checkinsCount":312,"usersCount":155,"tipCount":6,"visitsCount":373,"tier":"","message":"","currency":"","rating":7.2},{"name":"Clancy's","phone":"8565898989","address":"485 Woodbury Glassboro Rd","lat":39.74941419687252,"lng":-75.12686861472757,"city_fetched":"Vineland,US","state":"NJ","country":"United States","canonicalUrl":"https://foursquare.com/v/clancys/412bd680f964a520b90c1fe3","categoryId":"4bf58dd8d48988d116941735","category":"Bar","checkinsCount":1931,"usersCount":912,"tipCount":23,"visitsCount":2323,"url":"http://sewell.clancysrestaurantgroup.com","tier":2,"message":"Moderate","currency":"$","rating":7.2},{"name":"Sidelines Sports Bar","address":"2 Sharp St","lat":39.397899,"lng":-75.05687985,"city_fetched":"Vineland,US","state":"NJ","country":"United States","canonicalUrl":"https://foursquare.com/v/sidelines-sports-bar/4b6384a7f964a52036802ae3","categoryId":"4bf58dd8d48988d116941735","category":"Bar","checkinsCount":887,"usersCount":246,"tipCount":5,"visitsCount":940,"tier":"","message":"","currency":"","rating":7.1},{"name":"South Vineland Tavern","phone":"8566927888","address":"2350 S Main Rd","lat":39.45149633333333,"lng":-75.01277083333333,"city_fetched":"Vineland,US","state":"NJ","country":"United States","canonicalUrl":"https://foursquare.com/v/south-vineland-tavern/4b451965f964a5208e0426e3","categoryId":"4bf58dd8d48988d116941735","category":"Bar","checkinsCount":264,"usersCount":113,"tipCount":2,"visitsCount":318,"tier":"","message":"","currency":"","rating":6.8},{"name":"Ott's on the Green","phone":"8565891776","address":"340 Greentree Rd","lat":39.746759029931944,"lng":-75.08134756386292,"city_fetched":"Vineland,US","state":"NJ","country":"United States","canonicalUrl":"https://foursquare.com/v/otts-on-the-green/4b0eafe0f964a520ae5923e3","categoryId":"4bf58dd8d48988d116941735","category":"Bar","checkinsCount":5280,"usersCount":1273,"tipCount":15,"visitsCount":6185,"url":"http://ottsrestaurants.com","tier":2,"message":"Moderate","currency":"$","rating":6.7},{"name":"Landmark Liquors","phone":"8568638020","address":"1 Mullica Hill Road","lat":39.7067363142821,"lng":-75.11045334775501,"city_fetched":"Vineland,US","state":"NJ","country":"United States","canonicalUrl":"https://foursquare.com/v/landmark-liquors/4c64a0f7c74c1b8dab25b283","categoryId":"4bf58dd8d48988d116941735","category":"Bar","checkinsCount":750,"usersCount":336,"tipCount":0,"visitsCount":752,"url":"http://landmarkamericana.com","tier":"","message":"","currency":"","rating":6.6},{"name":"Uncle Ricky's Tiki Bar & Grill","phone":"8566914454","address":"470 Wheat Rd","lat":39.513516,"lng":-74.981866,"city_fetched":"Vineland,US","state":"NJ","country":"United States","canonicalUrl":"https://foursquare.com/v/uncle-rickys-tiki-bar--grill/4c819a08e602b1f7bbbb947a","categoryId":"4bf58dd8d48988d116941735","category":"Bar","checkinsCount":250,"usersCount":142,"tipCount":2,"visitsCount":287,"tier":"","message":"","currency":"","rating":6.5},{"name":"Rack's","address":"2021 N Black Horse Pike","lat":39.71579390919086,"lng":-75.01997648330668,"city_fetched":"Vineland,US","state":"NJ","country":"United States","canonicalUrl":"https://foursquare.com/v/racks/55ab4e96498e3d44198c3d01","categoryId":"4bf58dd8d48988d11b941735","category":"Pub","checkinsCount":71,"usersCount":64,"tipCount":1,"visitsCount":150,"tier":"","message":"","currency":"","rating":6.5},{"name":"PB's Diner & Tap Room","phone":"8568811579","twitter":"pbdiner_taproom","address":"500 Delsea Dr N","lat":39.7135022943395,"lng":-75.11145119826769,"city_fetched":"Vineland,US","state":"NJ","country":"United States","canonicalUrl":"https://foursquare.com/v/pbs-diner--tap-room/4bb739fd1344b713ef769e04","categoryId":"4bf58dd8d48988d116941735","category":"Bar","checkinsCount":2360,"usersCount":1401,"tipCount":24,"visitsCount":3184,"url":"http://www.pbsdiner.com","tier":2,"message":"Moderate","currency":"$","rating":6.2},{"name":"Sharkey's Sports Bar And Grill","address":"820 N Black Horse Pike","lat":39.696771,"lng":-74.999756,"city_fetched":"Vineland,US","state":"NJ","country":"United States","canonicalUrl":"https://foursquare.com/v/sharkeys-sports-bar-and-grill/4df4193c18a88611c6bf2829","categoryId":"4bf58dd8d48988d118941735","category":"Dive Bar","checkinsCount":300,"usersCount":133,"tipCount":4,"visitsCount":325,"tier":"","message":"","currency":"","rating":6},{"name":"finish line pub","lat":39.358975,"lng":-75.061582,"city_fetched":"Vineland,US","state":"New Jersey","country":"United States","canonicalUrl":"https://foursquare.com/v/finish-line-pub/4d7bf843f260a09331ce31ba","categoryId":"4bf58dd8d48988d11b941735","category":"Pub","checkinsCount":281,"usersCount":118,"tipCount":3,"visitsCount":291,"tier":"","message":"","currency":"","rating":5.7},{"name":"Toadfish Bar & Grill","phone":"8564551300","address":"224 County Ro. 609","lat":39.399601,"lng":-75.22281905,"city_fetched":"Vineland,US","state":"NJ","country":"United States","canonicalUrl":"https://foursquare.com/v/toadfish-bar--grill/4bdcd9653904a593cd09509e","categoryId":"4bf58dd8d48988d116941735","category":"Bar","checkinsCount":522,"usersCount":145,"tipCount":7,"visitsCount":522,"url":"http://www.toadfishbar.com","tier":"","message":"","currency":"","rating":5.5},{"name":"Sharky's","phone":"8567283666","address":"820 N Black Horse Pike","lat":39.69679834,"lng":-74.99985566666666,"city_fetched":"Vineland,US","state":"NJ","country":"United States","canonicalUrl":"https://foursquare.com/v/sharkys/4abc10edf964a520378620e3","categoryId":"4bf58dd8d48988d118941735","category":"Dive Bar","checkinsCount":747,"usersCount":346,"tipCount":12,"visitsCount":846,"tier":"","message":"","currency":"","rating":5.4},{"name":"Taylor's Bar And Grill","phone":"8568759700","address":"2021 N Black Horse Pike","lat":39.715650514131546,"lng":-75.01987338066101,"city_fetched":"Vineland,US","state":"NJ","country":"United States","canonicalUrl":"https://foursquare.com/v/taylors-bar-and-grill/4bb7e59c98c7ef3bcc8c3002","categoryId":"4bf58dd8d48988d116941735","category":"Bar","checkinsCount":1548,"usersCount":776,"tipCount":17,"visitsCount":1618,"tier":"","message":"","currency":"","rating":5}]