[{"name":"Offshore Ale Company","phone":"5086932626","address":"30 Kennebec Ave","lat":41.45614127561765,"lng":-70.5573302810946,"city_fetched":"Vineyard Haven","state":"MA","country":"United States","canonicalUrl":"https://foursquare.com/v/offshore-ale-company/4beb33ab61aca5937dc48400","category":"Brewery","checkinsCount":3040,"usersCount":2219,"tipCount":57,"visitsCount":3269,"url":"http://www.offshoreale.com","tier":2,"message":"Moderate","currency":"$","rating":8.4},{"name":"Lookout Tavern","phone":"5086969844","address":"8 Seaview Ave.","lat":41.458301,"lng":-70.556779,"city_fetched":"Vineyard Haven","state":"MA","country":"United States","canonicalUrl":"https://foursquare.com/v/lookout-tavern/4bcb613dfb84c9b6f0bb1e3e","category":"Bar","checkinsCount":2325,"usersCount":1916,"tipCount":28,"visitsCount":2817,"url":"http://lookoutmv.com","tier":2,"message":"Moderate","currency":"$","rating":8.3},{"name":"Nancy's","phone":"5086930006","address":"29 Lake Ave.","lat":41.45765848252392,"lng":-70.5586375042658,"city_fetched":"Vineyard Haven","state":"MA","country":"United States","canonicalUrl":"https://foursquare.com/v/nancys/4c02e23c187ec92878e7b47b","category":"Seafood Restaurant","checkinsCount":3460,"usersCount":2647,"tipCount":44,"visitsCount":3612,"url":"http://www.nancysrestaurant.com","tier":2,"message":"Moderate","currency":"$","rating":8.1},{"name":"20byNine","twitter":"20bynine","address":"16 Kennebec Ave","lat":41.45672683673074,"lng":-70.55712693496419,"city_fetched":"Vineyard Haven","state":"MA","country":"United States","canonicalUrl":"https://foursquare.com/v/20bynine/53518d73498e1770daac110e","category":"Gastropub","checkinsCount":197,"usersCount":177,"tipCount":7,"visitsCount":224,"url":"http://20bynine.com","tier":"","message":"","currency":"","rating":7.8},{"name":"Donovan's Reef","phone":"5086930006","address":"29 Lake Ave","lat":41.457624783085215,"lng":-70.55866655363121,"city_fetched":"Vineyard Haven","state":"MA","country":"United States","canonicalUrl":"https://foursquare.com/v/donovans-reef/4c768f32ff1fb60cf837f9a7","category":"Bar","checkinsCount":527,"usersCount":275,"tipCount":6,"visitsCount":529,"url":"http://donovans-reef.com","tier":"","message":"","currency":"","rating":7.6},{"name":"The Lampost","phone":"5086934032","address":"6 Circuit Ave","lat":41.456922763717806,"lng":-70.55767887427076,"city_fetched":"Vineyard Haven","state":"MA","country":"United States","canonicalUrl":"https://foursquare.com/v/the-lampost/4be5a474cf200f47e579133c","category":"Bar","checkinsCount":1024,"usersCount":639,"tipCount":4,"visitsCount":1057,"url":"http://www.lampostmv.com","tier":"","message":"","currency":"","rating":7.4},{"name":"Beetlebung","phone":"5086960053","address":"53 Circuit Ave","lat":41.45490159412237,"lng":-70.55874208197345,"city_fetched":"Vineyard Haven","state":"MA","country":"United States","canonicalUrl":"https://foursquare.com/v/beetlebung/5387aa31498e8da3bcc1118c","category":"Lounge","checkinsCount":246,"usersCount":184,"tipCount":2,"visitsCount":266,"url":"http://www.beetlebung.com","tier":"","message":"","currency":"","rating":7.1},{"name":"Portuguese-American Club","lat":41.454906240786315,"lng":-70.5743181082982,"city_fetched":"Vineyard Haven","state":"MA","country":"United States","canonicalUrl":"https://foursquare.com/v/portugueseamerican-club/4bcc6329fb84c9b6c93e203e","category":"Bar","checkinsCount":198,"usersCount":173,"tipCount":2,"visitsCount":302,"tier":"","message":"","currency":"","rating":7.1},{"name":"Sharky's Cantina","phone":"5086937501","address":"32 Circuit Ave","lat":41.45604972477201,"lng":-70.55814947467732,"city_fetched":"Vineyard Haven","state":"MA","country":"United States","canonicalUrl":"https://foursquare.com/v/sharkys-cantina/4c03e7f3f56c2d7fb8791d66","category":"Mexican Restaurant","checkinsCount":1654,"usersCount":1100,"tipCount":26,"visitsCount":1710,"url":"http://sharkyscantina.com","tier":2,"message":"Moderate","currency":"$","rating":6.9},{"name":"The Ritz Cafe","phone":"5086939851","address":"4 Circuit Ave","lat":41.457163621288785,"lng":-70.55758591611395,"city_fetched":"Vineyard Haven","state":"MA","country":"United States","canonicalUrl":"https://foursquare.com/v/the-ritz-cafe/506e1ccde4b035622ad01856","category":"Bar","checkinsCount":127,"usersCount":80,"tipCount":2,"visitsCount":127,"tier":"","message":"","currency":"","rating":6.5},{"name":"Fishbones Cafe","lat":41.45841836777875,"lng":-70.55850968703818,"city_fetched":"Vineyard Haven","state":"MA","country":"United States","canonicalUrl":"https://foursquare.com/v/fishbones-cafe/4c0eb1b17189c92895e9d8b6","category":"Bar","checkinsCount":417,"usersCount":354,"tipCount":9,"visitsCount":420,"tier":"","message":"","currency":"","rating":6}]