[{"name":"Topgolf","phone":"7575449217","twitter":"topgolfvabeach","address":"5444 Greenwich Rd","lat":36.843224357471726,"lng":-76.17048740386963,"neighborhood":"Kempsville","city_fetched":"Virginia Beach,US","state":"VA","country":"United States","canonicalUrl":"https://foursquare.com/topgolfvabeach","categoryId":"4bf58dd8d48988d11d941735","category":"Sports Bar","checkinsCount":791,"usersCount":997,"tipCount":7,"visitsCount":1832,"url":"http://topgolf.com/us/virginia-beach/","tier":"","message":"","currency":"","rating":8.9},{"name":"Commonwealth Brewing Company","twitter":"cwbrewco","address":"2444 Pleasure House Rd","lat":36.9134880385374,"lng":-76.13198683139588,"neighborhood":"Bayfront","city_fetched":"Virginia Beach,US","state":"VA","country":"United States","canonicalUrl":"https://foursquare.com/v/commonwealth-brewing-company/55ebb614498e0bee15926afa","categoryId":"50327c8591d4c4b30a586d5d","category":"Brewery","checkinsCount":270,"usersCount":350,"tipCount":4,"visitsCount":648,"url":"http://commonwealthbrewingcompany.com","tier":"","message":"","currency":"","rating":8.7},{"name":"ShoreBreak Pizza & Taphouse","phone":"7574819393","twitter":"shorebreakvb","address":"2941 Shore Dr","lat":36.91055723833297,"lng":-76.0729320835126,"neighborhood":"Bayfront","city_fetched":"Virginia Beach,US","state":"VA","country":"United States","canonicalUrl":"https://foursquare.com/v/shorebreak-pizza--taphouse/4b4ac0ccf964a520e58d26e3","categoryId":"4bf58dd8d48988d11d941735","category":"Sports Bar","checkinsCount":3633,"usersCount":1556,"tipCount":31,"visitsCount":4372,"url":"http://www.shorebreakvb.com","tier":2,"message":"Moderate","currency":"$","rating":8.6},{"name":"MJ's Tavern","phone":"7576488942","address":"4019 Granby St","lat":36.883706066597135,"lng":-76.28183322011834,"neighborhood":"Colonial Place-Riverview","city_fetched":"Virginia Beach,US","state":"VA","country":"United States","canonicalUrl":"https://foursquare.com/v/mjs-tavern/4f2e0810e4b067066dd18f52","categoryId":"4bf58dd8d48988d11b941735","category":"Pub","checkinsCount":2834,"usersCount":630,"tipCount":22,"visitsCount":3538,"url":"http://mjtavern.com","tier":2,"message":"Moderate","currency":"$","rating":8.5},{"name":"LUBO Wine Tasting Room","phone":"7572162900","address":"1658 Pleasure House Rd","lat":36.8965404358185,"lng":-76.1389853948524,"neighborhood":"Bayside","city_fetched":"Virginia Beach,US","state":"VA","country":"United States","canonicalUrl":"https://foursquare.com/v/lubo-wine-tasting-room/4de04058fa76425c5414d9ef","categoryId":"4bf58dd8d48988d123941735","category":"Wine Bar","checkinsCount":1406,"usersCount":656,"tipCount":17,"visitsCount":1745,"url":"http://www.lubowines.com","tier":"","message":"","currency":"","rating":8.5},{"name":"Reaver Beach Brewing Company","phone":"7575632337","twitter":"reaverbeach","address":"1505 Taylor Farm Rd #401","lat":36.78814335450703,"lng":-76.06032153050083,"city_fetched":"Virginia Beach,US","state":"VA","country":"United States","canonicalUrl":"https://foursquare.com/v/reaver-beach-brewing-company/4cd6d4a47da9a35d0a8af1b9","categoryId":"50327c8591d4c4b30a586d5d","category":"Brewery","checkinsCount":1180,"usersCount":757,"tipCount":13,"visitsCount":1887,"url":"http://www.reaverbeach.com","tier":"","message":"","currency":"","rating":8.5},{"name":"Pleasure House Brewing","phone":"7574960916","address":"3025 Shore Dr","lat":36.91007259497326,"lng":-76.07790573904708,"neighborhood":"Bayfront","city_fetched":"Virginia Beach,US","state":"VA","country":"United States","canonicalUrl":"https://foursquare.com/v/pleasure-house-brewing/53b97599498e7253b4983a6e","categoryId":"50327c8591d4c4b30a586d5d","category":"Brewery","checkinsCount":335,"usersCount":270,"tipCount":2,"visitsCount":572,"url":"http://www.pleasurehousebrewing.com","tier":"","message":"","currency":"","rating":8.5},{"name":"Wasserhund Brewing Company","phone":"7573511326","twitter":"wasserhundbrew","address":"1805 Laskin Rd","lat":36.84918667196111,"lng":-76.02737342047068,"neighborhood":"Great Neck","city_fetched":"Virginia Beach,US","state":"VA","country":"United States","canonicalUrl":"https://foursquare.com/v/wasserhund-brewing-company/55462533498e448ae1e6a774","categoryId":"50327c8591d4c4b30a586d5d","category":"Brewery","checkinsCount":222,"usersCount":240,"tipCount":12,"visitsCount":387,"url":"http://www.wasserhundbrewing.com","tier":"","message":"","currency":"","rating":8.4},{"name":"CP Shuckers Shore Drive","phone":"7574122929","twitter":"cpshuckers","address":"3232 Shore Dr","lat":36.90885842223994,"lng":-76.08426699710216,"neighborhood":"Bayfront","city_fetched":"Virginia Beach,US","state":"VA","country":"United States","canonicalUrl":"https://foursquare.com/v/cp-shuckers-shore-drive/4b64dbd0f964a52080d52ae3","categoryId":"4bf58dd8d48988d11d941735","category":"Sports Bar","checkinsCount":2359,"usersCount":1105,"tipCount":20,"visitsCount":2910,"url":"http://www.cpshuckers.com","tier":2,"message":"Moderate","currency":"$","rating":8.4},{"name":"Gordon Biersch Brewery Restaurant","phone":"7574902739","twitter":"gbvabeach","address":"4561 Virginia Beach Blvd","lat":36.84318880152813,"lng":-76.13459717907487,"city_fetched":"Virginia Beach,US","state":"VA","country":"United States","canonicalUrl":"https://foursquare.com/v/gordon-biersch-brewery-restaurant/4b43c32ef964a520e7e825e3","categoryId":"50327c8591d4c4b30a586d5d","category":"Brewery","checkinsCount":6908,"usersCount":2864,"tipCount":58,"visitsCount":7119,"url":"http://gordonbiersch.com","tier":2,"message":"Moderate","currency":"$","rating":8.4},{"name":"Murphy's of Virginia Beach","phone":"7574177701","address":"2914 Pacific Ave","lat":36.857859152993534,"lng":-75.97910713202931,"neighborhood":"Oceanfront","city_fetched":"Virginia Beach,US","state":"VA","country":"United States","canonicalUrl":"https://foursquare.com/v/murphys-of-virginia-beach/4b4cdc1cf964a5200dc226e3","categoryId":"4bf58dd8d48988d11b941735","category":"Pub","checkinsCount":5598,"usersCount":2974,"tipCount":97,"visitsCount":6493,"url":"http://murphyspub.com","tier":2,"message":"Moderate","currency":"$","rating":8.3},{"name":"Calypso Bar and Grill","phone":"7574658282","address":"1101 Atlantic Ave","lat":36.839922235735045,"lng":-75.97218547340948,"neighborhood":"Oceanfront","city_fetched":"Virginia Beach,US","state":"VA","country":"United States","canonicalUrl":"https://foursquare.com/v/calypso-bar-and-grill/4bee0d452c082d7f1dfc2f42","categoryId":"4bf58dd8d48988d116941735","category":"Bar","checkinsCount":3994,"usersCount":2264,"tipCount":62,"visitsCount":5098,"url":"http://calypsovb.com","tier":2,"message":"Moderate","currency":"$","rating":8.3},{"name":"Sonoma Wine Bar & Bistro","phone":"7574909463","address":"189 Central Park Ave","lat":36.841909850285106,"lng":-76.13455754293314,"city_fetched":"Virginia Beach,US","state":"VA","country":"United States","canonicalUrl":"https://foursquare.com/v/sonoma-wine-bar--bistro/4b79ce52f964a52042132fe3","categoryId":"4bf58dd8d48988d123941735","category":"Wine Bar","checkinsCount":1495,"usersCount":753,"tipCount":21,"visitsCount":1504,"url":"http://www.sonomatowncenter.com‎","tier":"","message":"","currency":"","rating":8.3},{"name":"LunaSea","phone":"7574374400","address":"206 22nd St","lat":36.849904024049316,"lng":-75.97601652145386,"neighborhood":"Oceanfront","city_fetched":"Virginia Beach,US","state":"VA","country":"United States","canonicalUrl":"https://foursquare.com/v/lunasea/4c2632a7f7ced13a6bda256d","categoryId":"4bf58dd8d48988d116941735","category":"Bar","checkinsCount":2978,"usersCount":1752,"tipCount":34,"visitsCount":3058,"url":"http://www.lunaseavb.com","tier":"","message":"","currency":"","rating":8.2},{"name":"Amplitude Karaoke","phone":"7574731565","twitter":"amplitudeva","address":"314 Constitution Dr Ste B","lat":36.84619082407614,"lng":-76.13029375920034,"neighborhood":"Bayside","city_fetched":"Virginia Beach,US","state":"VA","country":"United States","canonicalUrl":"https://foursquare.com/v/amplitude-karaoke/55fb3a27498ee84263d56038","categoryId":"4bf58dd8d48988d120941735","category":"Karaoke Bar","checkinsCount":187,"usersCount":50,"tipCount":2,"visitsCount":205,"url":"http://amplitudekaraoke.com","tier":"","message":"","currency":"","rating":8.2},{"name":"Young Veterans Brewing Company","phone":"7576894021","twitter":"youngvetsbrew","address":"2505 Horse Pasture Rd","lat":36.78625059267287,"lng":-76.05528491743317,"city_fetched":"Virginia Beach,US","state":"VA","country":"United States","canonicalUrl":"https://foursquare.com/v/young-veterans-brewing-company/5216fbd8bce6bd87b9d89bd0","categoryId":"50327c8591d4c4b30a586d5d","category":"Brewery","checkinsCount":861,"usersCount":544,"tipCount":8,"visitsCount":1370,"url":"http://www.yvbc.com","tier":"","message":"","currency":"","rating":8.2},{"name":"Ched's Place","phone":"7574958311","address":"4668 Princess Anne Rd","lat":36.81238277196242,"lng":-76.13951763334173,"city_fetched":"Virginia Beach,US","state":"VA","country":"United States","canonicalUrl":"https://foursquare.com/v/cheds-place/4cf5c8b3665854818ffac598","categoryId":"4bf58dd8d48988d116941735","category":"Bar","checkinsCount":123,"usersCount":69,"tipCount":7,"visitsCount":126,"tier":"","message":"","currency":"","rating":8},{"name":"AJ Gators Sports Bar & Grill","phone":"7573334135","address":"5218 Fairfield Shopping Ctr","lat":36.81436973860942,"lng":-76.16666793823242,"neighborhood":"Fairfield","city_fetched":"Virginia Beach,US","state":"VA","country":"United States","canonicalUrl":"https://foursquare.com/v/aj-gators-sports-bar--grill/4b799f4af964a52034062fe3","categoryId":"4bf58dd8d48988d11d941735","category":"Sports Bar","checkinsCount":1620,"usersCount":723,"tipCount":16,"visitsCount":1666,"url":"http://www.gatorssportsbar.com","tier":2,"message":"Moderate","currency":"$","rating":8},{"name":"The Lynnhaven Pub","phone":"7575092068","address":"West Great Neck Road","lat":36.909355,"lng":-76.070382,"neighborhood":"Bayfront","city_fetched":"Virginia Beach,US","state":"VA","country":"United States","canonicalUrl":"https://foursquare.com/v/the-lynnhaven-pub/4b954854f964a520019a34e3","categoryId":"4bf58dd8d48988d118941735","category":"Dive Bar","checkinsCount":1308,"usersCount":490,"tipCount":11,"visitsCount":1838,"url":"http://www.lynnhavenpub.com","tier":1,"message":"Cheap","currency":"$","rating":7.9},{"name":"Chemistry Tapas & Tonics","twitter":"chemistrytnt","address":"2114 Atlantic Ave","lat":36.84969524394241,"lng":-75.975581153998,"neighborhood":"Oceanfront","city_fetched":"Virginia Beach,US","state":"VA","country":"United States","canonicalUrl":"https://foursquare.com/v/chemistry-tapas--tonics/4bdfa3e4ffdec928e9cfeca1","categoryId":"4bf58dd8d48988d11f941735","category":"Nightclub","checkinsCount":2877,"usersCount":690,"tipCount":14,"visitsCount":2935,"tier":"","message":"","currency":"","rating":7.9},{"name":"Footers Sports Pub","phone":"7574676427","twitter":"footerspub","address":"4676 Princess Anne Rd","lat":36.81243378956328,"lng":-76.13926850069092,"city_fetched":"Virginia Beach,US","state":"VA","country":"United States","canonicalUrl":"https://foursquare.com/v/footers-sports-pub/4b4b47b4f964a5205a9626e3","categoryId":"4bf58dd8d48988d116941735","category":"Bar","checkinsCount":337,"usersCount":186,"tipCount":5,"visitsCount":402,"url":"http://fspvb.com","tier":1,"message":"Cheap","currency":"$","rating":7.9},{"name":"Ry Restaurant","phone":"7577396446","address":"1718 Atlantic Ave","lat":36.8461141698595,"lng":-75.97460044005872,"neighborhood":"Oceanfront","city_fetched":"Virginia Beach,US","state":"VA","country":"United States","canonicalUrl":"https://foursquare.com/v/ry-restaurant/4fcd67c4e4b030cb099a671d","categoryId":"4bf58dd8d48988d11d941735","category":"Sports Bar","checkinsCount":330,"usersCount":212,"tipCount":12,"visitsCount":347,"tier":"","message":"","currency":"","rating":7.9},{"name":"Scotty Quixx West","phone":"7579657711","twitter":"scottyquixx","address":"2404 Virginia Beach Blvd Ste 116","lat":36.84246701068768,"lng":-76.05289401975234,"neighborhood":"Great Neck","city_fetched":"Virginia Beach,US","state":"VA","country":"United States","canonicalUrl":"https://foursquare.com/v/scotty-quixx-west/4c549f34479fc928c4aa6e93","categoryId":"4bf58dd8d48988d116941735","category":"Bar","checkinsCount":1984,"usersCount":252,"tipCount":15,"visitsCount":2127,"url":"http://www.scottyquixxlondonbridge.com","tier":"","message":"","currency":"","rating":7.8},{"name":"Keagan's Irish Pub and Restaurant","phone":"7579614432","twitter":"keagans","address":"244 Market St","lat":36.84286374190331,"lng":-76.13456726074219,"city_fetched":"Virginia Beach,US","state":"VA","country":"United States","canonicalUrl":"https://foursquare.com/v/keagans-irish-pub-and-restaurant/4b3991fef964a520cb5d25e3","categoryId":"4bf58dd8d48988d11b941735","category":"Pub","checkinsCount":8340,"usersCount":3304,"tipCount":65,"visitsCount":8627,"url":"http://www.keagans.com","tier":2,"message":"Moderate","currency":"$","rating":7.8},{"name":"Seaside Raw Bar","phone":"7574282760","address":"2014 Atlantic Ave","lat":36.848828553266415,"lng":-75.97552446551904,"neighborhood":"Oceanfront","city_fetched":"Virginia Beach,US","state":"VA","country":"United States","canonicalUrl":"https://foursquare.com/v/seaside-raw-bar/4bfc1fc8e05e0f47063bcfa8","categoryId":"4bf58dd8d48988d116941735","category":"Bar","checkinsCount":620,"usersCount":374,"tipCount":7,"visitsCount":631,"tier":"","message":"","currency":"","rating":7.8},{"name":"Sky Bar","phone":"7572133000","twitter":"skybarva","address":"3001 Atlantic Ave","lat":36.8589714226575,"lng":-75.9776729427353,"neighborhood":"Oceanfront","city_fetched":"Virginia Beach,US","state":"VA","country":"United States","canonicalUrl":"https://foursquare.com/v/sky-bar/4bd0b781caff95210566cff0","categoryId":"4bf58dd8d48988d1d5941735","category":"Hotel Bar","checkinsCount":1690,"usersCount":909,"tipCount":10,"visitsCount":1717,"url":"http://www.skybarvb.com","tier":"","message":"","currency":"","rating":7.8},{"name":"Buoy 44","phone":"7579654413","address":"4536 Ocean View Ave","lat":36.917503,"lng":-76.126633,"neighborhood":"Bayfront","city_fetched":"Virginia Beach,US","state":"VA","country":"United States","canonicalUrl":"https://foursquare.com/v/buoy-44/533dd26d498eb84759a310db","categoryId":"52e81612bcbc57f1066b7a0d","category":"Beach Bar","checkinsCount":228,"usersCount":201,"tipCount":13,"visitsCount":374,"url":"http://buoy44.com","tier":"","message":"","currency":"","rating":7.7},{"name":"Back Bay Brewing","phone":"7575317750","twitter":"backbaybrewing","address":"614 Norfolk Ave","lat":36.83757843522133,"lng":-75.9810684895127,"neighborhood":"Oceanfront","city_fetched":"Virginia Beach,US","state":"VA","country":"United States","canonicalUrl":"https://foursquare.com/v/back-bay-brewing/5278634711d20cb15f0b9499","categoryId":"50327c8591d4c4b30a586d5d","category":"Brewery","checkinsCount":688,"usersCount":439,"tipCount":4,"visitsCount":980,"url":"http://box1239.bluehost.com/suspended.page/disabled.cgi/backbaybrewingco.com","tier":2,"message":"Moderate","currency":"$","rating":7.7},{"name":"Seaboard Sports Bar","address":"2401 Seaboard Rd","lat":36.75339216813694,"lng":-76.03403166933239,"city_fetched":"Virginia Beach,US","state":"VA","country":"United States","canonicalUrl":"https://foursquare.com/v/seaboard-sports-bar/4cc38cbd1e596dcb1189cb67","categoryId":"4bf58dd8d48988d11d941735","category":"Sports Bar","checkinsCount":274,"usersCount":131,"tipCount":4,"visitsCount":282,"tier":"","message":"","currency":"","rating":7.7},{"name":"The Edge","phone":"7574258541","address":"2108 Atlantic Ave","lat":36.84963437066138,"lng":-75.97560382938312,"neighborhood":"Oceanfront","city_fetched":"Virginia Beach,US","state":"VA","country":"United States","canonicalUrl":"https://foursquare.com/v/the-edge/4b0e1611f964a520ce5423e3","categoryId":"4bf58dd8d48988d11f941735","category":"Nightclub","checkinsCount":1969,"usersCount":540,"tipCount":3,"visitsCount":1983,"url":"http://theedgebars.com","tier":"","message":"","currency":"","rating":7.6},{"name":"Wanna B's Karaoke Club & Restaurant","phone":"7573405671","twitter":"wannabsbs","address":"2880 Virginia Beach Blvd","lat":36.84462448625866,"lng":-76.0720823521394,"city_fetched":"Virginia Beach,US","state":"VA","country":"United States","canonicalUrl":"https://foursquare.com/v/wanna-bs-karaoke-club--restaurant/4b566d7af964a520f00f28e3","categoryId":"4bf58dd8d48988d120941735","category":"Karaoke Bar","checkinsCount":1229,"usersCount":702,"tipCount":19,"visitsCount":1580,"url":"http://www.wannabskaraoke.com","tier":"","message":"","currency":"","rating":7.6},{"name":"Shaka's","phone":"7572277153","twitter":"shakaslive","address":"2014 Atlantic Ave","lat":36.84882374414963,"lng":-75.97536006879956,"neighborhood":"Oceanfront","city_fetched":"Virginia Beach,US","state":"VA","country":"United States","canonicalUrl":"https://foursquare.com/v/shakas/4b946ee1f964a520517934e3","categoryId":"4bf58dd8d48988d116941735","category":"Bar","checkinsCount":1508,"usersCount":999,"tipCount":4,"visitsCount":1600,"url":"http://shakaslive.com","tier":2,"message":"Moderate","currency":"$","rating":7.5},{"name":"Boneheads Beach Bistro","phone":"7575024240","address":"203 34th St","lat":36.86211703290676,"lng":-75.97919216255114,"neighborhood":"Oceanfront","city_fetched":"Virginia Beach,US","state":"VA","country":"United States","canonicalUrl":"https://foursquare.com/v/boneheads-beach-bistro/4bb9316353649c74ccd347fb","categoryId":"4bf58dd8d48988d116941735","category":"Bar","checkinsCount":881,"usersCount":261,"tipCount":13,"visitsCount":891,"tier":"","message":"","currency":"","rating":7.5},{"name":"18th St Cafe & Grill","phone":"7574285309","address":"1801 Atlantic Ave","lat":36.8466278,"lng":-75.9739067,"neighborhood":"Oceanfront","city_fetched":"Virginia Beach,US","state":"VA","country":"United States","canonicalUrl":"https://foursquare.com/v/18th-st-cafe--grill/4bc8e7f0cc8cd13a5f8ebacf","categoryId":"4bf58dd8d48988d11d941735","category":"Sports Bar","checkinsCount":130,"usersCount":118,"tipCount":5,"visitsCount":130,"tier":"","message":"","currency":"","rating":7.5},{"name":"Jaxon Place","phone":"7572273210","twitter":"jaxplace","address":"5265 Princess Anne Rd","lat":36.8272267466554,"lng":-76.16708360562812,"neighborhood":"Kempsville","city_fetched":"Virginia Beach,US","state":"VA","country":"United States","canonicalUrl":"https://foursquare.com/v/jaxon-place/4cda33174006a143b64ed0b2","categoryId":"4bf58dd8d48988d11d941735","category":"Sports Bar","checkinsCount":173,"usersCount":98,"tipCount":2,"visitsCount":174,"tier":"","message":"","currency":"","rating":7.5},{"name":"Monk's Place Inc.","phone":"7574266922","address":"649 Princess Anne Rd","lat":36.60712659358978,"lng":-76.035059,"neighborhood":"Pungo-Blackwater","city_fetched":"Virginia Beach,US","state":"VA","country":"United States","canonicalUrl":"https://foursquare.com/v/monks-place-inc/4b928f25f964a520410434e3","categoryId":"4bf58dd8d48988d116941735","category":"Bar","checkinsCount":135,"usersCount":94,"tipCount":3,"visitsCount":151,"tier":"","message":"","currency":"","rating":7.4},{"name":"The Eagles Nest Rockin Country Bar","lat":36.84923710522905,"lng":-76.01933776210639,"neighborhood":"Great Neck","city_fetched":"Virginia Beach,US","state":"VA","country":"United States","canonicalUrl":"https://foursquare.com/v/the-eagles-nest-rockin-country-bar/53990917498ea14ee53bd80a","categoryId":"4bf58dd8d48988d116941735","category":"Bar","checkinsCount":340,"usersCount":459,"tipCount":2,"visitsCount":946,"tier":"","message":"","currency":"","rating":7.4},{"name":"Sandbar Raw Bar","phone":"7574287263","address":"2110 Atlantic Ave","lat":36.84961974620819,"lng":-75.9757000207901,"neighborhood":"Oceanfront","city_fetched":"Virginia Beach,US","state":"VA","country":"United States","canonicalUrl":"https://foursquare.com/v/sandbar-raw-bar/4bda3cf863c5c9b6ad6f2368","categoryId":"4bf58dd8d48988d11f941735","category":"Nightclub","checkinsCount":782,"usersCount":386,"tipCount":4,"visitsCount":782,"tier":"","message":"","currency":"","rating":7.3},{"name":"11th Street Taphouse Bar & Grill","phone":"7573218354","address":"1011 Atlantic Ave","lat":36.83947318007637,"lng":-75.97208910063236,"neighborhood":"Oceanfront","city_fetched":"Virginia Beach,US","state":"VA","country":"United States","canonicalUrl":"https://foursquare.com/v/11th-street-taphouse-bar--grill/4bf727058d30d13ade8bfe17","categoryId":"4bf58dd8d48988d116941735","category":"Bar","checkinsCount":3236,"usersCount":2267,"tipCount":46,"visitsCount":3440,"url":"http://www.11taphouse.com","tier":3,"message":"Expensive","currency":"$","rating":7.3},{"name":"Home Republic Brewpub","phone":"7572269593","address":"328 Laskin Rd","lat":36.858990577293994,"lng":-75.9801445008469,"neighborhood":"Oceanfront","city_fetched":"Virginia Beach,US","state":"VA","country":"United States","canonicalUrl":"https://foursquare.com/v/home-republic-brewpub/53835e36498e17831b287803","categoryId":"50327c8591d4c4b30a586d5d","category":"Brewery","checkinsCount":352,"usersCount":327,"tipCount":7,"visitsCount":455,"url":"http://www.homerepublicvabeach.com","tier":"","message":"","currency":"","rating":7.3},{"name":"Klub Ambush","phone":"7574984301","address":"475 S Lynnhaven Rd","lat":36.82375836108965,"lng":-76.07894236665848,"city_fetched":"Virginia Beach,US","state":"VA","country":"United States","canonicalUrl":"https://foursquare.com/v/klub-ambush/4ce8a908948f224b011af25d","categoryId":"4bf58dd8d48988d1d8941735","category":"Gay Bar","checkinsCount":1882,"usersCount":421,"tipCount":11,"visitsCount":2098,"url":"http://www.klubambush.com","tier":2,"message":"Moderate","currency":"$","rating":7.3},{"name":"Bayside Bar & Grill","address":"2201-2273 Sea Shell Rd","lat":36.90990421148342,"lng":-76.07545292232618,"neighborhood":"Bayfront","city_fetched":"Virginia Beach,US","state":"VA","country":"United States","canonicalUrl":"https://foursquare.com/v/bayside-bar--grill/4be21f81d27a20a1eaff8e5b","categoryId":"4bf58dd8d48988d116941735","category":"Bar","checkinsCount":1251,"usersCount":506,"tipCount":15,"visitsCount":1393,"tier":"","message":"","currency":"","rating":7.3},{"name":"Winston's Cafe","phone":"7574201751","twitter":"winstons_cafe","address":"1412 Greenbrier Pkwy #133","lat":36.775416,"lng":-76.23062295,"city_fetched":"Virginia Beach,US","state":"VA","country":"United States","canonicalUrl":"https://foursquare.com/v/winstons-cafe/4c0b1acc6071a5930ddae032","categoryId":"4bf58dd8d48988d11b941735","category":"Pub","checkinsCount":810,"usersCount":346,"tipCount":10,"visitsCount":845,"url":"http://www.winstons-cafe.com","tier":1,"message":"Cheap","currency":"$","rating":7.3},{"name":"Peabody's Nightclub","phone":"7574226212","twitter":"peabodysvb","address":"209 21st St","lat":36.84910039780965,"lng":-75.97629542685583,"neighborhood":"Oceanfront","city_fetched":"Virginia Beach,US","state":"VA","country":"United States","canonicalUrl":"https://foursquare.com/v/peabodys-nightclub/4b454e3bf964a5204a0a26e3","categoryId":"4bf58dd8d48988d11f941735","category":"Nightclub","checkinsCount":2839,"usersCount":1574,"tipCount":21,"visitsCount":3179,"url":"http://www.peabodysvirginiabeach.com","tier":4,"message":"Very Expensive","currency":"$","rating":7.2},{"name":"The Boxx","address":"220 21st St","lat":36.84969088317059,"lng":-75.9758079076831,"neighborhood":"Oceanfront","city_fetched":"Virginia Beach,US","state":"VA","country":"United States","canonicalUrl":"https://foursquare.com/v/the-boxx/4b946de4f964a520247934e3","categoryId":"4bf58dd8d48988d116941735","category":"Bar","checkinsCount":1500,"usersCount":463,"tipCount":8,"visitsCount":1506,"tier":"","message":"","currency":"","rating":7.2},{"name":"Rainbow Cactus Company","phone":"7573680441","twitter":"rainbowcactus","address":"3472 Holland Rd","lat":36.809554934205,"lng":-76.09191371111652,"city_fetched":"Virginia Beach,US","state":"VA","country":"United States","canonicalUrl":"https://foursquare.com/v/rainbow-cactus-company/4cd6174294848cfa6b17ebb1","categoryId":"4bf58dd8d48988d1d8941735","category":"Gay Bar","checkinsCount":3916,"usersCount":1222,"tipCount":21,"visitsCount":4875,"url":"http://therainbowcactus.com","tier":2,"message":"Moderate","currency":"$","rating":7.2},{"name":"Stooges Bar & Grill","phone":"7574950530","address":"4239 Holland Rd","lat":36.819557502115316,"lng":-76.12321615219116,"city_fetched":"Virginia Beach,US","state":"VA","country":"United States","canonicalUrl":"https://foursquare.com/v/stooges-bar--grill/4be635582468c928b6350143","categoryId":"4bf58dd8d48988d116941735","category":"Bar","checkinsCount":662,"usersCount":199,"tipCount":6,"visitsCount":702,"tier":"","message":"","currency":"","rating":7.2},{"name":"Martini and Tapas","lat":36.75784450510763,"lng":-76.00767446059216,"neighborhood":"Red Mill Farm","city_fetched":"Virginia Beach,US","state":"VA","country":"United States","canonicalUrl":"https://foursquare.com/v/martini-and-tapas/4f3f1183e4b0d66d1ec05e15","categoryId":"4bf58dd8d48988d11e941735","category":"Cocktail Bar","checkinsCount":306,"usersCount":81,"tipCount":4,"visitsCount":306,"tier":"","message":"","currency":"","rating":7.2},{"name":"Nats Sports Bar","phone":"7574914404","address":"404 Laskin Rd","lat":36.85881914302822,"lng":-75.9814426181478,"neighborhood":"Oceanfront","city_fetched":"Virginia Beach,US","state":"VA","country":"United States","canonicalUrl":"https://foursquare.com/v/nats-sports-bar/4c5cf7432815c928ddc4b367","categoryId":"4bf58dd8d48988d116941735","category":"Bar","checkinsCount":1396,"usersCount":215,"tipCount":14,"visitsCount":1397,"tier":"","message":"","currency":"","rating":7.2},{"name":"Inland Reef","phone":"7574719471","address":"1949 Lynnhaven Pkwy","lat":36.7958370858586,"lng":-76.11854926165194,"neighborhood":"Green Run","city_fetched":"Virginia Beach,US","state":"VA","country":"United States","canonicalUrl":"https://foursquare.com/v/inland-reef/4bbbf7bdafe1b713f0f82f4b","categoryId":"4bf58dd8d48988d11b941735","category":"Pub","checkinsCount":1322,"usersCount":310,"tipCount":13,"visitsCount":1466,"tier":"","message":"","currency":"","rating":7.2},{"name":"Wave Restaurant","phone":"7574405911","twitter":"thewavenorfolk","address":"4107 Colley Ave","lat":36.88264238241422,"lng":-76.29522625184464,"city_fetched":"Virginia Beach,US","state":"VA","country":"United States","canonicalUrl":"https://foursquare.com/v/wave-restaurant/4be3728399feb713420c82f6","categoryId":"4bf58dd8d48988d11f941735","category":"Nightclub","checkinsCount":3515,"usersCount":941,"tipCount":22,"visitsCount":3843,"tier":1,"message":"Cheap","currency":"$","rating":7.1},{"name":"Mermaids Gentlemen's Club","phone":"7574264687","twitter":"mermaidsvb","address":"1724 Potters Rd","lat":36.83686316013336,"lng":-76.02346479892731,"neighborhood":"Great Neck","city_fetched":"Virginia Beach,US","state":"VA","country":"United States","canonicalUrl":"https://foursquare.com/v/mermaids-gentlemens-club/4bcbdc8868f976b056e56183","categoryId":"4bf58dd8d48988d1d6941735","category":"Strip Club","checkinsCount":505,"usersCount":233,"tipCount":5,"visitsCount":631,"url":"http://mermaidsvb.com","tier":"","message":"","currency":"","rating":7.1},{"name":"Just George's Sports Bar & Grill","phone":"7578189137","address":"1956 Laskin Rd","lat":36.84741,"lng":-76.03581578333333,"neighborhood":"Great Neck","city_fetched":"Virginia Beach,US","state":"VA","country":"United States","canonicalUrl":"https://foursquare.com/v/just-georges-sports-bar--grill/4be2250821d5a593f2011611","categoryId":"4bf58dd8d48988d11d941735","category":"Sports Bar","checkinsCount":1020,"usersCount":382,"tipCount":10,"visitsCount":1043,"url":"http://captaingeorges.com","tier":"","message":"","currency":"","rating":7.1},{"name":"SLIDERS Sports Lounge","address":"3157 Virginia Beach Blvd","lat":36.84221080780814,"lng":-76.08102126291898,"city_fetched":"Virginia Beach,US","state":"VA","country":"United States","canonicalUrl":"https://foursquare.com/v/sliders-sports-lounge/4eb5e466e30006eb12589e5d","categoryId":"4bf58dd8d48988d11d941735","category":"Sports Bar","checkinsCount":239,"usersCount":121,"tipCount":9,"visitsCount":252,"url":"http://slidersbarvb.com","tier":"","message":"","currency":"","rating":7.1},{"name":"Margarita Grill","phone":"7572275890","address":"2340 Virginia Beach Blvd","lat":36.8427260544795,"lng":-76.04984584832094,"neighborhood":"Great Neck","city_fetched":"Virginia Beach,US","state":"VA","country":"United States","canonicalUrl":"https://foursquare.com/v/margarita-grill/4efbf6440e6152f7775dde23","categoryId":"4bf58dd8d48988d116941735","category":"Bar","checkinsCount":588,"usersCount":177,"tipCount":15,"visitsCount":606,"url":"http://www.margaritagrillvb.com","tier":"","message":"","currency":"","rating":7.1},{"name":"Bucketheads Beach Grill","lat":36.90768951111637,"lng":-76.09916353473842,"neighborhood":"Bayfront","city_fetched":"Virginia Beach,US","state":"VA","country":"United States","canonicalUrl":"https://foursquare.com/v/bucketheads-beach-grill/5358455f498eae6b7a93f68f","categoryId":"52e81612bcbc57f1066b7a0d","category":"Beach Bar","checkinsCount":112,"usersCount":71,"tipCount":7,"visitsCount":139,"tier":"","message":"","currency":"","rating":7},{"name":"Tangos Tavern","phone":"7574978978","address":"4668 Pembroke Blvd #106","lat":36.86189414568726,"lng":-76.1352200312159,"neighborhood":"Bayside","city_fetched":"Virginia Beach,US","state":"VA","country":"United States","canonicalUrl":"https://foursquare.com/v/tangos-tavern/4c2e9292213c2d7f8f7e2f5d","categoryId":"4bf58dd8d48988d116941735","category":"Bar","checkinsCount":936,"usersCount":228,"tipCount":7,"visitsCount":1053,"tier":"","message":"","currency":"","rating":7},{"name":"Lendy's Cafe & Rawbar","phone":"7574913511","address":"1581 General Booth Blvd #101","lat":36.78741753098024,"lng":-76.00089591996247,"city_fetched":"Virginia Beach,US","state":"VA","country":"United States","canonicalUrl":"https://foursquare.com/v/lendys-cafe--rawbar/4b4562a2f964a520d00b26e3","categoryId":"4bf58dd8d48988d120941735","category":"Karaoke Bar","checkinsCount":1278,"usersCount":501,"tipCount":20,"visitsCount":1489,"url":"http://lendys.com","tier":1,"message":"Cheap","currency":"$","rating":6.9},{"name":"Retro Cafe","phone":"7576421427","address":"2218 Atlantic Ave","lat":36.85099165954806,"lng":-75.97602332334196,"neighborhood":"Oceanfront","city_fetched":"Virginia Beach,US","state":"VA","country":"United States","canonicalUrl":"https://foursquare.com/v/retro-cafe/4bcfac81046076b078de6e71","categoryId":"4bf58dd8d48988d116941735","category":"Bar","checkinsCount":1207,"usersCount":501,"tipCount":7,"visitsCount":1216,"url":"http://www.theretrocafe.net","tier":"","message":"","currency":"","rating":6.9},{"name":"Jamaica Inn","phone":"7574603526","address":"1948 Diamond Springs Rd","lat":36.9019542119945,"lng":-76.1790616501221,"neighborhood":"Bayside","city_fetched":"Virginia Beach,US","state":"VA","country":"United States","canonicalUrl":"https://foursquare.com/v/jamaica-inn/4d081698cda25481b66a2b65","categoryId":"4bf58dd8d48988d120941735","category":"Karaoke Bar","checkinsCount":107,"usersCount":56,"tipCount":5,"visitsCount":169,"tier":"","message":"","currency":"","rating":6.9},{"name":"Scandals","address":"3501 Holland Rd","lat":36.81010385321227,"lng":-76.09432658564967,"city_fetched":"Virginia Beach,US","state":"VA","country":"United States","canonicalUrl":"https://foursquare.com/v/scandals/4f9ca023e4b0614493284a9b","categoryId":"4bf58dd8d48988d116941735","category":"Bar","checkinsCount":251,"usersCount":96,"tipCount":5,"visitsCount":257,"tier":"","message":"","currency":"","rating":6.8},{"name":"Finn McCool's Fish House and Tavern","phone":"7576890829","address":"3388 Princess Anne Rd","lat":36.77521296064639,"lng":-76.08794880153705,"city_fetched":"Virginia Beach,US","state":"VA","country":"United States","canonicalUrl":"https://foursquare.com/v/finn-mccools-fish-house-and-tavern/4b74ab60f964a52072eb2de3","categoryId":"4bf58dd8d48988d11b941735","category":"Pub","checkinsCount":3625,"usersCount":1499,"tipCount":56,"visitsCount":3868,"url":"http://finnmccoolsvb.com","tier":2,"message":"Moderate","currency":"$","rating":6.8},{"name":"Tortugas Café & Tiki Bar","phone":"7572130601","address":"3401 Atlantic Ave","lat":36.86245040482833,"lng":-75.97836452993111,"neighborhood":"Oceanfront","city_fetched":"Virginia Beach,US","state":"VA","country":"United States","canonicalUrl":"https://foursquare.com/v/tortugas-caf%C3%A9--tiki-bar/4bd0b793b221c9b61643d4d0","categoryId":"4bf58dd8d48988d1d5941735","category":"Hotel Bar","checkinsCount":1022,"usersCount":558,"tipCount":15,"visitsCount":1028,"url":"http://www.31ocean.com/tortugas.aspx","tier":"","message":"","currency":"","rating":6.8},{"name":"Upscale Restaurant & Lounge","phone":"7574244477","address":"6505 College Park Sq","lat":36.81116100073484,"lng":-76.21553267637607,"neighborhood":"Kempsville","city_fetched":"Virginia Beach,US","state":"VA","country":"United States","canonicalUrl":"https://foursquare.com/v/upscale-restaurant--lounge/4cef515713aea1436885729f","categoryId":"4bf58dd8d48988d116941735","category":"Bar","checkinsCount":186,"usersCount":134,"tipCount":5,"visitsCount":204,"tier":"","message":"","currency":"","rating":6.8},{"name":"AJ Gators Sports Bar & Grill","phone":"7573403722","address":"3908 Holland Rd","lat":36.81661381991305,"lng":-76.11025275627286,"city_fetched":"Virginia Beach,US","state":"VA","country":"United States","canonicalUrl":"https://foursquare.com/v/aj-gators-sports-bar--grill/4b8982f0f964a520823d32e3","categoryId":"4bf58dd8d48988d11d941735","category":"Sports Bar","checkinsCount":2446,"usersCount":746,"tipCount":17,"visitsCount":2553,"url":"http://www.gatorssportsbar.com","tier":2,"message":"Moderate","currency":"$","rating":6.7},{"name":"Scotty Quixx East","phone":"7579638551","twitter":"scottyquixxea","address":"525 N Birdneck Rd","lat":36.84887757774785,"lng":-75.9945364863357,"neighborhood":"Oceanfront","city_fetched":"Virginia Beach,US","state":"VA","country":"United States","canonicalUrl":"https://foursquare.com/v/scotty-quixx-east/5101aeb3e4b0b31991625cca","categoryId":"4bf58dd8d48988d11d941735","category":"Sports Bar","checkinsCount":676,"usersCount":200,"tipCount":8,"visitsCount":778,"url":"http://scottyquixxlondonbridge.com","tier":"","message":"","currency":"","rating":6.7},{"name":"Poppa's Pub & Restaurant","phone":"7574605061","twitter":"poppaspub","address":"2105 Diamond Springs Rd","lat":36.90492690707238,"lng":-76.17961071278086,"neighborhood":"Bayside","city_fetched":"Virginia Beach,US","state":"VA","country":"United States","canonicalUrl":"https://foursquare.com/v/poppas-pub--restaurant/4cb39d98b4b0a35dbd0e62ce","categoryId":"4bf58dd8d48988d116941735","category":"Bar","checkinsCount":557,"usersCount":368,"tipCount":5,"visitsCount":734,"url":"http://poppaspub.com","tier":"","message":"","currency":"","rating":6.7},{"name":"Mike's Break Room","address":"3317 Tiffany Ln.","lat":36.784501,"lng":-76.107361,"city_fetched":"Virginia Beach,US","state":"VA","country":"United States","canonicalUrl":"https://foursquare.com/v/mikes-break-room/4fc981f2e4b0efaf5186f099","categoryId":"4bf58dd8d48988d11d941735","category":"Sports Bar","checkinsCount":213,"usersCount":75,"tipCount":2,"visitsCount":217,"tier":"","message":"","currency":"","rating":6.7},{"name":"Hershee's","address":"6117 Sewells Point Rd.","lat":36.89031736700979,"lng":-76.23901515583562,"neighborhood":"Norview","city_fetched":"Virginia Beach,US","state":"VA","country":"United States","canonicalUrl":"https://foursquare.com/v/hershees/4bdb7eb22a3a0f47e772afb6","categoryId":"4bf58dd8d48988d1d8941735","category":"Gay Bar","checkinsCount":1607,"usersCount":280,"tipCount":24,"visitsCount":1665,"tier":"","message":"","currency":"","rating":6.7},{"name":"Ready Room","address":"1805 London Bridge Rd","lat":36.78301601,"lng":-76.048886,"city_fetched":"Virginia Beach,US","state":"VA","country":"United States","canonicalUrl":"https://foursquare.com/v/ready-room/4bad79fbf964a520be543be3","categoryId":"4bf58dd8d48988d116941735","category":"Bar","checkinsCount":405,"usersCount":137,"tipCount":1,"visitsCount":441,"tier":"","message":"","currency":"","rating":6.5},{"name":"Clubhouse Bar and Grill","phone":"7574683716","address":"Shipps Corner Shopping Center","lat":36.79291955548402,"lng":-76.07961645363697,"city_fetched":"Virginia Beach,US","state":"VA","country":"United States","canonicalUrl":"https://foursquare.com/v/clubhouse-bar-and-grill/4b82e797f964a52041ec30e3","categoryId":"4bf58dd8d48988d120941735","category":"Karaoke Bar","checkinsCount":404,"usersCount":140,"tipCount":1,"visitsCount":443,"tier":"","message":"","currency":"","rating":6.5},{"name":"Krossroads Cafe & Tavern","phone":"7574672890","address":"4221 Pleasant Valley Rd","lat":36.78859472996992,"lng":-76.15118106040626,"neighborhood":"Kempsville","city_fetched":"Virginia Beach,US","state":"VA","country":"United States","canonicalUrl":"https://foursquare.com/v/krossroads-cafe--tavern/4b91c192f964a52026d533e3","categoryId":"4bf58dd8d48988d116941735","category":"Bar","checkinsCount":342,"usersCount":108,"tipCount":2,"visitsCount":371,"tier":"","message":"","currency":"","rating":6.5},{"name":"Headlights","phone":"7574855294","address":"1428 George Washington Hwy N","lat":36.79228274564698,"lng":-76.32961890312137,"neighborhood":"Deep Creek","city_fetched":"Virginia Beach,US","state":"VA","country":"United States","canonicalUrl":"https://foursquare.com/v/headlights/4bf89fa74a67c9287ccb25cf","categoryId":"4bf58dd8d48988d1d6941735","category":"Strip Club","checkinsCount":310,"usersCount":195,"tipCount":6,"visitsCount":408,"url":"http://headlightsgw.com","tier":"","message":"","currency":"","rating":6.5},{"name":"Secrets","phone":"7572163539","address":"928 Diamond Springs Rd","lat":36.871802716666664,"lng":-76.16945743560791,"neighborhood":"Bayside","city_fetched":"Virginia Beach,US","state":"VA","country":"United States","canonicalUrl":"https://foursquare.com/v/secrets/4bfb20dc565f76b0d93305db","categoryId":"4bf58dd8d48988d116941735","category":"Bar","checkinsCount":279,"usersCount":93,"tipCount":2,"visitsCount":295,"tier":"","message":"","currency":"","rating":6.4},{"name":"Stooges","phone":"7572279823","address":"3900 Bonney Rd","lat":36.83927550023179,"lng":-76.10925034574132,"city_fetched":"Virginia Beach,US","state":"VA","country":"United States","canonicalUrl":"https://foursquare.com/v/stooges/4c0854aea1b32d7f38ef95f0","categoryId":"4bf58dd8d48988d116941735","category":"Bar","checkinsCount":724,"usersCount":414,"tipCount":8,"visitsCount":837,"tier":"","message":"","currency":"","rating":6.4},{"name":"Judys Pub","phone":"7573409611","address":"315 N Great Neck Rd","lat":36.84404519695162,"lng":-76.04890532084815,"neighborhood":"Great Neck","city_fetched":"Virginia Beach,US","state":"VA","country":"United States","canonicalUrl":"https://foursquare.com/v/judys-pub/4bd9f9782a3a0f479c23a9b6","categoryId":"4bf58dd8d48988d116941735","category":"Bar","checkinsCount":312,"usersCount":70,"tipCount":5,"visitsCount":315,"tier":"","message":"","currency":"","rating":6.4},{"name":"AJ Gators Sports Bar & Grill","phone":"7574738501","address":"401 N Witchduck Rd","lat":36.848869627164994,"lng":-76.15544418958793,"neighborhood":"Bayside","city_fetched":"Virginia Beach,US","state":"VA","country":"United States","canonicalUrl":"https://foursquare.com/v/aj-gators-sports-bar--grill/4ba00373f964a520485237e3","categoryId":"4bf58dd8d48988d11d941735","category":"Sports Bar","checkinsCount":1450,"usersCount":699,"tipCount":16,"visitsCount":1653,"url":"http://www.gatorssportsbar.com","tier":2,"message":"Moderate","currency":"$","rating":6.4},{"name":"Longboards","phone":"7573994010","address":"440 High St","lat":36.83539346553288,"lng":-76.30215167999268,"city_fetched":"Virginia Beach,US","state":"VA","country":"United States","canonicalUrl":"https://foursquare.com/v/longboards/4bad7a20f964a520d1543be3","categoryId":"4bf58dd8d48988d116941735","category":"Bar","checkinsCount":1514,"usersCount":577,"tipCount":17,"visitsCount":1553,"tier":"","message":"","currency":"","rating":6.3},{"name":"Venue 112","phone":"7572364723","address":"401 N Great Neck Rd Ste 113","lat":36.84557777218452,"lng":-76.04919427876675,"neighborhood":"Great Neck","city_fetched":"Virginia Beach,US","state":"VA","country":"United States","canonicalUrl":"https://foursquare.com/v/venue-112/4bfd42798992a5930ad0abb0","categoryId":"4bf58dd8d48988d11d941735","category":"Sports Bar","checkinsCount":1316,"usersCount":534,"tipCount":10,"visitsCount":1416,"tier":1,"message":"Cheap","currency":"$","rating":6.3},{"name":"Sandbridge Island Resturant and Raw Bar","phone":"7577212899","address":"205 Sandbridge Rd","lat":36.74592620331757,"lng":-75.9445747849015,"neighborhood":"Sandbridge","city_fetched":"Virginia Beach,US","state":"VA","country":"United States","canonicalUrl":"https://foursquare.com/v/sandbridge-island-resturant-and-raw-bar/4badfb87f964a520dd773be3","categoryId":"4bf58dd8d48988d116941735","category":"Bar","checkinsCount":710,"usersCount":409,"tipCount":14,"visitsCount":732,"tier":"","message":"","currency":"","rating":6.3},{"name":"Taphouse Bar & Grill","lat":36.83960625702846,"lng":-75.9720777626542,"neighborhood":"Oceanfront","city_fetched":"Virginia Beach,US","state":"Virginia","country":"United States","canonicalUrl":"https://foursquare.com/v/taphouse-bar--grill/4e6254f162e13e3bce96d6d6","categoryId":"4bf58dd8d48988d11d941735","category":"Sports Bar","checkinsCount":192,"usersCount":155,"tipCount":4,"visitsCount":193,"tier":"","message":"","currency":"","rating":6.3},{"name":"Jaeger's Beach Bar & Grill","phone":"7579635666","address":"1479 General Booth Blvd","lat":36.790356374310804,"lng":-75.99779559076039,"city_fetched":"Virginia Beach,US","state":"VA","country":"United States","canonicalUrl":"https://foursquare.com/v/jaegers-beach-bar--grill/4fad8a22e4b091b46266b9c1","categoryId":"4bf58dd8d48988d116941735","category":"Bar","checkinsCount":401,"usersCount":246,"tipCount":3,"visitsCount":467,"url":"http://jagersbeachbarandgrill.com","tier":"","message":"","currency":"","rating":6.2},{"name":"Parlays 3","lat":36.910561508919706,"lng":-76.074342625988,"neighborhood":"Bayfront","city_fetched":"Virginia Beach,US","state":"VA","country":"United States","canonicalUrl":"https://foursquare.com/v/parlays-3/51aa6dcd498eedc5ff4c295d","categoryId":"4bf58dd8d48988d116941735","category":"Bar","checkinsCount":191,"usersCount":121,"tipCount":3,"visitsCount":240,"tier":"","message":"","currency":"","rating":6.2},{"name":"The Zone Rock and Sports Bar","address":"1342 Kempsville Rd","lat":36.79818190289421,"lng":-76.17417659256158,"neighborhood":"Kempsville","city_fetched":"Virginia Beach,US","state":"VA","country":"United States","canonicalUrl":"https://foursquare.com/v/the-zone-rock-and-sports-bar/4e45d285fa76a07fde5218f6","categoryId":"4bf58dd8d48988d11d941735","category":"Sports Bar","checkinsCount":194,"usersCount":65,"tipCount":7,"visitsCount":194,"tier":"","message":"","currency":"","rating":6},{"name":"Purrsha Restaurant & Lounge","twitter":"purrshalounge","address":"5660 Indian River Rd Ste 105","lat":36.80611186954188,"lng":-76.1899632400544,"neighborhood":"Kempsville","city_fetched":"Virginia Beach,US","state":"VA","country":"United States","canonicalUrl":"https://foursquare.com/v/purrsha-restaurant--lounge/4c6b4541599fbe9a648d923f","categoryId":"4bf58dd8d48988d121941735","category":"Lounge","checkinsCount":143,"usersCount":77,"tipCount":3,"visitsCount":151,"tier":"","message":"","currency":"","rating":5.9},{"name":"Ike's Sportz Bar","phone":"7574608858","address":"5760 Northampton Blvd","lat":36.88334509192517,"lng":-76.18415594100952,"neighborhood":"Bayside","city_fetched":"Virginia Beach,US","state":"VA","country":"United States","canonicalUrl":"https://foursquare.com/v/ikes-sportz-bar/4c2e85b73896e21e7276e290","categoryId":"4bf58dd8d48988d116941735","category":"Bar","checkinsCount":197,"usersCount":120,"tipCount":4,"visitsCount":197,"tier":"","message":"","currency":"","rating":5.9},{"name":"O' Leary's Bar and Grill","phone":"7574124441","address":"2865 Lynnhaven Dr","lat":36.90612073792553,"lng":-76.06793558765006,"neighborhood":"Bayfront","city_fetched":"Virginia Beach,US","state":"VA","country":"United States","canonicalUrl":"https://foursquare.com/v/o-learys-bar-and-grill/4b9803cdf964a5202d2635e3","categoryId":"4bf58dd8d48988d116941735","category":"Bar","checkinsCount":695,"usersCount":229,"tipCount":6,"visitsCount":719,"url":"http://www.olearysvb.com/base.aspx","tier":2,"message":"Moderate","currency":"$","rating":5.9},{"name":"Montego Bay Restaurant & Bar","address":"544 Newtown Rd","lat":36.857924805869644,"lng":-76.17509927625962,"neighborhood":"Bayside","city_fetched":"Virginia Beach,US","state":"VA","country":"United States","canonicalUrl":"https://foursquare.com/v/montego-bay-restaurant--bar/4f23400ce4b0b653a2597e0b","categoryId":"4bf58dd8d48988d116941735","category":"Bar","checkinsCount":192,"usersCount":139,"tipCount":5,"visitsCount":248,"url":"http://montegobaypcb.com","tier":"","message":"","currency":"","rating":5.8},{"name":"Grumpy's Bar and Grill","phone":"7574740880","twitter":"grumpysbargrill","address":"995 Providence Sq Shopping Ctr","lat":36.81194355766591,"lng":-76.16715153703186,"neighborhood":"Kempsville","city_fetched":"Virginia Beach,US","state":"VA","country":"United States","canonicalUrl":"https://foursquare.com/v/grumpys-bar-and-grill/4e092b407d8b2a0180653565","categoryId":"4bf58dd8d48988d116941735","category":"Bar","checkinsCount":858,"usersCount":335,"tipCount":16,"visitsCount":884,"url":"http://www.grumpysbarandgrillvb.com","tier":"","message":"","currency":"","rating":5.5}]