[{"name":"Tommy's Downtown Visalia Lounge","phone":"5596276077","address":"130 N Encina St","lat":36.3308449,"lng":-119.294354,"neighborhood":"Central Visalia","city_fetched":"Visalia,US","state":"CA","country":"United States","canonicalUrl":"https://foursquare.com/v/tommys-downtown-visalia-lounge/4c23bf5ff1272d7f2eed81c5","categoryId":"4bf58dd8d48988d121941735","category":"Lounge","checkinsCount":618,"usersCount":227,"tipCount":8,"visitsCount":660,"tier":"","message":"","currency":"","rating":7.8},{"name":"Brewbakers Brewing Company","phone":"5596272739","address":"219 E Main St","lat":36.330003247036025,"lng":-119.29072467978361,"neighborhood":"Central Business District","city_fetched":"Visalia,US","state":"CA","country":"United States","canonicalUrl":"https://foursquare.com/v/brewbakers-brewing-company/4b9af656f964a5203fe735e3","categoryId":"50327c8591d4c4b30a586d5d","category":"Brewery","checkinsCount":2396,"usersCount":1121,"tipCount":37,"visitsCount":2768,"url":"http://brewbakersbrewingco.com","tier":2,"message":"Moderate","currency":"$","rating":7.8},{"name":"Chilito's Mexican Restaurant & Cantina","phone":"5596862445","address":"727 E Prosperity Ave","lat":36.22564587697837,"lng":-119.33783256599985,"city_fetched":"Visalia,US","state":"CA","country":"United States","canonicalUrl":"https://foursquare.com/v/chilitos-mexican-restaurant--cantina/4c58bc26b05c1b8d1c3dd4b1","categoryId":"4bf58dd8d48988d116941735","category":"Bar","checkinsCount":314,"usersCount":119,"tipCount":4,"visitsCount":330,"tier":"","message":"","currency":"","rating":7.6},{"name":"Monet's","phone":"5595929453","address":"120 S E St","lat":36.29592086818646,"lng":-119.14069119645379,"city_fetched":"Visalia,US","state":"CA","country":"United States","canonicalUrl":"https://foursquare.com/v/monets/4c38b3b91e06d13aac34783e","categoryId":"4bf58dd8d48988d123941735","category":"Wine Bar","checkinsCount":119,"usersCount":100,"tipCount":5,"visitsCount":136,"url":"http://monetswinebistro.com","tier":"","message":"","currency":"","rating":7.3},{"name":"Sequoia Brewing Company - Visalia","phone":"5596272537","twitter":"sequoiavisalia","address":"124 W Main St.","lat":36.33039659399452,"lng":-119.29343641397236,"neighborhood":"Central Visalia","city_fetched":"Visalia,US","state":"CA","country":"United States","canonicalUrl":"https://foursquare.com/v/sequoia-brewing-company--visalia/5582299e498e5fc3cb9e85d0","categoryId":"50327c8591d4c4b30a586d5d","category":"Brewery","checkinsCount":119,"usersCount":85,"tipCount":3,"visitsCount":133,"url":"http://sequoiabrewingvisalia-hub.com","tier":"","message":"","currency":"","rating":7.1},{"name":"Vejar's Mexican Restaurant & Cocktail Lounge","phone":"5596880355","twitter":"vejarsmexican","address":"1293 S K St","lat":36.19402954810554,"lng":-119.34327126731685,"city_fetched":"Visalia,US","state":"CA","country":"United States","canonicalUrl":"https://foursquare.com/v/vejars-mexican-restaurant--cocktail-lounge/4be05ec8724d76b025938538","categoryId":"4bf58dd8d48988d11e941735","category":"Cocktail Bar","checkinsCount":456,"usersCount":285,"tipCount":2,"visitsCount":607,"url":"http://www.vejarsonk.com","tier":"","message":"","currency":"","rating":6.6},{"name":"La Fiesta Restaurant Bar","phone":"5596351555","twitter":"lafiestaca","address":"3222 N Demaree","lat":36.359031107540034,"lng":-119.33158830344814,"city_fetched":"Visalia,US","state":"CA","country":"United States","canonicalUrl":"https://foursquare.com/v/la-fiesta-restaurant-bar/4cae81d41463a14363868da9","categoryId":"4bf58dd8d48988d116941735","category":"Bar","checkinsCount":516,"usersCount":212,"tipCount":14,"visitsCount":698,"url":"http://www.lafiestarestaurantbar.com","tier":"","message":"","currency":"","rating":6.3},{"name":"Visalia Brewing Company","phone":"5597342739","address":"112 W Main St","lat":36.33019995149809,"lng":-119.29281805217927,"neighborhood":"Central Visalia","city_fetched":"Visalia,US","state":"CA","country":"United States","canonicalUrl":"https://foursquare.com/v/visalia-brewing-company/4baee7ecf964a520e9e03be3","categoryId":"4bf58dd8d48988d116941735","category":"Bar","checkinsCount":1375,"usersCount":303,"tipCount":11,"visitsCount":1376,"tier":"","message":"","currency":"","rating":6.1},{"name":"Downtown Rookies","phone":"5597321200","address":"215 E Main St","lat":36.330057,"lng":-119.290839,"neighborhood":"Central Business District","city_fetched":"Visalia,US","state":"CA","country":"United States","canonicalUrl":"https://foursquare.com/v/downtown-rookies/4f35abc2e4b0b0eb8b46c651","categoryId":"4bf58dd8d48988d11d941735","category":"Sports Bar","checkinsCount":640,"usersCount":229,"tipCount":6,"visitsCount":651,"url":"http://downtownrookies.com","tier":"","message":"","currency":"","rating":5.8},{"name":"Santa Fe Station","phone":"5596273663","address":"505 E Center","lat":36.33085212,"lng":-119.28751367,"city_fetched":"Visalia,US","state":"CA","country":"United States","canonicalUrl":"https://foursquare.com/v/santa-fe-station/4ba524b7f964a5203de338e3","categoryId":"4bf58dd8d48988d118941735","category":"Dive Bar","checkinsCount":333,"usersCount":110,"tipCount":7,"visitsCount":333,"tier":"","message":"","currency":"","rating":5.7},{"name":"Lum Lums","phone":"5597335292","address":"417 E Center Ave","lat":36.330925,"lng":-119.288246,"city_fetched":"Visalia,US","state":"CA","country":"United States","canonicalUrl":"https://foursquare.com/v/lum-lums/4ba52839f964a52041e538e3","categoryId":"4bf58dd8d48988d116941735","category":"Bar","checkinsCount":332,"usersCount":171,"tipCount":7,"visitsCount":335,"url":"http://lumlums.net","tier":"","message":"","currency":"","rating":5.7}]