[{"name":"Dancing Bear Pub","phone":"2547530025","twitter":"dancingbearpub","address":"1117 Speight Ave","lat":31.540336,"lng":-97.12455416666667,"neighborhood":"Baylor","city_fetched":"Waco","state":"TX","country":"United States","canonicalUrl":"https://foursquare.com/v/dancing-bear-pub/4b469f2ff964a520b72526e3","category":"Pub","checkinsCount":2768,"usersCount":633,"tipCount":19,"visitsCount":3364,"tier":2,"message":"Moderate","currency":"$","rating":9.1},{"name":"George's Restaurant & Bar - Westrock","phone":"2544202060","address":"1201 Hewitt Dr Ste 100","lat":31.487089196540026,"lng":-97.21269607543945,"city_fetched":"Waco","state":"TX","country":"United States","canonicalUrl":"https://foursquare.com/v/georges-restaurant--bar--westrock/4ceb8050b9975481f3ed0c45","category":"Sports Bar","checkinsCount":2804,"usersCount":1264,"tipCount":20,"visitsCount":3785,"url":"http://georgesrestaurant.com","tier":1,"message":"Cheap","currency":"$","rating":9.1},{"name":"Poppa Rollos","phone":"2547766776","twitter":"popparollos","address":"703 N Valley Mills Dr","lat":31.529721336367704,"lng":-97.17705564221103,"neighborhood":"Heart of Texas","city_fetched":"Waco","state":"TX","country":"United States","canonicalUrl":"https://foursquare.com/v/poppa-rollos/4b3bf6e9f964a5205e7f25e3","category":"Pizza Place","checkinsCount":2250,"usersCount":1035,"tipCount":33,"visitsCount":2723,"url":"http://popparollos.com","tier":2,"message":"Moderate","currency":"$","rating":8.7},{"name":"Dichotomy Coffee & Spirits","twitter":"dichotomy_cs","address":"508 Austin Ave","lat":31.55630894303969,"lng":-97.13195475946804,"neighborhood":"Brazos","city_fetched":"Waco","state":"TX","country":"United States","canonicalUrl":"https://foursquare.com/v/dichotomy-coffee--spirits/526ab73d11d200cc213759b5","category":"Coffee Shop","checkinsCount":1016,"usersCount":599,"tipCount":18,"visitsCount":1610,"url":"http://dichotomycs.com","tier":1,"message":"Cheap","currency":"$","rating":8.6},{"name":"George's Restaurant & Catering","phone":"2547531421","twitter":"georgesbar","address":"1925 Speight Ave","lat":31.53391049948145,"lng":-97.13193898605226,"neighborhood":"University","city_fetched":"Waco","state":"TX","country":"United States","canonicalUrl":"https://foursquare.com/v/georges-restaurant--catering/4b44a714f964a520a3f825e3","category":"Bar","checkinsCount":5242,"usersCount":2712,"tipCount":39,"visitsCount":6205,"url":"http://georgesrestaurant.com","tier":1,"message":"Cheap","currency":"$","rating":8.5},{"name":"BJ's Restaurant and Brewhouse","phone":"2547760200","twitter":"bjsrestaurants","address":"5929 W Waco Dr","lat":31.51370901,"lng":-97.18893156,"city_fetched":"Waco","state":"TX","country":"United States","canonicalUrl":"https://foursquare.com/v/bjs-restaurant-and-brewhouse/4f6cbcb3e4b0e14a3e4fec09","category":"American Restaurant","checkinsCount":2457,"usersCount":1516,"tipCount":42,"visitsCount":3636,"url":"http://t.co/bl46gcjDLN","tier":2,"message":"Moderate","currency":"$","rating":8.2},{"name":"2nd Level Club","address":"210 S 8th St","lat":31.553371,"lng":-97.133086,"neighborhood":"Brazos","city_fetched":"Waco","state":"TX","country":"United States","canonicalUrl":"https://foursquare.com/v/2nd-level-club/4fbd840ae4b07911fe1d2af0","category":"Sports Bar","checkinsCount":623,"usersCount":90,"tipCount":6,"visitsCount":651,"tier":1,"message":"Cheap","currency":"$","rating":8},{"name":"The Grape","phone":"2547721866","address":"2006 N Valley Mills Dr","lat":31.532302,"lng":-97.203834,"city_fetched":"Waco","state":"TX","country":"United States","canonicalUrl":"https://foursquare.com/v/the-grape/4b5f3b60f964a520f6ae29e3","category":"Wine Bar","checkinsCount":327,"usersCount":114,"tipCount":6,"visitsCount":336,"url":"http://thegrapewaco.com","tier":"","message":"","currency":"","rating":7.9},{"name":"Barnett's Irish Pub","phone":"2547141356","twitter":"barnetts_pub","address":"420 Franklin Ave","lat":31.556162521892674,"lng":-97.13041949778841,"neighborhood":"Downtown Waco","city_fetched":"Waco","state":"TX","country":"United States","canonicalUrl":"https://foursquare.com/v/barnetts-irish-pub/4ba178cbf964a520e9b937e3","category":"Pub","checkinsCount":1557,"usersCount":347,"tipCount":16,"visitsCount":1587,"url":"http://www.barnettspub.com","tier":"","message":"","currency":"","rating":7.8},{"name":"La Fiesta Restaurant & Cantina","phone":"2547564701","twitter":"lafiestatx","address":"3815 Franklin Ave","lat":31.528617816449202,"lng":-97.1622834016979,"city_fetched":"Waco","state":"TX","country":"United States","canonicalUrl":"https://foursquare.com/v/la-fiesta-restaurant--cantina/4b11e769f964a520c68623e3","category":"Mexican Restaurant","checkinsCount":2384,"usersCount":1079,"tipCount":35,"visitsCount":3041,"url":"http://lafiesta-hub.com","tier":2,"message":"Moderate","currency":"$","rating":7.7},{"name":"True Love","address":"414 Franklin Ave","lat":31.556371159608393,"lng":-97.1302512520779,"neighborhood":"Downtown Waco","city_fetched":"Waco","state":"TX","country":"United States","canonicalUrl":"https://foursquare.com/v/true-love/5111bd5be4b0e9e99f242e41","category":"Bar","checkinsCount":910,"usersCount":166,"tipCount":5,"visitsCount":1083,"tier":"","message":"","currency":"","rating":7.6},{"name":"Uncorked","phone":"2546662226","address":"1201 Hewitt Dr","lat":31.486221,"lng":-97.212904,"city_fetched":"Waco","state":"TX","country":"United States","canonicalUrl":"https://foursquare.com/v/uncorked/4d53243501e75481ea2431fe","category":"Wine Bar","checkinsCount":191,"usersCount":87,"tipCount":4,"visitsCount":192,"tier":"","message":"","currency":"","rating":7.3},{"name":"Klassy Glass Wine Bar","phone":"2547520818","address":"723 Austin Ave","lat":31.555045058844176,"lng":-97.13424720215252,"neighborhood":"Brazos","city_fetched":"Waco","state":"TX","country":"United States","canonicalUrl":"https://foursquare.com/v/klassy-glass-wine-bar/4d04244a2f96f04df02b1c54","category":"Wine Bar","checkinsCount":468,"usersCount":194,"tipCount":7,"visitsCount":475,"url":"http://klassyglasswinebar.com","tier":"","message":"","currency":"","rating":7.2},{"name":"Trojan Cork and Keg","phone":"2547573800","address":"215 Mary Ave","lat":31.557634182949567,"lng":-97.12764875521172,"neighborhood":"Downtown Waco","city_fetched":"Waco","state":"TX","country":"United States","canonicalUrl":"https://foursquare.com/v/trojan-cork-and-keg/4b49714bf964a520df6f26e3","category":"Bar","checkinsCount":1468,"usersCount":487,"tipCount":10,"visitsCount":1468,"url":"http://trojancorkandkeg.com","tier":"","message":"","currency":"","rating":7.2},{"name":"Muddle","phone":"2547530226","twitter":"muddlewaco","address":"727 Austin Ave","lat":31.554694883114042,"lng":-97.13437557220459,"neighborhood":"Brazos","city_fetched":"Waco","state":"TX","country":"United States","canonicalUrl":"https://foursquare.com/v/muddle/52d0d88b498e5d95b5f5c1ba","category":"Cocktail Bar","checkinsCount":375,"usersCount":201,"tipCount":2,"visitsCount":507,"url":"http://muddlewaco.com","tier":2,"message":"Moderate","currency":"$","rating":7.2},{"name":"Cricket's Grill & Draft House","phone":"2547544677","address":"211 Mary Ave","lat":31.557519866985448,"lng":-97.12771028280258,"neighborhood":"Downtown Waco","city_fetched":"Waco","state":"TX","country":"United States","canonicalUrl":"https://foursquare.com/v/crickets-grill--draft-house/4b2db0abf964a52079da24e3","category":"American Restaurant","checkinsCount":4784,"usersCount":1881,"tipCount":27,"visitsCount":5014,"url":"http://cricketsgrill.com","tier":2,"message":"Moderate","currency":"$","rating":7.2},{"name":"Diamond Back's","phone":"2547572871","address":"217 Mary Ave","lat":31.557483,"lng":-97.128098,"neighborhood":"Downtown Waco","city_fetched":"Waco","state":"TX","country":"United States","canonicalUrl":"https://foursquare.com/v/diamond-backs/4b4fcbbbf964a520b31527e3","category":"Steakhouse","checkinsCount":689,"usersCount":366,"tipCount":9,"visitsCount":694,"url":"http://diamondbackswaco.com","tier":4,"message":"Very Expensive","currency":"$","rating":7.1},{"name":"5th Street Ice House","phone":"2547598571","address":"500 Austin Ave","lat":31.556675219834936,"lng":-97.1317759943072,"neighborhood":"Downtown Waco","city_fetched":"Waco","state":"TX","country":"United States","canonicalUrl":"https://foursquare.com/v/5th-street-ice-house/4b80ae66f964a520cc8530e3","category":"Hookah Bar","checkinsCount":1431,"usersCount":233,"tipCount":4,"visitsCount":1444,"tier":"","message":"","currency":"","rating":7},{"name":"Click's Billiards","phone":"2547762261","address":"1200 Richland Dr Ste F","lat":31.53026417421593,"lng":-97.19370987789758,"city_fetched":"Waco","state":"TX","country":"United States","canonicalUrl":"https://foursquare.com/v/clicks-billiards/4b5a29fff964a52057b128e3","category":"Sports Bar","checkinsCount":1715,"usersCount":246,"tipCount":18,"visitsCount":1801,"url":"http://clicks.com","tier":"","message":"","currency":"","rating":7},{"name":"Coaches XXX Smoke","lat":31.557676370700065,"lng":-97.13069289797161,"neighborhood":"Downtown Waco","city_fetched":"Waco","state":"TX","country":"United States","canonicalUrl":"https://foursquare.com/v/coaches-xxx-smoke/5570f9c2498e8adf8f5c85d1","category":"Bar","checkinsCount":70,"usersCount":164,"tipCount":2,"visitsCount":246,"tier":"","message":"","currency":"","rating":6.6},{"name":"Fast Eddie's","phone":"2543999300","twitter":"fasteddies_","address":"420 N Valley Mills Dr","lat":31.52723729610443,"lng":-97.168953,"city_fetched":"Waco","state":"TX","country":"United States","canonicalUrl":"https://foursquare.com/v/fast-eddies/4be491ba2457a593b66aaa15","category":"Sports Bar","checkinsCount":519,"usersCount":228,"tipCount":3,"visitsCount":543,"url":"http://fasteddiesbilliards.com","tier":"","message":"","currency":"","rating":6.6},{"name":"Brazos Grille","phone":"2547548484","twitter":"hiltonhotels","address":"113 S University Parks Dr","lat":31.559663943044633,"lng":-97.12812718642338,"neighborhood":"Brazos","city_fetched":"Waco","state":"TX","country":"United States","canonicalUrl":"https://foursquare.com/v/brazos-grille/50ca02c6245f2d4aa8c2c7eb","category":"Restaurant","checkinsCount":32,"usersCount":21,"tipCount":1,"visitsCount":32,"url":"http://www.hilton.com","tier":"","message":"","currency":"","rating":6.6},{"name":"Salty Dog Sports Bar and Grill","phone":"2547325161","twitter":"thesaltydogcafe","address":"2004 N Valley Mills Dr","lat":31.532330503047405,"lng":-97.20383598797012,"city_fetched":"Waco","state":"TX","country":"United States","canonicalUrl":"https://foursquare.com/v/salty-dog-sports-bar-and-grill/4c102fc07c49b713c0c13606","category":"Sports Bar","checkinsCount":1704,"usersCount":586,"tipCount":22,"visitsCount":1968,"url":"http://saltydogwaco.com","tier":"","message":"","currency":"","rating":6.5},{"name":"The Backyard Bar, Stage, and Grill","phone":"2542351151","address":"511 S 8th St","lat":31.55072873388389,"lng":-97.1303090864931,"neighborhood":"Brazos","city_fetched":"Waco","state":"TX","country":"United States","canonicalUrl":"https://foursquare.com/v/the-backyard-bar-stage-and-grill/56031083498e4eb168d9763e","category":"Beer Garden","checkinsCount":190,"usersCount":149,"tipCount":3,"visitsCount":369,"tier":"","message":"","currency":"","rating":6.4},{"name":"Wild West Waco","phone":"2547591081","address":"115 Mary Ave","lat":31.558175783134494,"lng":-97.12696528799653,"neighborhood":"Downtown Waco","city_fetched":"Waco","state":"TX","country":"United States","canonicalUrl":"https://foursquare.com/v/wild-west-waco/4b762766f964a5206c402ee3","category":"Nightclub","checkinsCount":2170,"usersCount":394,"tipCount":7,"visitsCount":2194,"url":"http://www.wildwestwaco.com","tier":"","message":"","currency":"","rating":6.4},{"name":"Austin's","address":"719 Austin Ave","lat":31.5551254,"lng":-97.13431989,"neighborhood":"Brazos","city_fetched":"Waco","state":"TX","country":"United States","canonicalUrl":"https://foursquare.com/v/austins/4e476657b0fb93df271779d3","category":"Bar","checkinsCount":440,"usersCount":199,"tipCount":7,"visitsCount":454,"tier":"","message":"","currency":"","rating":6.3},{"name":"Heitmiller Steakhouse","phone":"2548671400","address":"4509 I-35","lat":31.606681521070062,"lng":-97.10683243165842,"city_fetched":"Waco","state":"TX","country":"United States","canonicalUrl":"https://foursquare.com/v/heitmiller-steakhouse/4cd5bcc5dfb4a1cdb8195b5c","category":"Steakhouse","checkinsCount":1339,"usersCount":1132,"tipCount":24,"visitsCount":1685,"tier":2,"message":"Moderate","currency":"$","rating":6.3},{"name":"Scruffy Murphy's","phone":"2547530802","address":"1226 Speight Ave","lat":31.538880284422614,"lng":-97.12527767967428,"neighborhood":"Baylor","city_fetched":"Waco","state":"TX","country":"United States","canonicalUrl":"https://foursquare.com/v/scruffy-murphys/4b54501df964a52040b727e3","category":"Karaoke Bar","checkinsCount":2010,"usersCount":534,"tipCount":4,"visitsCount":2215,"tier":"","message":"","currency":"","rating":6.2},{"name":"C&R Sports Bar","address":"1225 Richland Dr","lat":31.530467048552307,"lng":-97.1931573014547,"city_fetched":"Waco","state":"TX","country":"United States","canonicalUrl":"https://foursquare.com/v/cr-sports-bar/4b5a2982f964a52039b128e3","category":"Bar","checkinsCount":699,"usersCount":111,"tipCount":8,"visitsCount":702,"tier":"","message":"","currency":"","rating":6.1},{"name":"Elite Circle Grill","phone":"2547544941","address":"2132 S Valley Mills Dr","lat":31.52465082072923,"lng":-97.1327013720741,"neighborhood":"University","city_fetched":"Waco","state":"TX","country":"United States","canonicalUrl":"https://foursquare.com/v/elite-circle-grill/4b106569f964a520876f23e3","category":"American Restaurant","checkinsCount":2224,"usersCount":1413,"tipCount":30,"visitsCount":2437,"url":"http://elitecafe.com","tier":2,"message":"Moderate","currency":"$","rating":6.1},{"name":"40 Thieves Hookah Lounge","phone":"2547328026","address":"217 S 4th St","lat":31.556224057434797,"lng":-97.12962033443685,"neighborhood":"Downtown Waco","city_fetched":"Waco","state":"TX","country":"United States","canonicalUrl":"https://foursquare.com/v/40-thieves-hookah-lounge/4b4d54d8f964a520dad026e3","category":"Hookah Bar","checkinsCount":333,"usersCount":121,"tipCount":7,"visitsCount":333,"tier":"","message":"","currency":"","rating":5.7}]