[{"name":"Green Lantern","phone":"5095256303","address":"1606 E Isaacs Ave","lat":46.074753,"lng":-118.31399266666666,"city_fetched":"Walla Walla","state":"WA","country":"United States","canonicalUrl":"https://foursquare.com/v/green-lantern/4b78b65ef964a520f3de2ee3","category":"Bar","checkinsCount":1323,"usersCount":493,"tipCount":19,"visitsCount":1570,"url":"http://thegreenlanterntavern.com","tier":1,"message":"Cheap","currency":"$","rating":8.5},{"name":"Brasserie Four","phone":"5095292011","address":"4 E Main St","lat":46.06693,"lng":-118.339002,"city_fetched":"Walla Walla","state":"WA","country":"United States","canonicalUrl":"https://foursquare.com/v/brasserie-four/4b7c923ff964a520af9b2fe3","category":"French Restaurant","checkinsCount":671,"usersCount":443,"tipCount":14,"visitsCount":751,"url":"http://www.brasseriefour.com","tier":2,"message":"Moderate","currency":"$","rating":7.9},{"name":"Public House 124","phone":"5098764511","address":"124 E Main St.","lat":46.0684703,"lng":-118.336486,"city_fetched":"Walla Walla","state":"WA","country":"United States","canonicalUrl":"https://foursquare.com/v/public-house-124/4e0df8c022711665f60fdd3b","category":"Bar","checkinsCount":1186,"usersCount":588,"tipCount":7,"visitsCount":1389,"tier":2,"message":"Moderate","currency":"$","rating":7.8},{"name":"Vineyard Lounge","phone":"5095252200","address":"6 W Rose St","lat":46.067902517626216,"lng":-118.34038198636595,"city_fetched":"Walla Walla","state":"WA","country":"United States","canonicalUrl":"https://foursquare.com/v/vineyard-lounge/4c03453ff423a593bd18d016","category":"Cocktail Bar","checkinsCount":691,"usersCount":155,"tipCount":6,"visitsCount":693,"url":"http://www.marcuswhitmanhotel.com/the-vineyard-lounge","tier":"","message":"","currency":"","rating":7.6},{"name":"Stone Hut Bar & Grill","phone":"5095259971","twitter":"stonehutww","address":"1427 Plaza Way","lat":46.049565180877174,"lng":-118.34571429931667,"city_fetched":"Walla Walla","state":"WA","country":"United States","canonicalUrl":"https://foursquare.com/v/stone-hut-bar--grill/4b82fd6df964a5203ef130e3","category":"Bar","checkinsCount":341,"usersCount":161,"tipCount":11,"visitsCount":357,"url":"http://web.stonehutbar.com","tier":"","message":"","currency":"","rating":7.5},{"name":"Sapolil","phone":"5095201273","twitter":"sapolil","address":"15 E Main St","lat":46.067087,"lng":-118.338712,"city_fetched":"Walla Walla","state":"WA","country":"United States","canonicalUrl":"https://foursquare.com/v/sapolil/4beb0e0c246fb71303f9abdf","category":"Wine Bar","checkinsCount":395,"usersCount":241,"tipCount":17,"visitsCount":397,"url":"http://www.sapolilcellars.com","tier":"","message":"","currency":"","rating":7.4},{"name":"Marcy's Bar And Lounge","phone":"5095257482","address":"35 S Colville St.","lat":46.06722551666667,"lng":-118.335989,"city_fetched":"Walla Walla","state":"WA","country":"United States","canonicalUrl":"https://foursquare.com/v/marcys-bar-and-lounge/4c796fa7bd346dcb3d74f5ef","category":"Lounge","checkinsCount":501,"usersCount":232,"tipCount":9,"visitsCount":510,"url":"http://marcysbarandlounge.com","tier":"","message":"","currency":"","rating":6.9},{"name":"Mark Ryan Tasting Room","address":"26 E Main St","lat":46.0671,"lng":-118.338191,"city_fetched":"Walla Walla","state":"WA","country":"United States","canonicalUrl":"https://foursquare.com/v/mark-ryan-tasting-room/504b94a9e4b0369116778b77","category":"Wine Bar","checkinsCount":143,"usersCount":118,"tipCount":3,"visitsCount":144,"tier":"","message":"","currency":"","rating":6.8},{"name":"Red Monkey Walla Walla","phone":"5095223865","twitter":"redmonkeyww","address":"25 W Alder St","lat":46.065327,"lng":-118.339572,"city_fetched":"Walla Walla","state":"WA","country":"United States","canonicalUrl":"https://foursquare.com/v/red-monkey-walla-walla/4b77052ff964a5201d752ee3","category":"Lounge","checkinsCount":938,"usersCount":462,"tipCount":17,"visitsCount":1169,"url":"http://redmonkeylounge.com","tier":"","message":"","currency":"","rating":6.7},{"name":"Mill Creek Brew Pub","phone":"5095222440","address":"11 S Palouse St","lat":46.069395,"lng":-118.334899,"city_fetched":"Walla Walla","state":"WA","country":"United States","canonicalUrl":"https://foursquare.com/v/mill-creek-brew-pub/4b47d851f964a520484126e3","category":"Brewery","checkinsCount":520,"usersCount":406,"tipCount":10,"visitsCount":578,"url":"http://www.millcreek-brewpub.com","tier":"","message":"","currency":"","rating":5.8}]