[{"name":"B. Nektar Meadery","phone":"3137446323","twitter":"bnektar","address":"1511 Jarvis St","lat":42.45693250642556,"lng":-83.11356782913208,"city_fetched":"Warren,US","state":"MI","country":"United States","canonicalUrl":"https://foursquare.com/v/b-nektar-meadery/4b19a6f0f964a5203ee123e3","categoryId":"50327c8591d4c4b30a586d5d","category":"Brewery","checkinsCount":1907,"usersCount":896,"tipCount":18,"visitsCount":2450,"url":"http://bnektar.com","tier":2,"message":"Moderate","currency":"$","rating":9.3},{"name":"The Sugar House","phone":"3139620123","twitter":"sugarhousebar","address":"2130 Michigan Ave","lat":42.33154881000729,"lng":-83.07583438010758,"neighborhood":"Corktown","city_fetched":"Warren,US","state":"MI","country":"United States","canonicalUrl":"https://foursquare.com/v/the-sugar-house/4df542faa809141629a8c6e0","categoryId":"4bf58dd8d48988d11e941735","category":"Cocktail Bar","checkinsCount":6169,"usersCount":3086,"tipCount":90,"visitsCount":6233,"url":"http://www.sugarhousedetroit.com","tier":3,"message":"Expensive","currency":"$","rating":9.2},{"name":"Kuhnhenn Brewing Co.","phone":"5869798361","twitter":"louco_none","address":"5919 Chicago Rd","lat":42.5277447220129,"lng":-83.0468076467514,"neighborhood":"Northwest Warren","city_fetched":"Warren,US","state":"MI","country":"United States","canonicalUrl":"https://foursquare.com/v/kuhnhenn-brewing-co/4aac2e20f964a520b45c20e3","categoryId":"50327c8591d4c4b30a586d5d","category":"Brewery","checkinsCount":10905,"usersCount":3779,"tipCount":111,"visitsCount":12685,"url":"http://kbrewery.com","tier":2,"message":"Moderate","currency":"$","rating":9.2},{"name":"HopCat","phone":"3137698828","twitter":"hopcatd","address":"4265 Woodward Ave","lat":42.35244200101349,"lng":-83.0615973683878,"neighborhood":"Midtown","city_fetched":"Warren,US","state":"MI","country":"United States","canonicalUrl":"https://foursquare.com/v/hopcat/54872d9d498ef51e69f3c1e5","categoryId":"4bf58dd8d48988d117941735","category":"Beer Garden","checkinsCount":3807,"usersCount":3715,"tipCount":68,"visitsCount":6699,"url":"http://hopcat.com/detroit","tier":2,"message":"Moderate","currency":"$","rating":9.1},{"name":"Griffin Claw Brewing Company","phone":"2487124050","twitter":"griffinclaw","address":"575 S Eton St","lat":42.543540144929,"lng":-83.1955361366272,"city_fetched":"Warren,US","state":"MI","country":"United States","canonicalUrl":"https://foursquare.com/v/griffin-claw-brewing-company/50f03dbe067d4609d1ff65b6","categoryId":"50327c8591d4c4b30a586d5d","category":"Brewery","checkinsCount":4525,"usersCount":2775,"tipCount":52,"visitsCount":6488,"url":"http://www.griffinclawbrewingcompany.com","tier":2,"message":"Moderate","currency":"$","rating":9},{"name":"Northern Lights Lounge","phone":"3138731739","twitter":"nolightsdetroit","address":"660 W Baltimore St","lat":42.36683605692808,"lng":-83.07670891284943,"neighborhood":"New Center","city_fetched":"Warren,US","state":"MI","country":"United States","canonicalUrl":"https://foursquare.com/v/northern-lights-lounge/4b7e1cf1f964a5202ae32fe3","categoryId":"4bf58dd8d48988d121941735","category":"Lounge","checkinsCount":5066,"usersCount":2088,"tipCount":23,"visitsCount":5842,"url":"http://northernlightslounge.com","tier":2,"message":"Moderate","currency":"$","rating":9},{"name":"â€ŽBatch Brewing Company","phone":"3133388008","twitter":"batchbrewing","address":"1400 Porter St","lat":42.32830322161789,"lng":-83.06337833404541,"neighborhood":"Corktown","city_fetched":"Warren,US","state":"MI","country":"United States","canonicalUrl":"https://foursquare.com/v/batch-brewing-company/513906c38aca6b6931303b04","categoryId":"50327c8591d4c4b30a586d5d","category":"Brewery","checkinsCount":1416,"usersCount":1202,"tipCount":22,"visitsCount":2280,"url":"http://batchbrewingcompany.com","tier":"","message":"","currency":"","rating":9},{"name":"Atwater Block Brewery","phone":"3138779205","twitter":"atwaterbeer","address":"237 Joseph Campau St","lat":42.33734209906963,"lng":-83.0185320988375,"neighborhood":"Rivertown - Warehouse District","city_fetched":"Warren,US","state":"MI","country":"United States","canonicalUrl":"https://foursquare.com/v/atwater-block-brewery/4aa0353df964a520b53e20e3","categoryId":"50327c8591d4c4b30a586d5d","category":"Brewery","checkinsCount":3876,"usersCount":2581,"tipCount":44,"visitsCount":4694,"url":"http://atwaterbeer.com","tier":2,"message":"Moderate","currency":"$","rating":8.8},{"name":"Iron Horse","address":"316 W 4th St","lat":42.487303799123445,"lng":-83.1472086906412,"neighborhood":"Downtown Royal Oak","city_fetched":"Warren,US","state":"MI","country":"United States","canonicalUrl":"https://foursquare.com/v/iron-horse/54964bde498e138e70d00c1f","categoryId":"4bf58dd8d48988d116941735","category":"Bar","checkinsCount":600,"usersCount":380,"tipCount":12,"visitsCount":695,"tier":"","message":"","currency":"","rating":8.8},{"name":"Walkerville Brewery","phone":"5192546067","twitter":"walkervillebrew","address":"525 Argyle Rd","lat":42.32373918992259,"lng":-83.0115494338951,"neighborhood":"Walkerville","city_fetched":"Warren,US","state":"ON","country":"Canada","canonicalUrl":"https://foursquare.com/walkervillebrew","categoryId":"50327c8591d4c4b30a586d5d","category":"Brewery","checkinsCount":526,"usersCount":331,"tipCount":10,"visitsCount":657,"url":"http://www.walkervillebrewery.com","tier":"","message":"","currency":"","rating":8.8},{"name":"One-Eyed Betty's","phone":"2488066633","twitter":"oneeyedbetty","address":"175 W Troy St","lat":42.459905369332795,"lng":-83.13578879729617,"neighborhood":"Downtown Ferndale","city_fetched":"Warren,US","state":"MI","country":"United States","canonicalUrl":"https://foursquare.com/v/oneeyed-bettys/4f2ca9afe4b0b0d0831ae376","categoryId":"4bf58dd8d48988d117941735","category":"Beer Garden","checkinsCount":14238,"usersCount":5531,"tipCount":148,"visitsCount":16295,"url":"http://www.oneeyedbettys.com","tier":2,"message":"Moderate","currency":"$","rating":8.8},{"name":"Ale Mary's Beer Hall","phone":"2485411186","twitter":"alemarysbeer","address":"318 S Main St","lat":42.48754428800867,"lng":-83.14424526057014,"neighborhood":"Downtown Royal Oak","city_fetched":"Warren,US","state":"MI","country":"United States","canonicalUrl":"https://foursquare.com/v/ale-marys-beer-hall/530b6ec7498ed47c82dcb302","categoryId":"4bf58dd8d48988d117941735","category":"Beer Garden","checkinsCount":2254,"usersCount":1055,"tipCount":21,"visitsCount":2559,"url":"http://alemarysbeer.com","tier":"","message":"","currency":"","rating":8.7},{"name":"Grand Trunk Pub","phone":"3139613043","twitter":"grandtrunkpub","address":"612 Woodward Ave","lat":42.33055185038616,"lng":-83.0457615852356,"neighborhood":"Downtown Detroit","city_fetched":"Warren,US","state":"MI","country":"United States","canonicalUrl":"https://foursquare.com/v/grand-trunk-pub/41326e00f964a5207f0e1fe3","categoryId":"4bf58dd8d48988d11b941735","category":"Pub","checkinsCount":12919,"usersCount":5475,"tipCount":128,"visitsCount":13636,"url":"http://www.grandtrunkpub.com","tier":2,"message":"Moderate","currency":"$","rating":8.7},{"name":"St. CeCe's Pub","phone":"3139622121","twitter":"stceces","address":"1426 Bagley St","lat":42.329828247033895,"lng":-83.06517787933448,"neighborhood":"Corktown","city_fetched":"Warren,US","state":"MI","country":"United States","canonicalUrl":"https://foursquare.com/v/st-ceces-pub/4e3b39b352b1a04afefb0ccd","categoryId":"4bf58dd8d48988d11b941735","category":"Pub","checkinsCount":2835,"usersCount":1370,"tipCount":27,"visitsCount":3430,"url":"http://www.stceces.com","tier":2,"message":"Moderate","currency":"$","rating":8.7},{"name":"Motor City Brewing Works Inc","phone":"3138322700","twitter":"motorcitybeer","address":"470 W Canfield St","lat":42.3517358,"lng":-83.066049,"neighborhood":"Midtown","city_fetched":"Warren,US","state":"MI","country":"United States","canonicalUrl":"https://foursquare.com/v/motor-city-brewing-works-inc/41326e00f964a520900f1fe3","categoryId":"50327c8591d4c4b30a586d5d","category":"Brewery","checkinsCount":10206,"usersCount":4615,"tipCount":137,"visitsCount":10694,"url":"http://www.motorcitybeer.com","tier":2,"message":"Moderate","currency":"$","rating":8.7},{"name":"Dragonmead Brewery","phone":"5867769428","address":"14600 E 11 Mile Rd","lat":42.49275842639962,"lng":-82.97556468080234,"neighborhood":"Southeast Warren","city_fetched":"Warren,US","state":"MI","country":"United States","canonicalUrl":"https://foursquare.com/v/dragonmead-brewery/41326e00f964a5204a0e1fe3","categoryId":"50327c8591d4c4b30a586d5d","category":"Brewery","checkinsCount":5297,"usersCount":2587,"tipCount":76,"visitsCount":5917,"url":"http://dragonmead.com","tier":2,"message":"Moderate","currency":"$","rating":8.7},{"name":"Bronx Bar","phone":"3138328464","address":"4476 2nd Ave","lat":42.352246,"lng":-83.06706456666667,"neighborhood":"Midtown","city_fetched":"Warren,US","state":"MI","country":"United States","canonicalUrl":"https://foursquare.com/v/bronx-bar/41326e00f964a520b20d1fe3","categoryId":"4bf58dd8d48988d116941735","category":"Bar","checkinsCount":7914,"usersCount":3087,"tipCount":85,"visitsCount":8992,"tier":1,"message":"Cheap","currency":"$","rating":8.7},{"name":"Town Tavern","phone":"2485447300","address":"116 W 4th St","lat":42.487343,"lng":-83.145013,"neighborhood":"Downtown Royal Oak","city_fetched":"Warren,US","state":"MI","country":"United States","canonicalUrl":"https://foursquare.com/v/town-tavern/4ae32ffbf964a5206e9121e3","categoryId":"4bf58dd8d48988d121941735","category":"Lounge","checkinsCount":4520,"usersCount":1921,"tipCount":38,"visitsCount":4583,"url":"http://www.towntavernroyaloak.com","tier":2,"message":"Moderate","currency":"$","rating":8.7},{"name":"Cadieux Cafe","phone":"3138828560","address":"4300 Cadieux Rd","lat":42.40150042,"lng":-82.92662,"neighborhood":"Far East Detroit","city_fetched":"Warren,US","state":"MI","country":"United States","canonicalUrl":"https://foursquare.com/v/cadieux-cafe/4b6d05e9f964a52082632ce3","categoryId":"4bf58dd8d48988d116941735","category":"Bar","checkinsCount":2922,"usersCount":1621,"tipCount":23,"visitsCount":3207,"url":"http://cadieuxcafe.com","tier":2,"message":"Moderate","currency":"$","rating":8.6},{"name":"Eastside Tavern","phone":"5864634223","address":"129 Avery","lat":42.59126918182089,"lng":-82.86646262222119,"city_fetched":"Warren,US","state":"MI","country":"United States","canonicalUrl":"https://foursquare.com/v/eastside-tavern/4be9da4162c0c928742ae0d4","categoryId":"4bf58dd8d48988d11b941735","category":"Pub","checkinsCount":913,"usersCount":309,"tipCount":7,"visitsCount":1099,"url":"http://frankseastsidetavern.com","tier":"","message":"","currency":"","rating":8.6},{"name":"Detroit Beer Company","phone":"3139621529","twitter":"detroitbeerco","address":"1529 Broadway St","lat":42.33603540302849,"lng":-83.04887265723872,"neighborhood":"Downtown Detroit","city_fetched":"Warren,US","state":"MI","country":"United States","canonicalUrl":"https://foursquare.com/v/detroit-beer-company/456fdad7f964a5203c3e1fe3","categoryId":"50327c8591d4c4b30a586d5d","category":"Brewery","checkinsCount":15612,"usersCount":7248,"tipCount":128,"visitsCount":16403,"url":"http://www.detroitbeerco.com","tier":2,"message":"Moderate","currency":"$","rating":8.6},{"name":"La Casa De La Habana Cigar Bar","phone":"3132858332","twitter":"lacasadetroit","address":"1502 Randolph St","lat":42.33676782563287,"lng":-83.04620891210888,"neighborhood":"Downtown Detroit","city_fetched":"Warren,US","state":"MI","country":"United States","canonicalUrl":"https://foursquare.com/v/la-casa-de-la-habana-cigar-bar/4b490577f964a520666226e3","categoryId":"4bf58dd8d48988d121941735","category":"Lounge","checkinsCount":2667,"usersCount":1136,"tipCount":27,"visitsCount":3018,"url":"http://lacasadelahabana.com","tier":"","message":"","currency":"","rating":8.6},{"name":"Ye Olde Tap Room","phone":"3138241030","address":"14915 Charlevoix St","lat":42.384802371636766,"lng":-82.94558431912559,"neighborhood":"Mack","city_fetched":"Warren,US","state":"MI","country":"United States","canonicalUrl":"https://foursquare.com/v/ye-olde-tap-room/41326e00f964a520fb101fe3","categoryId":"4bf58dd8d48988d118941735","category":"Dive Bar","checkinsCount":2816,"usersCount":948,"tipCount":18,"visitsCount":3247,"url":"http://yeoldetaproom.com","tier":2,"message":"Moderate","currency":"$","rating":8.5},{"name":"McShane's Pub & Whiskey Bar","phone":"3139611960","twitter":"mcshanespub","address":"1460 Michigan Ave","lat":42.33163052913101,"lng":-83.06681156158447,"neighborhood":"Corktown","city_fetched":"Warren,US","state":"MI","country":"United States","canonicalUrl":"https://foursquare.com/v/mcshanes-pub--whiskey-bar/4b624479f964a520783f2ae3","categoryId":"4bf58dd8d48988d116941735","category":"Bar","checkinsCount":2550,"usersCount":1471,"tipCount":21,"visitsCount":3100,"url":"http://mcshanespub.com","tier":1,"message":"Cheap","currency":"$","rating":8.5},{"name":"Baffin Brewing Company","address":"25113 Jefferson Ave","lat":42.478200364896324,"lng":-82.88951404372347,"neighborhood":"Saint Clair Shores","city_fetched":"Warren,US","state":"MI","country":"United States","canonicalUrl":"https://foursquare.com/v/baffin-brewing-company/54a4832e498ebc906c63cdcc","categoryId":"50327c8591d4c4b30a586d5d","category":"Brewery","checkinsCount":547,"usersCount":220,"tipCount":2,"visitsCount":739,"url":"http://baffinbrewing.com","tier":"","message":"","currency":"","rating":8.5},{"name":"Atwater in the Park","phone":"3133445104","address":"1175 Lakepointe St","lat":42.38127730393016,"lng":-82.93999671936035,"neighborhood":"Grosse Pointe","city_fetched":"Warren,US","state":"MI","country":"United States","canonicalUrl":"https://foursquare.com/v/atwater-in-the-park/53a335bd498e9733bb070f1a","categoryId":"4bf58dd8d48988d117941735","category":"Beer Garden","checkinsCount":1381,"usersCount":1169,"tipCount":18,"visitsCount":2090,"url":"http://atwaterbeer.com","tier":"","message":"","currency":"","rating":8.5},{"name":"Bastone Brewery","phone":"2485446250","twitter":"bastonebrewery","address":"419 S Main St","lat":42.486525798526905,"lng":-83.14394116401672,"neighborhood":"Downtown Royal Oak","city_fetched":"Warren,US","state":"MI","country":"United States","canonicalUrl":"https://foursquare.com/v/bastone-brewery/4a70d927f964a52096d81fe3","categoryId":"50327c8591d4c4b30a586d5d","category":"Brewery","checkinsCount":9540,"usersCount":4560,"tipCount":89,"visitsCount":9821,"url":"http://www.bastonebrewery.com","tier":2,"message":"Moderate","currency":"$","rating":8.5},{"name":"Johnny Blacks Public House","phone":"2482939000","address":"1711 E Auburn Rd","lat":42.637933548228645,"lng":-83.0979700487902,"neighborhood":"Rochester","city_fetched":"Warren,US","state":"MI","country":"United States","canonicalUrl":"https://foursquare.com/v/johnny-blacks-public-house/4b513f97f964a520a34827e3","categoryId":"4bf58dd8d48988d116941735","category":"Bar","checkinsCount":1066,"usersCount":503,"tipCount":12,"visitsCount":1676,"url":"http://www.johnnyblacks.com","tier":2,"message":"Moderate","currency":"$","rating":8.5},{"name":"The Manchester Pub","phone":"5199778020","twitter":"manchester_buzz","address":"546 Ouellette Ave","lat":42.314834338275794,"lng":-83.03704753267984,"neighborhood":"City Centre","city_fetched":"Warren,US","state":"ON","country":"Canada","canonicalUrl":"https://foursquare.com/v/the-manchester-pub/4b6e3a44f964a520eeb22ce3","categoryId":"4bf58dd8d48988d116941735","category":"Bar","checkinsCount":1673,"usersCount":686,"tipCount":25,"visitsCount":1775,"url":"http://www.themanchester.ca","tier":2,"message":"Moderate","currency":"$","rating":8.5},{"name":"Old Miami","phone":"3138313830","address":"3930 Cass Ave","lat":42.348949637785445,"lng":-83.06229461348634,"neighborhood":"Midtown","city_fetched":"Warren,US","state":"MI","country":"United States","canonicalUrl":"https://foursquare.com/v/old-miami/41326e00f964a520bf0f1fe3","categoryId":"4bf58dd8d48988d116941735","category":"Bar","checkinsCount":4460,"usersCount":2748,"tipCount":37,"visitsCount":5226,"url":"http://www.theoldmiamidetroit.com","tier":1,"message":"Cheap","currency":"$","rating":8.5},{"name":"Rock Bottom Bar & Grill","phone":"5192587553","address":"3236 Sandwich Street","lat":42.301287,"lng":-83.076152,"neighborhood":"Sandwich","city_fetched":"Warren,US","state":"ON","country":"Canada","canonicalUrl":"https://foursquare.com/v/rock-bottom-bar--grill/4b55137ef964a52050da27e3","categoryId":"4bf58dd8d48988d11b941735","category":"Pub","checkinsCount":1170,"usersCount":456,"tipCount":16,"visitsCount":1510,"url":"http://rockbottom.ca","tier":2,"message":"Moderate","currency":"$","rating":8.5},{"name":"Three Blind Mice Irish Pub","phone":"5869616371","twitter":"3blindmicepub","address":"101 North Main Street","lat":42.59973968268315,"lng":-82.87664120009357,"neighborhood":"Downtown Mount Clemens","city_fetched":"Warren,US","state":"MI","country":"United States","canonicalUrl":"https://foursquare.com/3blindmicepub","categoryId":"56aa371ce4b08b9a8d57356c","category":"Beer Bar","checkinsCount":1532,"usersCount":908,"tipCount":23,"visitsCount":2213,"url":"http://www.threeblindmiceirishpub.com","tier":2,"message":"Moderate","currency":"$","rating":8.5},{"name":"Royal Oak Brewery","phone":"2485441141","twitter":"royaloakbrewery","address":"215 E 4th St","lat":42.48756640073798,"lng":-83.14241268347712,"neighborhood":"Downtown Royal Oak","city_fetched":"Warren,US","state":"MI","country":"United States","canonicalUrl":"https://foursquare.com/v/royal-oak-brewery/4515bffef964a520043a1fe3","categoryId":"50327c8591d4c4b30a586d5d","category":"Brewery","checkinsCount":13751,"usersCount":5079,"tipCount":96,"visitsCount":14298,"url":"http://www.royaloakbrewery.com","tier":2,"message":"Moderate","currency":"$","rating":8.4},{"name":"M-Brew","phone":"2485422739","address":"177 Vester St","lat":42.461694819529974,"lng":-83.13334328769308,"neighborhood":"Downtown Ferndale","city_fetched":"Warren,US","state":"MI","country":"United States","canonicalUrl":"https://foursquare.com/v/mbrew/534f0ae511d2e6421d05221b","categoryId":"4bf58dd8d48988d116941735","category":"Bar","checkinsCount":1560,"usersCount":855,"tipCount":18,"visitsCount":1968,"url":"http://www.m-brew.net","tier":"","message":"","currency":"","rating":8.4},{"name":"CJ Mahoney's","phone":"2482932800","address":"3260 S Rochester Rd","lat":42.632323494830906,"lng":-83.13222785355431,"neighborhood":"Rochester","city_fetched":"Warren,US","state":"MI","country":"United States","canonicalUrl":"https://foursquare.com/v/cj-mahoneys/4b81f167f964a520d3c430e3","categoryId":"4bf58dd8d48988d11b941735","category":"Pub","checkinsCount":4427,"usersCount":1403,"tipCount":20,"visitsCount":5108,"url":"http://www.cjmahoneys.com","tier":2,"message":"Moderate","currency":"$","rating":8.4},{"name":"Jolly Pumpkin Pizzeria and Brewery","phone":"3132626115","address":"441 W Canfield St","lat":42.35141220955572,"lng":-83.06540329296887,"neighborhood":"Midtown","city_fetched":"Warren,US","state":"MI","country":"United States","canonicalUrl":"https://foursquare.com/v/jolly-pumpkin-pizzeria-and-brewery/54f8889d498e4321459eead8","categoryId":"50327c8591d4c4b30a586d5d","category":"Brewery","checkinsCount":1689,"usersCount":1417,"tipCount":22,"visitsCount":2128,"url":"http://jollypumpkin.com","tier":"","message":"","currency":"","rating":8.4},{"name":"The Old Shillelagh","phone":"3139640007","twitter":"oldshillelagh","address":"349 Monroe St","lat":42.33456921120238,"lng":-83.04371810800092,"neighborhood":"Greektown","city_fetched":"Warren,US","state":"MI","country":"United States","canonicalUrl":"https://foursquare.com/v/the-old-shillelagh/41326e00f964a520c10f1fe3","categoryId":"4bf58dd8d48988d11b941735","category":"Pub","checkinsCount":12517,"usersCount":6666,"tipCount":34,"visitsCount":13206,"url":"http://www.oldshillelagh.com","tier":2,"message":"Moderate","currency":"$","rating":8.4},{"name":"The Oakland","phone":"2482915295","twitter":"theoakland","address":"201 W 9 Mile Rd","lat":42.46042336615867,"lng":-83.13634910459132,"neighborhood":"Downtown Ferndale","city_fetched":"Warren,US","state":"MI","country":"United States","canonicalUrl":"https://foursquare.com/v/the-oakland/4e18f637b0fb8567c6723135","categoryId":"4bf58dd8d48988d11e941735","category":"Cocktail Bar","checkinsCount":3750,"usersCount":1755,"tipCount":54,"visitsCount":3793,"url":"http://www.theoaklandferndale.com","tier":2,"message":"Moderate","currency":"$","rating":8.4},{"name":"Motor City Bar & Grill","phone":"5867554750","address":"21231 Mound Rd","lat":42.45229836140123,"lng":-83.04485602388792,"city_fetched":"Warren,US","state":"MI","country":"United States","canonicalUrl":"https://foursquare.com/v/motor-city-bar--grill/4dfad721b61c6408772d8de5","categoryId":"4bf58dd8d48988d116941735","category":"Bar","checkinsCount":265,"usersCount":175,"tipCount":3,"visitsCount":435,"tier":"","message":"","currency":"","rating":8.3},{"name":"Craft Heads Brewing Company","phone":"2262463925","twitter":"craftheadsbrew","address":"89 University Ave W","lat":42.317132770767486,"lng":-83.03984275380752,"neighborhood":"City Centre","city_fetched":"Warren,US","state":"ON","country":"Canada","canonicalUrl":"https://foursquare.com/v/craft-heads-brewing-company/550237b0498e322efec9e561","categoryId":"50327c8591d4c4b30a586d5d","category":"Brewery","checkinsCount":108,"usersCount":83,"tipCount":3,"visitsCount":123,"url":"http://www.craftheads.ca","tier":"","message":"","currency":"","rating":8.3},{"name":"The Anchor Bar","phone":"3139649127","twitter":"theofficialbar","address":"450 W Fort St","lat":42.329284,"lng":-83.05155848333334,"neighborhood":"Downtown Detroit","city_fetched":"Warren,US","state":"MI","country":"United States","canonicalUrl":"https://foursquare.com/v/the-anchor-bar/4b7c259ff964a52005802fe3","categoryId":"4bf58dd8d48988d11d941735","category":"Sports Bar","checkinsCount":5608,"usersCount":1787,"tipCount":32,"visitsCount":6130,"url":"http://www.anchorbardetroit.com","tier":2,"message":"Moderate","currency":"$","rating":8.3},{"name":"Traffic Jam & Snug","phone":"3138319470","twitter":"trafficjamnsnug","address":"511 W Canfield St","lat":42.351027725287636,"lng":-83.06617856025696,"neighborhood":"Midtown","city_fetched":"Warren,US","state":"MI","country":"United States","canonicalUrl":"https://foursquare.com/v/traffic-jam--snug/4ace754ef964a520add020e3","categoryId":"50327c8591d4c4b30a586d5d","category":"Brewery","checkinsCount":7121,"usersCount":4065,"tipCount":91,"visitsCount":7497,"url":"http://www.trafficjamdetroit.com","tier":2,"message":"Moderate","currency":"$","rating":8.3},{"name":"Sherwood Brewing Company","phone":"5865329669","address":"45689 Hayes Rd","lat":42.63209703942082,"lng":-82.97477727907531,"city_fetched":"Warren,US","state":"MI","country":"United States","canonicalUrl":"https://foursquare.com/v/sherwood-brewing-company/4b26f7ecf964a520968324e3","categoryId":"50327c8591d4c4b30a586d5d","category":"Brewery","checkinsCount":6890,"usersCount":1567,"tipCount":41,"visitsCount":7501,"url":"http://sherwoodbrewing.com","tier":2,"message":"Moderate","currency":"$","rating":8.3},{"name":"Town Pump Tavern","phone":"3139611929","address":"100 W Montcalm St","lat":42.33807518333333,"lng":-83.05403,"neighborhood":"Downtown Detroit","city_fetched":"Warren,US","state":"MI","country":"United States","canonicalUrl":"https://foursquare.com/v/town-pump-tavern/41326e00f964a520ba101fe3","categoryId":"4bf58dd8d48988d116941735","category":"Bar","checkinsCount":5395,"usersCount":3033,"tipCount":34,"visitsCount":5596,"url":"http://www.thetownpumptavern.com","tier":2,"message":"Moderate","currency":"$","rating":8.2},{"name":"Amici's Living Room","phone":"2485444100","address":"3249 12 Mile Rd","lat":42.5028536883938,"lng":-83.19168984889984,"neighborhood":"Downtown Berkley","city_fetched":"Warren,US","state":"MI","country":"United States","canonicalUrl":"https://foursquare.com/v/amicis-living-room/4a984e65f964a520672b20e3","categoryId":"4bf58dd8d48988d11e941735","category":"Cocktail Bar","checkinsCount":2336,"usersCount":1056,"tipCount":26,"visitsCount":2491,"url":"http://amicispizza.com","tier":"","message":"","currency":"","rating":8.2},{"name":"The Engine House","phone":"5864682442","address":"309 Cass Ave","lat":42.59799750880387,"lng":-82.892605192439,"city_fetched":"Warren,US","state":"MI","country":"United States","canonicalUrl":"https://foursquare.com/v/the-engine-house/4aaebde8f964a5201c6320e3","categoryId":"4bf58dd8d48988d116941735","category":"Bar","checkinsCount":1757,"usersCount":783,"tipCount":23,"visitsCount":2143,"url":"http://theenginehouse.net","tier":"","message":"","currency":"","rating":8.2},{"name":"Churchill's Bistro Cigar Bar","address":"116 S Old Woodward Ave","lat":42.546645803743964,"lng":-83.21423205500774,"neighborhood":"Downtown Birmingham","city_fetched":"Warren,US","state":"MI","country":"United States","canonicalUrl":"https://foursquare.com/v/churchills-bistro-cigar-bar/4fd7af9be4b02f54a5137b86","categoryId":"4bf58dd8d48988d11a941735","category":"Other Nightlife","checkinsCount":1316,"usersCount":515,"tipCount":14,"visitsCount":1467,"tier":2,"message":"Moderate","currency":"$","rating":8.2},{"name":"Whiskey In The Jar","phone":"3138734154","address":"2741 Yemans St","lat":42.39773311134105,"lng":-83.0590861762568,"city_fetched":"Warren,US","state":"MI","country":"United States","canonicalUrl":"https://foursquare.com/v/whiskey-in-the-jar/41326e00f964a520e8101fe3","categoryId":"4bf58dd8d48988d116941735","category":"Bar","checkinsCount":5640,"usersCount":852,"tipCount":15,"visitsCount":6134,"tier":1,"message":"Cheap","currency":"$","rating":8.2},{"name":"Tipsy McStaggers","phone":"5868064481","twitter":"tipsymcstaggers","address":"7280 E 12 Mile Rd","lat":42.506345752843785,"lng":-83.03133130073547,"neighborhood":"Northwest Warren","city_fetched":"Warren,US","state":"MI","country":"United States","canonicalUrl":"https://foursquare.com/tipsymcstaggers","categoryId":"4bf58dd8d48988d116941735","category":"Bar","checkinsCount":6247,"usersCount":1146,"tipCount":31,"visitsCount":6771,"tier":2,"message":"Moderate","currency":"$","rating":8.1},{"name":"Cornerstone Barrel House","address":"1456 Woodward Ave","lat":42.3349864526831,"lng":-83.04922396990607,"neighborhood":"Downtown Detroit","city_fetched":"Warren,US","state":"MI","country":"United States","canonicalUrl":"https://foursquare.com/v/cornerstone-barrel-house/540e13df498ea2728a5453c8","categoryId":"4bf58dd8d48988d122941735","category":"Whisky Bar","checkinsCount":972,"usersCount":443,"tipCount":5,"visitsCount":1057,"url":"http://www.cornerstonedetroit.com","tier":"","message":"","currency":"","rating":8.1},{"name":"Detroiter Bar/Malaka's","phone":"3139633355","address":"649 Beaubien St","lat":42.33318040099984,"lng":-83.04151039020242,"neighborhood":"Bricktown","city_fetched":"Warren,US","state":"MI","country":"United States","canonicalUrl":"https://foursquare.com/v/detroiter-barmalakas/41326e00f964a520340e1fe3","categoryId":"4bf58dd8d48988d116941735","category":"Bar","checkinsCount":3447,"usersCount":1973,"tipCount":26,"visitsCount":3636,"tier":1,"message":"Cheap","currency":"$","rating":8.1},{"name":"Motor City Wine","phone":"3134837283","twitter":"motorcitywine","address":"1949 Michigan Ave","lat":42.33119678468325,"lng":-83.07288868317568,"neighborhood":"Downtown Detroit","city_fetched":"Warren,US","state":"MI","country":"United States","canonicalUrl":"https://foursquare.com/v/motor-city-wine/4c02fec1187ec9283a18b57b","categoryId":"4bf58dd8d48988d123941735","category":"Wine Bar","checkinsCount":2439,"usersCount":1483,"tipCount":35,"visitsCount":2903,"url":"http://motorcitywine.com","tier":2,"message":"Moderate","currency":"$","rating":8.1},{"name":"Boston's Restaurant & Sports Bar","phone":"5862474992","twitter":"bostonscorp","address":"15133 Hall Rd","lat":42.62825861730525,"lng":-82.9749610069825,"city_fetched":"Warren,US","state":"MI","country":"United States","canonicalUrl":"https://foursquare.com/v/bostons-restaurant--sports-bar/4b54f056f964a52027d427e3","categoryId":"4bf58dd8d48988d116941735","category":"Bar","checkinsCount":9472,"usersCount":3335,"tipCount":53,"visitsCount":10348,"url":"http://www.bostons.com","tier":2,"message":"Moderate","currency":"$","rating":8.1},{"name":"Valentine Vodka Distilling Co","phone":"2486299951","twitter":"valentinevodka","address":"161 Vester St","lat":42.461693,"lng":-83.133566,"neighborhood":"Downtown Ferndale","city_fetched":"Warren,US","state":"MI","country":"United States","canonicalUrl":"https://foursquare.com/v/valentine-vodka-distilling-co/4c7ecfd1e4b06dcbaf4545d7","categoryId":"4bf58dd8d48988d11e941735","category":"Cocktail Bar","checkinsCount":2893,"usersCount":1620,"tipCount":44,"visitsCount":2957,"url":"http://valentinedistilling.com","tier":2,"message":"Moderate","currency":"$","rating":8.1},{"name":"Art & Jake's Sports Bar and Grill Shelby","phone":"5869973255","twitter":"artjakes","address":"45537 Mound Rd","lat":42.628425094165344,"lng":-83.05325606604357,"city_fetched":"Warren,US","state":"MI","country":"United States","canonicalUrl":"https://foursquare.com/v/art--jakes-sports-bar-and-grill-shelby/4ad15100f964a52001de20e3","categoryId":"4bf58dd8d48988d116941735","category":"Bar","checkinsCount":1546,"usersCount":689,"tipCount":15,"visitsCount":1890,"url":"http://www.artjakes.com/menu/html","tier":2,"message":"Moderate","currency":"$","rating":8.1},{"name":"Gusoline Alley","phone":"2485452235","address":"309 S Center St","lat":42.487650257548545,"lng":-83.14525544643402,"neighborhood":"Downtown Royal Oak","city_fetched":"Warren,US","state":"MI","country":"United States","canonicalUrl":"https://foursquare.com/v/gusoline-alley/41326e00f964a520b00e1fe3","categoryId":"4bf58dd8d48988d118941735","category":"Dive Bar","checkinsCount":6047,"usersCount":2213,"tipCount":59,"visitsCount":6269,"url":"http://www.myspace.com/GusolineAlley","tier":1,"message":"Cheap","currency":"$","rating":8.1},{"name":"Hamlin Pub","phone":"2486567700","address":"1988 S Rochester Rd","lat":42.65271004362558,"lng":-83.1338882446289,"neighborhood":"Rochester","city_fetched":"Warren,US","state":"MI","country":"United States","canonicalUrl":"https://foursquare.com/v/hamlin-pub/438c38f3f964a5202a2b1fe3","categoryId":"4bf58dd8d48988d11b941735","category":"Pub","checkinsCount":7470,"usersCount":1489,"tipCount":34,"visitsCount":8049,"url":"http://hamlinpubs.com","tier":2,"message":"Moderate","currency":"$","rating":8.1},{"name":"Duggan's Irish Pub","phone":"2485493659","address":"31501 Woodward Ave","lat":42.52169784412646,"lng":-83.19051370024681,"city_fetched":"Warren,US","state":"MI","country":"United States","canonicalUrl":"https://foursquare.com/v/duggans-irish-pub/4aa956d4f964a520265320e3","categoryId":"4bf58dd8d48988d11b941735","category":"Pub","checkinsCount":5056,"usersCount":2622,"tipCount":39,"visitsCount":5568,"url":"http://duggansirishpub.com","tier":2,"message":"Moderate","currency":"$","rating":8},{"name":"Granite City Food & Brewery","phone":"2485191040","twitter":"gcfb","address":"699 W Big Beaver Rd","lat":42.561571361531534,"lng":-83.16115490003844,"neighborhood":"Downtown Troy","city_fetched":"Warren,US","state":"MI","country":"United States","canonicalUrl":"https://foursquare.com/v/granite-city-food--brewery/4f9eadfde4b0a3d1ddece211","categoryId":"50327c8591d4c4b30a586d5d","category":"Brewery","checkinsCount":9368,"usersCount":5300,"tipCount":102,"visitsCount":11630,"url":"http://gcfb.net","tier":2,"message":"Moderate","currency":"$","rating":8},{"name":"Nancy Whiskey's Pub","phone":"3139624247","address":"2644 Harrison St","lat":42.335364818573,"lng":-83.072565,"city_fetched":"Warren,US","state":"MI","country":"United States","canonicalUrl":"https://foursquare.com/v/nancy-whiskeys-pub/41326e00f964a520a10f1fe3","categoryId":"4bf58dd8d48988d11b941735","category":"Pub","checkinsCount":2793,"usersCount":1288,"tipCount":20,"visitsCount":3186,"url":"http://www.nancywhiskeydetroit.com","tier":"","message":"","currency":"","rating":8},{"name":"Woodbridge Pub","phone":"3138332701","twitter":"woodbridgepub","address":"5169 Trumbull St","lat":42.354073,"lng":-83.080014,"neighborhood":"Woodbridge","city_fetched":"Warren,US","state":"MI","country":"United States","canonicalUrl":"https://foursquare.com/v/woodbridge-pub/4add0b48f964a520b26321e3","categoryId":"4bf58dd8d48988d11b941735","category":"Pub","checkinsCount":6762,"usersCount":2592,"tipCount":79,"visitsCount":7554,"url":"http://www.woodbridgepub.com","tier":2,"message":"Moderate","currency":"$","rating":8},{"name":"O'Flaherty's","phone":"3138241140","address":"15119 Charlevoix St","lat":42.38561762222791,"lng":-82.94369893634207,"neighborhood":"Grosse Pointe","city_fetched":"Warren,US","state":"MI","country":"United States","canonicalUrl":"https://foursquare.com/v/oflahertys/4b9c1dfaf964a520dd4b36e3","categoryId":"4bf58dd8d48988d11b941735","category":"Pub","checkinsCount":859,"usersCount":207,"tipCount":4,"visitsCount":919,"tier":"","message":"","currency":"","rating":8},{"name":"Brady's Tavern","phone":"2486426422","address":"31231 Southfield Rd","lat":42.5187068052237,"lng":-83.22383880615234,"city_fetched":"Warren,US","state":"MI","country":"United States","canonicalUrl":"https://foursquare.com/v/bradys-tavern/4b05dfc6f964a520eee422e3","categoryId":"4bf58dd8d48988d11b941735","category":"Pub","checkinsCount":1725,"usersCount":616,"tipCount":11,"visitsCount":1950,"url":"http://www.bradystavern.com","tier":2,"message":"Moderate","currency":"$","rating":8},{"name":"Shamrock Irish Pub","phone":"5867316886","address":"7715 Auburn Rd","lat":42.62619439090346,"lng":-83.03436233050303,"city_fetched":"Warren,US","state":"MI","country":"United States","canonicalUrl":"https://foursquare.com/v/shamrock-irish-pub/41326e00f964a5204b101fe3","categoryId":"4bf58dd8d48988d11b941735","category":"Pub","checkinsCount":2407,"usersCount":1104,"tipCount":30,"visitsCount":2786,"url":"http://shamrockutica.com","tier":1,"message":"Cheap","currency":"$","rating":8},{"name":"My Dad's Bar","phone":"3133313237","address":"14911 Kercheval St","lat":42.380674991169286,"lng":-82.94282913208008,"neighborhood":"Mack","city_fetched":"Warren,US","state":"MI","country":"United States","canonicalUrl":"https://foursquare.com/v/my-dads-bar/4c37f40d1e06d13ab306773e","categoryId":"4bf58dd8d48988d118941735","category":"Dive Bar","checkinsCount":1326,"usersCount":424,"tipCount":11,"visitsCount":1594,"tier":"","message":"","currency":"","rating":8},{"name":"Brooksy's Sports Bar and Grill","phone":"5864215273","address":"38730 Harper Ave","lat":42.58203659330539,"lng":-82.86858153457972,"city_fetched":"Warren,US","state":"MI","country":"United States","canonicalUrl":"https://foursquare.com/v/brooksys-sports-bar-and-grill/5350559d498ef2f18c544479","categoryId":"4bf58dd8d48988d11d941735","category":"Sports Bar","checkinsCount":100,"usersCount":48,"tipCount":4,"visitsCount":132,"url":"http://www.brooksyssportsbar.com","tier":2,"message":"Moderate","currency":"$","rating":8},{"name":"Black Lotus Brewing Co.","phone":"2485771878","address":"1 E 14 Mile Rd","lat":42.53368711694068,"lng":-83.1460673147809,"neighborhood":"Downtown Clawson","city_fetched":"Warren,US","state":"MI","country":"United States","canonicalUrl":"https://foursquare.com/v/black-lotus-brewing-co/4a4e8cbaf964a520a8ae1fe3","categoryId":"50327c8591d4c4b30a586d5d","category":"Brewery","checkinsCount":7753,"usersCount":3018,"tipCount":87,"visitsCount":8037,"url":"http://www.blacklotusbrewingco.com","tier":2,"message":"Moderate","currency":"$","rating":7.9},{"name":"The Alley Deck","phone":"3138339700","address":"4120 Woodward Ave","lat":42.35107133448046,"lng":-83.0599182844162,"neighborhood":"Midtown","city_fetched":"Warren,US","state":"MI","country":"United States","canonicalUrl":"https://foursquare.com/v/the-alley-deck/4be1cbffae55a593dd965b62","categoryId":"4bf58dd8d48988d116941735","category":"Bar","checkinsCount":1072,"usersCount":300,"tipCount":13,"visitsCount":1075,"url":"http://majesticdetroit.com","tier":"","message":"","currency":"","rating":7.9},{"name":"Vivios II","phone":"5865760495","address":"3601 E 12 Mile Rd","lat":42.505855324665376,"lng":-83.06972793968288,"neighborhood":"Northwest Warren","city_fetched":"Warren,US","state":"MI","country":"United States","canonicalUrl":"https://foursquare.com/v/vivios-ii/4b3feb39f964a5200db225e3","categoryId":"4bf58dd8d48988d116941735","category":"Bar","checkinsCount":5352,"usersCount":891,"tipCount":28,"visitsCount":5886,"tier":"","message":"","currency":"","rating":7.9},{"name":"Centaur Bar","phone":"3139634040","address":"2233 Park Ave","lat":42.33815748511644,"lng":-83.05363881395107,"neighborhood":"Downtown Detroit","city_fetched":"Warren,US","state":"MI","country":"United States","canonicalUrl":"https://foursquare.com/v/centaur-bar/45a67fddf964a5200a411fe3","categoryId":"4bf58dd8d48988d121941735","category":"Lounge","checkinsCount":5004,"usersCount":2255,"tipCount":65,"visitsCount":5117,"url":"http://www.centaurbar.com","tier":2,"message":"Moderate","currency":"$","rating":7.9},{"name":"Kuhnhenn Brewing Production & Taproom","address":"36000 Groesbeck Hwy","lat":42.56199218948952,"lng":-82.91704051510821,"city_fetched":"Warren,US","state":"MI","country":"United States","canonicalUrl":"https://foursquare.com/v/kuhnhenn-brewing-production--taproom/54a62367498e6b7e2ce84e76","categoryId":"50327c8591d4c4b30a586d5d","category":"Brewery","checkinsCount":291,"usersCount":328,"tipCount":6,"visitsCount":550,"tier":"","message":"","currency":"","rating":7.9},{"name":"Cellarmen's","address":"24310 John R Rd","lat":42.47097511107291,"lng":-83.1041105339386,"city_fetched":"Warren,US","state":"MI","country":"United States","canonicalUrl":"https://foursquare.com/v/cellarmens/56089163498e9ec47e6a10c4","categoryId":"50327c8591d4c4b30a586d5d","category":"Brewery","checkinsCount":170,"usersCount":180,"tipCount":4,"visitsCount":284,"tier":"","message":"","currency":"","rating":7.9},{"name":"Hockeytown Cafe","phone":"3134713454","twitter":"hockeytowncafe","address":"2301 Woodward Ave","lat":42.33899439673061,"lng":-83.05260121822357,"neighborhood":"Downtown Detroit","city_fetched":"Warren,US","state":"MI","country":"United States","canonicalUrl":"https://foursquare.com/v/hockeytown-cafe/4a7e2053f964a52011f11fe3","categoryId":"4bf58dd8d48988d11d941735","category":"Sports Bar","checkinsCount":11149,"usersCount":8237,"tipCount":55,"visitsCount":11880,"url":"http://www.hockeytowncafe.com","tier":2,"message":"Moderate","currency":"$","rating":7.9},{"name":"On The Rocks Bar And Grill","phone":"2485488023","twitter":"ontherocksmi","address":"28167 John R Rd","lat":42.50059583586745,"lng":-83.10587607882643,"city_fetched":"Warren,US","state":"MI","country":"United States","canonicalUrl":"https://foursquare.com/ontherocksmi","categoryId":"4bf58dd8d48988d116941735","category":"Bar","checkinsCount":3264,"usersCount":969,"tipCount":41,"visitsCount":3736,"url":"http://www.otrbar.com","tier":1,"message":"Cheap","currency":"$","rating":7.9},{"name":"The Whiskey Six","address":"17101 Kercheval","lat":42.39070689770484,"lng":-82.9155746485744,"neighborhood":"Downtown Grosse Pointe","city_fetched":"Warren,US","state":"MI","country":"United States","canonicalUrl":"https://foursquare.com/v/the-whiskey-six/566b8c9c498e1bdb13213101","categoryId":"4bf58dd8d48988d122941735","category":"Whisky Bar","checkinsCount":142,"usersCount":172,"tipCount":4,"visitsCount":256,"tier":"","message":"","currency":"","rating":7.9},{"name":"Wiseguys Bar & Grill","phone":"5869616510","address":"37208 Harper Ave","lat":42.57114194704787,"lng":-82.87126294025087,"city_fetched":"Warren,US","state":"MI","country":"United States","canonicalUrl":"https://foursquare.com/v/wiseguys-bar--grill/51c62849498e613d83eb1467","categoryId":"4bf58dd8d48988d116941735","category":"Bar","checkinsCount":386,"usersCount":275,"tipCount":8,"visitsCount":658,"url":"http://wiseguysbarandgrill.com","tier":2,"message":"Moderate","currency":"$","rating":7.8},{"name":"Bookies Bar & Grille","phone":"3139620319","twitter":"bookiesdetroit","address":"2208 Cass Ave","lat":42.33679563695293,"lng":-83.0555409193039,"neighborhood":"Downtown Detroit","city_fetched":"Warren,US","state":"MI","country":"United States","canonicalUrl":"https://foursquare.com/v/bookies-bar--grille/4ad9fa29f964a520a51c21e3","categoryId":"4bf58dd8d48988d11d941735","category":"Sports Bar","checkinsCount":6046,"usersCount":3557,"tipCount":40,"visitsCount":6575,"url":"http://www.bookiesbar.com","tier":1,"message":"Cheap","currency":"$","rating":7.8},{"name":"Bora Bora Bar & Grill","phone":"5865739390","address":"11650 E 13 Mile Rd","lat":42.52122757207597,"lng":-83.00676449164128,"neighborhood":"Northeast Warren","city_fetched":"Warren,US","state":"MI","country":"United States","canonicalUrl":"https://foursquare.com/v/bora-bora-bar--grill/41326e00f964a520f10e1fe3","categoryId":"4bf58dd8d48988d11b941735","category":"Pub","checkinsCount":347,"usersCount":141,"tipCount":12,"visitsCount":371,"tier":"","message":"","currency":"","rating":7.8},{"name":"Kildare House","phone":"5199151066","address":"1880 Wyandotte St E","lat":42.32269503490244,"lng":-83.0133332051959,"neighborhood":"Walkerville","city_fetched":"Warren,US","state":"ON","country":"Canada","canonicalUrl":"https://foursquare.com/v/kildare-house/4c294eecce3fc92805a16e88","categoryId":"4bf58dd8d48988d11b941735","category":"Pub","checkinsCount":1209,"usersCount":401,"tipCount":15,"visitsCount":1317,"url":"http://kildarehouse.com","tier":"","message":"","currency":"","rating":7.8},{"name":"Michigan Beer Growler Company","phone":"2483853773","twitter":"mibeergrowlerco","address":"31221 Southfield Rd","lat":42.51853441368769,"lng":-83.22375561010439,"city_fetched":"Warren,US","state":"MI","country":"United States","canonicalUrl":"https://foursquare.com/v/michigan-beer-growler-company/53ffab70498e2adbe8406cd5","categoryId":"4bf58dd8d48988d117941735","category":"Beer Garden","checkinsCount":195,"usersCount":98,"tipCount":4,"visitsCount":211,"url":"http://www.michiganbeergrowlerco.com","tier":"","message":"","currency":"","rating":7.8},{"name":"Baker Streetcar Bar","phone":"3138738296","address":"9817 Joseph Campau St","lat":42.39738910673676,"lng":-83.05825782879351,"neighborhood":"Downtown Hamtramck","city_fetched":"Warren,US","state":"MI","country":"United States","canonicalUrl":"https://foursquare.com/v/baker-streetcar-bar/41326e00f964a5206e0d1fe3","categoryId":"4bf58dd8d48988d118941735","category":"Dive Bar","checkinsCount":740,"usersCount":180,"tipCount":6,"visitsCount":817,"url":"http://bakerstreetcarbar.hostrator.com","tier":1,"message":"Cheap","currency":"$","rating":7.8},{"name":"Island Bar and Grill","phone":"5868846283","address":"43711 Van Dyke Ave","lat":42.61513650676744,"lng":-83.03237982585077,"city_fetched":"Warren,US","state":"MI","country":"United States","canonicalUrl":"https://foursquare.com/v/island-bar-and-grill/4c9d25a6542b224b0335e79f","categoryId":"4bf58dd8d48988d116941735","category":"Bar","checkinsCount":1904,"usersCount":482,"tipCount":13,"visitsCount":2194,"tier":"","message":"","currency":"","rating":7.8},{"name":"The Boom Boom Room","phone":"5199710000","twitter":"boomboomroom","address":"315 Ouellette Avenue","lat":42.31719373681018,"lng":-83.03903192281723,"neighborhood":"City Centre","city_fetched":"Warren,US","state":"ON","country":"Canada","canonicalUrl":"https://foursquare.com/boomboomroom","categoryId":"4bf58dd8d48988d11f941735","category":"Nightclub","checkinsCount":595,"usersCount":170,"tipCount":5,"visitsCount":607,"tier":"","message":"","currency":"","rating":7.8},{"name":"Exodos Lounge","phone":"3139621300","twitter":"yannisdetroit","address":"525 Monroe St","lat":42.33523957441603,"lng":-83.04217638412987,"neighborhood":"Greektown","city_fetched":"Warren,US","state":"MI","country":"United States","canonicalUrl":"https://foursquare.com/v/exodos-lounge/4ba1bd47f964a5205bca37e3","categoryId":"4bf58dd8d48988d121941735","category":"Lounge","checkinsCount":1235,"usersCount":761,"tipCount":9,"visitsCount":1264,"url":"http://exodosrooftop.com","tier":"","message":"","currency":"","rating":7.7},{"name":"Twin Peaks","lat":42.53339797310375,"lng":-83.11927066495888,"city_fetched":"Warren,US","state":"MI","country":"United States","canonicalUrl":"https://foursquare.com/v/twin-peaks/550780d7498e3f73687e3459","categoryId":"4bf58dd8d48988d11d941735","category":"Sports Bar","checkinsCount":892,"usersCount":1174,"tipCount":14,"visitsCount":2330,"tier":"","message":"","currency":"","rating":7.7},{"name":"The Whiskey Parlor","address":"608 Woodward Ave","lat":42.33042737775734,"lng":-83.04613550028334,"neighborhood":"Downtown Detroit","city_fetched":"Warren,US","state":"MI","country":"United States","canonicalUrl":"https://foursquare.com/v/the-whiskey-parlor/54f267d9498e11410447d6b0","categoryId":"4bf58dd8d48988d122941735","category":"Whisky Bar","checkinsCount":255,"usersCount":172,"tipCount":1,"visitsCount":255,"tier":"","message":"","currency":"","rating":7.7},{"name":"Bentley's Roadhouse","phone":"5864653663","address":"28410 S River Rd","lat":42.590121,"lng":-82.8266104,"city_fetched":"Warren,US","state":"MI","country":"United States","canonicalUrl":"https://foursquare.com/v/bentleys-roadhouse/4b7f2a74f964a520cd1b30e3","categoryId":"4bf58dd8d48988d116941735","category":"Bar","checkinsCount":799,"usersCount":429,"tipCount":8,"visitsCount":1093,"url":"http://www.bentleysroadhouse.net","tier":"","message":"","currency":"","rating":7.7},{"name":"Ye Olde Saloon","phone":"2485425900","address":"1023 S Main St","lat":42.48096857665283,"lng":-83.14372167236512,"city_fetched":"Warren,US","state":"MI","country":"United States","canonicalUrl":"https://foursquare.com/v/ye-olde-saloon/41326e00f964a520fa101fe3","categoryId":"4bf58dd8d48988d116941735","category":"Bar","checkinsCount":6491,"usersCount":1982,"tipCount":34,"visitsCount":7319,"url":"http://yeoldesaloon.com","tier":2,"message":"Moderate","currency":"$","rating":7.7},{"name":"Menjo's Complex","phone":"3138633934","twitter":"menjoscomplex","address":"928 W McNichols Rd","lat":42.417826447523105,"lng":-83.11527405354755,"neighborhood":"Palmer Park","city_fetched":"Warren,US","state":"MI","country":"United States","canonicalUrl":"https://foursquare.com/v/menjos-complex/41326e00f964a52009111fe3","categoryId":"4bf58dd8d48988d1d8941735","category":"Gay Bar","checkinsCount":2938,"usersCount":932,"tipCount":16,"visitsCount":3609,"url":"http://newmenjoscomplex.com","tier":1,"message":"Cheap","currency":"$","rating":7.7},{"name":"Great Baraboo Brewing Company","phone":"5867927397","address":"35905 Utica Rd","lat":42.56024778427255,"lng":-82.96543273052144,"city_fetched":"Warren,US","state":"MI","country":"United States","canonicalUrl":"https://foursquare.com/v/great-baraboo-brewing-company/4b5292e2f964a520be8227e3","categoryId":"50327c8591d4c4b30a586d5d","category":"Brewery","checkinsCount":4752,"usersCount":2209,"tipCount":43,"visitsCount":5770,"url":"http://greatbaraboo.com","tier":2,"message":"Moderate","currency":"$","rating":7.7},{"name":"Falling Down Beer Company","phone":"5867992739","twitter":"fallingdownbeer","address":"2270 E 10 Mile Rd","lat":42.476235614781885,"lng":-83.08385968208313,"city_fetched":"Warren,US","state":"MI","country":"United States","canonicalUrl":"https://foursquare.com/fallingdownbeer","categoryId":"50327c8591d4c4b30a586d5d","category":"Brewery","checkinsCount":1229,"usersCount":651,"tipCount":20,"visitsCount":1543,"url":"http://www.fallingdownbeer.com","tier":2,"message":"Moderate","currency":"$","rating":7.7},{"name":"Madison Club Bar","address":"32275 Stephenson Hwy","lat":42.52872901278894,"lng":-83.12037584467362,"city_fetched":"Warren,US","state":"MI","country":"United States","canonicalUrl":"https://foursquare.com/v/madison-club-bar/41326e00f964a5205c0f1fe3","categoryId":"4bf58dd8d48988d116941735","category":"Bar","checkinsCount":234,"usersCount":169,"tipCount":7,"visitsCount":274,"tier":"","message":"","currency":"","rating":7.7},{"name":"Freddy's","phone":"5864167777","address":"40000 Garfield Rd","lat":42.59090490695098,"lng":-82.95181778010075,"city_fetched":"Warren,US","state":"MI","country":"United States","canonicalUrl":"https://foursquare.com/v/freddys/4ccf6fc56200b1f70f83ce28","categoryId":"4bf58dd8d48988d116941735","category":"Bar","checkinsCount":839,"usersCount":526,"tipCount":9,"visitsCount":1359,"url":"http://freddysbarrocks.com","tier":"","message":"","currency":"","rating":7.7},{"name":"Honi Honi Tiki Bar","address":"201-1/2","lat":42.460075,"lng":-83.136266,"neighborhood":"Downtown Ferndale","city_fetched":"Warren,US","state":"MI","country":"United States","canonicalUrl":"https://foursquare.com/v/honi-honi-tiki-bar/4fd93b10e4b02f685e17fa3c","categoryId":"4bf58dd8d48988d11e941735","category":"Cocktail Bar","checkinsCount":190,"usersCount":114,"tipCount":3,"visitsCount":192,"tier":"","message":"","currency":"","rating":7.7},{"name":"Corktown Tavern","phone":"3139645103","address":"1716 Michigan Ave","lat":42.331659,"lng":-83.0699497461319,"neighborhood":"Corktown","city_fetched":"Warren,US","state":"MI","country":"United States","canonicalUrl":"https://foursquare.com/v/corktown-tavern/42ae1e00f964a52053251fe3","categoryId":"4bf58dd8d48988d122941735","category":"Whisky Bar","checkinsCount":1113,"usersCount":683,"tipCount":6,"visitsCount":1256,"url":"http://www.corktowntavern.com","tier":"","message":"","currency":"","rating":7.6},{"name":"River Rouge Brewing","twitter":"riverrougebrew","address":"406 E 4th St","lat":42.487251,"lng":-83.140361,"neighborhood":"Downtown Royal Oak","city_fetched":"Warren,US","state":"MI","country":"United States","canonicalUrl":"https://foursquare.com/v/river-rouge-brewing/5557a5a4498e86f0cc48f3e5","categoryId":"50327c8591d4c4b30a586d5d","category":"Brewery","checkinsCount":221,"usersCount":220,"tipCount":7,"visitsCount":323,"url":"http://riverrougebrew.com","tier":"","message":"","currency":"","rating":7.6},{"name":"24 Seconds","phone":"2483360024","twitter":"24secondsbar","address":"3071 12 Mile Rd","lat":42.50310996476262,"lng":-83.19017375670282,"neighborhood":"Downtown Berkley","city_fetched":"Warren,US","state":"MI","country":"United States","canonicalUrl":"https://foursquare.com/v/24-seconds/4b32c2ddf964a520631325e3","categoryId":"4bf58dd8d48988d11d941735","category":"Sports Bar","checkinsCount":4684,"usersCount":1653,"tipCount":21,"visitsCount":5291,"url":"http://www.24seconds.net","tier":2,"message":"Moderate","currency":"$","rating":7.6},{"name":"Ghost Bar","phone":"3138325200","address":"4421 Woodward Ave","lat":42.352755316666666,"lng":-83.062075,"neighborhood":"Midtown","city_fetched":"Warren,US","state":"MI","country":"United States","canonicalUrl":"https://foursquare.com/v/ghost-bar/4b7f4c4cf964a520d22530e3","categoryId":"4bf58dd8d48988d116941735","category":"Bar","checkinsCount":198,"usersCount":161,"tipCount":1,"visitsCount":198,"tier":"","message":"","currency":"","rating":7.6},{"name":"Foundry Pub","lat":42.31557657310878,"lng":-83.03776601547983,"neighborhood":"City Centre","city_fetched":"Warren,US","country":"Canada","canonicalUrl":"https://foursquare.com/v/foundry-pub/5360473c498e585c3ebaf603","categoryId":"4bf58dd8d48988d11b941735","category":"Pub","checkinsCount":140,"usersCount":90,"tipCount":1,"visitsCount":151,"tier":"","message":"","currency":"","rating":7.6},{"name":"Greenwich Time","phone":"3139617885","address":"130 Cadillac Sq","lat":42.33128154685553,"lng":-83.04375529289246,"neighborhood":"Downtown Detroit","city_fetched":"Warren,US","state":"MI","country":"United States","canonicalUrl":"https://foursquare.com/v/greenwich-time/41326e00f964a520a70e1fe3","categoryId":"4bf58dd8d48988d118941735","category":"Dive Bar","checkinsCount":1031,"usersCount":409,"tipCount":11,"visitsCount":1118,"tier":1,"message":"Cheap","currency":"$","rating":7.6},{"name":"Hayloft Saloon","phone":"3135818913","address":"8070 Greenfield Rd","lat":42.3521,"lng":-83.1963,"city_fetched":"Warren,US","state":"MI","country":"United States","canonicalUrl":"https://foursquare.com/v/hayloft-saloon/41326e00f964a520bd0e1fe3","categoryId":"4bf58dd8d48988d1d8941735","category":"Gay Bar","checkinsCount":1808,"usersCount":480,"tipCount":15,"visitsCount":2220,"url":"http://hayloftsaloon.com","tier":1,"message":"Cheap","currency":"$","rating":7.6},{"name":"Checker Bar","phone":"3139619249","twitter":"checkerdetroit","address":"124 Cadillac Sq","lat":42.331320903958535,"lng":-83.04406420431548,"neighborhood":"Downtown Detroit","city_fetched":"Warren,US","state":"MI","country":"United States","canonicalUrl":"https://foursquare.com/v/checker-bar/54a3758c498eb46942e4aa20","categoryId":"4bf58dd8d48988d116941735","category":"Bar","checkinsCount":774,"usersCount":484,"tipCount":9,"visitsCount":985,"url":"http://checkerbar.com","tier":"","message":"","currency":"","rating":7.6},{"name":"Cheli's Chili Bar","phone":"3139611700","address":"47 E Adams Ave","lat":42.33764106655112,"lng":-83.04983220829787,"neighborhood":"Downtown Detroit","city_fetched":"Warren,US","state":"MI","country":"United States","canonicalUrl":"https://foursquare.com/v/chelis-chili-bar/4a9c2755f964a520363620e3","categoryId":"4bf58dd8d48988d11d941735","category":"Sports Bar","checkinsCount":7884,"usersCount":6446,"tipCount":30,"visitsCount":9121,"url":"http://www.chelischilibar.com","tier":2,"message":"Moderate","currency":"$","rating":7.6},{"name":"Donovan's Pub","address":"3003 W Vernor Hwy","lat":42.32530507996433,"lng":-83.0820765144911,"neighborhood":"Hubbard - Richard","city_fetched":"Warren,US","state":"MI","country":"United States","canonicalUrl":"https://foursquare.com/v/donovans-pub/41326e00f964a5203e0e1fe3","categoryId":"4bf58dd8d48988d116941735","category":"Bar","checkinsCount":1211,"usersCount":335,"tipCount":1,"visitsCount":1300,"tier":1,"message":"Cheap","currency":"$","rating":7.6},{"name":"The Shantie","address":"3535 E 9 Mile Rd","lat":42.4622269801743,"lng":-83.06982229243756,"city_fetched":"Warren,US","state":"MI","country":"United States","canonicalUrl":"https://foursquare.com/v/the-shantie/4cc37387c844721e875ae301","categoryId":"4bf58dd8d48988d116941735","category":"Bar","checkinsCount":236,"usersCount":133,"tipCount":13,"visitsCount":350,"tier":"","message":"","currency":"","rating":7.6},{"name":"Bogart'z Sports & Music Cafe","phone":"3138853995","address":"17441 Mack Ave","lat":42.398884892463684,"lng":-82.91946709156036,"neighborhood":"Far East Detroit","city_fetched":"Warren,US","state":"MI","country":"United States","canonicalUrl":"https://foursquare.com/v/bogartz-sports--music-cafe/4bc0feeb4cdfc9b67bef9321","categoryId":"4bf58dd8d48988d11d941735","category":"Sports Bar","checkinsCount":1032,"usersCount":334,"tipCount":6,"visitsCount":1374,"tier":2,"message":"Moderate","currency":"$","rating":7.5},{"name":"The Rock on Third","phone":"2485427625","address":"112 E 3rd St","lat":42.488006282577174,"lng":-83.14344093203545,"neighborhood":"Downtown Royal Oak","city_fetched":"Warren,US","state":"MI","country":"United States","canonicalUrl":"https://foursquare.com/v/the-rock-on-third/4adfbe2df964a5202b7d21e3","categoryId":"4bf58dd8d48988d11d941735","category":"Sports Bar","checkinsCount":9734,"usersCount":3267,"tipCount":52,"visitsCount":10154,"url":"http://rockon3rd.com","tier":2,"message":"Moderate","currency":"$","rating":7.5},{"name":"Terrys Terrace","phone":"5864632671","twitter":"terrysterrace","address":"36470 Jefferson Ave","lat":42.56617243304391,"lng":-82.8423927437371,"city_fetched":"Warren,US","state":"MI","country":"United States","canonicalUrl":"https://foursquare.com/v/terrys-terrace/4ba95436f964a5204b1f3ae3","categoryId":"4bf58dd8d48988d116941735","category":"Bar","checkinsCount":2861,"usersCount":1231,"tipCount":41,"visitsCount":3433,"url":"http://www.terrystime.com","tier":1,"message":"Cheap","currency":"$","rating":7.5},{"name":"Wiseguys Bar & Grill","phone":"5862630300","address":"42305 Garfield Rd","lat":42.607824560319926,"lng":-82.95328284726664,"city_fetched":"Warren,US","state":"MI","country":"United States","canonicalUrl":"https://foursquare.com/v/wiseguys-bar--grill/4ab599d2f964a5209a7520e3","categoryId":"4bf58dd8d48988d11d941735","category":"Sports Bar","checkinsCount":2623,"usersCount":801,"tipCount":14,"visitsCount":2883,"url":"http://wiseguysbarandgrill.com","tier":"","message":"","currency":"","rating":7.5},{"name":"Irish Coffee Bar & Grill","phone":"3138815675","address":"18666 Mack Ave","lat":42.41322063135645,"lng":-82.91204908108814,"neighborhood":"Grosse Pointe","city_fetched":"Warren,US","state":"MI","country":"United States","canonicalUrl":"https://foursquare.com/v/irish-coffee-bar--grill/41326e00f964a520e30e1fe3","categoryId":"4bf58dd8d48988d11b941735","category":"Pub","checkinsCount":1218,"usersCount":301,"tipCount":7,"visitsCount":1416,"tier":2,"message":"Moderate","currency":"$","rating":7.5},{"name":"Nemo's Party Bus","phone":"3139653180","address":"1384 Michigan Ave","lat":42.33155608177185,"lng":-83.06526,"neighborhood":"Corktown","city_fetched":"Warren,US","state":"MI","country":"United States","canonicalUrl":"https://foursquare.com/v/nemos-party-bus/4e3339d8227111ae768c4cb7","categoryId":"4bf58dd8d48988d11d941735","category":"Sports Bar","checkinsCount":291,"usersCount":153,"tipCount":2,"visitsCount":291,"url":"http://www.nemosdetroit.com","tier":"","message":"","currency":"","rating":7.5},{"name":"Metro Bar & Grill","address":"30750-30998 Ryan Rd","lat":42.51947109722078,"lng":-83.06740052883038,"neighborhood":"Northwest Warren","city_fetched":"Warren,US","state":"MI","country":"United States","canonicalUrl":"https://foursquare.com/v/metro-bar--grill/4d6eead0a045721eca9d1eb8","categoryId":"4bf58dd8d48988d116941735","category":"Bar","checkinsCount":1563,"usersCount":365,"tipCount":8,"visitsCount":1881,"tier":"","message":"","currency":"","rating":7.5},{"name":"Winner's","phone":"5867919050","address":"34540 Harper Ave","lat":42.55156359798226,"lng":-82.87254051333268,"city_fetched":"Warren,US","state":"MI","country":"United States","canonicalUrl":"https://foursquare.com/v/winners/4b8a044ff964a520d15b32e3","categoryId":"4bf58dd8d48988d116941735","category":"Bar","checkinsCount":781,"usersCount":404,"tipCount":2,"visitsCount":983,"tier":"","message":"","currency":"","rating":7.5},{"name":"Nemo's Bar","phone":"3139653180","address":"1384 Michigan Ave","lat":42.33164254439657,"lng":-83.06549240977381,"neighborhood":"Corktown","city_fetched":"Warren,US","state":"MI","country":"United States","canonicalUrl":"https://foursquare.com/v/nemos-bar/41326e00f964a520a50f1fe3","categoryId":"4bf58dd8d48988d11d941735","category":"Sports Bar","checkinsCount":4235,"usersCount":2478,"tipCount":29,"visitsCount":4459,"url":"http://www.nemosdetroit.com","tier":"","message":"","currency":"","rating":7.5},{"name":"The Keep","address":"1407 Randolph St","lat":42.33146640211936,"lng":-83.04370762020541,"neighborhood":"Downtown Detroit","city_fetched":"Warren,US","state":"MI","country":"United States","canonicalUrl":"https://foursquare.com/v/the-keep/54b9c761498ee959588fc2dc","categoryId":"4bf58dd8d48988d1d4941735","category":"Speakeasy","checkinsCount":341,"usersCount":217,"tipCount":1,"visitsCount":387,"tier":"","message":"","currency":"","rating":7.4},{"name":"WXYZ Bar @ Aloft Detroit","phone":"3133211700","twitter":"aloftdetroit","address":"1 Park Ave","lat":42.335711679115285,"lng":-83.05071833864994,"neighborhood":"Downtown Detroit","city_fetched":"Warren,US","state":"MI","country":"United States","canonicalUrl":"https://foursquare.com/v/wxyz-bar--aloft-detroit/5493675c498e6cfc14f0fd3e","categoryId":"4bf58dd8d48988d1d5941735","category":"Hotel Bar","checkinsCount":183,"usersCount":111,"tipCount":2,"visitsCount":186,"tier":"","message":"","currency":"","rating":7.4},{"name":"Eastpointe Pub","phone":"5864912341","address":"18842 E 9 Mile Rd","lat":42.465310147819366,"lng":-82.92475285791356,"city_fetched":"Warren,US","state":"MI","country":"United States","canonicalUrl":"https://foursquare.com/v/eastpointe-pub/4b5ba487f964a5202b0d29e3","categoryId":"4bf58dd8d48988d11b941735","category":"Pub","checkinsCount":2407,"usersCount":315,"tipCount":8,"visitsCount":2512,"tier":"","message":"","currency":"","rating":7.4},{"name":"Club Gold Coast","phone":"3133666135","address":"2971 E 7 Mile Rd","lat":42.43317265878576,"lng":-83.07264232886746,"city_fetched":"Warren,US","state":"MI","country":"United States","canonicalUrl":"https://foursquare.com/v/club-gold-coast/41326e00f964a520fd0d1fe3","categoryId":"4bf58dd8d48988d1d8941735","category":"Gay Bar","checkinsCount":2574,"usersCount":643,"tipCount":6,"visitsCount":3111,"tier":"","message":"","currency":"","rating":7.4},{"name":"G Willies","phone":"5862937100","address":"31230 Harper Ave","lat":42.525254088052066,"lng":-82.89648056030273,"neighborhood":"Saint Clair Shores","city_fetched":"Warren,US","state":"MI","country":"United States","canonicalUrl":"https://foursquare.com/v/g-willies/4b8099e3f964a5202b8030e3","categoryId":"4bf58dd8d48988d116941735","category":"Bar","checkinsCount":1387,"usersCount":414,"tipCount":11,"visitsCount":1516,"url":"http://www.gwilliesbar.com","tier":"","message":"","currency":"","rating":7.4},{"name":"Woodward Avenue Brewers","phone":"2485463696","address":"22646 Woodward Ave","lat":42.459639574139075,"lng":-83.13337862491608,"neighborhood":"Downtown Ferndale","city_fetched":"Warren,US","state":"MI","country":"United States","canonicalUrl":"https://foursquare.com/v/woodward-avenue-brewers/4aff6a0af964a520593822e3","categoryId":"50327c8591d4c4b30a586d5d","category":"Brewery","checkinsCount":12359,"usersCount":4485,"tipCount":105,"visitsCount":12482,"url":"http://www.thewabsite.com","tier":2,"message":"Moderate","currency":"$","rating":7.4},{"name":"Victory Inn","phone":"5867514140","address":"28950 Mound Rd","lat":42.50563529532243,"lng":-83.04593099548039,"neighborhood":"Northwest Warren","city_fetched":"Warren,US","state":"MI","country":"United States","canonicalUrl":"https://foursquare.com/v/victory-inn/41326e00f964a520d2101fe3","categoryId":"4bf58dd8d48988d116941735","category":"Bar","checkinsCount":1527,"usersCount":284,"tipCount":11,"visitsCount":1582,"url":"http://www.welcometothevic.com/#home","tier":1,"message":"Cheap","currency":"$","rating":7.4},{"name":"Toms Tavern","phone":"3138629768","address":"10193 W 7 Mile Rd.","lat":42.430995717868846,"lng":-83.16281318664551,"neighborhood":"Bagley","city_fetched":"Warren,US","state":"MI","country":"United States","canonicalUrl":"https://foursquare.com/v/toms-tavern/4be606dc2457a5938865ac15","categoryId":"4bf58dd8d48988d118941735","category":"Dive Bar","checkinsCount":210,"usersCount":258,"tipCount":4,"visitsCount":337,"tier":"","message":"","currency":"","rating":7.4},{"name":"Pub Froggy","phone":"5867753764","address":"16420 E 13 Mile Rd","lat":42.52356545231954,"lng":-82.95341937517523,"city_fetched":"Warren,US","state":"MI","country":"United States","canonicalUrl":"https://foursquare.com/v/pub-froggy/41326e00f964a520f30f1fe3","categoryId":"4bf58dd8d48988d11b941735","category":"Pub","checkinsCount":578,"usersCount":236,"tipCount":4,"visitsCount":704,"tier":"","message":"","currency":"","rating":7.4},{"name":"Cork Wine Pub","phone":"2485442675","address":"23810 Woodward Ave","lat":42.469779717024785,"lng":-83.14037060839829,"neighborhood":"Downtown Pleasant Ridge","city_fetched":"Warren,US","state":"MI","country":"United States","canonicalUrl":"https://foursquare.com/v/cork-wine-pub/4ce70483e888f04d2579396b","categoryId":"4bf58dd8d48988d123941735","category":"Wine Bar","checkinsCount":2056,"usersCount":1150,"tipCount":22,"visitsCount":2473,"url":"http://corkwinepub.org","tier":2,"message":"Moderate","currency":"$","rating":7.4},{"name":"Tony's Sports Bar","address":"23500 Woodward Ave","lat":42.46687258,"lng":-83.138471,"neighborhood":"Downtown Ferndale","city_fetched":"Warren,US","state":"MI","country":"United States","canonicalUrl":"https://foursquare.com/v/tonys-sports-bar/41326e00f964a520b7101fe3","categoryId":"4bf58dd8d48988d11d941735","category":"Sports Bar","checkinsCount":763,"usersCount":322,"tipCount":5,"visitsCount":870,"tier":"","message":"","currency":"","rating":7.4},{"name":"Nicky D's Sports Bar & Grill","phone":"5867951339","address":"2100 E 14 Mile Rd","lat":42.53448232032588,"lng":-83.0852052199044,"neighborhood":"Northwest Warren","city_fetched":"Warren,US","state":"MI","country":"United States","canonicalUrl":"https://foursquare.com/v/nicky-ds-sports-bar--grill/4c104f057c49b7135fc83606","categoryId":"4bf58dd8d48988d11d941735","category":"Sports Bar","checkinsCount":1302,"usersCount":411,"tipCount":12,"visitsCount":1337,"url":"http://www.nickydsbar.com","tier":"","message":"","currency":"","rating":7.3},{"name":"The Beach Bar","lat":42.33139240991084,"lng":-83.04658645734678,"neighborhood":"Downtown Detroit","city_fetched":"Warren,US","state":"MI","country":"United States","canonicalUrl":"https://foursquare.com/v/the-beach-bar/51c4eccd498e13f891d3f39b","categoryId":"4bf58dd8d48988d117941735","category":"Beer Garden","checkinsCount":264,"usersCount":172,"tipCount":2,"visitsCount":267,"tier":"","message":"","currency":"","rating":7.3},{"name":"Thomas Magee's Sporting House","phone":"3132634342","address":"1408 E Fisher Fwy","lat":42.344913331156576,"lng":-83.03919771330844,"neighborhood":"Lafayette Park","city_fetched":"Warren,US","state":"MI","country":"United States","canonicalUrl":"https://foursquare.com/v/thomas-magees-sporting-house/528e911811d274b8b970d0bb","categoryId":"4bf58dd8d48988d122941735","category":"Whisky Bar","checkinsCount":763,"usersCount":449,"tipCount":5,"visitsCount":1002,"tier":2,"message":"Moderate","currency":"$","rating":7.3},{"name":"Roak Brewing Co.","twitter":"roakbrewing","address":"330 E Lincoln Ave","lat":42.48324430475079,"lng":-83.14077379238482,"city_fetched":"Warren,US","state":"MI","country":"United States","canonicalUrl":"https://foursquare.com/v/roak-brewing-co/558327cc498e1e3ad5179ba8","categoryId":"50327c8591d4c4b30a586d5d","category":"Brewery","checkinsCount":598,"usersCount":676,"tipCount":12,"visitsCount":1089,"url":"http://roakbrewing.com","tier":"","message":"","currency":"","rating":7.3},{"name":"Stop Spot Lounge","address":"1309 E 9 Mile Rd","lat":42.461149,"lng":-83.11803167200706,"city_fetched":"Warren,US","state":"MI","country":"United States","canonicalUrl":"https://foursquare.com/v/stop-spot-lounge/41326e00f964a52081101fe3","categoryId":"4bf58dd8d48988d116941735","category":"Bar","checkinsCount":2062,"usersCount":650,"tipCount":22,"visitsCount":2437,"tier":1,"message":"Cheap","currency":"$","rating":7.3},{"name":"Orleans","phone":"5864652201","twitter":"orleansmc","address":"100 Macomb Pl","lat":42.599223682912715,"lng":-82.8797638618783,"neighborhood":"Downtown Mount Clemens","city_fetched":"Warren,US","state":"MI","country":"United States","canonicalUrl":"https://foursquare.com/v/orleans/42dd9400f964a5204d261fe3","categoryId":"4bf58dd8d48988d116941735","category":"Bar","checkinsCount":2810,"usersCount":1215,"tipCount":16,"visitsCount":3055,"url":"http://www.orleansbilliards.com","tier":2,"message":"Moderate","currency":"$","rating":7.3},{"name":"Elwood Bar & Grill","phone":"3139622337","address":"300 E Adams Ave","lat":42.33872708319815,"lng":-83.04668084331783,"neighborhood":"Downtown Detroit","city_fetched":"Warren,US","state":"MI","country":"United States","canonicalUrl":"https://foursquare.com/v/elwood-bar--grill/4aaffcd3f964a520736520e3","categoryId":"4bf58dd8d48988d11d941735","category":"Sports Bar","checkinsCount":3707,"usersCount":2605,"tipCount":16,"visitsCount":3859,"url":"http://www.elwoodgrill.com","tier":2,"message":"Moderate","currency":"$","rating":7.3},{"name":"Jumbo's Bar","phone":"3138318949","address":"3736 3rd St","lat":42.346151666666664,"lng":-83.06600216,"neighborhood":"Midtown","city_fetched":"Warren,US","state":"MI","country":"United States","canonicalUrl":"https://foursquare.com/v/jumbos-bar/41326e00f964a520190f1fe3","categoryId":"4bf58dd8d48988d118941735","category":"Dive Bar","checkinsCount":1678,"usersCount":531,"tipCount":10,"visitsCount":1840,"tier":1,"message":"Cheap","currency":"$","rating":7.3},{"name":"Lava Hookah Lounge","phone":"5865325282","twitter":"lavahookah586","address":"45655 Hayes Rd","lat":42.63172634480592,"lng":-82.97467754085507,"city_fetched":"Warren,US","state":"MI","country":"United States","canonicalUrl":"https://foursquare.com/v/lava-hookah-lounge/4d8564b8f9f3a1cdd879cb64","categoryId":"4bf58dd8d48988d119941735","category":"Hookah Bar","checkinsCount":928,"usersCount":336,"tipCount":2,"visitsCount":931,"url":"http://hookahloungedetroit.com","tier":"","message":"","currency":"","rating":7.3},{"name":"Scoreboard","phone":"5863628740","address":"16101 E 10 Ten mile","lat":42.47994677471372,"lng":-82.9560658606531,"city_fetched":"Warren,US","state":"MI","country":"United States","canonicalUrl":"https://foursquare.com/v/scoreboard/5036b086e4b0ef6eba9c30c4","categoryId":"4bf58dd8d48988d11d941735","category":"Sports Bar","checkinsCount":519,"usersCount":101,"tipCount":4,"visitsCount":545,"tier":"","message":"","currency":"","rating":7.3},{"name":"Ace Of Spades","twitter":"aceofspades_313","address":"19245 W 8 Mile Rd, Detroit, MI 48219","lat":42.443767889219224,"lng":-83.23304247461888,"neighborhood":"North West Detroit","city_fetched":"Warren,US","state":"MI","country":"United States","canonicalUrl":"https://foursquare.com/v/ace-of-spades/4eb4b0d2991165b7621a2126","categoryId":"4bf58dd8d48988d1d6941735","category":"Strip Club","checkinsCount":738,"usersCount":432,"tipCount":5,"visitsCount":1074,"tier":"","message":"","currency":"","rating":7.3},{"name":"1701 Executive Cigar Bar","phone":"3132232626","address":"140 Cadillac Sq","lat":42.33158223124777,"lng":-83.04367091290794,"neighborhood":"Downtown Detroit","city_fetched":"Warren,US","state":"MI","country":"United States","canonicalUrl":"https://foursquare.com/v/1701-executive-cigar-bar/4bd9e57e3904a5938f20449e","categoryId":"4bf58dd8d48988d121941735","category":"Lounge","checkinsCount":1401,"usersCount":554,"tipCount":16,"visitsCount":1423,"url":"http://www.wix.com/tdan617/1701-cigar-bar","tier":"","message":"","currency":"","rating":7.3},{"name":"John Max Sports & Wings","address":"Dougall Ave, Windsor, ON","lat":42.2690018,"lng":-83.010119,"neighborhood":"South Windsor","city_fetched":"Warren,US","state":"ON","country":"Canada","canonicalUrl":"https://foursquare.com/v/john-max-sports--wings/4eb5e46a4901cef9d8c1e997","categoryId":"4bf58dd8d48988d11d941735","category":"Sports Bar","checkinsCount":331,"usersCount":202,"tipCount":10,"visitsCount":383,"tier":"","message":"","currency":"","rating":7.3},{"name":"Gator Jake's Bar & Grill","phone":"5869833700","address":"36863 Van Dyke Ave","lat":42.56463993013789,"lng":-83.03015649318695,"city_fetched":"Warren,US","state":"MI","country":"United States","canonicalUrl":"https://foursquare.com/v/gator-jakes-bar--grill/4a4ba117f964a52083ac1fe3","categoryId":"4bf58dd8d48988d116941735","category":"Bar","checkinsCount":7375,"usersCount":1794,"tipCount":29,"visitsCount":7971,"url":"http://www.gatorjakes.net","tier":2,"message":"Moderate","currency":"$","rating":7.3},{"name":"Soho","address":"205 W 9 Mile Rd","lat":42.46041375193951,"lng":-83.13644859790752,"neighborhood":"Downtown Ferndale","city_fetched":"Warren,US","state":"MI","country":"United States","canonicalUrl":"https://foursquare.com/v/soho/436aa480f964a5209b291fe3","categoryId":"4bf58dd8d48988d1d8941735","category":"Gay Bar","checkinsCount":4317,"usersCount":1224,"tipCount":16,"visitsCount":4428,"tier":1,"message":"Cheap","currency":"$","rating":7.3},{"name":"The Butter Run Saloon","phone":"5866752115","address":"27626 Harper Ave","lat":42.49568428092861,"lng":-82.89764012742747,"neighborhood":"Saint Clair Shores","city_fetched":"Warren,US","state":"MI","country":"United States","canonicalUrl":"https://foursquare.com/v/the-butter-run-saloon/4e5ec76d52b1425a3776a5a5","categoryId":"4bf58dd8d48988d116941735","category":"Bar","checkinsCount":1944,"usersCount":548,"tipCount":24,"visitsCount":2434,"url":"http://www.butterrun.com","tier":2,"message":"Moderate","currency":"$","rating":7.3},{"name":"The Beer Hall","phone":"3139624000","twitter":"tigers","address":"2100 Woodward Ave","lat":42.340068965515286,"lng":-83.04818630218506,"neighborhood":"Downtown Detroit","city_fetched":"Warren,US","state":"MI","country":"United States","canonicalUrl":"https://foursquare.com/v/the-beer-hall/4c03f63a0d0e0f47e544039a","categoryId":"4bf58dd8d48988d11d941735","category":"Sports Bar","checkinsCount":1436,"usersCount":688,"tipCount":3,"visitsCount":1442,"url":"http://www.tigers.com","tier":2,"message":"Moderate","currency":"$","rating":7.2},{"name":"MacKenzie Tavern","phone":"5869793012","address":"40860 Van Dyke Ave","lat":42.59476062172887,"lng":-83.02868213796201,"city_fetched":"Warren,US","state":"MI","country":"United States","canonicalUrl":"https://foursquare.com/v/mackenzie-tavern/4cc25c3c306e224bf119906c","categoryId":"4bf58dd8d48988d116941735","category":"Bar","checkinsCount":410,"usersCount":175,"tipCount":5,"visitsCount":464,"tier":"","message":"","currency":"","rating":7.2},{"name":"Motor City Gas","address":"325 E 4th St","lat":42.487542,"lng":-83.140934,"neighborhood":"Downtown Royal Oak","city_fetched":"Warren,US","state":"MI","country":"United States","canonicalUrl":"https://foursquare.com/v/motor-city-gas/55679967498e59fc631dd040","categoryId":"4bf58dd8d48988d122941735","category":"Whisky Bar","checkinsCount":138,"usersCount":154,"tipCount":0,"visitsCount":239,"tier":"","message":"","currency":"","rating":7.2},{"name":"Brew Detroit","phone":"3139747366","twitter":"brewdetroit","address":"1400 Abbott","lat":42.32772558885759,"lng":-83.0612828193057,"neighborhood":"Downtown Detroit","city_fetched":"Warren,US","state":"MI","country":"United States","canonicalUrl":"https://foursquare.com/v/brew-detroit/5209293211d272bd674ccb71","categoryId":"50327c8591d4c4b30a586d5d","category":"Brewery","checkinsCount":351,"usersCount":265,"tipCount":5,"visitsCount":400,"url":"http://www.brewdetroit.com","tier":"","message":"","currency":"","rating":7.2},{"name":"Majestic Cafe","phone":"3138339700","address":"4140 Woodward Ave","lat":42.35129326074884,"lng":-83.06039158873192,"neighborhood":"Midtown","city_fetched":"Warren,US","state":"MI","country":"United States","canonicalUrl":"https://foursquare.com/v/majestic-cafe/4ae24227f964a520838c21e3","categoryId":"4bf58dd8d48988d121941735","category":"Lounge","checkinsCount":3952,"usersCount":1791,"tipCount":33,"visitsCount":3997,"url":"http://ticketsus.at/yahooinc/65582.html","tier":2,"message":"Moderate","currency":"$","rating":7.2},{"name":"CJ Mahoney's","phone":"2482734600","twitter":"morellox","address":"2511 Livernois Rd","lat":42.55769935848194,"lng":-83.14815109602854,"neighborhood":"Downtown Troy","city_fetched":"Warren,US","state":"MI","country":"United States","canonicalUrl":"https://foursquare.com/v/cj-mahoneys/4bad6d28f964a520f04e3be3","categoryId":"4bf58dd8d48988d11b941735","category":"Pub","checkinsCount":5781,"usersCount":1979,"tipCount":19,"visitsCount":6361,"url":"http://www.myspace.com/cjmahoneys","tier":2,"message":"Moderate","currency":"$","rating":7.2},{"name":"The Penthouse Club","phone":"3135417000","address":"20771 W 8 Mile Rd","lat":42.44349522744233,"lng":-83.24641614819572,"neighborhood":"North West Detroit","city_fetched":"Warren,US","state":"MI","country":"United States","canonicalUrl":"https://foursquare.com/v/the-penthouse-club/41326e00f964a5200e111fe3","categoryId":"4bf58dd8d48988d1d6941735","category":"Strip Club","checkinsCount":974,"usersCount":589,"tipCount":11,"visitsCount":1253,"tier":"","message":"","currency":"","rating":7.2},{"name":"Eastgate Pub","phone":"5867762740","address":"26449 Gratiot Ave","lat":42.49070599555638,"lng":-82.9408681357444,"city_fetched":"Warren,US","state":"MI","country":"United States","canonicalUrl":"https://foursquare.com/v/eastgate-pub/4bd486f4cfa7b713c63f24da","categoryId":"4bf58dd8d48988d116941735","category":"Bar","checkinsCount":1052,"usersCount":367,"tipCount":15,"visitsCount":1314,"tier":"","message":"","currency":"","rating":7.2},{"name":"Motor City Sports Bar","phone":"3138754710","address":"9122 Joseph Campau St","lat":42.3927499535648,"lng":-83.05563640729135,"neighborhood":"Downtown Hamtramck","city_fetched":"Warren,US","state":"MI","country":"United States","canonicalUrl":"https://foursquare.com/v/motor-city-sports-bar/4b77205bf964a520f57f2ee3","categoryId":"4bf58dd8d48988d11d941735","category":"Sports Bar","checkinsCount":434,"usersCount":235,"tipCount":11,"visitsCount":578,"tier":1,"message":"Cheap","currency":"$","rating":7.2},{"name":"New Dodge Lounge","phone":"3138745963","twitter":"newdodgelounge","address":"8850 Joseph Campau St","lat":42.390989224961224,"lng":-83.05377513458568,"city_fetched":"Warren,US","state":"MI","country":"United States","canonicalUrl":"https://foursquare.com/v/new-dodge-lounge/41326e00f964a520a80f1fe3","categoryId":"4bf58dd8d48988d116941735","category":"Bar","checkinsCount":1354,"usersCount":668,"tipCount":9,"visitsCount":1663,"tier":1,"message":"Cheap","currency":"$","rating":7.2},{"name":"Coachman's Lounge","phone":"5867310531","address":"5491 Auburn Rd","lat":42.636721012715114,"lng":-83.05635468717759,"city_fetched":"Warren,US","state":"MI","country":"United States","canonicalUrl":"https://foursquare.com/v/coachmans-lounge/4b962829f964a520b0be34e3","categoryId":"4bf58dd8d48988d116941735","category":"Bar","checkinsCount":756,"usersCount":321,"tipCount":8,"visitsCount":990,"url":"http://www.coachmanslounge.com","tier":"","message":"","currency":"","rating":7.2},{"name":"Stray Cat Lounge","phone":"5867418544","twitter":"straycatlounge","address":"40813 Garfield Rd","lat":42.59714500379418,"lng":-82.95434355670588,"city_fetched":"Warren,US","state":"MI","country":"United States","canonicalUrl":"https://foursquare.com/v/stray-cat-lounge/5352f3e6498eb5a763b07fad","categoryId":"4bf58dd8d48988d121941735","category":"Lounge","checkinsCount":149,"usersCount":96,"tipCount":5,"visitsCount":180,"url":"http://www.thestraycatlounge.com","tier":3,"message":"Expensive","currency":"$","rating":7.2},{"name":"2 Way Inn","phone":"3138914925","address":"17897 Mount Elliott St","lat":42.42627662,"lng":-83.03902924060822,"city_fetched":"Warren,US","state":"MI","country":"United States","canonicalUrl":"https://foursquare.com/v/2-way-inn/4b91c877f964a52010d733e3","categoryId":"4bf58dd8d48988d118941735","category":"Dive Bar","checkinsCount":1020,"usersCount":310,"tipCount":10,"visitsCount":1125,"url":"http://www.2wayinn.com","tier":"","message":"","currency":"","rating":7.1},{"name":"Johnny B Good's","phone":"5867726343","address":"26230 Groesbeck Hwy","lat":42.48894,"lng":-82.97229051589966,"neighborhood":"Southeast Warren","city_fetched":"Warren,US","state":"MI","country":"United States","canonicalUrl":"https://foursquare.com/v/johnny-b-goods/41326e00f964a520130f1fe3","categoryId":"4bf58dd8d48988d120941735","category":"Karaoke Bar","checkinsCount":1059,"usersCount":271,"tipCount":7,"visitsCount":1295,"url":"http://johnnybgoods.wix.com","tier":"","message":"","currency":"","rating":7.1},{"name":"Male Box","phone":"5868062390","address":"23365 Hoover Rd","lat":42.46633550199172,"lng":-83.00623655319214,"neighborhood":"Southeast Warren","city_fetched":"Warren,US","state":"MI","country":"United States","canonicalUrl":"https://foursquare.com/v/male-box/4e166e3bcc3ff2757eefe65b","categoryId":"4bf58dd8d48988d1d8941735","category":"Gay Bar","checkinsCount":1145,"usersCount":282,"tipCount":13,"visitsCount":1221,"tier":"","message":"","currency":"","rating":7.1},{"name":"Andrews on the Corner","phone":"3132598325","address":"201 Joseph Campau St","lat":42.336491855649236,"lng":-83.01777143867159,"neighborhood":"Rivertown - Warehouse District","city_fetched":"Warren,US","state":"MI","country":"United States","canonicalUrl":"https://foursquare.com/v/andrews-on-the-corner/4b59dd6ef964a520e29c28e3","categoryId":"4bf58dd8d48988d116941735","category":"Bar","checkinsCount":1491,"usersCount":997,"tipCount":15,"visitsCount":1874,"url":"http://www.andrewsonthecorner.com","tier":1,"message":"Cheap","currency":"$","rating":7.1},{"name":"Tapper's Pub","phone":"2488521983","twitter":"tapperpub","address":"877 E Auburn Rd","lat":42.637853833286904,"lng":-83.11361352852313,"neighborhood":"Rochester","city_fetched":"Warren,US","state":"MI","country":"United States","canonicalUrl":"https://foursquare.com/v/tappers-pub/41326e00f964a5209b101fe3","categoryId":"4bf58dd8d48988d11b941735","category":"Pub","checkinsCount":1784,"usersCount":391,"tipCount":13,"visitsCount":2251,"url":"http://www.tapperpub.com","tier":1,"message":"Cheap","currency":"$","rating":7},{"name":"Lux Hookah Lounge","address":"3290 S Rochester Rd","lat":42.63203025947672,"lng":-83.13195030125573,"neighborhood":"Rochester","city_fetched":"Warren,US","state":"MI","country":"United States","canonicalUrl":"https://foursquare.com/v/lux-hookah-lounge/50cfdf89e4b07cbfc057e064","categoryId":"4bf58dd8d48988d119941735","category":"Hookah Bar","checkinsCount":169,"usersCount":93,"tipCount":5,"visitsCount":175,"tier":"","message":"","currency":"","rating":7},{"name":"The Lumberyard Bar","phone":"5867767775","address":"26700 Schoenherr Rd","lat":42.491152247567015,"lng":-82.98681825250458,"neighborhood":"Southeast Warren","city_fetched":"Warren,US","state":"MI","country":"United States","canonicalUrl":"https://foursquare.com/v/the-lumberyard-bar/51259ca2e4b07767596cc93e","categoryId":"4bf58dd8d48988d116941735","category":"Bar","checkinsCount":280,"usersCount":91,"tipCount":9,"visitsCount":297,"tier":"","message":"","currency":"","rating":7},{"name":"The Inn Place","phone":"2485476051","address":"917 N Main St","lat":42.49720357634116,"lng":-83.14486832506095,"city_fetched":"Warren,US","state":"MI","country":"United States","canonicalUrl":"https://foursquare.com/v/the-inn-place/4ac166a4f964a520059720e3","categoryId":"4bf58dd8d48988d116941735","category":"Bar","checkinsCount":3782,"usersCount":1319,"tipCount":24,"visitsCount":4139,"url":"http://www.theinnplace.net","tier":1,"message":"Cheap","currency":"$","rating":7},{"name":"The Coliseum Detroit","phone":"3135271170","address":"11300 E 8 Mile Rd","lat":42.44777116147644,"lng":-83.00995973826066,"city_fetched":"Warren,US","state":"MI","country":"United States","canonicalUrl":"https://foursquare.com/v/the-coliseum-detroit/4aaec16cf964a520296320e3","categoryId":"4bf58dd8d48988d1d6941735","category":"Strip Club","checkinsCount":946,"usersCount":811,"tipCount":8,"visitsCount":1592,"url":"http://www.coliseumdetroit.com","tier":"","message":"","currency":"","rating":7},{"name":"M!X Bricktown","phone":"3139629548","address":"641 Beaubien St","lat":42.333003032777,"lng":-83.04146843760348,"neighborhood":"Bricktown","city_fetched":"Warren,US","state":"MI","country":"United States","canonicalUrl":"https://foursquare.com/v/mx-bricktown/4daf3c857abaaae42102a33e","categoryId":"4bf58dd8d48988d121941735","category":"Lounge","checkinsCount":2318,"usersCount":677,"tipCount":23,"visitsCount":2387,"url":"http://www.mixbricktown.com","tier":"","message":"","currency":"","rating":7},{"name":"Detroit Pub Greektown","phone":"3139633500","twitter":"detpubgreektown","address":"1326 Brush St","lat":42.33562503795564,"lng":-83.0447301724071,"neighborhood":"Downtown Detroit","city_fetched":"Warren,US","state":"MI","country":"United States","canonicalUrl":"https://foursquare.com/v/detroit-pub-greektown/4b11f37af964a520688723e3","categoryId":"4bf58dd8d48988d116941735","category":"Bar","checkinsCount":2594,"usersCount":1750,"tipCount":14,"visitsCount":2646,"url":"http://www.detroitpubgreektown.com","tier":2,"message":"Moderate","currency":"$","rating":7},{"name":"Pappy's Bar & Grill","phone":"3139834000","address":"517 Monroe St","lat":42.33512817634233,"lng":-83.04224789142609,"neighborhood":"Greektown","city_fetched":"Warren,US","state":"MI","country":"United States","canonicalUrl":"https://foursquare.com/v/pappys-bar--grill/4b64b749f964a520a1ca2ae3","categoryId":"4bf58dd8d48988d11d941735","category":"Sports Bar","checkinsCount":2772,"usersCount":1415,"tipCount":15,"visitsCount":2803,"url":"http://www.pappysdetroit.com","tier":2,"message":"Moderate","currency":"$","rating":7},{"name":"Sports Channel","phone":"5867712333","address":"25419 Jefferson Ave","lat":42.479790010074645,"lng":-82.88941480198989,"neighborhood":"Saint Clair Shores","city_fetched":"Warren,US","state":"MI","country":"United States","canonicalUrl":"https://foursquare.com/v/sports-channel/4c92b6f9418ea1cd3581a785","categoryId":"4bf58dd8d48988d116941735","category":"Bar","checkinsCount":821,"usersCount":258,"tipCount":1,"visitsCount":848,"tier":"","message":"","currency":"","rating":7},{"name":"Dooley's","phone":"5863233501","address":"12414 Hall Rd","lat":42.627170235387254,"lng":-83.00870418548584,"city_fetched":"Warren,US","state":"MI","country":"United States","canonicalUrl":"https://foursquare.com/v/dooleys/4743de45f964a5207e4c1fe3","categoryId":"4bf58dd8d48988d116941735","category":"Bar","checkinsCount":5391,"usersCount":1854,"tipCount":30,"visitsCount":5610,"url":"http://www.dooleysirish.com","tier":2,"message":"Moderate","currency":"$","rating":6.9},{"name":"La Hookah Town","lat":42.351971287110366,"lng":-83.06727472048921,"neighborhood":"Midtown","city_fetched":"Warren,US","state":"MI","country":"United States","canonicalUrl":"https://foursquare.com/v/la-hookah-town/50ee2513e4b0793e297b6e0b","categoryId":"4bf58dd8d48988d121941735","category":"Lounge","checkinsCount":232,"usersCount":124,"tipCount":5,"visitsCount":237,"tier":"","message":"","currency":"","rating":6.9},{"name":"Bailey's","phone":"2484353044","twitter":"baileyspubtroy","address":"1965 West Maple Road","lat":42.54615461,"lng":-83.17207788,"city_fetched":"Warren,US","state":"MI","country":"United States","canonicalUrl":"https://foursquare.com/v/baileys/4af34dacf964a52073ec21e3","categoryId":"4bf58dd8d48988d11d941735","category":"Sports Bar","checkinsCount":6466,"usersCount":2598,"tipCount":51,"visitsCount":7467,"url":"http://t.co/IGrH8HORCs","tier":2,"message":"Moderate","currency":"$","rating":6.8},{"name":"Shores Inn Food & Spirits","phone":"5867738940","address":"23410 Greater Mack Ave","lat":42.465847691273304,"lng":-82.89772947043905,"neighborhood":"Saint Clair Shores","city_fetched":"Warren,US","state":"MI","country":"United States","canonicalUrl":"https://foursquare.com/v/shores-inn-food--spirits/4283ee00f964a520d6221fe3","categoryId":"4bf58dd8d48988d116941735","category":"Bar","checkinsCount":8485,"usersCount":2267,"tipCount":39,"visitsCount":9134,"url":"http://www.shoresinn.com","tier":2,"message":"Moderate","currency":"$","rating":6.8},{"name":"New Way Bar","phone":"2485419870","address":"23130 Woodward Ave","lat":42.4638227,"lng":-83.13626666,"neighborhood":"Downtown Ferndale","city_fetched":"Warren,US","state":"MI","country":"United States","canonicalUrl":"https://foursquare.com/v/new-way-bar/4a74e812f964a520f6df1fe3","categoryId":"4bf58dd8d48988d118941735","category":"Dive Bar","checkinsCount":1592,"usersCount":829,"tipCount":19,"visitsCount":1664,"url":"http://newwaybar.com","tier":1,"message":"Cheap","currency":"$","rating":6.8},{"name":"Skybar Lounge","phone":"3139653054","twitter":"skybardetroit","address":"1150 Griswold St","lat":42.332513139626656,"lng":-83.04900898775026,"neighborhood":"Downtown Detroit","city_fetched":"Warren,US","state":"MI","country":"United States","canonicalUrl":"https://foursquare.com/skybardetroit","categoryId":"4bf58dd8d48988d116941735","category":"Bar","checkinsCount":1706,"usersCount":1133,"tipCount":16,"visitsCount":1753,"url":"http://www.skybardetroit.com","tier":3,"message":"Expensive","currency":"$","rating":6.8},{"name":"Marge's Bar","phone":"3138818895","address":"15300 Mack Ave","lat":42.387961806170544,"lng":-82.9425172624555,"neighborhood":"Grosse Pointe","city_fetched":"Warren,US","state":"MI","country":"United States","canonicalUrl":"https://foursquare.com/v/marges-bar/41326e00f964a520680f1fe3","categoryId":"4bf58dd8d48988d11d941735","category":"Sports Bar","checkinsCount":734,"usersCount":285,"tipCount":5,"visitsCount":818,"url":"http://www.margesbar.com","tier":"","message":"","currency":"","rating":6.8},{"name":"Blo Hookah Bar","phone":"5869972569","twitter":"blohookahbar","address":"47319 Van Dyke Ave","lat":42.64262033268973,"lng":-83.0317609365197,"city_fetched":"Warren,US","state":"MI","country":"United States","canonicalUrl":"https://foursquare.com/v/blo-hookah-bar/50b80167e4b062ae35693175","categoryId":"4bf58dd8d48988d119941735","category":"Hookah Bar","checkinsCount":248,"usersCount":86,"tipCount":3,"visitsCount":257,"tier":"","message":"","currency":"","rating":6.8},{"name":"SIN in Detroit","phone":"3133666135","address":"2971 E 7 Mile Rd","lat":42.43295159834737,"lng":-83.0829831731225,"neighborhood":"State Fair-Nolan","city_fetched":"Warren,US","state":"MI","country":"United States","canonicalUrl":"https://foursquare.com/v/sin-in-detroit/4fc83cabe4b059f5992ecaed","categoryId":"4bf58dd8d48988d1d8941735","category":"Gay Bar","checkinsCount":548,"usersCount":131,"tipCount":0,"visitsCount":627,"tier":"","message":"","currency":"","rating":6.7},{"name":"Briggs Sports Bar","phone":"3136564820","address":"519 E Jefferson Ave","lat":42.3308950217274,"lng":-83.03964347367743,"neighborhood":"Bricktown","city_fetched":"Warren,US","state":"MI","country":"United States","canonicalUrl":"https://foursquare.com/v/briggs-sports-bar/563e85aecd10dfa5270e1aea","categoryId":"4bf58dd8d48988d11d941735","category":"Sports Bar","checkinsCount":180,"usersCount":206,"tipCount":1,"visitsCount":338,"url":"http://briggsdetroit.com","tier":"","message":"","currency":"","rating":6.7},{"name":"Jamboozies Sports Bar & Grill","phone":"5867312000","twitter":"jambooziesgrill","address":"42066 Van Dyke Ave","lat":42.60255245461781,"lng":-83.03029236230387,"city_fetched":"Warren,US","state":"MI","country":"United States","canonicalUrl":"https://foursquare.com/v/jamboozies-sports-bar--grill/41326e00f964a520030f1fe3","categoryId":"4bf58dd8d48988d11d941735","category":"Sports Bar","checkinsCount":2685,"usersCount":864,"tipCount":24,"visitsCount":2951,"url":"http://www.jamboozies.com","tier":"","message":"","currency":"","rating":6.7},{"name":"House of Shamrocks","address":"23420 John R Rd","lat":42.46460485256254,"lng":-83.10393764419497,"city_fetched":"Warren,US","state":"MI","country":"United States","canonicalUrl":"https://foursquare.com/v/house-of-shamrocks/451420bef964a520d6391fe3","categoryId":"4bf58dd8d48988d118941735","category":"Dive Bar","checkinsCount":1480,"usersCount":623,"tipCount":7,"visitsCount":1871,"tier":"","message":"","currency":"","rating":6.7},{"name":"Norm's Field Of Dreams","phone":"2485779188","twitter":"normsfod","address":"1090 Rochester Rd","lat":42.542604374089564,"lng":-83.1333432876931,"city_fetched":"Warren,US","state":"MI","country":"United States","canonicalUrl":"https://foursquare.com/v/norms-field-of-dreams/4b456e56f964a520a10c26e3","categoryId":"4bf58dd8d48988d11d941735","category":"Sports Bar","checkinsCount":2734,"usersCount":878,"tipCount":18,"visitsCount":3083,"url":"http://www.normsfieldofdreams.com","tier":1,"message":"Cheap","currency":"$","rating":6.7},{"name":"Whiskey River Speakeasy","lat":42.319688249728486,"lng":-83.03889878995905,"neighborhood":"City Centre","city_fetched":"Warren,US","state":"ON","country":"Canada","canonicalUrl":"https://foursquare.com/v/whiskey-river-speakeasy/51df6b19498eb44d77e83cbd","categoryId":"4bf58dd8d48988d122941735","category":"Whisky Bar","checkinsCount":78,"usersCount":51,"tipCount":7,"visitsCount":78,"tier":"","message":"","currency":"","rating":6.7},{"name":"Inuendo","phone":"3138915798","address":"744 E Savannah St","lat":42.425511666666665,"lng":-83.09494,"neighborhood":"State Fair-Nolan","city_fetched":"Warren,US","state":"MI","country":"United States","canonicalUrl":"https://foursquare.com/v/inuendo/4ba6f015f964a520ae7839e3","categoryId":"4bf58dd8d48988d1d8941735","category":"Gay Bar","checkinsCount":192,"usersCount":139,"tipCount":1,"visitsCount":242,"tier":"","message":"","currency":"","rating":6.7},{"name":"BlackFinn Restaurant & Saloon","phone":"2485829460","address":"530 S Main St","lat":42.48594427616954,"lng":-83.14432203769684,"neighborhood":"Downtown Royal Oak","city_fetched":"Warren,US","state":"MI","country":"United States","canonicalUrl":"https://foursquare.com/v/blackfinn-restaurant--saloon/4a73a2c0f964a52005dd1fe3","categoryId":"4bf58dd8d48988d116941735","category":"Bar","checkinsCount":12103,"usersCount":5117,"tipCount":73,"visitsCount":12703,"url":"http://blackfinnameripub.com","tier":2,"message":"Moderate","currency":"$","rating":6.7},{"name":"Cafe Mocha","phone":"5862760000","address":"33166 Ryan Rd","lat":42.5366481739204,"lng":-83.06805577671207,"city_fetched":"Warren,US","state":"MI","country":"United States","canonicalUrl":"https://foursquare.com/v/cafe-mocha/4dd1f8f752b15d0acc743aa8","categoryId":"4bf58dd8d48988d119941735","category":"Hookah Bar","checkinsCount":547,"usersCount":172,"tipCount":9,"visitsCount":561,"url":"http://cafemochausa.com","tier":"","message":"","currency":"","rating":6.6},{"name":"O'Tooles Irish American Grill & Bar","phone":"2485919226","twitter":"maria_lailani","address":"205 W 5th Ave","lat":42.486277014194854,"lng":-83.14555801681013,"neighborhood":"Downtown Royal Oak","city_fetched":"Warren,US","state":"MI","country":"United States","canonicalUrl":"https://foursquare.com/v/otooles-irish-american-grill--bar/4514ed5cf964a520e6391fe3","categoryId":"4bf58dd8d48988d116941735","category":"Bar","checkinsCount":10945,"usersCount":4186,"tipCount":48,"visitsCount":11504,"url":"http://rorainfo.com","tier":2,"message":"Moderate","currency":"$","rating":6.6},{"name":"Sneakers Pub","phone":"2485458243","address":"22628 Woodward Ave","lat":42.459449334377794,"lng":-83.13326473661654,"neighborhood":"Downtown Ferndale","city_fetched":"Warren,US","state":"MI","country":"United States","canonicalUrl":"https://foursquare.com/v/sneakers-pub/41326e00f964a5205f101fe3","categoryId":"4bf58dd8d48988d11b941735","category":"Pub","checkinsCount":7017,"usersCount":1592,"tipCount":35,"visitsCount":7205,"tier":1,"message":"Cheap","currency":"$","rating":6.6},{"name":"Rosie O'Grady's","phone":"2485919163","address":"279 W 9 Mile Rd","lat":42.460280704614405,"lng":-83.1377238035202,"neighborhood":"Downtown Ferndale","city_fetched":"Warren,US","state":"MI","country":"United States","canonicalUrl":"https://foursquare.com/v/rosie-ogradys/4a73b593f964a52043dd1fe3","categoryId":"4bf58dd8d48988d11d941735","category":"Sports Bar","checkinsCount":19605,"usersCount":6759,"tipCount":108,"visitsCount":20611,"url":"http://www.rosieogradysirishpub.com","tier":2,"message":"Moderate","currency":"$","rating":6.6},{"name":"Jimmy's Tavern","phone":"5867511400","address":"30140 Van Dyke Ave","lat":42.51485022947753,"lng":-83.02774850452853,"neighborhood":"Northeast Warren","city_fetched":"Warren,US","state":"MI","country":"United States","canonicalUrl":"https://foursquare.com/v/jimmys-tavern/4b47733ff964a520703226e3","categoryId":"4bf58dd8d48988d116941735","category":"Bar","checkinsCount":528,"usersCount":198,"tipCount":4,"visitsCount":534,"tier":"","message":"","currency":"","rating":6.6},{"name":"Blarney Stone Pub","phone":"2485411881","address":"27253 Woodward Ave","lat":42.49092462246999,"lng":-83.16063523292542,"city_fetched":"Warren,US","state":"MI","country":"United States","canonicalUrl":"https://foursquare.com/v/blarney-stone-pub/4b1f1882f964a520ec2324e3","categoryId":"4bf58dd8d48988d116941735","category":"Bar","checkinsCount":3763,"usersCount":1264,"tipCount":15,"visitsCount":4255,"tier":2,"message":"Moderate","currency":"$","rating":6.6},{"name":"The Hub Sports Bistro","phone":"5862263399","address":"16780 21 Mile Rd","lat":42.64073962164736,"lng":-82.95460610592848,"city_fetched":"Warren,US","state":"MI","country":"United States","canonicalUrl":"https://foursquare.com/v/the-hub-sports-bistro/4ac58209f964a5203eb220e3","categoryId":"4bf58dd8d48988d11d941735","category":"Sports Bar","checkinsCount":2850,"usersCount":783,"tipCount":22,"visitsCount":3149,"tier":"","message":"","currency":"","rating":6.6},{"name":"Warfield Grille","phone":"5862939887","address":"34275 Utica Rd","lat":42.54846943984004,"lng":-82.95867548597577,"city_fetched":"Warren,US","state":"MI","country":"United States","canonicalUrl":"https://foursquare.com/v/warfield-grille/4aeb9a0ef964a520b0c321e3","categoryId":"4bf58dd8d48988d116941735","category":"Bar","checkinsCount":2314,"usersCount":502,"tipCount":9,"visitsCount":2524,"tier":"","message":"","currency":"","rating":6.6},{"name":"The Stone House Bar","phone":"3138913333","address":"19803 Ralston St","lat":42.43846274993816,"lng":-83.11736315488815,"neighborhood":"State Fair-Nolan","city_fetched":"Warren,US","state":"MI","country":"United States","canonicalUrl":"https://foursquare.com/v/the-stone-house-bar/41326e00f964a5207f101fe3","categoryId":"4bf58dd8d48988d118941735","category":"Dive Bar","checkinsCount":353,"usersCount":233,"tipCount":4,"visitsCount":464,"url":"http://www.stonehousebar.com","tier":1,"message":"Cheap","currency":"$","rating":6.6},{"name":"Tap Sports Bar","twitter":"mgmgranddetroit","address":"1777 3rd St","lat":42.33316125773166,"lng":-83.05932733874647,"neighborhood":"Downtown Detroit","city_fetched":"Warren,US","state":"MI","country":"United States","canonicalUrl":"https://foursquare.com/v/tap-sports-bar/50445441e4b01446ac0efaf4","categoryId":"4bf58dd8d48988d11d941735","category":"Sports Bar","checkinsCount":3131,"usersCount":1944,"tipCount":40,"visitsCount":3353,"url":"http://www.mgmgranddetroit.com/tap/default.aspx","tier":2,"message":"Moderate","currency":"$","rating":6.6},{"name":"Pub 1281","phone":"5864630270","address":"1281 Gratiot Ave.","lat":42.580641,"lng":-82.88548350334167,"city_fetched":"Warren,US","state":"MI","country":"United States","canonicalUrl":"https://foursquare.com/v/pub-1281/4b5bb4b2f964a520321129e3","categoryId":"4bf58dd8d48988d116941735","category":"Bar","checkinsCount":689,"usersCount":316,"tipCount":7,"visitsCount":771,"url":"http://www.pub1281.com","tier":"","message":"","currency":"","rating":6.5},{"name":"Clancy's Irish Pub","phone":"5862860008","address":"42012 Hayes Rd","lat":42.60468400572354,"lng":-82.97175407409668,"city_fetched":"Warren,US","state":"MI","country":"United States","canonicalUrl":"https://foursquare.com/v/clancys-irish-pub/4c6a07f91a6620a1cd46658c","categoryId":"4bf58dd8d48988d116941735","category":"Bar","checkinsCount":1906,"usersCount":706,"tipCount":13,"visitsCount":2022,"url":"http://clancysirishpub1.com","tier":"","message":"","currency":"","rating":6.5},{"name":"The Loose Goose Restopub & Lounge","phone":"5199856675","address":"126 Ouellette Ave.","lat":42.31915495098615,"lng":-83.04005776590311,"neighborhood":"City Centre","city_fetched":"Warren,US","state":"ON","country":"Canada","canonicalUrl":"https://foursquare.com/v/the-loose-goose-restopub--lounge/4b71dc8cf964a520c6602de3","categoryId":"4bf58dd8d48988d11b941735","category":"Pub","checkinsCount":901,"usersCount":504,"tipCount":14,"visitsCount":1018,"tier":"","message":"","currency":"","rating":6.5},{"name":"King Of Diamonds","address":"141 W 8 Mile Rd","lat":42.44677438435246,"lng":-83.10496449779545,"neighborhood":"State Fair-Nolan","city_fetched":"Warren,US","state":"MI","country":"United States","canonicalUrl":"https://foursquare.com/v/king-of-diamonds/4e1f3e5562e19e27e251d3ad","categoryId":"4bf58dd8d48988d1d6941735","category":"Strip Club","checkinsCount":688,"usersCount":282,"tipCount":12,"visitsCount":761,"url":"http://koddetroit.com","tier":"","message":"","currency":"","rating":6.5},{"name":"The State Bar & Grill","phone":"3139623663","address":"2101 Woodward Ave","lat":42.33774706515924,"lng":-83.05157824071657,"neighborhood":"Downtown Detroit","city_fetched":"Warren,US","state":"MI","country":"United States","canonicalUrl":"https://foursquare.com/v/the-state-bar--grill/4ac3de08f964a5202c9d20e3","categoryId":"4bf58dd8d48988d116941735","category":"Bar","checkinsCount":2473,"usersCount":1488,"tipCount":14,"visitsCount":2477,"tier":2,"message":"Moderate","currency":"$","rating":6.4},{"name":"Mars Bar","phone":"3139746575","twitter":"marsbardetroit","address":"10001 Joseph Campau St","lat":42.397832,"lng":-83.058675,"neighborhood":"Downtown Hamtramck","city_fetched":"Warren,US","state":"MI","country":"United States","canonicalUrl":"https://foursquare.com/v/mars-bar/4ca81118a6e08cfa71cf8b94","categoryId":"4bf58dd8d48988d116941735","category":"Bar","checkinsCount":699,"usersCount":313,"tipCount":6,"visitsCount":707,"url":"http://www.marsbardetroit.com","tier":"","message":"","currency":"","rating":6.4},{"name":"V Nightclub","phone":"3134651777","address":"MGM Grand Detroit Casino & Hotel","lat":42.33383378861664,"lng":-83.05902326415746,"neighborhood":"Downtown Detroit","city_fetched":"Warren,US","state":"MI","country":"United States","canonicalUrl":"https://foursquare.com/v/v-nightclub/4b40488cf964a52060b725e3","categoryId":"4bf58dd8d48988d11f941735","category":"Nightclub","checkinsCount":1251,"usersCount":871,"tipCount":6,"visitsCount":1258,"tier":"","message":"","currency":"","rating":6.4},{"name":"The Bull and Barrel","phone":"5199734884","twitter":"bullandbarrel","address":"670 Ouellette Ave","lat":42.31313627979352,"lng":-83.0360353501819,"neighborhood":"City Centre","city_fetched":"Warren,US","state":"ON","country":"Canada","canonicalUrl":"https://foursquare.com/v/the-bull-and-barrel/4e0bcfaf62848063afc64f75","categoryId":"4bf58dd8d48988d116941735","category":"Bar","checkinsCount":813,"usersCount":383,"tipCount":5,"visitsCount":908,"url":"http://www.bullandbarrel.com","tier":"","message":"","currency":"","rating":6.4},{"name":"The Bathtub Pub","phone":"3139620700","address":"129 Michigan Ave","lat":42.331515826160334,"lng":-83.04936554313726,"neighborhood":"Downtown Detroit","city_fetched":"Warren,US","state":"MI","country":"United States","canonicalUrl":"https://foursquare.com/v/the-bathtub-pub/515f1878498efb316b2d9b15","categoryId":"4bf58dd8d48988d11b941735","category":"Pub","checkinsCount":603,"usersCount":362,"tipCount":15,"visitsCount":613,"url":"http://www.bathtubpubmi.com","tier":"","message":"","currency":"","rating":6.4},{"name":"Seven Brothers Bar","address":"11831 Joseph Campau St","lat":42.403507801630774,"lng":-83.0624728554071,"city_fetched":"Warren,US","state":"MI","country":"United States","canonicalUrl":"https://foursquare.com/v/seven-brothers-bar/41326e00f964a52048101fe3","categoryId":"4bf58dd8d48988d118941735","category":"Dive Bar","checkinsCount":577,"usersCount":202,"tipCount":7,"visitsCount":621,"tier":"","message":"","currency":"","rating":6.3},{"name":"Traffic Light Limited","phone":"5864688900","address":"24500 Henry B Joy Blvd","lat":42.60951305564466,"lng":-82.86041047034462,"city_fetched":"Warren,US","state":"MI","country":"United States","canonicalUrl":"https://foursquare.com/v/traffic-light-limited/4c509b3f9426c928ba6a5e72","categoryId":"4bf58dd8d48988d1d6941735","category":"Strip Club","checkinsCount":753,"usersCount":347,"tipCount":9,"visitsCount":878,"tier":"","message":"","currency":"","rating":6.3},{"name":"Woodward Bar & Grill","phone":"3138720166","address":"6425 Woodward Ave","lat":42.36896565818362,"lng":-83.07208671788598,"neighborhood":"Central","city_fetched":"Warren,US","state":"MI","country":"United States","canonicalUrl":"https://foursquare.com/v/woodward-bar--grill/4bdcb02f2a3a0f471cf5b3b6","categoryId":"4bf58dd8d48988d1d8941735","category":"Gay Bar","checkinsCount":830,"usersCount":388,"tipCount":7,"visitsCount":1142,"tier":"","message":"","currency":"","rating":6.3},{"name":"Madison's","phone":"5864687777","address":"15 N Walnut St","lat":42.597295226805514,"lng":-82.87949050338037,"neighborhood":"Downtown Mount Clemens","city_fetched":"Warren,US","state":"MI","country":"United States","canonicalUrl":"https://foursquare.com/v/madisons/4b477ad0f964a5206f3326e3","categoryId":"4bf58dd8d48988d11b941735","category":"Pub","checkinsCount":2576,"usersCount":1337,"tipCount":12,"visitsCount":3069,"url":"http://www.madisonspubmtclemens.com","tier":"","message":"","currency":"","rating":6.3},{"name":"JP Shakers","phone":"5862931243","twitter":"jpshakers","address":"15015 E 13 Mile Rd","lat":42.52401210850976,"lng":-82.97069838826255,"city_fetched":"Warren,US","state":"MI","country":"United States","canonicalUrl":"https://foursquare.com/v/jp-shakers/4b4854aef964a520b94b26e3","categoryId":"4bf58dd8d48988d116941735","category":"Bar","checkinsCount":2455,"usersCount":407,"tipCount":10,"visitsCount":2594,"url":"http://jpshakers-hub.com","tier":"","message":"","currency":"","rating":6.3},{"name":"VOLT","phone":"3135688700","address":"400 Renaissance Ctr","lat":42.328727123889315,"lng":-83.04033570732774,"neighborhood":"Downtown Detroit","city_fetched":"Warren,US","state":"MI","country":"United States","canonicalUrl":"https://foursquare.com/v/volt/4b8c5546f964a52025cb32e3","categoryId":"4bf58dd8d48988d116941735","category":"Bar","checkinsCount":3628,"usersCount":2043,"tipCount":31,"visitsCount":3661,"tier":"","message":"","currency":"","rating":6.3},{"name":"Fruicota","phone":"5864655780","address":"20828 Hall Rd","lat":42.62825810797537,"lng":-82.91326807636243,"city_fetched":"Warren,US","state":"MI","country":"United States","canonicalUrl":"https://foursquare.com/v/fruicota/4ba03118f964a5208f6037e3","categoryId":"4bf58dd8d48988d119941735","category":"Hookah Bar","checkinsCount":349,"usersCount":181,"tipCount":8,"visitsCount":367,"tier":1,"message":"Cheap","currency":"$","rating":6.3},{"name":"Bleu Room","phone":"3132221900","address":"1540 Woodward Ave","lat":42.33559245551851,"lng":-83.0497116097533,"neighborhood":"Downtown Detroit","city_fetched":"Warren,US","state":"MI","country":"United States","canonicalUrl":"https://foursquare.com/v/bleu-room/41326e00f964a5208b0d1fe3","categoryId":"4bf58dd8d48988d11f941735","category":"Nightclub","checkinsCount":1343,"usersCount":923,"tipCount":13,"visitsCount":1376,"url":"http://www.bleudetroit.com","tier":"","message":"","currency":"","rating":6.3},{"name":"Hi-Tops Ten & One Half","phone":"2483989526","address":"25422 Woodward Ave","lat":42.478837547285636,"lng":-83.14821915811281,"city_fetched":"Warren,US","state":"MI","country":"United States","canonicalUrl":"https://foursquare.com/v/hitops-ten--one-half/41326e00f964a520c70e1fe3","categoryId":"4bf58dd8d48988d118941735","category":"Dive Bar","checkinsCount":1016,"usersCount":440,"tipCount":8,"visitsCount":1061,"tier":1,"message":"Cheap","currency":"$","rating":6.2},{"name":"Jovonnes Lounge","phone":"3138367039","address":"9138 Greenfield Rd","lat":42.361728691351196,"lng":-83.19712693970642,"city_fetched":"Warren,US","state":"MI","country":"United States","canonicalUrl":"https://foursquare.com/v/jovonnes-lounge/4c6c9ada1fb2a1434a23fce6","categoryId":"4bf58dd8d48988d11f941735","category":"Nightclub","checkinsCount":165,"usersCount":93,"tipCount":3,"visitsCount":184,"url":"http://www.jovonneslounge.com","tier":"","message":"","currency":"","rating":6.2},{"name":"The Labatt Blue Light Jungle","phone":"3139624000","twitter":"tigers","address":"2100 Woodward Ave","lat":42.33806287744767,"lng":-83.0490392446518,"neighborhood":"Downtown Detroit","city_fetched":"Warren,US","state":"MI","country":"United States","canonicalUrl":"https://foursquare.com/v/the-labatt-blue-light-jungle/4bd761f1e914a5934c1d51fa","categoryId":"4bf58dd8d48988d11d941735","category":"Sports Bar","checkinsCount":841,"usersCount":463,"tipCount":4,"visitsCount":841,"tier":"","message":"","currency":"","rating":6.2},{"name":"PB's Sports Grille","phone":"5867789066","twitter":"pbssportsgrille","address":"23401 Harper Ave","lat":42.47402251127686,"lng":-82.9051497777472,"neighborhood":"Saint Clair Shores","city_fetched":"Warren,US","state":"MI","country":"United States","canonicalUrl":"https://foursquare.com/pbssportsgrille","categoryId":"4bf58dd8d48988d11d941735","category":"Sports Bar","checkinsCount":1711,"usersCount":341,"tipCount":10,"visitsCount":1892,"tier":2,"message":"Moderate","currency":"$","rating":6.2},{"name":"Warrilow Bar","phone":"2485455861","address":"2140 Hilton Rd","lat":42.46416611743107,"lng":-83.12293706614943,"city_fetched":"Warren,US","state":"MI","country":"United States","canonicalUrl":"https://foursquare.com/v/warrilow-bar/4b773d55f964a520c18a2ee3","categoryId":"4bf58dd8d48988d116941735","category":"Bar","checkinsCount":710,"usersCount":359,"tipCount":7,"visitsCount":788,"tier":"","message":"","currency":"","rating":6.2},{"name":"Suzy's Bar","phone":"3138729016","address":"2942 Evaline St","lat":42.397329583306124,"lng":-83.0571261048317,"neighborhood":"Downtown Hamtramck","city_fetched":"Warren,US","state":"MI","country":"United States","canonicalUrl":"https://foursquare.com/v/suzys-bar/41326e00f964a52094101fe3","categoryId":"4bf58dd8d48988d118941735","category":"Dive Bar","checkinsCount":912,"usersCount":235,"tipCount":4,"visitsCount":943,"tier":"","message":"","currency":"","rating":6.1},{"name":"Circa 1890 Saloon","phone":"3138311122","address":"5474 Cass Ave","lat":42.36044879383634,"lng":-83.069023,"neighborhood":"Wayne State","city_fetched":"Warren,US","state":"MI","country":"United States","canonicalUrl":"https://foursquare.com/v/circa-1890-saloon/41326e00f964a520e80d1fe3","categoryId":"4bf58dd8d48988d118941735","category":"Dive Bar","checkinsCount":989,"usersCount":520,"tipCount":13,"visitsCount":1059,"tier":"","message":"","currency":"","rating":6.1},{"name":"The Baltimore","phone":"3139642728","address":"1234 Randolph St","lat":42.33449091487358,"lng":-83.04507101961096,"neighborhood":"Downtown Detroit","city_fetched":"Warren,US","state":"MI","country":"United States","canonicalUrl":"https://foursquare.com/v/the-baltimore/4aea13e5f964a5202ab921e3","categoryId":"4bf58dd8d48988d118941735","category":"Dive Bar","checkinsCount":3499,"usersCount":1310,"tipCount":24,"visitsCount":3514,"tier":1,"message":"Cheap","currency":"$","rating":6.1},{"name":"Centerfold Lounge","phone":"3138927333","address":"20222 John R St","lat":42.44409620761871,"lng":-83.10252,"neighborhood":"State Fair-Nolan","city_fetched":"Warren,US","state":"MI","country":"United States","canonicalUrl":"https://foursquare.com/v/centerfold-lounge/41326e00f964a520ce0d1fe3","categoryId":"4bf58dd8d48988d1d6941735","category":"Strip Club","checkinsCount":325,"usersCount":178,"tipCount":5,"visitsCount":381,"tier":"","message":"","currency":"","rating":6.1},{"name":"Dooleys Tavern","phone":"2486776262","address":"27 E 14 Mile Rd","lat":42.533716871161346,"lng":-83.14559086298823,"neighborhood":"Downtown Clawson","city_fetched":"Warren,US","state":"MI","country":"United States","canonicalUrl":"https://foursquare.com/v/dooleys-tavern/5095ca5fe4b054dd34c95af7","categoryId":"4bf58dd8d48988d11d941735","category":"Sports Bar","checkinsCount":1506,"usersCount":473,"tipCount":10,"visitsCount":1544,"url":"http://dooleysirish.com","tier":1,"message":"Cheap","currency":"$","rating":6.1},{"name":"Mr. B's Pub","phone":"2483990017","twitter":"mrbspub","address":"215 S Main St","lat":42.488592730498105,"lng":-83.143992125988,"neighborhood":"Downtown Royal Oak","city_fetched":"Warren,US","state":"MI","country":"United States","canonicalUrl":"https://foursquare.com/v/mr-bs-pub/4515bf9df964a520033a1fe3","categoryId":"4bf58dd8d48988d11d941735","category":"Sports Bar","checkinsCount":10952,"usersCount":5810,"tipCount":44,"visitsCount":11508,"url":"http://www.mrbspub.com","tier":2,"message":"Moderate","currency":"$","rating":6.1},{"name":"The Painted Lady","phone":"3138742991","address":"2930 Jacob St","lat":42.39197552204132,"lng":-83.053879,"city_fetched":"Warren,US","state":"MI","country":"United States","canonicalUrl":"https://foursquare.com/v/the-painted-lady/4b36cc9cf964a520b43c25e3","categoryId":"4bf58dd8d48988d116941735","category":"Bar","checkinsCount":1000,"usersCount":484,"tipCount":13,"visitsCount":1099,"tier":"","message":"","currency":"","rating":6},{"name":"Papa Cheneys Whiskey Well","phone":"5192581334","address":"63 Riverside Dr. E","lat":42.319613,"lng":-83.038982,"neighborhood":"City Centre","city_fetched":"Warren,US","state":"ON","country":"Canada","canonicalUrl":"https://foursquare.com/v/papa-cheneys-whiskey-well/4baeaa44f964a52089cc3be3","categoryId":"4bf58dd8d48988d122941735","category":"Whisky Bar","checkinsCount":770,"usersCount":354,"tipCount":13,"visitsCount":771,"tier":"","message":"","currency":"","rating":6},{"name":"Pepper Bottom's","phone":"5867789066","twitter":"pbssportsgrille","address":"24301 Harper Ave","lat":42.47394842747133,"lng":-82.90502366044763,"neighborhood":"Saint Clair Shores","city_fetched":"Warren,US","state":"MI","country":"United States","canonicalUrl":"https://foursquare.com/v/pepper-bottoms/4b80cd25f964a520ce8c30e3","categoryId":"4bf58dd8d48988d116941735","category":"Bar","checkinsCount":2754,"usersCount":739,"tipCount":13,"visitsCount":2760,"tier":"","message":"","currency":"","rating":6},{"name":"Club FT","phone":"5867726750","address":"26061 Gratiot Ave","lat":42.48807370662689,"lng":-82.94318,"city_fetched":"Warren,US","state":"MI","country":"United States","canonicalUrl":"https://foursquare.com/v/club-ft/41326e00f964a520fc0d1fe3","categoryId":"4bf58dd8d48988d118941735","category":"Dive Bar","checkinsCount":1297,"usersCount":258,"tipCount":14,"visitsCount":1326,"tier":"","message":"","currency":"","rating":6},{"name":"Roger's Roost","phone":"5869797550","twitter":"rogersroost1","address":"33626 Schoenherr Rd","lat":42.54278641101995,"lng":-82.98893333237828,"city_fetched":"Warren,US","state":"MI","country":"United States","canonicalUrl":"https://foursquare.com/v/rogers-roost/42dd9400f964a5204e261fe3","categoryId":"4bf58dd8d48988d11d941735","category":"Sports Bar","checkinsCount":4892,"usersCount":2276,"tipCount":41,"visitsCount":5872,"url":"http://rogersroost1.com","tier":2,"message":"Moderate","currency":"$","rating":6},{"name":"Round Bar","phone":"3139635600","twitter":"roundbardetroit","address":"525 W Lafayette Blvd","lat":42.329428016671784,"lng":-83.05296244970077,"neighborhood":"Downtown Detroit","city_fetched":"Warren,US","state":"MI","country":"United States","canonicalUrl":"https://foursquare.com/roundbardetroit","categoryId":"4bf58dd8d48988d1d5941735","category":"Hotel Bar","checkinsCount":1044,"usersCount":414,"tipCount":17,"visitsCount":1048,"tier":"","message":"","currency":"","rating":6},{"name":"Ciccarelli's Sports Bar Theater","phone":"5862472223","twitter":"ciccarellis22","address":"46793 Hayes Road","lat":42.64041071381419,"lng":-82.97506599412912,"city_fetched":"Warren,US","state":"MI","country":"United States","canonicalUrl":"https://foursquare.com/v/ciccarellis-sports-bar-theater/51ce1d2f454af9db234cb106","categoryId":"4bf58dd8d48988d11d941735","category":"Sports Bar","checkinsCount":2368,"usersCount":1216,"tipCount":14,"visitsCount":2826,"url":"http://ciccarellis-22-sports-bar.com","tier":2,"message":"Moderate","currency":"$","rating":6},{"name":"Riparian Grille","phone":"2488797500","twitter":"embassysuites","address":"850 Tower Dr","lat":42.59732,"lng":-83.163442,"city_fetched":"Warren,US","state":"MI","country":"United States","canonicalUrl":"https://foursquare.com/v/riparian-grille/4ba80e02f964a52080c939e3","categoryId":"4bf58dd8d48988d1d5941735","category":"Hotel Bar","checkinsCount":528,"usersCount":172,"tipCount":3,"visitsCount":554,"tier":"","message":"","currency":"","rating":6},{"name":"Big Beaver Tavern","phone":"2486800066","address":"645 E Big Beaver Rd","lat":42.563393,"lng":-83.135215,"neighborhood":"Downtown Troy","city_fetched":"Warren,US","state":"MI","country":"United States","canonicalUrl":"https://foursquare.com/v/big-beaver-tavern/4b2030caf964a520782e24e3","categoryId":"4bf58dd8d48988d11d941735","category":"Sports Bar","checkinsCount":3811,"usersCount":1541,"tipCount":26,"visitsCount":4317,"url":"http://www.bigbeavertavern.com","tier":2,"message":"Moderate","currency":"$","rating":5.9},{"name":"Fifth Avenue Sports and Entertainment","phone":"2486299423","twitter":"fifthavenuero","address":"215 W 5th Ave","lat":42.48629239904651,"lng":-83.14598232507706,"neighborhood":"Downtown Royal Oak","city_fetched":"Warren,US","state":"MI","country":"United States","canonicalUrl":"https://foursquare.com/fifthavenuero","categoryId":"4bf58dd8d48988d11d941735","category":"Sports Bar","checkinsCount":10320,"usersCount":4426,"tipCount":43,"visitsCount":11554,"url":"http://fifthavenueroyaloak.com","tier":2,"message":"Moderate","currency":"$","rating":5.9},{"name":"Tudges Pub","phone":"5867774491","address":"22512 Greater Mack Ave","lat":42.45984619276904,"lng":-82.90040970509604,"neighborhood":"Saint Clair Shores","city_fetched":"Warren,US","state":"MI","country":"United States","canonicalUrl":"https://foursquare.com/v/tudges-pub/41326e00f964a520c3101fe3","categoryId":"4bf58dd8d48988d11b941735","category":"Pub","checkinsCount":307,"usersCount":141,"tipCount":3,"visitsCount":308,"tier":"","message":"","currency":"","rating":5.9},{"name":"Dirty Jerseys Bar & Grill","phone":"5199449990","address":"6675 Tecumseh Rd E","lat":42.31144751911525,"lng":-82.94474404371935,"city_fetched":"Warren,US","state":"ON","country":"Canada","canonicalUrl":"https://foursquare.com/v/dirty-jerseys-bar--grill/4b5a6fb0f964a52000c528e3","categoryId":"4bf58dd8d48988d11d941735","category":"Sports Bar","checkinsCount":371,"usersCount":165,"tipCount":5,"visitsCount":379,"url":"http://www.dirtyjerseys.ca","tier":"","message":"","currency":"","rating":5.9},{"name":"Players","phone":"3133716970","address":"13710 E 8 Mile Rd","lat":42.44931615803386,"lng":-82.98345917773835,"neighborhood":"Osborn","city_fetched":"Warren,US","state":"MI","country":"United States","canonicalUrl":"https://foursquare.com/v/players/41326e00f964a5200f111fe3","categoryId":"4bf58dd8d48988d1d6941735","category":"Strip Club","checkinsCount":431,"usersCount":307,"tipCount":3,"visitsCount":614,"tier":"","message":"","currency":"","rating":5.9},{"name":"John Barleycorn's","twitter":"barleycornsjohn","address":"112 Macomb Pl","lat":42.599734539811806,"lng":-82.87977963252672,"neighborhood":"Downtown Mount Clemens","city_fetched":"Warren,US","state":"MI","country":"United States","canonicalUrl":"https://foursquare.com/v/john-barleycorns/4ad3b7d2f964a520e2e520e3","categoryId":"4bf58dd8d48988d11b941735","category":"Pub","checkinsCount":681,"usersCount":315,"tipCount":2,"visitsCount":704,"tier":"","message":"","currency":"","rating":5.9},{"name":"L J's Lounge","phone":"3139620013","address":"2114 Michigan Ave","lat":42.33156139506851,"lng":-83.07565093309016,"neighborhood":"Corktown","city_fetched":"Warren,US","state":"MI","country":"United States","canonicalUrl":"https://foursquare.com/v/l-js-lounge/41326e00f964a520360f1fe3","categoryId":"4bf58dd8d48988d116941735","category":"Bar","checkinsCount":1399,"usersCount":728,"tipCount":12,"visitsCount":1405,"tier":1,"message":"Cheap","currency":"$","rating":5.9},{"name":"Bouzouki","phone":"3139645744","address":"432 E Lafayette Blvd","lat":42.33363939323706,"lng":-83.04291578681867,"neighborhood":"Greektown","city_fetched":"Warren,US","state":"MI","country":"United States","canonicalUrl":"https://foursquare.com/v/bouzouki/41326e00f964a520a30d1fe3","categoryId":"4bf58dd8d48988d1d6941735","category":"Strip Club","checkinsCount":1559,"usersCount":959,"tipCount":7,"visitsCount":1578,"tier":"","message":"","currency":"","rating":5.9},{"name":"Tango's Level One Lounge","phone":"2487286558","address":"1500 Town Ctr","lat":42.47609332937033,"lng":-83.24478510529954,"city_fetched":"Warren,US","state":"MI","country":"United States","canonicalUrl":"https://foursquare.com/v/tangos-level-one-lounge/4bc7769b8b7c9c74968136cf","categoryId":"4bf58dd8d48988d1d5941735","category":"Hotel Bar","checkinsCount":929,"usersCount":283,"tipCount":3,"visitsCount":939,"tier":"","message":"","currency":"","rating":5.9},{"name":"Dooleys","phone":"5869541800","twitter":"dooleysmtclem","address":"235 N Groesbeck Hwy","lat":42.610016222559544,"lng":-82.89418719105963,"city_fetched":"Warren,US","state":"MI","country":"United States","canonicalUrl":"https://foursquare.com/v/dooleys/4c38c8000a71c9b64d4f41c9","categoryId":"4bf58dd8d48988d116941735","category":"Bar","checkinsCount":1754,"usersCount":794,"tipCount":25,"visitsCount":2088,"url":"http://www.dooleysirish.com","tier":2,"message":"Moderate","currency":"$","rating":5.9},{"name":"Ricky Miles Music Cafe","phone":"5867546397","address":"24200 Dequindre Rd","lat":42.470508277484434,"lng":-83.08354393259452,"city_fetched":"Warren,US","state":"MI","country":"United States","canonicalUrl":"https://foursquare.com/v/ricky-miles-music-cafe/4c1c46cab9f876b00cc67b46","categoryId":"4bf58dd8d48988d116941735","category":"Bar","checkinsCount":411,"usersCount":187,"tipCount":2,"visitsCount":411,"tier":"","message":"","currency":"","rating":5.8},{"name":"Lock & Key","phone":"2485436429","twitter":"lockkeyro","address":"1214 S Main St","lat":42.479446375179556,"lng":-83.14444422298675,"city_fetched":"Warren,US","state":"MI","country":"United States","canonicalUrl":"https://foursquare.com/v/lock--key/51eb3e3d498e591646616cf8","categoryId":"4bf58dd8d48988d1d4941735","category":"Speakeasy","checkinsCount":78,"usersCount":59,"tipCount":5,"visitsCount":78,"tier":"","message":"","currency":"","rating":5.8},{"name":"Rosie O'Gradys","address":"36759 Mound Rd","lat":42.56347574934468,"lng":-83.04937078658442,"city_fetched":"Warren,US","state":"MI","country":"United States","canonicalUrl":"https://foursquare.com/v/rosie-ogradys/4b8703b7f964a5207cab31e3","categoryId":"4bf58dd8d48988d11b941735","category":"Pub","checkinsCount":1826,"usersCount":1041,"tipCount":15,"visitsCount":1958,"url":"http://www.rosieogradysirishpub.com","tier":"","message":"","currency":"","rating":5.8},{"name":"Hatchy's","phone":"5869910407","address":"7759 Auburn Rd","lat":42.626172967491605,"lng":-83.03396898114927,"city_fetched":"Warren,US","state":"MI","country":"United States","canonicalUrl":"https://foursquare.com/v/hatchys/4b3ed759f964a5208aa225e3","categoryId":"4bf58dd8d48988d11d941735","category":"Sports Bar","checkinsCount":3206,"usersCount":913,"tipCount":22,"visitsCount":3317,"url":"http://www.hatchys.com","tier":2,"message":"Moderate","currency":"$","rating":5.8},{"name":"Bugsy's","phone":"5867512554","address":"1980 E 12 Mile Rd","lat":42.50494818,"lng":-83.084883,"neighborhood":"Northwest Warren","city_fetched":"Warren,US","state":"MI","country":"United States","canonicalUrl":"https://foursquare.com/v/bugsys/4b776592f964a520ab972ee3","categoryId":"4bf58dd8d48988d116941735","category":"Bar","checkinsCount":1201,"usersCount":325,"tipCount":6,"visitsCount":1243,"tier":"","message":"","currency":"","rating":5.8},{"name":"Beach Grill","phone":"5867714455","address":"24420 Jefferson Ave","lat":42.471061574373316,"lng":-82.88328588085159,"neighborhood":"The Nautical Mile","city_fetched":"Warren,US","state":"MI","country":"United States","canonicalUrl":"https://foursquare.com/v/beach-grill/4bf88df25ec320a1f70989d3","categoryId":"4bf58dd8d48988d11f941735","category":"Nightclub","checkinsCount":1494,"usersCount":821,"tipCount":15,"visitsCount":1494,"url":"http://www.beachgrill.net","tier":"","message":"","currency":"","rating":5.8},{"name":"Hookah Joe","phone":"2484146113","address":"734 S Washington Ave","lat":42.48369725463067,"lng":-83.1466555595398,"neighborhood":"Downtown Royal Oak","city_fetched":"Warren,US","state":"MI","country":"United States","canonicalUrl":"https://foursquare.com/v/hookah-joe/4b920bf9f964a520dee433e3","categoryId":"4bf58dd8d48988d119941735","category":"Hookah Bar","checkinsCount":4207,"usersCount":816,"tipCount":19,"visitsCount":4233,"tier":"","message":"","currency":"","rating":5.8},{"name":"Steve's Place Bar And Restaurant","address":"410 E Congress St","lat":42.33226259975813,"lng":-83.04138977640844,"neighborhood":"Bricktown","city_fetched":"Warren,US","state":"MI","country":"United States","canonicalUrl":"https://foursquare.com/v/steves-place-bar-and-restaurant/4c33a9e83896e21ead67ea90","categoryId":"4bf58dd8d48988d118941735","category":"Dive Bar","checkinsCount":289,"usersCount":212,"tipCount":9,"visitsCount":289,"tier":"","message":"","currency":"","rating":5.7},{"name":"Muldoon's","phone":"5867396946","twitter":"muldoonstavern","address":"7636 Auburn Rd","lat":42.62581825025301,"lng":-83.0353640495841,"city_fetched":"Warren,US","state":"MI","country":"United States","canonicalUrl":"https://foursquare.com/v/muldoons/4b9c77c0f964a520c66a36e3","categoryId":"4bf58dd8d48988d116941735","category":"Bar","checkinsCount":3399,"usersCount":988,"tipCount":21,"visitsCount":3642,"url":"http://muldoonstavern.com","tier":2,"message":"Moderate","currency":"$","rating":5.7},{"name":"Big City Bar & Grill","phone":"2489638808","address":"1020 Washington Blvd","lat":42.33096428856115,"lng":-83.05079340934753,"neighborhood":"Downtown Detroit","city_fetched":"Warren,US","state":"MI","country":"United States","canonicalUrl":"https://foursquare.com/v/big-city-bar--grill/4b60e9c5f964a5201a012ae3","categoryId":"4bf58dd8d48988d11d941735","category":"Sports Bar","checkinsCount":1735,"usersCount":1015,"tipCount":14,"visitsCount":1748,"tier":"","message":"","currency":"","rating":5.7},{"name":"Woody's Diner","phone":"2485436911","address":"208 W 5th Ave","lat":42.486571034180585,"lng":-83.14577873626452,"neighborhood":"Downtown Royal Oak","city_fetched":"Warren,US","state":"MI","country":"United States","canonicalUrl":"https://foursquare.com/v/woodys-diner/4b231acbf964a520555324e3","categoryId":"4bf58dd8d48988d116941735","category":"Bar","checkinsCount":6464,"usersCount":3034,"tipCount":29,"visitsCount":6490,"url":"http://www.woodysdiner.com","tier":2,"message":"Moderate","currency":"$","rating":5.7},{"name":"Cramdon's Tap & Eatery","phone":"5199661228","twitter":"cramdons","address":"2950 Dougall Ave","lat":42.274213,"lng":-83.014622,"neighborhood":"South Windsor","city_fetched":"Warren,US","state":"ON","country":"Canada","canonicalUrl":"https://foursquare.com/v/cramdons-tap--eatery/4b70e896f964a520e1332de3","categoryId":"4bf58dd8d48988d11b941735","category":"Pub","checkinsCount":792,"usersCount":236,"tipCount":20,"visitsCount":851,"url":"http://cramdons.com","tier":"","message":"","currency":"","rating":5.6},{"name":"Legends Sports Bar at Caesars Windsor","phone":"8009918888","twitter":"caesarswindsor","address":"377 Riverside Dr E","lat":42.32009368906889,"lng":-83.03447246790121,"neighborhood":"City Centre","city_fetched":"Warren,US","state":"ON","country":"Canada","canonicalUrl":"https://foursquare.com/v/legends-sports-bar-at-caesars-windsor/4ce34bca748d6ea8e34cca50","categoryId":"4bf58dd8d48988d11d941735","category":"Sports Bar","checkinsCount":473,"usersCount":304,"tipCount":9,"visitsCount":475,"url":"http://caesarswindsor.com","tier":2,"message":"Moderate","currency":"$","rating":5.6},{"name":"Excalibur Park","phone":"3133319385","address":"15007 Charlevoix St","lat":42.38518713666509,"lng":-82.94463375678268,"neighborhood":"Grosse Pointe","city_fetched":"Warren,US","state":"MI","country":"United States","canonicalUrl":"https://foursquare.com/v/excalibur-park/4bdd08c9d33f2d7f73298a3c","categoryId":"4bf58dd8d48988d116941735","category":"Bar","checkinsCount":1826,"usersCount":407,"tipCount":3,"visitsCount":1953,"tier":"","message":"","currency":"","rating":5.6},{"name":"The Motor Bar","phone":"3134421600","address":"1114 Washington Blvd","lat":42.331594410160314,"lng":-83.05039849415974,"neighborhood":"Downtown Detroit","city_fetched":"Warren,US","state":"MI","country":"United States","canonicalUrl":"https://foursquare.com/v/the-motor-bar/4b4d124ef964a520efc926e3","categoryId":"4bf58dd8d48988d1d5941735","category":"Hotel Bar","checkinsCount":1239,"usersCount":629,"tipCount":15,"visitsCount":1242,"url":"http://www.bookcadillacwestin.com","tier":2,"message":"Moderate","currency":"$","rating":5.5},{"name":"The Ritz Detroit","phone":"5867566140","twitter":"theritzdetroit","address":"24300 Hoover Rd","lat":42.473438342260664,"lng":-83.005531473358,"neighborhood":"Southeast Warren","city_fetched":"Warren,US","state":"MI","country":"United States","canonicalUrl":"https://foursquare.com/v/the-ritz-detroit/4be4db07910020a1ac64d214","categoryId":"4bf58dd8d48988d116941735","category":"Bar","checkinsCount":1502,"usersCount":657,"tipCount":6,"visitsCount":1703,"url":"http://myspace.com/theritzdetroit","tier":"","message":"","currency":"","rating":5.5},{"name":"Crash Landing","phone":"5867514444","address":"26620 Dequindre Rd","lat":42.48791920550753,"lng":-83.08475976844466,"city_fetched":"Warren,US","state":"MI","country":"United States","canonicalUrl":"https://foursquare.com/v/crash-landing/4b51120cf964a520c14027e3","categoryId":"4bf58dd8d48988d116941735","category":"Bar","checkinsCount":1055,"usersCount":387,"tipCount":7,"visitsCount":1180,"tier":"","message":"","currency":"","rating":5.4},{"name":"Locker Room Saloon","phone":"5867313362","address":"7790 Auburn Rd","lat":42.6258704,"lng":-83.03348779678345,"city_fetched":"Warren,US","state":"MI","country":"United States","canonicalUrl":"https://foursquare.com/v/locker-room-saloon/41326e00f964a520490f1fe3","categoryId":"4bf58dd8d48988d116941735","category":"Bar","checkinsCount":1049,"usersCount":703,"tipCount":10,"visitsCount":1096,"url":"http://thelockerroomsaloon.com","tier":"","message":"","currency":"","rating":5.3},{"name":"Lefty's Lounge","phone":"3138315338","address":"5440 Cass Ave","lat":42.35974005333959,"lng":-83.06869005043608,"neighborhood":"Wayne State","city_fetched":"Warren,US","state":"MI","country":"United States","canonicalUrl":"https://foursquare.com/v/leftys-lounge/4aa0543df964a520243f20e3","categoryId":"4bf58dd8d48988d11d941735","category":"Sports Bar","checkinsCount":1775,"usersCount":702,"tipCount":20,"visitsCount":1842,"url":"http://www.leftysloungedetroit.com","tier":1,"message":"Cheap","currency":"$","rating":5.3},{"name":"Salty Dog","phone":"2483992988","address":"26033 John R Rd","lat":42.48398844,"lng":-83.10533158,"city_fetched":"Warren,US","state":"MI","country":"United States","canonicalUrl":"https://foursquare.com/v/salty-dog/41326e00f964a52034101fe3","categoryId":"4bf58dd8d48988d118941735","category":"Dive Bar","checkinsCount":656,"usersCount":315,"tipCount":13,"visitsCount":727,"tier":"","message":"","currency":"","rating":5.2},{"name":"shotZ","address":"555 Monroe","lat":42.335865750579124,"lng":-83.04093360900879,"neighborhood":"Downtown Detroit","city_fetched":"Warren,US","state":"MI","country":"United States","canonicalUrl":"https://foursquare.com/v/shotz/4b7df2d2f964a520a2db2fe3","categoryId":"4bf58dd8d48988d1d5941735","category":"Hotel Bar","checkinsCount":1380,"usersCount":936,"tipCount":9,"visitsCount":1385,"tier":"","message":"","currency":"","rating":5.2},{"name":"The Corner","phone":"2485946272","twitter":"thecornerbgham","address":"100 Townsend St","lat":42.54508132231681,"lng":-83.21511595836078,"neighborhood":"Downtown Birmingham","city_fetched":"Warren,US","state":"MI","country":"United States","canonicalUrl":"https://foursquare.com/v/the-corner/4514de32f964a520e0391fe3","categoryId":"4bf58dd8d48988d11e941735","category":"Cocktail Bar","checkinsCount":973,"usersCount":599,"tipCount":3,"visitsCount":991,"url":"https://townsendhotel.com","tier":"","message":"","currency":"","rating":5},{"name":"Colleen's Irish Pub","phone":"5864150571","address":"32307 Harper Ave","lat":42.53277871666667,"lng":-82.8882659,"neighborhood":"Saint Clair Shores","city_fetched":"Warren,US","state":"MI","country":"United States","canonicalUrl":"https://foursquare.com/v/colleens-irish-pub/41326e00f964a5200e0e1fe3","categoryId":"4bf58dd8d48988d118941735","category":"Dive Bar","checkinsCount":461,"usersCount":215,"tipCount":4,"visitsCount":513,"tier":"","message":"","currency":"","rating":4.9}]