[{"name":"Fitter's Pub","phone":"6604293500","address":"131 W Pine St","lat":38.76363515792421,"lng":-93.7419692090732,"city_fetched":"Warrensburg","state":"MO","country":"United States","canonicalUrl":"https://foursquare.com/v/fitters-pub/4b6def4ef964a5201e9d2ce3","category":"Bar","checkinsCount":2551,"usersCount":783,"tipCount":23,"visitsCount":2971,"url":"http://fitterspub.com","tier":1,"message":"Cheap","currency":"$","rating":7.8},{"name":"Old Barney's","phone":"6607471662","address":"112 West Market","lat":38.764533299242565,"lng":-93.74099726110246,"city_fetched":"Warrensburg","state":"MO","country":"United States","canonicalUrl":"https://foursquare.com/v/old-barneys/4c51b8470ef3a5930a727a7c","category":"Garden","checkinsCount":420,"usersCount":135,"tipCount":6,"visitsCount":503,"tier":"","message":"","currency":"","rating":7.8},{"name":"Tipsy Tower","address":"121 W Pine St","lat":38.76344443902183,"lng":-93.74128983531975,"city_fetched":"Warrensburg","state":"MO","country":"United States","canonicalUrl":"https://foursquare.com/v/tipsy-tower/4da4eb816a233e2e007e191a","category":"Bar","checkinsCount":578,"usersCount":78,"tipCount":12,"visitsCount":578,"tier":"","message":"","currency":"","rating":6.6},{"name":"The Garage on Pine","twitter":"thegarageonpine","address":"112 W Pine St","lat":38.763545303750256,"lng":-93.74126999972631,"city_fetched":"Warrensburg","state":"MO","country":"United States","canonicalUrl":"https://foursquare.com/v/the-garage-on-pine/4d26a9c3b818a35d399f848a","category":"Bar","checkinsCount":729,"usersCount":232,"tipCount":4,"visitsCount":762,"tier":1,"message":"Cheap","currency":"$","rating":6.3}]