[{"name":"The Columbia Room","phone":"2023169396","twitter":"betterdrinking","address":"124 Blagden Alley NW","lat":38.90644258484708,"lng":-77.02444645016406,"neighborhood":"Logan Circle - Shaw","city_fetched":"Washington,US","state":"D.C.","country":"United States","canonicalUrl":"https://foursquare.com/v/the-columbia-room/56b6958b498e33f2f358023b","categoryId":"4bf58dd8d48988d11e941735","category":"Cocktail Bar","checkinsCount":424,"usersCount":301,"tipCount":5,"visitsCount":432,"url":"http://columbiaroomdc.com","tier":"","message":"","currency":"","rating":9.4},{"name":"Copycat Co.","phone":"2022411952","address":"1110 H St NE","lat":38.90024380014803,"lng":-76.99105159651182,"neighborhood":"Capitol Hill","city_fetched":"Washington,US","state":"D.C.","country":"United States","canonicalUrl":"https://foursquare.com/v/copycat-co/546e449c498e774b5c9b1467","categoryId":"4bf58dd8d48988d11e941735","category":"Cocktail Bar","checkinsCount":1203,"usersCount":938,"tipCount":13,"visitsCount":1468,"url":"http://www.copycatcompany.com/#home","tier":"","message":"","currency":"","rating":9.3},{"name":"DC Brau Brewing Co","phone":"2026218890","address":"3178 Bladensburg Rd NE","lat":38.92945233933146,"lng":-76.96064472198486,"neighborhood":"Northeast Washington","city_fetched":"Washington,US","state":"D.C.","country":"United States","canonicalUrl":"https://foursquare.com/v/dc-brau-brewing-co/4cfacd3edccef04d2e8fb79c","categoryId":"50327c8591d4c4b30a586d5d","category":"Brewery","checkinsCount":3487,"usersCount":2517,"tipCount":23,"visitsCount":4344,"url":"http://www.dcbrau.com","tier":2,"message":"Moderate","currency":"$","rating":9.3},{"name":"Minibar by José Andrés","phone":"2023934451","twitter":"barminibyjose","address":"501 9th St NW","lat":38.896059768477876,"lng":-77.02345132827757,"neighborhood":"Penn Quarter","city_fetched":"Washington,US","state":"D.C.","country":"United States","canonicalUrl":"https://foursquare.com/v/minibar-by-jos%C3%A9-andr%C3%A9s/5110535dfe7050d46b5175cb","categoryId":"4bf58dd8d48988d11e941735","category":"Cocktail Bar","checkinsCount":1212,"usersCount":982,"tipCount":34,"visitsCount":1252,"url":"http://minibarbyjoseandres.com","tier":3,"message":"Expensive","currency":"$","rating":9.2},{"name":"Dacha Beer Garden","phone":"2025248790","twitter":"dachabeergarden","address":"1600 7th St NW","lat":38.91121985576448,"lng":-77.02212899923325,"neighborhood":"Logan Circle - Shaw","city_fetched":"Washington,US","state":"D.C.","country":"United States","canonicalUrl":"https://foursquare.com/v/dacha-beer-garden/5227b7b911d2711d34236465","categoryId":"4bf58dd8d48988d117941735","category":"Beer Garden","checkinsCount":7975,"usersCount":4615,"tipCount":46,"visitsCount":11031,"url":"http://dachadc.com","tier":2,"message":"Moderate","currency":"$","rating":9.2},{"name":"Atlas Brew Works","phone":"2028320420","twitter":"atlasbrewworks","address":"2052 W Virginia Ave NE #102","lat":38.914745050139985,"lng":-76.98116297870267,"neighborhood":"Ivy City","city_fetched":"Washington,US","state":"D.C.","country":"United States","canonicalUrl":"https://foursquare.com/v/atlas-brew-works/50c74401e0e2c0da8a4cb7dc","categoryId":"50327c8591d4c4b30a586d5d","category":"Brewery","checkinsCount":1294,"usersCount":1200,"tipCount":8,"visitsCount":1688,"url":"http://www.atlasbrewworks.com","tier":1,"message":"Cheap","currency":"$","rating":9.2},{"name":"Barcelona Wine Bar - 14th Street","phone":"2025885500","twitter":"barcelonawineba","address":"1622 14th St NW","lat":38.91203542762114,"lng":-77.03220614634517,"neighborhood":"Logan Circle - Shaw","city_fetched":"Washington,US","state":"D.C.","country":"United States","canonicalUrl":"https://foursquare.com/v/barcelona-wine-bar--14th-street/51af10c8498ea4cb1db1c7e4","categoryId":"4bf58dd8d48988d123941735","category":"Wine Bar","checkinsCount":7265,"usersCount":5468,"tipCount":104,"visitsCount":9032,"url":"http://www.barcelonawinebar.com/washingtondc.htm","tier":3,"message":"Expensive","currency":"$","rating":9.2},{"name":"Cantina Marina","phone":"2025548396","twitter":"cantina_marina","address":"600 Water St SW","lat":38.87568515823181,"lng":-77.02194974650483,"neighborhood":"Southwest Washington","city_fetched":"Washington,US","state":"D.C.","country":"United States","canonicalUrl":"https://foursquare.com/cantina_marina","categoryId":"4bf58dd8d48988d116941735","category":"Bar","checkinsCount":13301,"usersCount":7433,"tipCount":74,"visitsCount":14850,"url":"http://www.cantinamarina.com","tier":2,"message":"Moderate","currency":"$","rating":9},{"name":"3 Stars Brewing Company","phone":"2026700333","twitter":"3starsbrewing","address":"6400 Chillum Pl NW","lat":38.96758422304355,"lng":-77.01254728365546,"neighborhood":"Fort Totten - Riggs Park","city_fetched":"Washington,US","state":"D.C.","country":"United States","canonicalUrl":"https://foursquare.com/v/3-stars-brewing-company/4e3471636284ea7e10f5bf4d","categoryId":"50327c8591d4c4b30a586d5d","category":"Brewery","checkinsCount":2065,"usersCount":1405,"tipCount":21,"visitsCount":2648,"url":"http://www.threestarsbrewing.com","tier":1,"message":"Cheap","currency":"$","rating":9},{"name":"Garden District","twitter":"gardendstrct","address":"1801 14th St NW","lat":38.91418475959423,"lng":-77.03171133999204,"neighborhood":"U-Street","city_fetched":"Washington,US","state":"D.C.","country":"United States","canonicalUrl":"https://foursquare.com/v/garden-district/4d76e7f9aaf68cfa819e8fba","categoryId":"4bf58dd8d48988d117941735","category":"Beer Garden","checkinsCount":10794,"usersCount":5619,"tipCount":77,"visitsCount":11518,"url":"http://www.gardendistrictdc.com","tier":2,"message":"Moderate","currency":"$","rating":9},{"name":"Cork","phone":"2022652675","twitter":"corkdc","address":"1720 14th St NW","lat":38.913319776999245,"lng":-77.0320430853842,"neighborhood":"Logan Circle - Shaw","city_fetched":"Washington,US","state":"D.C.","country":"United States","canonicalUrl":"https://foursquare.com/v/cork/4a874e6ef964a520bd0320e3","categoryId":"4bf58dd8d48988d123941735","category":"Wine Bar","checkinsCount":4097,"usersCount":2716,"tipCount":62,"visitsCount":4128,"url":"http://www.corkdc.com","tier":2,"message":"Moderate","currency":"$","rating":9},{"name":"The Queen Vic","phone":"2023962001","twitter":"queenvicdc","address":"1206 H St NE","lat":38.90032643333333,"lng":-76.98990026666667,"neighborhood":"Capitol Hill","city_fetched":"Washington,US","state":"D.C.","country":"United States","canonicalUrl":"https://foursquare.com/v/the-queen-vic/4d7a4e6e25c5cbff23025333","categoryId":"4bf58dd8d48988d11b941735","category":"Pub","checkinsCount":10109,"usersCount":3259,"tipCount":66,"visitsCount":10514,"url":"http://www.thequeenvicdc.com","tier":2,"message":"Moderate","currency":"$","rating":9},{"name":"Room 11","phone":"2023323234","twitter":"room11dc","address":"3234 11th St NW","lat":38.930609,"lng":-77.02809,"neighborhood":"Columbia Heights","city_fetched":"Washington,US","state":"D.C.","country":"United States","canonicalUrl":"https://foursquare.com/v/room-11/4a8733b7f964a520370320e3","categoryId":"4bf58dd8d48988d123941735","category":"Wine Bar","checkinsCount":5804,"usersCount":3134,"tipCount":81,"visitsCount":6493,"url":"http://www.room11dc.com","tier":2,"message":"Moderate","currency":"$","rating":9},{"name":"McClellan's Retreat","phone":"2022656270","address":"2031 Florida Ave NW","lat":38.91409407669351,"lng":-77.04633538685532,"neighborhood":"Dupont Circle","city_fetched":"Washington,US","state":"D.C.","country":"United States","canonicalUrl":"https://foursquare.com/v/mcclellans-retreat/54636ef5498e36ee54d43688","categoryId":"4bf58dd8d48988d11e941735","category":"Cocktail Bar","checkinsCount":794,"usersCount":664,"tipCount":14,"visitsCount":1033,"url":"http://mcclellansretreat.com","tier":"","message":"","currency":"","rating":8.9},{"name":"Bluejacket Brewery","phone":"2025244862","twitter":"bluejacketdc","address":"300 Tingey St SE","lat":38.875164095943866,"lng":-77.00079317996045,"neighborhood":"Navy Yard","city_fetched":"Washington,US","state":"D.C.","country":"United States","canonicalUrl":"https://foursquare.com/v/bluejacket-brewery/5207aa8111d28afd3b21cf3f","categoryId":"50327c8591d4c4b30a586d5d","category":"Brewery","checkinsCount":10172,"usersCount":6710,"tipCount":130,"visitsCount":12023,"url":"http://www.bluejacketdc.com","tier":3,"message":"Expensive","currency":"$","rating":8.9},{"name":"Jack Rose Dining Saloon","phone":"2025887388","twitter":"jackroseindc","address":"2007 18th St NW","lat":38.91736411336645,"lng":-77.04141029995537,"neighborhood":"Adams Morgan","city_fetched":"Washington,US","state":"D.C.","country":"United States","canonicalUrl":"https://foursquare.com/v/jack-rose-dining-saloon/4dd596b2d4c05d5096bcb643","categoryId":"4bf58dd8d48988d122941735","category":"Whisky Bar","checkinsCount":16590,"usersCount":9700,"tipCount":135,"visitsCount":18171,"url":"http://www.jackrosediningsaloon.com","tier":3,"message":"Expensive","currency":"$","rating":8.9},{"name":"Boundary Stone Public House","phone":"2026216635","twitter":"boundarystonedc","address":"116 Rhode Island Ave NW","lat":38.915469278018875,"lng":-77.01281159729828,"neighborhood":"LeDroit Park - Bloomingdale","city_fetched":"Washington,US","state":"D.C.","country":"United States","canonicalUrl":"https://foursquare.com/v/boundary-stone-public-house/4e76b8cbfa7605970194e367","categoryId":"4bf58dd8d48988d11b941735","category":"Pub","checkinsCount":12664,"usersCount":3946,"tipCount":103,"visitsCount":13660,"url":"http://boundarystonedc.com","tier":2,"message":"Moderate","currency":"$","rating":8.9},{"name":"Proof","phone":"2027377663","twitter":"proofdc","address":"775 G St NW","lat":38.89848463109136,"lng":-77.02272013127755,"neighborhood":"Chinatown","city_fetched":"Washington,US","state":"D.C.","country":"United States","canonicalUrl":"https://foursquare.com/v/proof/4a23b274f964a520da7d1fe3","categoryId":"4bf58dd8d48988d123941735","category":"Wine Bar","checkinsCount":6573,"usersCount":4583,"tipCount":104,"visitsCount":6778,"url":"http://www.proofdc.com","tier":3,"message":"Expensive","currency":"$","rating":8.9},{"name":"Co Co. Sala","phone":"2023474265","twitter":"cocosala","address":"929 F St NW","lat":38.897512672139555,"lng":-77.02540397644043,"neighborhood":"Downtown-Penn Quarter-Chinatown","city_fetched":"Washington,US","state":"D.C.","country":"United States","canonicalUrl":"https://foursquare.com/cocosala","categoryId":"4bf58dd8d48988d121941735","category":"Lounge","checkinsCount":7708,"usersCount":5757,"tipCount":110,"visitsCount":8127,"url":"http://www.cocosala.com","tier":3,"message":"Expensive","currency":"$","rating":8.9},{"name":"American Ice Company","phone":"2027583562","address":"917 V St NW","lat":38.918352,"lng":-77.025283,"neighborhood":"U-Street","city_fetched":"Washington,US","state":"D.C.","country":"United States","canonicalUrl":"https://foursquare.com/v/american-ice-company/4d07f99dc26ba14392871617","categoryId":"4bf58dd8d48988d116941735","category":"Bar","checkinsCount":17064,"usersCount":8662,"tipCount":104,"visitsCount":19020,"url":"http://amicodc.com","tier":1,"message":"Cheap","currency":"$","rating":8.9},{"name":"The Hamilton","phone":"2027871000","twitter":"thehamiltondc","address":"600 14th St NW","lat":38.89744864105493,"lng":-77.03211618170423,"neighborhood":"Downtown-Penn Quarter-Chinatown","city_fetched":"Washington,US","state":"D.C.","country":"United States","canonicalUrl":"https://foursquare.com/v/the-hamilton/4e6fe6a01838d30a8277ee9b","categoryId":"4d4b7105d754a06376d81259","category":"Nightlife Spot","checkinsCount":28809,"usersCount":16906,"tipCount":235,"visitsCount":32438,"url":"http://thehamiltondc.com","tier":3,"message":"Expensive","currency":"$","rating":8.8},{"name":"Nellie's Sports Bar","phone":"2023326355","twitter":"nelliesdc","address":"900 U St NW","lat":38.91686518512489,"lng":-77.02412724494934,"neighborhood":"U-Street","city_fetched":"Washington,US","state":"D.C.","country":"United States","canonicalUrl":"https://foursquare.com/v/nellies-sports-bar/4a06f546f964a5200e731fe3","categoryId":"4bf58dd8d48988d1d8941735","category":"Gay Bar","checkinsCount":61866,"usersCount":13762,"tipCount":178,"visitsCount":65753,"url":"http://www.nelliessportsbar.com","tier":2,"message":"Moderate","currency":"$","rating":8.8},{"name":"All Souls Bar","phone":"2027335929","twitter":"allsoulsbar","address":"725 T St NW","lat":38.91571044921875,"lng":-77.02268981933594,"neighborhood":"U-Street","city_fetched":"Washington,US","state":"D.C.","country":"United States","canonicalUrl":"https://foursquare.com/v/all-souls-bar/52a3cd7c11d28c7fd2efbf3d","categoryId":"4bf58dd8d48988d116941735","category":"Bar","checkinsCount":2826,"usersCount":1652,"tipCount":13,"visitsCount":3666,"url":"http://www.allsoulsbar.com","tier":2,"message":"Moderate","currency":"$","rating":8.8},{"name":"Right Proper Brewing Company","phone":"2026072337","twitter":"rightproperbeer","address":"624 T St NW","lat":38.915402242693126,"lng":-77.021364569664,"neighborhood":"U-Street","city_fetched":"Washington,US","state":"D.C.","country":"United States","canonicalUrl":"https://foursquare.com/v/right-proper-brewing-company/51b0c426498e4f0309f9898f","categoryId":"50327c8591d4c4b30a586d5d","category":"Brewery","checkinsCount":7181,"usersCount":4630,"tipCount":69,"visitsCount":8574,"url":"http://rightproperbrewery.com","tier":2,"message":"Moderate","currency":"$","rating":8.8},{"name":"Macintyre's","phone":"2025063427","address":"2621 Connecticut Ave NW","lat":38.923978,"lng":-77.051776,"neighborhood":"Woodley Park","city_fetched":"Washington,US","state":"D.C.","country":"United States","canonicalUrl":"https://foursquare.com/v/macintyres/5574d02c498ef37461988733","categoryId":"4bf58dd8d48988d116941735","category":"Bar","checkinsCount":422,"usersCount":274,"tipCount":7,"visitsCount":448,"url":"http://macintyresdc.com","tier":"","message":"","currency":"","rating":8.8},{"name":"The Tombs","phone":"2023376668","twitter":"the_tombs","address":"1226 36th St NW","lat":38.90601765089518,"lng":-77.07026080238577,"neighborhood":"Georgetown","city_fetched":"Washington,US","state":"D.C.","country":"United States","canonicalUrl":"https://foursquare.com/v/the-tombs/40b13b00f964a52019f51ee3","categoryId":"4bf58dd8d48988d116941735","category":"Bar","checkinsCount":15461,"usersCount":5685,"tipCount":90,"visitsCount":16408,"url":"http://www.tombs.com","tier":2,"message":"Moderate","currency":"$","rating":8.7},{"name":"Bar Pilar","phone":"2022651751","address":"1833 14th St NW","lat":38.91502032836387,"lng":-77.03172326087952,"neighborhood":"U-Street","city_fetched":"Washington,US","state":"D.C.","country":"United States","canonicalUrl":"https://foursquare.com/v/bar-pilar/42c9cd80f964a520e1251fe3","categoryId":"4bf58dd8d48988d116941735","category":"Bar","checkinsCount":10383,"usersCount":5418,"tipCount":90,"visitsCount":10613,"url":"http://www.barpilar.com","tier":2,"message":"Moderate","currency":"$","rating":8.7},{"name":"Civil Cigar Lounge","phone":"2023640800","twitter":"civilcigardc","address":"5335 Wisconsin Avenue NW","lat":38.96084905324112,"lng":-77.08463850025424,"neighborhood":"Friendship Heights","city_fetched":"Washington,US","state":"D.C.","country":"United States","canonicalUrl":"https://foursquare.com/civilcigardc","categoryId":"4bf58dd8d48988d116941735","category":"Bar","checkinsCount":2094,"usersCount":769,"tipCount":25,"visitsCount":2285,"url":"http://www.civillounge.com","tier":3,"message":"Expensive","currency":"$","rating":8.7},{"name":"Red Derby","phone":"2022915000","twitter":"redderby","address":"3718 14th St NW","lat":38.93772719570027,"lng":-77.03296522033928,"neighborhood":"Petworth","city_fetched":"Washington,US","state":"D.C.","country":"United States","canonicalUrl":"https://foursquare.com/v/red-derby/49ba7902f964a52069531fe3","categoryId":"4bf58dd8d48988d118941735","category":"Dive Bar","checkinsCount":12071,"usersCount":4232,"tipCount":93,"visitsCount":12866,"url":"http://redderby.com","tier":2,"message":"Moderate","currency":"$","rating":8.7},{"name":"The Pub & The People","phone":"2027965820","twitter":"pubandthepeople","address":"1648 N Capitol St NW","lat":38.91241837100567,"lng":-77.00921800717437,"neighborhood":"LeDroit Park - Bloomingdale","city_fetched":"Washington,US","state":"D.C.","country":"United States","canonicalUrl":"https://foursquare.com/v/the-pub--the-people/526ebd5e11d280106e91b2a3","categoryId":"4bf58dd8d48988d11b941735","category":"Pub","checkinsCount":1021,"usersCount":797,"tipCount":5,"visitsCount":1630,"url":"http://www.thepubandthepeople.com","tier":"","message":"","currency":"","rating":8.7},{"name":"Lost & Found","twitter":"lostnfounddc","address":"1240 9th St NW","lat":38.90659787435403,"lng":-77.02413155344001,"neighborhood":"Logan Circle - Shaw","city_fetched":"Washington,US","state":"D.C.","country":"United States","canonicalUrl":"https://foursquare.com/v/lost--found/544aedf0498ece3f8cc7d305","categoryId":"4bf58dd8d48988d116941735","category":"Bar","checkinsCount":1966,"usersCount":1479,"tipCount":13,"visitsCount":2563,"tier":"","message":"","currency":"","rating":8.7},{"name":"Town Danceboutique","phone":"2022348696","twitter":"whatsupattown","address":"2009 8th St NW","lat":38.91693862357855,"lng":-77.02281010290227,"neighborhood":"U-Street","city_fetched":"Washington,US","state":"D.C.","country":"United States","canonicalUrl":"https://foursquare.com/v/town-danceboutique/4a761ec9f964a5204be21fe3","categoryId":"4bf58dd8d48988d1d8941735","category":"Gay Bar","checkinsCount":45124,"usersCount":12875,"tipCount":102,"visitsCount":47563,"url":"http://www.towndc.com","tier":2,"message":"Moderate","currency":"$","rating":8.7},{"name":"Bardo Brewpub","phone":"7622337070","twitter":"bardobeer","address":"1200 Bladensburg Rd NE","lat":38.905773004316316,"lng":-76.98003794283939,"neighborhood":"Trinidad","city_fetched":"Washington,US","state":"D.C.","country":"United States","canonicalUrl":"https://foursquare.com/v/bardo-brewpub/51e47e35498ea9394a61fdba","categoryId":"50327c8591d4c4b30a586d5d","category":"Brewery","checkinsCount":914,"usersCount":784,"tipCount":17,"visitsCount":1297,"url":"http://www.bardo.beer","tier":"","message":"","currency":"","rating":8.7},{"name":"Left Door","address":"1345 S St NW","lat":38.914181118128944,"lng":-77.031351479555,"neighborhood":"U-Street","city_fetched":"Washington,US","state":"D.C.","country":"United States","canonicalUrl":"https://foursquare.com/v/left-door/568601ea498eede817f17912","categoryId":"4bf58dd8d48988d11e941735","category":"Cocktail Bar","checkinsCount":335,"usersCount":273,"tipCount":10,"visitsCount":378,"url":"http://www.leftdoordc.com","tier":"","message":"","currency":"","rating":8.7},{"name":"Off the Record","phone":"2029427599","twitter":"hayadamshotel","address":"800 16th St NW","lat":38.90040169109764,"lng":-77.0367980003357,"neighborhood":"Connecticut Avenue - K Street","city_fetched":"Washington,US","state":"D.C.","country":"United States","canonicalUrl":"https://foursquare.com/v/off-the-record/4adcfaecf964a520206321e3","categoryId":"4bf58dd8d48988d1d5941735","category":"Hotel Bar","checkinsCount":3062,"usersCount":2331,"tipCount":35,"visitsCount":3131,"url":"http://www.hayadams.com/washington-dc-bars","tier":3,"message":"Expensive","currency":"$","rating":8.7},{"name":"Marvin","phone":"2027977171","twitter":"marvin_dc","address":"2007 14th St NW","lat":38.91711561447239,"lng":-77.03171253204346,"neighborhood":"U-Street","city_fetched":"Washington,US","state":"D.C.","country":"United States","canonicalUrl":"https://foursquare.com/v/marvin/49c2f5fcf964a52046561fe3","categoryId":"4bf58dd8d48988d116941735","category":"Bar","checkinsCount":23429,"usersCount":11986,"tipCount":144,"visitsCount":24717,"url":"http://www.marvindc.com","tier":2,"message":"Moderate","currency":"$","rating":8.6},{"name":"The Pursuit Wine Bar","phone":"2027582139","twitter":"pursuitwinebar","address":"1421 H St NE","lat":38.90016933418655,"lng":-76.98475739861433,"neighborhood":"Capitol Hill","city_fetched":"Washington,US","state":"D.C.","country":"United States","canonicalUrl":"https://foursquare.com/v/the-pursuit-wine-bar/539cda15498e07c1347055e1","categoryId":"4bf58dd8d48988d123941735","category":"Wine Bar","checkinsCount":587,"usersCount":393,"tipCount":15,"visitsCount":680,"url":"http://www.thepursuitwinebar.com","tier":"","message":"","currency":"","rating":8.6},{"name":"Petworth Citizen & Reading Room","twitter":"petworthcitizen","address":"829 Upshur St NW","lat":38.941982,"lng":-77.024431,"neighborhood":"Petworth","city_fetched":"Washington,US","state":"D.C.","country":"United States","canonicalUrl":"https://foursquare.com/v/petworth-citizen--reading-room/523f7ba5498e0b3dde3552de","categoryId":"4bf58dd8d48988d116941735","category":"Bar","checkinsCount":1769,"usersCount":1036,"tipCount":21,"visitsCount":2353,"url":"http://petworthcitizen.com","tier":2,"message":"Moderate","currency":"$","rating":8.6},{"name":"Meridian Pint","phone":"2025881075","twitter":"meridianpint","address":"3400 11th St NW","lat":38.93196449466373,"lng":-77.02852070331573,"neighborhood":"Columbia Heights","city_fetched":"Washington,US","state":"D.C.","country":"United States","canonicalUrl":"https://foursquare.com/v/meridian-pint/4c07cfdba9c076b086763923","categoryId":"4bf58dd8d48988d116941735","category":"Bar","checkinsCount":19192,"usersCount":7868,"tipCount":106,"visitsCount":20554,"url":"http://meridianpint.com","tier":2,"message":"Moderate","currency":"$","rating":8.6},{"name":"The Blaguard","phone":"2022329005","address":"2003 18th St NW","lat":38.91722192118736,"lng":-77.04154523651826,"neighborhood":"Adams Morgan","city_fetched":"Washington,US","state":"D.C.","country":"United States","canonicalUrl":"https://foursquare.com/v/the-blaguard/49d60301f964a520a65c1fe3","categoryId":"4bf58dd8d48988d116941735","category":"Bar","checkinsCount":7035,"usersCount":2412,"tipCount":35,"visitsCount":7153,"url":"http://www.theblaguarddc.com","tier":2,"message":"Moderate","currency":"$","rating":8.6},{"name":"City Club of Washington","phone":"2023470818","address":"555 13th St NW","lat":38.896801965000414,"lng":-77.02899549181525,"neighborhood":"Downtown-Penn Quarter-Chinatown","city_fetched":"Washington,US","state":"D.C.","country":"United States","canonicalUrl":"https://foursquare.com/v/city-club-of-washington/4aac40b8f964a520235d20e3","categoryId":"4bf58dd8d48988d1d4941735","category":"Speakeasy","checkinsCount":1369,"usersCount":669,"tipCount":12,"visitsCount":1423,"url":"http://clubcorp.com/Clubs/The-City-Club-of-Washington/","tier":"","message":"","currency":"","rating":8.5},{"name":"Lyman's Tavern","phone":"2027230502","address":"3720 14th St NW","lat":38.937764646309276,"lng":-77.03297048807144,"neighborhood":"Petworth","city_fetched":"Washington,US","state":"D.C.","country":"United States","canonicalUrl":"https://foursquare.com/v/lymans-tavern/538cfe5d498eb2b43fb9c382","categoryId":"4bf58dd8d48988d118941735","category":"Dive Bar","checkinsCount":1046,"usersCount":527,"tipCount":17,"visitsCount":1106,"url":"http://lymanstavern.com","tier":1,"message":"Cheap","currency":"$","rating":8.5},{"name":"Right Proper Brewing Production House","phone":"2025265904","address":"920 Girard St NE","lat":38.92654648732666,"lng":-76.99304834726786,"neighborhood":"Brookland","city_fetched":"Washington,US","state":"D.C.","country":"United States","canonicalUrl":"https://foursquare.com/v/right-proper-brewing-production-house/5660db94498ef50714c3194b","categoryId":"50327c8591d4c4b30a586d5d","category":"Brewery","checkinsCount":294,"usersCount":318,"tipCount":5,"visitsCount":439,"tier":"","message":"","currency":"","rating":8.5},{"name":"The Dew Drop Inn DC","phone":"2093533767","twitter":"thedewdropinndc","address":"2801 8th St NE","lat":38.92601596394609,"lng":-76.9949213259142,"neighborhood":"Edgewood","city_fetched":"Washington,US","state":"D.C.","country":"United States","canonicalUrl":"https://foursquare.com/v/the-dew-drop-inn-dc/557a0801498ef3eed499ba96","categoryId":"4bf58dd8d48988d116941735","category":"Bar","checkinsCount":459,"usersCount":341,"tipCount":9,"visitsCount":625,"url":"http://www.dewdropinndc.com","tier":"","message":"","currency":"","rating":8.5},{"name":"The Sovereign","phone":"2027745875","twitter":"thesovereigndc","address":"1206 Wisconsin Ave NW","lat":38.905546593123574,"lng":-77.06341421123331,"neighborhood":"Georgetown","city_fetched":"Washington,US","state":"D.C.","country":"United States","canonicalUrl":"https://foursquare.com/v/the-sovereign/56af7fd9498e7cbb2c69bd3e","categoryId":"56aa371ce4b08b9a8d57356c","category":"Beer Bar","checkinsCount":593,"usersCount":568,"tipCount":14,"visitsCount":698,"url":"http://thesovereigndc.com","tier":"","message":"","currency":"","rating":8.5},{"name":"Penthouse Pool and Lounge","phone":"2027485860","twitter":"penthousepool","address":"1212 4th St","lat":38.87511443744112,"lng":-77.00028137255563,"neighborhood":"Navy Yard","city_fetched":"Washington,US","state":"D.C.","country":"United States","canonicalUrl":"https://foursquare.com/v/penthouse-pool-and-lounge/554431e6498e731178a75e67","categoryId":"4bf58dd8d48988d121941735","category":"Lounge","checkinsCount":263,"usersCount":114,"tipCount":0,"visitsCount":277,"url":"http://www.penthousepoolclub.com","tier":"","message":"","currency":"","rating":8.5},{"name":"The Gibson","phone":"2022322156","address":"2009 14th St NW","lat":38.91734564862482,"lng":-77.03193062942098,"neighborhood":"U-Street","city_fetched":"Washington,US","state":"D.C.","country":"United States","canonicalUrl":"https://foursquare.com/v/the-gibson/49f4eb1bf964a520766b1fe3","categoryId":"4bf58dd8d48988d1d4941735","category":"Speakeasy","checkinsCount":8677,"usersCount":5339,"tipCount":131,"visitsCount":8728,"url":"http://thegibsondc.com","tier":3,"message":"Expensive","currency":"$","rating":8.5},{"name":"The Bullpen at Half Street Fairgrounds","phone":"2022975033","twitter":"thebullpendc","address":"1299 Half St. SE","lat":38.87589820003192,"lng":-77.00773330036685,"neighborhood":"Navy Yard","city_fetched":"Washington,US","state":"D.C.","country":"United States","canonicalUrl":"https://foursquare.com/v/the-bullpen-at-half-street-fairgrounds/4a413858f964a520f7a41fe3","categoryId":"4bf58dd8d48988d117941735","category":"Beer Garden","checkinsCount":16672,"usersCount":8909,"tipCount":50,"visitsCount":17563,"url":"http://thebullpendc.com","tier":2,"message":"Moderate","currency":"$","rating":8.5},{"name":"DC Reynolds","phone":"2025067178","address":"3628 Georgia Ave NW","lat":38.934829,"lng":-77.024451,"neighborhood":"Columbia Heights","city_fetched":"Washington,US","state":"D.C.","country":"United States","canonicalUrl":"https://foursquare.com/v/dc-reynolds/51b39469498e77488f55e430","categoryId":"4bf58dd8d48988d116941735","category":"Bar","checkinsCount":3652,"usersCount":1632,"tipCount":34,"visitsCount":4275,"url":"http://dcreynoldsbar.com","tier":2,"message":"Moderate","currency":"$","rating":8.5},{"name":"The Passenger","address":"1539 7th St NW","lat":38.910084,"lng":-77.021737,"neighborhood":"Logan Circle - Shaw","city_fetched":"Washington,US","state":"D.C.","country":"United States","canonicalUrl":"https://foursquare.com/v/the-passenger/57951d5b498e68dfd64dbb80","categoryId":"4bf58dd8d48988d116941735","category":"Bar","checkinsCount":119,"usersCount":89,"tipCount":1,"visitsCount":119,"url":"http://passengerdc.com","tier":"","message":"","currency":"","rating":8.4},{"name":"Vinoteca Wine Bar & Bistro","phone":"2023329463","twitter":"vinotecadc","address":"1940 11th St NW","lat":38.916760472644974,"lng":-77.02724112270266,"neighborhood":"U-Street","city_fetched":"Washington,US","state":"D.C.","country":"United States","canonicalUrl":"https://foursquare.com/v/vinoteca-wine-bar--bistro/4b76267ef964a52036402ee3","categoryId":"4bf58dd8d48988d123941735","category":"Wine Bar","checkinsCount":10918,"usersCount":5256,"tipCount":105,"visitsCount":11015,"url":"http://www.vinotecadc.com","tier":3,"message":"Expensive","currency":"$","rating":8.4},{"name":"Bar Charley","phone":"2026272183","address":"1825 18th St NW","lat":38.91503285017776,"lng":-77.04149723052979,"neighborhood":"Dupont Circle","city_fetched":"Washington,US","state":"D.C.","country":"United States","canonicalUrl":"https://foursquare.com/v/bar-charley/5224d92e8bbd808c34f1e52d","categoryId":"4bf58dd8d48988d11e941735","category":"Cocktail Bar","checkinsCount":3022,"usersCount":1771,"tipCount":41,"visitsCount":3486,"url":"http://www.barcharley.com","tier":2,"message":"Moderate","currency":"$","rating":8.4},{"name":"Lounge of III","phone":"2023873333","address":"1013 U St NW","lat":38.91704011272692,"lng":-77.0264763897472,"neighborhood":"U-Street","city_fetched":"Washington,US","state":"D.C.","country":"United States","canonicalUrl":"https://foursquare.com/v/lounge-of-iii/4b48a291f964a5201e5126e3","categoryId":"4bf58dd8d48988d121941735","category":"Lounge","checkinsCount":6527,"usersCount":1460,"tipCount":50,"visitsCount":7005,"url":"http://www.loungeofthree.net","tier":1,"message":"Cheap","currency":"$","rating":8.4},{"name":"Hellbender Brewing Company","phone":"2028278768","address":"5788 2nd St NE","lat":38.96033335782954,"lng":-77.00500566665715,"neighborhood":"Fort Totten - Riggs Park","city_fetched":"Washington,US","state":"D.C.","country":"United States","canonicalUrl":"https://foursquare.com/v/hellbender-brewing-company/53a4dfc6498e35d5abb336e7","categoryId":"50327c8591d4c4b30a586d5d","category":"Brewery","checkinsCount":398,"usersCount":421,"tipCount":2,"visitsCount":660,"url":"http://hellbenderbeer.com","tier":"","message":"","currency":"","rating":8.4},{"name":"Denson Liquor Bar","address":"600 F St NW","lat":38.89707286559062,"lng":-77.01995909455161,"neighborhood":"Penn Quarter","city_fetched":"Washington,US","state":"D.C.","country":"United States","canonicalUrl":"https://foursquare.com/v/denson-liquor-bar/546d6c82498e1cad95af4a5e","categoryId":"4bf58dd8d48988d11e941735","category":"Cocktail Bar","checkinsCount":923,"usersCount":777,"tipCount":14,"visitsCount":1050,"tier":"","message":"","currency":"","rating":8.4},{"name":"Tune Inn Restaurant & Bar","phone":"2025432725","address":"331 Pennsylvania Ave SE","lat":38.88637879982066,"lng":-77.0010518949708,"neighborhood":"Capitol Hill","city_fetched":"Washington,US","state":"D.C.","country":"United States","canonicalUrl":"https://foursquare.com/v/tune-inn-restaurant--bar/40b13b00f964a52046f31ee3","categoryId":"4bf58dd8d48988d118941735","category":"Dive Bar","checkinsCount":6638,"usersCount":3155,"tipCount":69,"visitsCount":6806,"tier":2,"message":"Moderate","currency":"$","rating":8.4},{"name":"UPROAR DC","phone":"2024624464","twitter":"uproardc","address":"639 Florida Ave NW","lat":38.916120609067704,"lng":-77.02113999372484,"neighborhood":"LeDroit Park","city_fetched":"Washington,US","state":"D.C.","country":"United States","canonicalUrl":"https://foursquare.com/uproardc","categoryId":"4bf58dd8d48988d1d8941735","category":"Gay Bar","checkinsCount":584,"usersCount":331,"tipCount":2,"visitsCount":761,"url":"http://www.uproardc.com","tier":"","message":"","currency":"","rating":8.4},{"name":"Black Jack","phone":"2023191612","twitter":"blackjackdc","address":"1612 14th St NW","lat":38.91164839267731,"lng":-77.032358,"neighborhood":"Logan Circle - Shaw","city_fetched":"Washington,US","state":"D.C.","country":"United States","canonicalUrl":"https://foursquare.com/v/black-jack/4e742c068998ed82a3dc20eb","categoryId":"4bf58dd8d48988d11e941735","category":"Cocktail Bar","checkinsCount":8971,"usersCount":4535,"tipCount":53,"visitsCount":9052,"url":"http://www.blackjackdc.com","tier":2,"message":"Moderate","currency":"$","rating":8.4},{"name":"Barrel","phone":"2025433622","twitter":"dcbarrel","address":"613 Pennsylvania Ave SE","lat":38.88529643779167,"lng":-76.99777854704647,"neighborhood":"Capitol Hill","city_fetched":"Washington,US","state":"D.C.","country":"United States","canonicalUrl":"https://foursquare.com/v/barrel/52d89cc9498e31e45143fff0","categoryId":"4bf58dd8d48988d122941735","category":"Whisky Bar","checkinsCount":1775,"usersCount":1654,"tipCount":26,"visitsCount":2501,"url":"http://barreldc.com","tier":"","message":"","currency":"","rating":8.4},{"name":"Breadsoda","phone":"2023337445","twitter":"breadsodadc","address":"2233 Wisconsin Ave NW","lat":38.9197930663428,"lng":-77.0708218216896,"neighborhood":"Glover Park","city_fetched":"Washington,US","state":"D.C.","country":"United States","canonicalUrl":"https://foursquare.com/v/breadsoda/49d24352f964a520a05b1fe3","categoryId":"4bf58dd8d48988d116941735","category":"Bar","checkinsCount":5966,"usersCount":2488,"tipCount":46,"visitsCount":6310,"url":"http://www.breadsoda.com","tier":2,"message":"Moderate","currency":"$","rating":8.4},{"name":"JR's Bar & Grill","phone":"2023280090","address":"1519 17th St NW","lat":38.91032536238806,"lng":-77.03816053222326,"neighborhood":"Dupont Circle","city_fetched":"Washington,US","state":"D.C.","country":"United States","canonicalUrl":"https://foursquare.com/v/jrs-bar--grill/40b13b00f964a5208cf41ee3","categoryId":"4bf58dd8d48988d1d8941735","category":"Gay Bar","checkinsCount":49992,"usersCount":7343,"tipCount":87,"visitsCount":53083,"url":"http://www.jrswdc.com","tier":1,"message":"Cheap","currency":"$","rating":8.4},{"name":"ENO Wine Bar","phone":"2022952826","twitter":"eno_dc","address":"2810 Pennsylvania Ave, NW","lat":38.904972136280264,"lng":-77.0573879897364,"neighborhood":"Georgetown","city_fetched":"Washington,US","state":"D.C.","country":"United States","canonicalUrl":"https://foursquare.com/v/eno-wine-bar/5261d1d011d2671a7f1f4065","categoryId":"4bf58dd8d48988d123941735","category":"Wine Bar","checkinsCount":824,"usersCount":658,"tipCount":11,"visitsCount":860,"url":"http://www.enowinerooms.com/hotspots/georgetown-d.c","tier":2,"message":"Moderate","currency":"$","rating":8.4},{"name":"P.O.V. Rooftop Lounge and Terrace","phone":"2026612400","twitter":"spg","address":"515 15th St NW","lat":38.89697088451829,"lng":-77.03336443512111,"neighborhood":"Downtown-Penn Quarter-Chinatown","city_fetched":"Washington,US","state":"D.C.","country":"United States","canonicalUrl":"https://foursquare.com/v/pov-rooftop-lounge-and-terrace/4a7374e3f964a5207fdc1fe3","categoryId":"4bf58dd8d48988d121941735","category":"Lounge","checkinsCount":17273,"usersCount":12255,"tipCount":130,"visitsCount":17523,"url":"http://www.spg.com/foursquare/","tier":4,"message":"Very Expensive","currency":"$","rating":8.3},{"name":"The Rye Bar","phone":"2026172425","twitter":"capelladc","address":"1050 31st Street NW","lat":38.90393,"lng":-77.06115,"neighborhood":"Georgetown","city_fetched":"Washington,US","state":"D.C.","country":"United States","canonicalUrl":"https://foursquare.com/v/the-rye-bar/514e7048e4b08735d4b9ad8f","categoryId":"4bf58dd8d48988d116941735","category":"Bar","checkinsCount":703,"usersCount":575,"tipCount":11,"visitsCount":712,"url":"http://www.theryebardc.com","tier":"","message":"","currency":"","rating":8.3},{"name":"Madam's Organ Blues Bar","phone":"2026675370","twitter":"madamsorgan","address":"2461 18th St NW","lat":38.92198066332244,"lng":-77.04212995988271,"neighborhood":"Adams Morgan","city_fetched":"Washington,US","state":"D.C.","country":"United States","canonicalUrl":"https://foursquare.com/v/madams-organ-blues-bar/40b13b00f964a520a0f41ee3","categoryId":"4bf58dd8d48988d116941735","category":"Bar","checkinsCount":9078,"usersCount":5936,"tipCount":84,"visitsCount":9132,"url":"http://www.madamsorgan.com","tier":2,"message":"Moderate","currency":"$","rating":8.3},{"name":"Shelly's Back Room","phone":"2027373003","twitter":"shellysbackroom","address":"1331 F St NW","lat":38.89731227340173,"lng":-77.03149795532227,"neighborhood":"Downtown-Penn Quarter-Chinatown","city_fetched":"Washington,US","state":"D.C.","country":"United States","canonicalUrl":"https://foursquare.com/shellysbackroom","categoryId":"4bf58dd8d48988d122941735","category":"Whisky Bar","checkinsCount":9441,"usersCount":3138,"tipCount":42,"visitsCount":9762,"url":"http://www.shellysbackroom.com","tier":2,"message":"Moderate","currency":"$","rating":8.3},{"name":"Southern Efficiency","phone":"2023169396","twitter":"whiskeyhome","address":"1841 7th St NW","lat":38.915135111575026,"lng":-77.02172666788101,"neighborhood":"U-Street","city_fetched":"Washington,US","state":"D.C.","country":"United States","canonicalUrl":"https://foursquare.com/v/southern-efficiency/52abbac7498ebee9a42c84fd","categoryId":"4bf58dd8d48988d122941735","category":"Whisky Bar","checkinsCount":1556,"usersCount":946,"tipCount":19,"visitsCount":1587,"url":"http://www.whiskeyhome.com","tier":2,"message":"Moderate","currency":"$","rating":8.3},{"name":"2 Birds 1 Stone","address":"1800 14th St NW","lat":38.91419336667449,"lng":-77.03233547039932,"neighborhood":"U-Street","city_fetched":"Washington,US","state":"D.C.","country":"United States","canonicalUrl":"https://foursquare.com/v/2-birds-1-stone/521e8caf11d2f3f244ed29bd","categoryId":"4bf58dd8d48988d11e941735","category":"Cocktail Bar","checkinsCount":2427,"usersCount":1756,"tipCount":28,"visitsCount":2724,"url":"http://2birds1stonedc.com","tier":2,"message":"Moderate","currency":"$","rating":8.2},{"name":"W Washington DC, Rooftop","phone":"2026612400","twitter":"whotels","address":"515 15th St NW","lat":38.89706177418419,"lng":-77.03330039978027,"neighborhood":"Downtown-Penn Quarter-Chinatown","city_fetched":"Washington,US","state":"D.C.","country":"United States","canonicalUrl":"https://foursquare.com/v/w-washington-dc-rooftop/4bd5e256637ba5935137f770","categoryId":"4bf58dd8d48988d1d5941735","category":"Hotel Bar","checkinsCount":3308,"usersCount":2743,"tipCount":19,"visitsCount":3311,"tier":4,"message":"Very Expensive","currency":"$","rating":8.2},{"name":"Harold Black","phone":"2025400459","address":"212 7th St SE","lat":38.88681530821764,"lng":-76.99601247734623,"neighborhood":"Capitol Hill","city_fetched":"Washington,US","state":"D.C.","country":"United States","canonicalUrl":"https://foursquare.com/v/harold-black/50d26845e4b006c46d3cecf1","categoryId":"4bf58dd8d48988d1d4941735","category":"Speakeasy","checkinsCount":832,"usersCount":617,"tipCount":16,"visitsCount":845,"url":"http://haroldblackdc.com","tier":3,"message":"Expensive","currency":"$","rating":8.2},{"name":"Parlay","address":"1827 M St NW","lat":38.905635,"lng":-77.042815,"neighborhood":"Connecticut Avenue - K Street","city_fetched":"Washington,US","state":"D.C.","country":"United States","canonicalUrl":"https://foursquare.com/v/parlay/5427772d498e2d89dfca0af2","categoryId":"4bf58dd8d48988d11f941735","category":"Nightclub","checkinsCount":696,"usersCount":296,"tipCount":2,"visitsCount":731,"url":"http://parlaydc.com","tier":"","message":"","currency":"","rating":8.2},{"name":"LivingSocial's 918 F Street","phone":"2026958938","twitter":"918fstreet","address":"918 F St NW","lat":38.8973210850021,"lng":-77.02510435674833,"neighborhood":"Downtown-Penn Quarter-Chinatown","city_fetched":"Washington,US","state":"D.C.","country":"United States","canonicalUrl":"https://foursquare.com/v/livingsocials-918-f-street/4edd339493ad464d2bd82f28","categoryId":"4bf58dd8d48988d11a941735","category":"Other Nightlife","checkinsCount":5618,"usersCount":3246,"tipCount":11,"visitsCount":5627,"url":"http://www.918fstreet.com","tier":2,"message":"Moderate","currency":"$","rating":8.2},{"name":"Wicked Bloom","phone":"2027506375","twitter":"wickedbloom1540","address":"1540 N Capitol St NW","lat":38.91070506518572,"lng":-77.0093529796196,"neighborhood":"Truxton Circle","city_fetched":"Washington,US","state":"D.C.","country":"United States","canonicalUrl":"https://foursquare.com/v/wicked-bloom/5604add4498e3da913eb400c","categoryId":"4bf58dd8d48988d116941735","category":"Bar","checkinsCount":442,"usersCount":325,"tipCount":7,"visitsCount":519,"url":"http://wickedbloomdc-hub.com","tier":"","message":"","currency":"","rating":8.2},{"name":"DNV Rooftop Lounge","phone":"2027371200","twitter":"kimptonindc","address":"in The Donovan House","lat":38.90507731086151,"lng":-77.03143358230591,"neighborhood":"Downtown-Penn Quarter-Chinatown","city_fetched":"Washington,US","state":"D.C.","country":"United States","canonicalUrl":"https://foursquare.com/v/dnv-rooftop-lounge/4bdc5fbfafe8c9b6131e4f85","categoryId":"4bf58dd8d48988d1d5941735","category":"Hotel Bar","checkinsCount":4562,"usersCount":2978,"tipCount":31,"visitsCount":4579,"url":"https://www.kimptonhotels.com/boutique-hotels-in-dc-metro-area","tier":3,"message":"Expensive","currency":"$","rating":8.2},{"name":"Number Nine","phone":"2029860999","twitter":"numberninedc","address":"1435 P St NW","lat":38.909729286876264,"lng":-77.03333069871164,"neighborhood":"Logan Circle - Shaw","city_fetched":"Washington,US","state":"D.C.","country":"United States","canonicalUrl":"https://foursquare.com/v/number-nine/4db9fa69815445c8ca421516","categoryId":"4bf58dd8d48988d1d8941735","category":"Gay Bar","checkinsCount":22421,"usersCount":4720,"tipCount":61,"visitsCount":23489,"url":"http://www.numberninedc.com","tier":2,"message":"Moderate","currency":"$","rating":8.2},{"name":"Flash","phone":"2028278791","twitter":"flashclubdc","address":"645 Florida Ave NW","lat":38.916315,"lng":-77.021443,"neighborhood":"LeDroit Park","city_fetched":"Washington,US","state":"D.C.","country":"United States","canonicalUrl":"https://foursquare.com/v/flash/51aab992498e3f06e969e30f","categoryId":"4bf58dd8d48988d11f941735","category":"Nightclub","checkinsCount":3076,"usersCount":2222,"tipCount":32,"visitsCount":4285,"url":"http://flashdc.com","tier":2,"message":"Moderate","currency":"$","rating":8.1},{"name":"The Wonderland Ballroom","phone":"2022325263","twitter":"thewonderlanddc","address":"1101 Kenyon St NW","lat":38.929854,"lng":-77.027976,"neighborhood":"Columbia Heights","city_fetched":"Washington,US","state":"D.C.","country":"United States","canonicalUrl":"https://foursquare.com/v/the-wonderland-ballroom/49ba7862f964a52068531fe3","categoryId":"4bf58dd8d48988d116941735","category":"Bar","checkinsCount":17025,"usersCount":7521,"tipCount":122,"visitsCount":19515,"url":"http://www.thewonderlandballroom.com","tier":2,"message":"Moderate","currency":"$","rating":8.1},{"name":"Dram and Grain","address":"2007 18th St NW","lat":38.91731437563889,"lng":-77.04128098560788,"neighborhood":"Adams Morgan","city_fetched":"Washington,US","state":"D.C.","country":"United States","canonicalUrl":"https://foursquare.com/v/dram-and-grain/5307fc98498e6e37e09d23e0","categoryId":"4bf58dd8d48988d11e941735","category":"Cocktail Bar","checkinsCount":356,"usersCount":296,"tipCount":13,"visitsCount":361,"tier":"","message":"","currency":"","rating":8.1},{"name":"Lexus Presidents Club","phone":"2026407368","twitter":"nationals","address":"Nationals Park","lat":38.87310238670506,"lng":-77.00772205251867,"neighborhood":"Navy Yard","city_fetched":"Washington,US","state":"D.C.","country":"United States","canonicalUrl":"https://foursquare.com/v/lexus-presidents-club/4c0ebda7336220a15bb4cc77","categoryId":"4bf58dd8d48988d121941735","category":"Lounge","checkinsCount":903,"usersCount":545,"tipCount":4,"visitsCount":904,"url":"http://washington.nationals.mlb.com/was/events/event_spaces.jsp?content=lexus_presidents_club","tier":"","message":"","currency":"","rating":8.1},{"name":"Big Chief","twitter":"bigchiefivycity","address":"2002 Fenwick St NE","lat":38.91482530790099,"lng":-76.98483052342634,"neighborhood":"Ivy City","city_fetched":"Washington,US","state":"D.C.","country":"United States","canonicalUrl":"https://foursquare.com/v/big-chief/56c4f494cd1068423f363581","categoryId":"4bf58dd8d48988d116941735","category":"Bar","checkinsCount":75,"usersCount":66,"tipCount":2,"visitsCount":78,"url":"http://bigchiefdc.com","tier":"","message":"","currency":"","rating":8.1},{"name":"Freddie's Beach Bar","phone":"7036850555","address":"555 23rd St S","lat":38.853428199452345,"lng":-77.05493694035094,"city_fetched":"Washington,US","state":"VA","country":"United States","canonicalUrl":"https://foursquare.com/v/freddies-beach-bar/4a981c03f964a520802a20e3","categoryId":"4bf58dd8d48988d1d8941735","category":"Gay Bar","checkinsCount":9061,"usersCount":3241,"tipCount":62,"visitsCount":9521,"url":"http://www.freddiesbeachbar.com","tier":1,"message":"Cheap","currency":"$","rating":8.1},{"name":"The Observatory","phone":"2023370900","address":"on top of The Graham","lat":38.904766486252306,"lng":-77.06002449871039,"neighborhood":"Georgetown","city_fetched":"Washington,US","state":"D.C.","country":"United States","canonicalUrl":"https://foursquare.com/v/the-observatory/51707d99e4b05d1b5fd11563","categoryId":"4bf58dd8d48988d1d5941735","category":"Hotel Bar","checkinsCount":425,"usersCount":334,"tipCount":2,"visitsCount":425,"url":"http://thegrahamgeorgetown.com","tier":"","message":"","currency":"","rating":8.1},{"name":"Biergarten Haus","phone":"2023884053","twitter":"biergartendc","address":"1355 H St NE","lat":38.89986267854791,"lng":-76.98647863253343,"neighborhood":"Capitol Hill","city_fetched":"Washington,US","state":"D.C.","country":"United States","canonicalUrl":"https://foursquare.com/v/biergarten-haus/4bdd6931f219c9b687861210","categoryId":"4bf58dd8d48988d117941735","category":"Beer Garden","checkinsCount":13985,"usersCount":8061,"tipCount":80,"visitsCount":14213,"url":"http://biergartenhaus.com","tier":2,"message":"Moderate","currency":"$","rating":8.1},{"name":"Bar Dupont","phone":"2024836000","twitter":"bardupont","address":"1500 New Hampshire Ave NW","lat":38.910307856470226,"lng":-77.04328815357749,"neighborhood":"Dupont Circle","city_fetched":"Washington,US","state":"D.C.","country":"United States","canonicalUrl":"https://foursquare.com/v/bar-dupont/4aa1b1baf964a520764120e3","categoryId":"4bf58dd8d48988d1d5941735","category":"Hotel Bar","checkinsCount":12976,"usersCount":7002,"tipCount":100,"visitsCount":13226,"url":"http://www.doylecollection.com/locations/washington_dc_hotels/the_dupont_hotel.aspx","tier":2,"message":"Moderate","currency":"$","rating":8.1},{"name":"The Crucible","address":"16 M St NE","lat":38.90570348655678,"lng":-77.00813055038452,"neighborhood":"NoMa","city_fetched":"Washington,US","state":"D.C.","country":"United States","canonicalUrl":"https://foursquare.com/v/the-crucible/4aab3f38f964a520505920e3","categoryId":"4bf58dd8d48988d1d4941735","category":"Speakeasy","checkinsCount":320,"usersCount":182,"tipCount":3,"visitsCount":346,"url":"http://the-crucible.com","tier":"","message":"","currency":"","rating":8.1},{"name":"The Park at 14th","phone":"2027377275","twitter":"theparkat14th","address":"920 14th St NW","lat":38.90196362692115,"lng":-77.03220052355708,"neighborhood":"Downtown-Penn Quarter-Chinatown","city_fetched":"Washington,US","state":"D.C.","country":"United States","canonicalUrl":"https://foursquare.com/theparkat14th","categoryId":"4bf58dd8d48988d121941735","category":"Lounge","checkinsCount":15851,"usersCount":8189,"tipCount":76,"visitsCount":17730,"url":"http://www.park14.com","tier":2,"message":"Moderate","currency":"$","rating":8.1},{"name":"Showtime","address":"113 Rhode Island Ave NW","lat":38.915611950364834,"lng":-77.01258664955367,"neighborhood":"LeDroit Park - Bloomingdale","city_fetched":"Washington,US","state":"D.C.","country":"United States","canonicalUrl":"https://foursquare.com/v/showtime/51a954a7498ef99d6b9875dc","categoryId":"4bf58dd8d48988d118941735","category":"Dive Bar","checkinsCount":2296,"usersCount":939,"tipCount":20,"visitsCount":2404,"tier":1,"message":"Cheap","currency":"$","rating":8.1},{"name":"Eighteenth Street Lounge","phone":"2026677960","twitter":"18thstlounge","address":"1212 18th St NW","lat":38.90620233590804,"lng":-77.04201757907867,"neighborhood":"Connecticut Avenue - K Street","city_fetched":"Washington,US","state":"D.C.","country":"United States","canonicalUrl":"https://foursquare.com/v/eighteenth-street-lounge/40b13b00f964a5206ff71ee3","categoryId":"4bf58dd8d48988d121941735","category":"Lounge","checkinsCount":13864,"usersCount":7886,"tipCount":85,"visitsCount":14023,"url":"http://www.eighteenthstreetlounge.com","tier":2,"message":"Moderate","currency":"$","rating":8.1},{"name":"Whitlow's on Wilson","phone":"7032769693","twitter":"whitlows","address":"2854 Wilson Blvd","lat":38.88862360940684,"lng":-77.09289371967316,"neighborhood":"Clarendon - Courthouse","city_fetched":"Washington,US","state":"VA","country":"United States","canonicalUrl":"https://foursquare.com/whitlows","categoryId":"4bf58dd8d48988d11d941735","category":"Sports Bar","checkinsCount":25862,"usersCount":10924,"tipCount":142,"visitsCount":27448,"url":"http://www.whitlows.com","tier":2,"message":"Moderate","currency":"$","rating":8.1},{"name":"The Round Robin Bar","twitter":"willardhotel","address":"1401 Pennsylvania Ave NW","lat":38.896326,"lng":-77.032199,"neighborhood":"Downtown-Penn Quarter-Chinatown","city_fetched":"Washington,US","state":"D.C.","country":"United States","canonicalUrl":"https://foursquare.com/v/the-round-robin-bar/40b13b00f964a52016f51ee3","categoryId":"4bf58dd8d48988d1d5941735","category":"Hotel Bar","checkinsCount":2554,"usersCount":1986,"tipCount":27,"visitsCount":2567,"url":"http://washington.intercontinental.com/food-drink/round-robin-scotch-bar/","tier":"","message":"","currency":"","rating":8},{"name":"Little Miss Whiskey's Golden Dollar","phone":"2025550666","twitter":"whiskeysdc","address":"1104 H St NE","lat":38.900326544694586,"lng":-76.99122190475462,"neighborhood":"Capitol Hill","city_fetched":"Washington,US","state":"D.C.","country":"United States","canonicalUrl":"https://foursquare.com/v/little-miss-whiskeys-golden-dollar/4acfe33df964a520b2d620e3","categoryId":"4bf58dd8d48988d116941735","category":"Bar","checkinsCount":9513,"usersCount":4870,"tipCount":72,"visitsCount":10330,"url":"http://littlemisswhiskeys.com","tier":2,"message":"Moderate","currency":"$","rating":8},{"name":"Red Loft Bar and Patio","phone":"2026407368","twitter":"nationals","address":"National Park","lat":38.87384501210732,"lng":-77.00729101896286,"neighborhood":"Navy Yard","city_fetched":"Washington,US","state":"D.C.","country":"United States","canonicalUrl":"https://foursquare.com/v/red-loft-bar-and-patio/4bb794ccb35776b0fed0c701","categoryId":"4bf58dd8d48988d11d941735","category":"Sports Bar","checkinsCount":1805,"usersCount":842,"tipCount":9,"visitsCount":1806,"url":"http://washington.nationals.mlb.com/was/events/event_spaces.jsp?content=red_loft_bar_and_patio","tier":"","message":"","currency":"","rating":8},{"name":"Sax","phone":"2027370101","twitter":"saxwdc","address":"734 11th St NW","lat":38.89931076222931,"lng":-77.02708367807736,"neighborhood":"Downtown-Penn Quarter-Chinatown","city_fetched":"Washington,US","state":"D.C.","country":"United States","canonicalUrl":"https://foursquare.com/v/sax/4c26985d905a0f47979e6360","categoryId":"4bf58dd8d48988d121941735","category":"Lounge","checkinsCount":4291,"usersCount":3000,"tipCount":41,"visitsCount":4869,"url":"http://www.saxwdc.com","tier":3,"message":"Expensive","currency":"$","rating":8},{"name":"Jug & Table","phone":"2022327663","address":"2446 18th St NW","lat":38.92185609877982,"lng":-77.0423211188304,"neighborhood":"Adams Morgan","city_fetched":"Washington,US","state":"D.C.","country":"United States","canonicalUrl":"https://foursquare.com/v/jug--table/556a4736498e742234d41471","categoryId":"4bf58dd8d48988d123941735","category":"Wine Bar","checkinsCount":133,"usersCount":102,"tipCount":3,"visitsCount":133,"tier":"","message":"","currency":"","rating":8},{"name":"A & D Neighborhood Bar","phone":"2022901804","twitter":"andbardc","address":"1314 9th St NW","lat":38.90775104252176,"lng":-77.02422380447388,"neighborhood":"Logan Circle - Shaw","city_fetched":"Washington,US","state":"D.C.","country":"United States","canonicalUrl":"https://foursquare.com/andbardc","categoryId":"4bf58dd8d48988d116941735","category":"Bar","checkinsCount":2536,"usersCount":1426,"tipCount":20,"visitsCount":2669,"url":"http://andbardc.com","tier":2,"message":"Moderate","currency":"$","rating":8},{"name":"Darnell's Lounge","phone":"2022902865","address":"944 Florida Ave NW","lat":38.91922616257104,"lng":-77.02519432660165,"neighborhood":"U-Street","city_fetched":"Washington,US","state":"D.C.","country":"United States","canonicalUrl":"https://foursquare.com/v/darnells-lounge/4ccca0817c2ff04d14919a7e","categoryId":"4bf58dd8d48988d121941735","category":"Lounge","checkinsCount":2139,"usersCount":944,"tipCount":29,"visitsCount":2241,"tier":1,"message":"Cheap","currency":"$","rating":8},{"name":"Soundcheck","lat":38.90247140644495,"lng":-77.0327403100228,"neighborhood":"Downtown-Penn Quarter-Chinatown","city_fetched":"Washington,US","state":"D.C.","country":"United States","canonicalUrl":"https://foursquare.com/v/soundcheck/55cac2fa498e329f7dd0527c","categoryId":"4bf58dd8d48988d11f941735","category":"Nightclub","checkinsCount":570,"usersCount":381,"tipCount":3,"visitsCount":689,"url":"http://www.soundcheckdc.com","tier":"","message":"","currency":"","rating":8},{"name":"Mockingbird Hill","phone":"2023169396","twitter":"drinkmoresherry","address":"1843 7th St NW","lat":38.91518102480751,"lng":-77.02172666788101,"neighborhood":"U-Street","city_fetched":"Washington,US","state":"D.C.","country":"United States","canonicalUrl":"https://foursquare.com/v/mockingbird-hill/51ae7e50498ec315c8981025","categoryId":"4bf58dd8d48988d123941735","category":"Wine Bar","checkinsCount":2345,"usersCount":1371,"tipCount":30,"visitsCount":2396,"url":"http://www.drinkmoresherry.com","tier":2,"message":"Moderate","currency":"$","rating":8},{"name":"Justin's Café","phone":"2026521009","twitter":"justinscafe1025","address":"1025 1st St SE","lat":38.877850027445945,"lng":-77.00615108013153,"neighborhood":"SW Ballpark - Navy Yard","city_fetched":"Washington,US","state":"D.C.","country":"United States","canonicalUrl":"https://foursquare.com/v/justins-caf%C3%A9/4bc6540fb387d13a65bdc1e8","categoryId":"4bf58dd8d48988d116941735","category":"Bar","checkinsCount":9772,"usersCount":3244,"tipCount":74,"visitsCount":10709,"url":"http://justinscafe.com","tier":2,"message":"Moderate","currency":"$","rating":8},{"name":"The Board Room","phone":"2025187666","address":"1737 Connecticut Ave NW","lat":38.9136157842187,"lng":-77.0454454421997,"neighborhood":"Dupont Circle","city_fetched":"Washington,US","state":"D.C.","country":"United States","canonicalUrl":"https://foursquare.com/v/the-board-room/504f505564a47064ed1948b1","categoryId":"4bf58dd8d48988d116941735","category":"Bar","checkinsCount":5736,"usersCount":4196,"tipCount":50,"visitsCount":6096,"url":"http://boardroomdc.com","tier":2,"message":"Moderate","currency":"$","rating":8},{"name":"The Codmother","phone":"2022650709","address":"1334 U St NW","lat":38.917035065085074,"lng":-77.03102535510938,"neighborhood":"U-Street","city_fetched":"Washington,US","state":"D.C.","country":"United States","canonicalUrl":"https://foursquare.com/v/the-codmother/4dffe7a1e4cd609e49af579e","categoryId":"4bf58dd8d48988d118941735","category":"Dive Bar","checkinsCount":4035,"usersCount":2033,"tipCount":22,"visitsCount":4071,"tier":1,"message":"Cheap","currency":"$","rating":8},{"name":"Green Lantern","phone":"2023474533","twitter":"greenlanterndc","address":"1335 Green Ct NW","lat":38.904382513663606,"lng":-77.03088478395652,"neighborhood":"Downtown-Penn Quarter-Chinatown","city_fetched":"Washington,US","state":"D.C.","country":"United States","canonicalUrl":"https://foursquare.com/v/green-lantern/40b52f80f964a5205d001fe3","categoryId":"4bf58dd8d48988d1d8941735","category":"Gay Bar","checkinsCount":11284,"usersCount":2940,"tipCount":60,"visitsCount":12127,"url":"http://www.greenlanterndc.com","tier":1,"message":"Cheap","currency":"$","rating":8},{"name":"St. Regis Bar","address":"923 16th St NW","lat":38.90244748102316,"lng":-77.03640067343615,"neighborhood":"Connecticut Avenue - K Street","city_fetched":"Washington,US","state":"D.C.","country":"United States","canonicalUrl":"https://foursquare.com/v/st-regis-bar/4b060a44f964a520e4e722e3","categoryId":"4bf58dd8d48988d1d5941735","category":"Hotel Bar","checkinsCount":637,"usersCount":394,"tipCount":6,"visitsCount":637,"url":"http://starwoodhotels.com","tier":"","message":"","currency":"","rating":7.9},{"name":"Brick & Mortar","twitter":"brickmortardc","address":"918 F St NW","lat":38.897284459363455,"lng":-77.02501438682815,"neighborhood":"Downtown-Penn Quarter-Chinatown","city_fetched":"Washington,US","state":"D.C.","country":"United States","canonicalUrl":"https://foursquare.com/v/brick--mortar/5529b1f3498e7f538585d472","categoryId":"4bf58dd8d48988d11e941735","category":"Cocktail Bar","checkinsCount":481,"usersCount":400,"tipCount":6,"visitsCount":523,"url":"http://prequeldc.com","tier":2,"message":"Moderate","currency":"$","rating":7.9},{"name":"Town Hall","phone":"2023335640","twitter":"townhalldc","address":"2340 Wisconsin Ave NW","lat":38.92099646281564,"lng":-77.07229559269793,"neighborhood":"Glover Park","city_fetched":"Washington,US","state":"D.C.","country":"United States","canonicalUrl":"https://foursquare.com/v/town-hall/46c72ec6f964a520164a1fe3","categoryId":"4bf58dd8d48988d116941735","category":"Bar","checkinsCount":16752,"usersCount":4004,"tipCount":47,"visitsCount":17025,"url":"http://www.townhalldc.com","tier":2,"message":"Moderate","currency":"$","rating":7.9},{"name":"The Pug","phone":"2023888554","address":"1234 H St NE","lat":38.90032863209575,"lng":-76.9890359044075,"neighborhood":"Capitol Hill","city_fetched":"Washington,US","state":"D.C.","country":"United States","canonicalUrl":"https://foursquare.com/v/the-pug/49e78c97f964a520bb641fe3","categoryId":"4bf58dd8d48988d118941735","category":"Dive Bar","checkinsCount":8094,"usersCount":3208,"tipCount":49,"visitsCount":8189,"url":"http://thepugdc.com","tier":1,"message":"Cheap","currency":"$","rating":7.9},{"name":"Bar Deco","phone":"2027745867","address":"717 6th St NW","lat":38.8989902010764,"lng":-77.0198916142512,"neighborhood":"Chinatown","city_fetched":"Washington,US","state":"D.C.","country":"United States","canonicalUrl":"https://foursquare.com/v/bar-deco/55e88e98498eb1a848817ae3","categoryId":"4bf58dd8d48988d11e941735","category":"Cocktail Bar","checkinsCount":1102,"usersCount":1166,"tipCount":18,"visitsCount":1554,"url":"http://www.bardecodc.com","tier":"","message":"","currency":"","rating":7.9},{"name":"The Star and Shamrock","phone":"2023883833","twitter":"starshamrock","address":"1341 H St NE","lat":38.90003430792673,"lng":-76.98675870895386,"neighborhood":"Capitol Hill","city_fetched":"Washington,US","state":"D.C.","country":"United States","canonicalUrl":"https://foursquare.com/starshamrock","categoryId":"4bf58dd8d48988d11b941735","category":"Pub","checkinsCount":8425,"usersCount":3518,"tipCount":51,"visitsCount":8510,"url":"http://www.starandshamrock.com","tier":2,"message":"Moderate","currency":"$","rating":7.9},{"name":"Willard Intercontinental Hotel Ballroom","lat":38.89747159788036,"lng":-77.03253226760773,"neighborhood":"Downtown-Penn Quarter-Chinatown","city_fetched":"Washington,US","state":"D.C.","country":"United States","canonicalUrl":"https://foursquare.com/v/willard-intercontinental-hotel-ballroom/4ed813d47ee5d6d104cb2887","categoryId":"4bf58dd8d48988d121941735","category":"Lounge","checkinsCount":296,"usersCount":256,"tipCount":2,"visitsCount":296,"tier":"","message":"","currency":"","rating":7.8},{"name":"Looking Glass Lounge","phone":"2027227669","address":"3634 Georgia Ave NW","lat":38.935051534790766,"lng":-77.02431149452546,"neighborhood":"Columbia Heights","city_fetched":"Washington,US","state":"D.C.","country":"United States","canonicalUrl":"https://foursquare.com/v/looking-glass-lounge/45f140bcf964a520ca431fe3","categoryId":"4bf58dd8d48988d116941735","category":"Bar","checkinsCount":8682,"usersCount":2685,"tipCount":66,"visitsCount":9084,"url":"http://thelookingglasslounge.com","tier":2,"message":"Moderate","currency":"$","rating":7.8},{"name":"The Black Squirrel","phone":"2022321011","twitter":"thblacksquirrel","address":"2427 18th St NW","lat":38.92121626931542,"lng":-77.04195857048035,"neighborhood":"Adams Morgan","city_fetched":"Washington,US","state":"D.C.","country":"United States","canonicalUrl":"https://foursquare.com/v/the-black-squirrel/49e5e3def964a520e2631fe3","categoryId":"4bf58dd8d48988d11b941735","category":"Pub","checkinsCount":7527,"usersCount":4064,"tipCount":79,"visitsCount":7596,"url":"http://blacksquirreldc.com","tier":2,"message":"Moderate","currency":"$","rating":7.8},{"name":"Wisdom","phone":"2025432323","twitter":"wisdomdc","address":"1432 Pennsylvania Ave SE","lat":38.879973,"lng":-76.984323,"neighborhood":"Hill East","city_fetched":"Washington,US","state":"D.C.","country":"United States","canonicalUrl":"https://foursquare.com/v/wisdom/4a612efaf964a5200ec21fe3","categoryId":"4bf58dd8d48988d11e941735","category":"Cocktail Bar","checkinsCount":2585,"usersCount":832,"tipCount":28,"visitsCount":2692,"url":"http://www.dcwisdom.com","tier":"","message":"","currency":"","rating":7.8},{"name":"The Whiskey Room","phone":"2027512111","address":"3125 M STREET NW","lat":38.90535735857038,"lng":-77.06182898440814,"neighborhood":"Georgetown","city_fetched":"Washington,US","state":"D.C.","country":"United States","canonicalUrl":"https://foursquare.com/v/the-whiskey-room/533f5859498e6451ff8dd4b2","categoryId":"4bf58dd8d48988d122941735","category":"Whisky Bar","checkinsCount":178,"usersCount":164,"tipCount":6,"visitsCount":180,"url":"https://rira.com","tier":"","message":"","currency":"","rating":7.8},{"name":"PNC Diamond Club","phone":"2026407368","twitter":"nationals","address":"Nationals Park","lat":38.87271968137154,"lng":-77.00766581326214,"neighborhood":"Navy Yard","city_fetched":"Washington,US","state":"D.C.","country":"United States","canonicalUrl":"https://foursquare.com/v/pnc-diamond-club/4c1e4758b306c928b8c366b7","categoryId":"4bf58dd8d48988d121941735","category":"Lounge","checkinsCount":1956,"usersCount":1336,"tipCount":15,"visitsCount":1960,"url":"http://washington.nationals.mlb.com/was/events/event_spaces.jsp?content=pnc_diamond_club","tier":"","message":"","currency":"","rating":7.8},{"name":"Cure Bar & Bistro","phone":"2026374906","twitter":"curebarbistro","address":"10th & H Street, NW","lat":38.899636195078166,"lng":-77.02638079778811,"neighborhood":"Downtown-Penn Quarter-Chinatown","city_fetched":"Washington,US","state":"D.C.","country":"United States","canonicalUrl":"https://foursquare.com/v/cure-bar--bistro/4aea2c1df964a520f4b921e3","categoryId":"4bf58dd8d48988d11e941735","category":"Cocktail Bar","checkinsCount":2469,"usersCount":1464,"tipCount":34,"visitsCount":2474,"url":"http://www.curebarandbistro.com","tier":"","message":"","currency":"","rating":7.8},{"name":"Bossa","phone":"2026670088","address":"2463 18th St NW","lat":38.922073933568015,"lng":-77.04223215579987,"neighborhood":"Adams Morgan","city_fetched":"Washington,US","state":"D.C.","country":"United States","canonicalUrl":"https://foursquare.com/v/bossa/414e1d80f964a520dd1c1fe3","categoryId":"4bf58dd8d48988d116941735","category":"Bar","checkinsCount":1095,"usersCount":769,"tipCount":16,"visitsCount":1098,"url":"http://bossadc.com","tier":"","message":"","currency":"","rating":7.8},{"name":"Penthouse 9","phone":"2023320170","address":"1318 9th St NW","lat":38.90785540159064,"lng":-77.02415674924849,"neighborhood":"Logan Circle - Shaw","city_fetched":"Washington,US","state":"D.C.","country":"United States","canonicalUrl":"https://foursquare.com/v/penthouse-9/5154b76b72da84d0266e7bea","categoryId":"4bf58dd8d48988d122941735","category":"Whisky Bar","checkinsCount":35,"usersCount":26,"tipCount":0,"visitsCount":35,"url":"http://vitaloungedc.com","tier":"","message":"","currency":"","rating":7.8},{"name":"Dickson Wine Bar","phone":"2023321779","twitter":"dickson_dc","address":"903 U St NW","lat":38.917061,"lng":-77.02423451666667,"neighborhood":"U-Street","city_fetched":"Washington,US","state":"D.C.","country":"United States","canonicalUrl":"https://foursquare.com/v/dickson-wine-bar/4b998a0bf964a520d68135e3","categoryId":"4bf58dd8d48988d123941735","category":"Wine Bar","checkinsCount":3416,"usersCount":2003,"tipCount":30,"visitsCount":3425,"url":"http://dicksonwinebar.com","tier":3,"message":"Expensive","currency":"$","rating":7.8},{"name":"Budweiser Brew House","phone":"2026407368","twitter":"nationals","address":"Nationals Park","lat":38.873842923927825,"lng":-77.0072990655899,"neighborhood":"Navy Yard","city_fetched":"Washington,US","state":"D.C.","country":"United States","canonicalUrl":"https://foursquare.com/v/budweiser-brew-house/4e62ac51fa76cd64ce5a0d13","categoryId":"4bf58dd8d48988d11d941735","category":"Sports Bar","checkinsCount":2156,"usersCount":1322,"tipCount":11,"visitsCount":2157,"url":"http://washington.nationals.mlb.com/was/events/event_spaces.jsp?content=red_porch_restaurant","tier":"","message":"","currency":"","rating":7.8},{"name":"Truman Lounge At The National Press Club","address":"529 14th St NW","lat":38.897098,"lng":-77.03163743019104,"neighborhood":"Downtown-Penn Quarter-Chinatown","city_fetched":"Washington,US","state":"D.C.","country":"United States","canonicalUrl":"https://foursquare.com/v/truman-lounge-at-the-national-press-club/4bfeaf55261eb713cc374ad7","categoryId":"4bf58dd8d48988d121941735","category":"Lounge","checkinsCount":419,"usersCount":62,"tipCount":3,"visitsCount":422,"url":"http://press.org","tier":"","message":"","currency":"","rating":7.8},{"name":"Roofers Union","phone":"2022327663","twitter":"roofersuniondc","address":"2446 18th St NW","lat":38.921824690177345,"lng":-77.04257735605097,"neighborhood":"Adams Morgan","city_fetched":"Washington,US","state":"D.C.","country":"United States","canonicalUrl":"https://foursquare.com/v/roofers-union/52b872f911d29ad9c6ec2dea","categoryId":"4bf58dd8d48988d116941735","category":"Bar","checkinsCount":3751,"usersCount":2470,"tipCount":47,"visitsCount":3921,"url":"http://www.roofersuniondc.com","tier":1,"message":"Cheap","currency":"$","rating":7.8},{"name":"Suburbia","address":"1309 5th St NE","lat":38.90840001780226,"lng":-76.99728360016516,"neighborhood":"Ivy City","city_fetched":"Washington,US","state":"D.C.","country":"United States","canonicalUrl":"https://foursquare.com/v/suburbia/51aa4cb6498e2fcb2b334d8b","categoryId":"4bf58dd8d48988d11e941735","category":"Cocktail Bar","checkinsCount":144,"usersCount":119,"tipCount":2,"visitsCount":145,"tier":"","message":"","currency":"","rating":7.7},{"name":"The Bachelor's Mill","phone":"2025465979","address":"1106 8th St SE","lat":38.87730603129193,"lng":-76.99484258264836,"neighborhood":"SW Ballpark - Navy Yard","city_fetched":"Washington,US","state":"D.C.","country":"United States","canonicalUrl":"https://foursquare.com/v/the-bachelors-mill/4bc25bc34cdfc9b65e0d9621","categoryId":"4bf58dd8d48988d1d8941735","category":"Gay Bar","checkinsCount":2587,"usersCount":1167,"tipCount":20,"visitsCount":3745,"url":"http://www.thebachelorsmill.com‎ ","tier":"","message":"","currency":"","rating":7.7},{"name":"Trusty's","phone":"2025471010","twitter":"trustysdc","address":"1420 Pennsylvania Ave SE","lat":38.88015765114497,"lng":-76.98445364892491,"neighborhood":"Hill East","city_fetched":"Washington,US","state":"D.C.","country":"United States","canonicalUrl":"https://foursquare.com/v/trustys/49c2dbcef964a52034561fe3","categoryId":"4bf58dd8d48988d118941735","category":"Dive Bar","checkinsCount":5188,"usersCount":1933,"tipCount":39,"visitsCount":5739,"url":"http://trustysdc.com","tier":2,"message":"Moderate","currency":"$","rating":7.7},{"name":"Cobalt","phone":"2022324416","twitter":"cobaltdc","address":"1639 R St NW","lat":38.91266552260647,"lng":-77.03837980995769,"neighborhood":"Dupont Circle","city_fetched":"Washington,US","state":"D.C.","country":"United States","canonicalUrl":"https://foursquare.com/v/cobalt/40b13b00f964a52044f41ee3","categoryId":"4bf58dd8d48988d1d8941735","category":"Gay Bar","checkinsCount":33957,"usersCount":7511,"tipCount":92,"visitsCount":35581,"url":"http://cobaltdc.com","tier":2,"message":"Moderate","currency":"$","rating":7.7},{"name":"Hamilton's Bar & Grill","phone":"2023476555","address":"233 2nd St NW","lat":38.893254077287416,"lng":-77.0134600996971,"neighborhood":"Downtown-Penn Quarter-Chinatown","city_fetched":"Washington,US","state":"D.C.","country":"United States","canonicalUrl":"https://foursquare.com/v/hamiltons-bar--grill/49da7e32f964a5208d5e1fe3","categoryId":"4bf58dd8d48988d118941735","category":"Dive Bar","checkinsCount":11303,"usersCount":2960,"tipCount":44,"visitsCount":11867,"url":"http://www.hamiltonsdc.com","tier":2,"message":"Moderate","currency":"$","rating":7.7},{"name":"The Brixton","phone":"2025605045","twitter":"thebrixtondc","address":"901 U St NW","lat":38.91724082881471,"lng":-77.02414870262146,"neighborhood":"U-Street","city_fetched":"Washington,US","state":"D.C.","country":"United States","canonicalUrl":"https://foursquare.com/v/the-brixton/4fe8dcca6d8673de7472e8c4","categoryId":"4bf58dd8d48988d11b941735","category":"Pub","checkinsCount":15483,"usersCount":8326,"tipCount":91,"visitsCount":16034,"url":"http://www.brixtondc.com","tier":2,"message":"Moderate","currency":"$","rating":7.7},{"name":"Downtown DC","lat":38.91737384268785,"lng":-76.97208364284221,"neighborhood":"Brentwood - Langdon","city_fetched":"Washington,US","state":"D.C.","country":"United States","canonicalUrl":"https://foursquare.com/v/downtown-dc/52fefef6498eee40f8bcfb92","categoryId":"4bf58dd8d48988d11f941735","category":"Nightclub","checkinsCount":326,"usersCount":262,"tipCount":0,"visitsCount":333,"tier":"","message":"","currency":"","rating":7.7},{"name":"The Jam Cellar","phone":"2025698329","twitter":"jamcellar","address":"2437 15th St NW","lat":38.92257170264005,"lng":-77.03514120605418,"neighborhood":"Columbia Heights","city_fetched":"Washington,US","state":"D.C.","country":"United States","canonicalUrl":"https://foursquare.com/v/the-jam-cellar/4af1998af964a52087e121e3","categoryId":"4bf58dd8d48988d11f941735","category":"Nightclub","checkinsCount":422,"usersCount":96,"tipCount":5,"visitsCount":434,"url":"http://www.thejamcellar.com","tier":"","message":"","currency":"","rating":7.7},{"name":"Sotto","phone":"2025453459","address":"1610 14th St NW","lat":38.91161222589252,"lng":-77.03220337629318,"neighborhood":"Logan Circle - Shaw","city_fetched":"Washington,US","state":"D.C.","country":"United States","canonicalUrl":"https://foursquare.com/v/sotto/54f11943498e7f1416f1bcae","categoryId":"4bf58dd8d48988d11e941735","category":"Cocktail Bar","checkinsCount":527,"usersCount":402,"tipCount":9,"visitsCount":535,"url":"http://www.sottodc.com","tier":"","message":"","currency":"","rating":7.7},{"name":"Banana Cafe and Piano Bar","phone":"2025435906","twitter":"bananacafedc","address":"500 8th St SE","lat":38.882611,"lng":-76.994914,"neighborhood":"Capitol Hill","city_fetched":"Washington,US","state":"D.C.","country":"United States","canonicalUrl":"https://foursquare.com/v/banana-cafe-and-piano-bar/40b13b00f964a52017f41ee3","categoryId":"4bf58dd8d48988d116941735","category":"Bar","checkinsCount":7024,"usersCount":4338,"tipCount":86,"visitsCount":7192,"url":"http://www.bananacafedc.com","tier":2,"message":"Moderate","currency":"$","rating":7.7},{"name":"Penn Social","phone":"2026974900","twitter":"pennsocialdc","address":"801 E St NW","lat":38.8962114816085,"lng":-77.02311937985246,"neighborhood":"Penn Quarter","city_fetched":"Washington,US","state":"D.C.","country":"United States","canonicalUrl":"https://foursquare.com/pennsocialdc","categoryId":"4bf58dd8d48988d116941735","category":"Bar","checkinsCount":14347,"usersCount":9053,"tipCount":57,"visitsCount":16670,"url":"http://pennsocialdc.com","tier":2,"message":"Moderate","currency":"$","rating":7.7},{"name":"Atomic Billiards","phone":"2023637665","twitter":"atomicbilliards","address":"3427 Connecticut Ave NW","lat":38.9351838460432,"lng":-77.0579794049263,"neighborhood":"Cleveland Park","city_fetched":"Washington,US","state":"D.C.","country":"United States","canonicalUrl":"https://foursquare.com/v/atomic-billiards/4b5a2ce3f964a52024b228e3","categoryId":"4bf58dd8d48988d116941735","category":"Bar","checkinsCount":3335,"usersCount":1275,"tipCount":21,"visitsCount":3416,"url":"http://www.atomicbilliards.com","tier":1,"message":"Cheap","currency":"$","rating":7.7},{"name":"Bier Baron Tavern","phone":"2022931885","twitter":"bierbarondc","address":"1523 22nd St NW","lat":38.91028643135789,"lng":-77.04877536692243,"neighborhood":"Dupont Circle","city_fetched":"Washington,US","state":"D.C.","country":"United States","canonicalUrl":"https://foursquare.com/bierbarondc","categoryId":"4bf58dd8d48988d116941735","category":"Bar","checkinsCount":6043,"usersCount":4676,"tipCount":58,"visitsCount":7076,"url":"http://www.bierbarondc.com","tier":2,"message":"Moderate","currency":"$","rating":7.7},{"name":"Capitol City Brewing Company","phone":"2026282222","twitter":"capcitybrewers","address":"1100 New York Ave NW","lat":38.8998713317268,"lng":-77.02703869386107,"neighborhood":"Downtown-Penn Quarter-Chinatown","city_fetched":"Washington,US","state":"D.C.","country":"United States","canonicalUrl":"https://foursquare.com/v/capitol-city-brewing-company/40b13b00f964a52031f41ee3","categoryId":"50327c8591d4c4b30a586d5d","category":"Brewery","checkinsCount":18995,"usersCount":14113,"tipCount":210,"visitsCount":21398,"url":"http://capcitybrew.com","tier":2,"message":"Moderate","currency":"$","rating":7.7},{"name":"Topaz Bar","phone":"2023933000","twitter":"kimptonindc","address":"1733 N St NW","lat":38.90733151751686,"lng":-77.04017758369446,"neighborhood":"Dupont Circle","city_fetched":"Washington,US","state":"D.C.","country":"United States","canonicalUrl":"https://foursquare.com/v/topaz-bar/4bf02ed0a09076b026ab29d4","categoryId":"4bf58dd8d48988d1d5941735","category":"Hotel Bar","checkinsCount":515,"usersCount":354,"tipCount":12,"visitsCount":515,"url":"https://www.kimptonhotels.com/boutique-hotels-in-dc-metro-area","tier":"","message":"","currency":"","rating":7.6},{"name":"Dito's Bar","address":"1602 17th St NW","lat":38.911274649999996,"lng":-77.038456,"neighborhood":"Dupont Circle","city_fetched":"Washington,US","state":"D.C.","country":"United States","canonicalUrl":"https://foursquare.com/v/ditos-bar/4d326466eefa8cfa127436b3","categoryId":"4bf58dd8d48988d123941735","category":"Wine Bar","checkinsCount":662,"usersCount":203,"tipCount":6,"visitsCount":671,"tier":"","message":"","currency":"","rating":7.6},{"name":"Boss Shepherd's Restaurant & Whiskey Bar","phone":"2023472677","twitter":"bossshepherds","address":"513 13th Street NW","lat":38.8964302150393,"lng":-77.02952966966762,"neighborhood":"Downtown-Penn Quarter-Chinatown","city_fetched":"Washington,US","state":"D.C.","country":"United States","canonicalUrl":"https://foursquare.com/v/boss-shepherds-restaurant--whiskey-bar/53caf780498e85df6b1b8834","categoryId":"4bf58dd8d48988d11b941735","category":"Pub","checkinsCount":590,"usersCount":463,"tipCount":15,"visitsCount":602,"url":"http://boss-shepherds.com","tier":"","message":"","currency":"","rating":7.6},{"name":"Ziegfeld's/Secrets","phone":"2028630670","twitter":"secretsdc","address":"1824 Half St SW","lat":38.867473093851395,"lng":-77.01042150617766,"neighborhood":"Southwest - Waterfront","city_fetched":"Washington,US","state":"D.C.","country":"United States","canonicalUrl":"https://foursquare.com/v/ziegfeldssecrets/4b69bfaaf964a520b0b12be3","categoryId":"4bf58dd8d48988d1d8941735","category":"Gay Bar","checkinsCount":8760,"usersCount":3389,"tipCount":28,"visitsCount":10508,"url":"http://secretsdc.com","tier":2,"message":"Moderate","currency":"$","rating":7.6},{"name":"Norfolk Southern Club","phone":"2026407368","twitter":"nationals","address":"Nationals Park","lat":38.87305177312536,"lng":-77.00745210384956,"neighborhood":"Navy Yard","city_fetched":"Washington,US","state":"D.C.","country":"United States","canonicalUrl":"https://foursquare.com/v/norfolk-southern-club/4dfe30ff1495014331aa5c0a","categoryId":"4bf58dd8d48988d121941735","category":"Lounge","checkinsCount":920,"usersCount":436,"tipCount":4,"visitsCount":922,"url":"http://washington.nationals.mlb.com/was/events/event_spaces.jsp?content=stars_and_stripes_club","tier":"","message":"","currency":"","rating":7.6},{"name":"Lost Society","phone":"2026188868","twitter":"lostsocietydc","address":"2001 14th St NW","lat":38.917096430943666,"lng":-77.03173945404362,"neighborhood":"U-Street","city_fetched":"Washington,US","state":"D.C.","country":"United States","canonicalUrl":"https://foursquare.com/v/lost-society/4e0e5e4022711665f6147875","categoryId":"4bf58dd8d48988d11e941735","category":"Cocktail Bar","checkinsCount":12135,"usersCount":7244,"tipCount":88,"visitsCount":12384,"url":"http://www.lostsociety-dc.com","tier":3,"message":"Expensive","currency":"$","rating":7.6},{"name":"Ivy and Coney","address":"1523 7th St NW","lat":38.910645906191554,"lng":-77.02169179916382,"neighborhood":"Logan Circle - Shaw","city_fetched":"Washington,US","state":"D.C.","country":"United States","canonicalUrl":"https://foursquare.com/v/ivy-and-coney/51dd8aca498edf67b39a6e87","categoryId":"4bf58dd8d48988d118941735","category":"Dive Bar","checkinsCount":2826,"usersCount":1239,"tipCount":31,"visitsCount":3053,"url":"http://ivyandconey.com","tier":1,"message":"Cheap","currency":"$","rating":7.6},{"name":"Maddy's Bar and Grille","phone":"2024832266","address":"1726 Connecticut Ave NW","lat":38.91351092842484,"lng":-77.0458012832584,"neighborhood":"Dupont Circle","city_fetched":"Washington,US","state":"D.C.","country":"United States","canonicalUrl":"https://foursquare.com/v/maddys-bar-and-grille/4ae13bc0f964a520c38521e3","categoryId":"4bf58dd8d48988d116941735","category":"Bar","checkinsCount":7513,"usersCount":3846,"tipCount":44,"visitsCount":7704,"url":"http://maddysbarandgrille.com","tier":2,"message":"Moderate","currency":"$","rating":7.6},{"name":"Lounge & Bar at Park Hyatt Washington","phone":"2024196625","twitter":"hyatttweets","address":"1201 24th St NW","lat":38.90573299330999,"lng":-77.05135584517765,"neighborhood":"West End","city_fetched":"Washington,US","state":"D.C.","country":"United States","canonicalUrl":"https://foursquare.com/v/lounge--bar-at-park-hyatt-washington/4bf20382a09076b014f829d4","categoryId":"4bf58dd8d48988d1d5941735","category":"Hotel Bar","checkinsCount":640,"usersCount":259,"tipCount":3,"visitsCount":640,"url":"http://www.hyatt.com","tier":"","message":"","currency":"","rating":7.6},{"name":"Raven Grill","phone":"2023878411","address":"3125 Mount Pleasant St NW","lat":38.92936887749434,"lng":-77.03739613294601,"neighborhood":"Mount Pleasant","city_fetched":"Washington,US","state":"D.C.","country":"United States","canonicalUrl":"https://foursquare.com/v/raven-grill/49ba795ff964a5206a531fe3","categoryId":"4bf58dd8d48988d118941735","category":"Dive Bar","checkinsCount":3057,"usersCount":1498,"tipCount":31,"visitsCount":3230,"tier":1,"message":"Cheap","currency":"$","rating":7.6},{"name":"The Big Hunt","phone":"2027852333","twitter":"bighuntdc","address":"1345 Connecticut Ave NW","lat":38.90841299328903,"lng":-77.04288198762777,"neighborhood":"Connecticut Avenue - K Street","city_fetched":"Washington,US","state":"D.C.","country":"United States","canonicalUrl":"https://foursquare.com/v/the-big-hunt/40b13b00f964a52045f71ee3","categoryId":"4bf58dd8d48988d118941735","category":"Dive Bar","checkinsCount":17988,"usersCount":9243,"tipCount":104,"visitsCount":18476,"url":"http://thebighunt.net","tier":1,"message":"Cheap","currency":"$","rating":7.6},{"name":"La Boum at L'Enfant Cafe","lat":38.917039,"lng":-77.041537,"neighborhood":"Adams Morgan","city_fetched":"Washington,US","state":"Washington, D.C.","country":"United States","canonicalUrl":"https://foursquare.com/v/la-boum-at-lenfant-cafe/4d72a6f5946b6dcbddf83f7a","categoryId":"4bf58dd8d48988d1d6941735","category":"Strip Club","checkinsCount":376,"usersCount":350,"tipCount":5,"visitsCount":391,"tier":"","message":"","currency":"","rating":7.5},{"name":"Solly's U Street Tavern","phone":"2022326590","twitter":"sollysdc","address":"1942 11th St NW","lat":38.91683805522587,"lng":-77.02727615833282,"neighborhood":"U-Street","city_fetched":"Washington,US","state":"D.C.","country":"United States","canonicalUrl":"https://foursquare.com/v/sollys-u-street-tavern/49baa2e8f964a5208e531fe3","categoryId":"4bf58dd8d48988d116941735","category":"Bar","checkinsCount":13093,"usersCount":5941,"tipCount":65,"visitsCount":13689,"url":"http://www.sollystavern.com","tier":2,"message":"Moderate","currency":"$","rating":7.5},{"name":"Liv Nightclub","phone":"2025054548","address":"2001 11th St NW","lat":38.917122072094784,"lng":-77.02693747931335,"neighborhood":"U-Street","city_fetched":"Washington,US","state":"D.C.","country":"United States","canonicalUrl":"https://foursquare.com/v/liv-nightclub/4a553c5af964a520e9b31fe3","categoryId":"4bf58dd8d48988d11f941735","category":"Nightclub","checkinsCount":4577,"usersCount":1822,"tipCount":12,"visitsCount":4657,"url":"http://livdc.com","tier":2,"message":"Moderate","currency":"$","rating":7.5},{"name":"Bar 7","phone":"2023474343","twitter":"bar7dc","address":"1015 1/2 7th St NW","lat":38.903465362593366,"lng":-77.02184852770336,"neighborhood":"Mount Vernon Square","city_fetched":"Washington,US","state":"D.C.","country":"United States","canonicalUrl":"https://foursquare.com/v/bar-7/4b933e8cf964a520083d34e3","categoryId":"4bf58dd8d48988d116941735","category":"Bar","checkinsCount":5428,"usersCount":2513,"tipCount":51,"visitsCount":5579,"url":"http://bar7dc.com/home.html","tier":2,"message":"Moderate","currency":"$","rating":7.5},{"name":"Quill","phone":"2024482300","address":"1200 16th St NW","lat":38.906036,"lng":-77.0366062,"neighborhood":"Connecticut Avenue - K Street","city_fetched":"Washington,US","state":"D.C.","country":"United States","canonicalUrl":"https://foursquare.com/v/quill/4bca23c53740b713e2276065","categoryId":"4bf58dd8d48988d1d5941735","category":"Hotel Bar","checkinsCount":1730,"usersCount":1044,"tipCount":16,"visitsCount":1834,"url":"http://jeffersondc.com/dining/quill/","tier":2,"message":"Moderate","currency":"$","rating":7.5},{"name":"Brookland Pint","phone":"2027582757","twitter":"brooklandpint","address":"716 Monroe St NE","lat":38.932506974997494,"lng":-76.99513792991638,"neighborhood":"Edgewood","city_fetched":"Washington,US","state":"D.C.","country":"United States","canonicalUrl":"https://foursquare.com/v/brookland-pint/53ef5f6f498ea6fcd9783027","categoryId":"4bf58dd8d48988d116941735","category":"Bar","checkinsCount":1489,"usersCount":1168,"tipCount":22,"visitsCount":2316,"url":"http://brooklandpint.com","tier":"","message":"","currency":"","rating":7.5},{"name":"The Pitch Tavern","phone":"2025605142","twitter":"pitchtavern","address":"4015 Georgia Ave Nw","lat":38.940201,"lng":-77.024754,"neighborhood":"Petworth","city_fetched":"Washington,US","state":"D.C.","country":"United States","canonicalUrl":"https://foursquare.com/v/the-pitch-tavern/544da994498e300a739708ee","categoryId":"4bf58dd8d48988d11d941735","category":"Sports Bar","checkinsCount":333,"usersCount":166,"tipCount":4,"visitsCount":388,"url":"http://thepitchtavern-hub.com","tier":"","message":"","currency":"","rating":7.5},{"name":"Shadow Room","phone":"2028871200","twitter":"shadowroom","address":"2131 K St NW","lat":38.90261151757345,"lng":-77.04771280101878,"neighborhood":"Connecticut Avenue - K Street","city_fetched":"Washington,US","state":"D.C.","country":"United States","canonicalUrl":"https://foursquare.com/shadowroom","categoryId":"4bf58dd8d48988d11f941735","category":"Nightclub","checkinsCount":6584,"usersCount":2307,"tipCount":35,"visitsCount":6935,"url":"http://www.shadowroom.com","tier":"","message":"","currency":"","rating":7.5},{"name":"H Street Country Club","phone":"2023994722","twitter":"hstcountryclub","address":"1335 H St NE","lat":38.900024,"lng":-76.98709711,"neighborhood":"Capitol Hill","city_fetched":"Washington,US","state":"D.C.","country":"United States","canonicalUrl":"https://foursquare.com/v/h-street-country-club/4a29339cf964a52066951fe3","categoryId":"4bf58dd8d48988d116941735","category":"Bar","checkinsCount":13113,"usersCount":7814,"tipCount":83,"visitsCount":13336,"url":"http://hstreetcountryclub.com","tier":2,"message":"Moderate","currency":"$","rating":7.5},{"name":"Quarter + Glory","phone":"2024505757","address":"2017 14th St NW","lat":38.91760492623251,"lng":-77.03164948905561,"neighborhood":"U-Street","city_fetched":"Washington,US","state":"D.C.","country":"United States","canonicalUrl":"https://foursquare.com/v/quarter--glory/56997fa938fafc490be00dda","categoryId":"4bf58dd8d48988d11e941735","category":"Cocktail Bar","checkinsCount":333,"usersCount":259,"tipCount":5,"visitsCount":357,"url":"http://quarterandglory.com","tier":"","message":"","currency":"","rating":7.4},{"name":"The Big Stick","phone":"2027507724","address":"20 M St SE","lat":38.87665355797562,"lng":-77.0076048374176,"neighborhood":"SW Ballpark - Navy Yard","city_fetched":"Washington,US","state":"D.C.","country":"United States","canonicalUrl":"https://foursquare.com/v/the-big-stick/547f3ea9498e4a242651b502","categoryId":"4bf58dd8d48988d116941735","category":"Bar","checkinsCount":1037,"usersCount":997,"tipCount":5,"visitsCount":1786,"url":"http://thebigstick.com","tier":"","message":"","currency":"","rating":7.4},{"name":"Jackpot","phone":"2026285225","address":"726 7th St NW","lat":38.899342391459896,"lng":-77.02186539750946,"neighborhood":"Chinatown","city_fetched":"Washington,US","state":"D.C.","country":"United States","canonicalUrl":"https://foursquare.com/v/jackpot/52c62720498eced049e38f0d","categoryId":"4bf58dd8d48988d116941735","category":"Bar","checkinsCount":2041,"usersCount":1238,"tipCount":18,"visitsCount":2093,"url":"http://jackpotdc.com","tier":2,"message":"Moderate","currency":"$","rating":7.4},{"name":"The House Nightclub","phone":"2028822014","address":"3530 Georgia Ave NW","lat":38.93399434189209,"lng":-77.02417653873644,"neighborhood":"Columbia Heights","city_fetched":"Washington,US","state":"D.C.","country":"United States","canonicalUrl":"https://foursquare.com/v/the-house-nightclub/4d1c1b5cd2a3a09029386772","categoryId":"4bf58dd8d48988d1d6941735","category":"Strip Club","checkinsCount":306,"usersCount":232,"tipCount":3,"visitsCount":348,"tier":"","message":"","currency":"","rating":7.4},{"name":"The Front Page","phone":"2022966500","twitter":"dcfrontpage","address":"1333 New Hampshire Ave NW","lat":38.908690479421274,"lng":-77.04410900257923,"neighborhood":"Connecticut Avenue - K Street","city_fetched":"Washington,US","state":"D.C.","country":"United States","canonicalUrl":"https://foursquare.com/v/the-front-page/40b13b00f964a5206cf41ee3","categoryId":"4bf58dd8d48988d11d941735","category":"Sports Bar","checkinsCount":20756,"usersCount":11413,"tipCount":142,"visitsCount":21408,"url":"http://www.dcfrontpage.com","tier":2,"message":"Moderate","currency":"$","rating":7.4},{"name":"Lima Restaurant & Lounge","phone":"2027892800","twitter":"limadc","address":"1401 K St. NW","lat":38.90259372994742,"lng":-77.03230735648627,"neighborhood":"Downtown-Penn Quarter-Chinatown","city_fetched":"Washington,US","state":"D.C.","country":"United States","canonicalUrl":"https://foursquare.com/v/lima-restaurant--lounge/45337bb5f964a520893b1fe3","categoryId":"4bf58dd8d48988d11f941735","category":"Nightclub","checkinsCount":12379,"usersCount":4931,"tipCount":73,"visitsCount":12447,"url":"http://www.limarestaurant.com","tier":3,"message":"Expensive","currency":"$","rating":7.4},{"name":"Gordon Biersch Brewery Restaurant","phone":"2024842739","twitter":"gordon_biersch","address":"100 M St SE","lat":38.87664647202104,"lng":-77.00575366303235,"neighborhood":"SW Ballpark - Navy Yard","city_fetched":"Washington,US","state":"D.C.","country":"United States","canonicalUrl":"https://foursquare.com/v/gordon-biersch-brewery-restaurant/5151e88fe4b09ffa3c513caf","categoryId":"50327c8591d4c4b30a586d5d","category":"Brewery","checkinsCount":6086,"usersCount":4471,"tipCount":42,"visitsCount":8195,"url":"http://gordonbiersch.com","tier":2,"message":"Moderate","currency":"$","rating":7.4},{"name":"Madhatter","phone":"2028331495","twitter":"madhatterdc","address":"1321 Connecticut Ave NW","lat":38.90785331441079,"lng":-77.0420953631401,"neighborhood":"Connecticut Avenue - K Street","city_fetched":"Washington,US","state":"D.C.","country":"United States","canonicalUrl":"https://foursquare.com/v/madhatter/3fd66200f964a520c3ed1ee3","categoryId":"4bf58dd8d48988d116941735","category":"Bar","checkinsCount":25889,"usersCount":13421,"tipCount":155,"visitsCount":26399,"url":"http://madhatterdc.com","tier":2,"message":"Moderate","currency":"$","rating":7.4},{"name":"Bourbon","phone":"2026257770","twitter":"bourbongp","address":"2348 Wisconsin Ave NW","lat":38.92107436766097,"lng":-77.07228899002075,"neighborhood":"Glover Park","city_fetched":"Washington,US","state":"D.C.","country":"United States","canonicalUrl":"https://foursquare.com/v/bourbon/441be59cf964a5204c311fe3","categoryId":"4bf58dd8d48988d122941735","category":"Whisky Bar","checkinsCount":6221,"usersCount":2272,"tipCount":54,"visitsCount":6280,"tier":2,"message":"Moderate","currency":"$","rating":7.3},{"name":"Avery's Bar & Lounge","phone":"2025252827","twitter":"averys_on_hst","address":"1370 H St NE","lat":38.90035539842301,"lng":-76.9859555149961,"neighborhood":"Capitol Hill","city_fetched":"Washington,US","state":"D.C.","country":"United States","canonicalUrl":"https://foursquare.com/averys_on_hst","categoryId":"4bf58dd8d48988d116941735","category":"Bar","checkinsCount":979,"usersCount":588,"tipCount":9,"visitsCount":1043,"url":"http://www.averysonhst.com","tier":"","message":"","currency":"","rating":7.3},{"name":"Slate Wine Bar + Bistro","phone":"2023334304","twitter":"slatewinebar","address":"2404 Wisconsin Ave NW","lat":38.92128738038501,"lng":-77.07220565794105,"neighborhood":"Glover Park","city_fetched":"Washington,US","state":"D.C.","country":"United States","canonicalUrl":"https://foursquare.com/v/slate-wine-bar--bistro/50397cf8e4b0ebdeac6b9d12","categoryId":"4bf58dd8d48988d123941735","category":"Wine Bar","checkinsCount":807,"usersCount":561,"tipCount":18,"visitsCount":820,"url":"http://slatewinebar.com","tier":"","message":"","currency":"","rating":7.3},{"name":"Chi-Cha Lounge","phone":"2022348400","twitter":"chichalounge","address":"1624 U St NW","lat":38.91690933189358,"lng":-77.03791876400373,"neighborhood":"U-Street","city_fetched":"Washington,US","state":"D.C.","country":"United States","canonicalUrl":"https://foursquare.com/v/chicha-lounge/40b13b00f964a5203cf41ee3","categoryId":"4bf58dd8d48988d119941735","category":"Hookah Bar","checkinsCount":5956,"usersCount":3410,"tipCount":46,"visitsCount":6087,"url":"http://latinconcepts.com/chicha.php","tier":2,"message":"Moderate","currency":"$","rating":7.3},{"name":"Timehri","phone":"2025182626","twitter":"clubtimehri","address":"2439 18th St NW","lat":38.921481618064135,"lng":-77.0422030501043,"neighborhood":"Adams Morgan","city_fetched":"Washington,US","state":"D.C.","country":"United States","canonicalUrl":"https://foursquare.com/v/timehri/4c31758966e40f472e1ec58b","categoryId":"4bf58dd8d48988d11f941735","category":"Nightclub","checkinsCount":352,"usersCount":193,"tipCount":4,"visitsCount":352,"tier":"","message":"","currency":"","rating":7.3},{"name":"Ventnor Sports Cafe","phone":"2022343070","twitter":"ventnorsports","address":"2411 18th St NW","lat":38.920777501730555,"lng":-77.04205124728693,"neighborhood":"Adams Morgan","city_fetched":"Washington,US","state":"D.C.","country":"United States","canonicalUrl":"https://foursquare.com/v/ventnor-sports-cafe/4a29fb4af964a520fd951fe3","categoryId":"4bf58dd8d48988d11d941735","category":"Sports Bar","checkinsCount":4978,"usersCount":2635,"tipCount":32,"visitsCount":5336,"url":"http://www.ventnorsportscafe.com","tier":2,"message":"Moderate","currency":"$","rating":7.3},{"name":"The Sheppard","phone":"2027444253","address":"1337 Connecticut Ave NW","lat":38.908246052954006,"lng":-77.04259098977106,"neighborhood":"Connecticut Avenue - K Street","city_fetched":"Washington,US","state":"D.C.","country":"United States","canonicalUrl":"https://foursquare.com/v/the-sheppard/53bb2549498eef5da2bcae3c","categoryId":"4bf58dd8d48988d1d4941735","category":"Speakeasy","checkinsCount":350,"usersCount":225,"tipCount":3,"visitsCount":354,"url":"http://www.dcsheppard.com","tier":"","message":"","currency":"","rating":7.3},{"name":"Safari D.C. Restaurant & Lounge","address":"4306 Georgia Ave NW","lat":38.942999084069314,"lng":-77.0261333829552,"neighborhood":"Petworth","city_fetched":"Washington,US","state":"D.C.","country":"United States","canonicalUrl":"https://foursquare.com/v/safari-dc-restaurant--lounge/510079ece4b0d01b4003f7f6","categoryId":"4bf58dd8d48988d121941735","category":"Lounge","checkinsCount":84,"usersCount":57,"tipCount":4,"visitsCount":89,"tier":"","message":"","currency":"","rating":7.3},{"name":"TRADE","lat":38.90914372048971,"lng":-77.03213867287074,"neighborhood":"Logan Circle - Shaw","city_fetched":"Washington,US","state":"D.C.","country":"United States","canonicalUrl":"https://foursquare.com/v/trade/56623375498e16a3d4901cd9","categoryId":"4bf58dd8d48988d1d8941735","category":"Gay Bar","checkinsCount":1510,"usersCount":615,"tipCount":7,"visitsCount":1817,"tier":"","message":"","currency":"","rating":7.3},{"name":"Carving Room Kitchen & Bar","phone":"2025252116","twitter":"carvingroom","address":"300 Massachusetts Ave NW","lat":38.89953249346599,"lng":-77.01626449281058,"neighborhood":"Downtown-Penn Quarter-Chinatown","city_fetched":"Washington,US","state":"D.C.","country":"United States","canonicalUrl":"https://foursquare.com/v/carving-room-kitchen--bar/5116d2ffe4b0543c89b398ce","categoryId":"4bf58dd8d48988d116941735","category":"Bar","checkinsCount":1770,"usersCount":1002,"tipCount":20,"visitsCount":1975,"url":"http://carvingroom.com","tier":2,"message":"Moderate","currency":"$","rating":7.3},{"name":"Policy Restaurant & Lounge","phone":"2023877654","twitter":"policydc","address":"1904 14th St NW","lat":38.91566124136727,"lng":-77.03198123461738,"neighborhood":"U-Street","city_fetched":"Washington,US","state":"D.C.","country":"United States","canonicalUrl":"https://foursquare.com/v/policy-restaurant--lounge/4a2d9fc5f964a520d7971fe3","categoryId":"4bf58dd8d48988d121941735","category":"Lounge","checkinsCount":11479,"usersCount":6115,"tipCount":71,"visitsCount":11708,"url":"http://www.policydc.com","tier":2,"message":"Moderate","currency":"$","rating":7.3},{"name":"The Pinch","phone":"2027224440","twitter":"thepinchdc","address":"3548 14th St NW","lat":38.935728388112885,"lng":-77.03295707702637,"neighborhood":"Columbia Heights","city_fetched":"Washington,US","state":"D.C.","country":"United States","canonicalUrl":"https://foursquare.com/v/the-pinch/4f9b346b6b74df5cf1d5c0c3","categoryId":"4bf58dd8d48988d116941735","category":"Bar","checkinsCount":2488,"usersCount":1409,"tipCount":30,"visitsCount":3205,"url":"http://www.thepinchdc.com","tier":2,"message":"Moderate","currency":"$","rating":7.3},{"name":"Stanton & Greene","phone":"2025253325","address":"319 Pennsylvania Ave SE","lat":38.88658352305546,"lng":-77.00136122741192,"neighborhood":"Capitol Hill","city_fetched":"Washington,US","state":"D.C.","country":"United States","canonicalUrl":"https://foursquare.com/v/stanton--greene/54ef1f12498ee0f30a9e48b6","categoryId":"4bf58dd8d48988d11e941735","category":"Cocktail Bar","checkinsCount":302,"usersCount":226,"tipCount":4,"visitsCount":310,"url":"http://www.stantonandgreene.com","tier":"","message":"","currency":"","rating":7.3},{"name":"Jimmy Valentine's Lonely Hearts Club","twitter":"jimmyvalentines","address":"1103 Bladensburg Rd NE","lat":38.903929307742544,"lng":-76.98067009449005,"neighborhood":"Trinidad - Langston","city_fetched":"Washington,US","state":"D.C.","country":"United States","canonicalUrl":"https://foursquare.com/v/jimmy-valentines-lonely-hearts-club/4a075333f964a5204b731fe3","categoryId":"4bf58dd8d48988d116941735","category":"Bar","checkinsCount":2314,"usersCount":940,"tipCount":20,"visitsCount":2763,"url":"http://jimmyvalentineslhc.com","tier":1,"message":"Cheap","currency":"$","rating":7.3},{"name":"Church & State","phone":"2023992323","address":"1236 H Street NE","lat":38.900282,"lng":-76.989004,"neighborhood":"Capitol Hill","city_fetched":"Washington,US","state":"D.C.","country":"United States","canonicalUrl":"https://foursquare.com/v/church--state/4d335d550c148eecefc5eb31","categoryId":"4bf58dd8d48988d11e941735","category":"Cocktail Bar","checkinsCount":1296,"usersCount":863,"tipCount":15,"visitsCount":1302,"url":"http://dcchurchandstate.com","tier":3,"message":"Expensive","currency":"$","rating":7.2},{"name":"Bin1301","phone":"2025067716","address":"1301 U St","lat":38.91699767367803,"lng":-77.03072734407144,"neighborhood":"U-Street","city_fetched":"Washington,US","state":"D.C.","country":"United States","canonicalUrl":"https://foursquare.com/v/bin1301/53aca827498e6360c16efdfe","categoryId":"4bf58dd8d48988d123941735","category":"Wine Bar","checkinsCount":482,"usersCount":285,"tipCount":4,"visitsCount":646,"url":"http://www.bin1301dc.com","tier":"","message":"","currency":"","rating":7.2},{"name":"Bravo Bar","phone":"2026292583","address":"2917 Georgia Ave NW","lat":38.927894394469014,"lng":-77.02291132090018,"neighborhood":"Pleasant Plains","city_fetched":"Washington,US","state":"D.C.","country":"United States","canonicalUrl":"https://foursquare.com/v/bravo-bar/52a6633f498ebbd8d49e6766","categoryId":"4bf58dd8d48988d116941735","category":"Bar","checkinsCount":528,"usersCount":296,"tipCount":6,"visitsCount":669,"tier":"","message":"","currency":"","rating":7.2},{"name":"Black Whiskey","address":"1410 14th St NW","lat":38.909256,"lng":-77.032222,"neighborhood":"Logan Circle - Shaw","city_fetched":"Washington,US","state":"D.C.","country":"United States","canonicalUrl":"https://foursquare.com/v/black-whiskey/514cfa2ae4b0e7ec6b6ffd13","categoryId":"4bf58dd8d48988d122941735","category":"Whisky Bar","checkinsCount":3359,"usersCount":2067,"tipCount":26,"visitsCount":3470,"tier":2,"message":"Moderate","currency":"$","rating":7.2},{"name":"The Dignitary","address":"901 Massachusetts Ave NW","lat":38.903104144317396,"lng":-77.02409219129193,"neighborhood":"Mount Vernon Square","city_fetched":"Washington,US","state":"D.C.","country":"United States","canonicalUrl":"https://foursquare.com/v/the-dignitary/534079a2498e9a7be7705d6b","categoryId":"4bf58dd8d48988d122941735","category":"Whisky Bar","checkinsCount":819,"usersCount":631,"tipCount":5,"visitsCount":899,"tier":2,"message":"Moderate","currency":"$","rating":7.2},{"name":"Stadium Club","phone":"2022694477","twitter":"thestadiumclub","address":"2127 Queens Chapel Rd NE","lat":38.919715172293515,"lng":-76.97225240990262,"neighborhood":"Langdon","city_fetched":"Washington,US","state":"D.C.","country":"United States","canonicalUrl":"https://foursquare.com/v/stadium-club/4bb0a18af964a520af503ce3","categoryId":"4bf58dd8d48988d1d6941735","category":"Strip Club","checkinsCount":4852,"usersCount":2495,"tipCount":49,"visitsCount":4964,"url":"http://stadiumclubdc.com","tier":"","message":"","currency":"","rating":7.2},{"name":"Dewar's 12 Clubhouse","address":"601 F St NW","lat":38.897868611507995,"lng":-77.02098816447598,"neighborhood":"Chinatown","city_fetched":"Washington,US","state":"D.C.","country":"United States","canonicalUrl":"https://foursquare.com/v/dewars-12-clubhouse/4ad87357f964a520771121e3","categoryId":"4bf58dd8d48988d11d941735","category":"Sports Bar","checkinsCount":1013,"usersCount":347,"tipCount":1,"visitsCount":1013,"tier":"","message":"","currency":"","rating":7.2},{"name":"Dodge City","phone":"7702468033","twitter":"dodgecity_dc","address":"917 U St NW","lat":38.917126758425105,"lng":-77.02475572293524,"neighborhood":"U-Street","city_fetched":"Washington,US","state":"D.C.","country":"United States","canonicalUrl":"https://foursquare.com/v/dodge-city/4bca91163740b7136c2e6165","categoryId":"4bf58dd8d48988d116941735","category":"Bar","checkinsCount":7463,"usersCount":3972,"tipCount":35,"visitsCount":7585,"url":"http://dodgecitydc.com","tier":2,"message":"Moderate","currency":"$","rating":7.2},{"name":"Larry's Lounge","phone":"2024831483","twitter":"larrysloungedc","address":"1840 18th St NW","lat":38.91550813371842,"lng":-77.04175326342413,"neighborhood":"Dupont Circle","city_fetched":"Washington,US","state":"D.C.","country":"United States","canonicalUrl":"https://foursquare.com/v/larrys-lounge/40b13b00f964a52095f41ee3","categoryId":"4bf58dd8d48988d1d8941735","category":"Gay Bar","checkinsCount":4372,"usersCount":1867,"tipCount":21,"visitsCount":4430,"url":"http://larryslounge-hub.com","tier":1,"message":"Cheap","currency":"$","rating":7.2},{"name":"R.F.D. Washington","phone":"2022892030","twitter":"rfdlovethebeer","address":"810 7th St NW","lat":38.90028062185359,"lng":-77.02211558818817,"neighborhood":"Chinatown","city_fetched":"Washington,US","state":"D.C.","country":"United States","canonicalUrl":"https://foursquare.com/v/rfd-washington/41366280f964a520c41a1fe3","categoryId":"4bf58dd8d48988d116941735","category":"Bar","checkinsCount":24205,"usersCount":12988,"tipCount":163,"visitsCount":24600,"url":"http://www.lovethebeer.com/rfd.html","tier":2,"message":"Moderate","currency":"$","rating":7.2},{"name":"Gordon Biersch Brewery Restaurant","phone":"2027835454","twitter":"gordon_biersch","address":"900 F St NW","lat":38.89719954886317,"lng":-77.02415943145752,"neighborhood":"Downtown-Penn Quarter-Chinatown","city_fetched":"Washington,US","state":"D.C.","country":"United States","canonicalUrl":"https://foursquare.com/v/gordon-biersch-brewery-restaurant/4a60f68af964a52091c11fe3","categoryId":"4bf58dd8d48988d116941735","category":"Bar","checkinsCount":12556,"usersCount":8515,"tipCount":102,"visitsCount":12704,"url":"http://gordonbiersch.com","tier":3,"message":"Expensive","currency":"$","rating":7.1},{"name":"Marquee Lounge at Omni Hotel","phone":"2022340700","twitter":"omnihotels","address":"2500 Calvert St NW","lat":38.92297726627725,"lng":-77.05388005047672,"neighborhood":"Woodley Park","city_fetched":"Washington,US","state":"D.C.","country":"United States","canonicalUrl":"https://foursquare.com/v/marquee-lounge-at-omni-hotel/4b638166f964a520347f2ae3","categoryId":"4bf58dd8d48988d1d5941735","category":"Hotel Bar","checkinsCount":753,"usersCount":461,"tipCount":11,"visitsCount":753,"url":"http://omnihotels.com","tier":"","message":"","currency":"","rating":7.1},{"name":"Union Pub","phone":"2025467200","twitter":"unionpub","address":"201 Massachusetts Ave NE","lat":38.89483789482808,"lng":-77.00272790494805,"neighborhood":"Capitol Hill","city_fetched":"Washington,US","state":"D.C.","country":"United States","canonicalUrl":"https://foursquare.com/v/union-pub/42eeb780f964a520ac261fe3","categoryId":"4bf58dd8d48988d11b941735","category":"Pub","checkinsCount":13105,"usersCount":5158,"tipCount":70,"visitsCount":14364,"url":"http://unionpubdc.com","tier":2,"message":"Moderate","currency":"$","rating":7.1},{"name":"Local 16","phone":"2022652828","twitter":"localsixteen","address":"1602 U St NW","lat":38.916858,"lng":-77.03712,"neighborhood":"U-Street","city_fetched":"Washington,US","state":"D.C.","country":"United States","canonicalUrl":"https://foursquare.com/v/local-16/40b3de00f964a5201c001fe3","categoryId":"4bf58dd8d48988d121941735","category":"Lounge","checkinsCount":17158,"usersCount":9306,"tipCount":88,"visitsCount":17325,"url":"http://www.localsixteen.com","tier":2,"message":"Moderate","currency":"$","rating":7.1},{"name":"The Saloon","phone":"2024622640","address":"1205 U St NW","lat":38.917162,"lng":-77.02865588,"neighborhood":"U-Street","city_fetched":"Washington,US","state":"D.C.","country":"United States","canonicalUrl":"https://foursquare.com/v/the-saloon/412bd680f964a520b60c1fe3","categoryId":"4bf58dd8d48988d11b941735","category":"Pub","checkinsCount":3522,"usersCount":2195,"tipCount":35,"visitsCount":3536,"tier":2,"message":"Moderate","currency":"$","rating":7.1},{"name":"Dr. Clock's Nowhere Bar","phone":"2024874615","address":"3523 12th St NE","lat":38.91946960714062,"lng":-77.04184055328369,"neighborhood":"Adams Morgan","city_fetched":"Washington,US","state":"D.C.","country":"United States","canonicalUrl":"https://foursquare.com/v/dr-clocks-nowhere-bar/510de142e4b0ca91f2f8b669","categoryId":"4bf58dd8d48988d118941735","category":"Dive Bar","checkinsCount":313,"usersCount":166,"tipCount":3,"visitsCount":315,"tier":1,"message":"Cheap","currency":"$","rating":7.1},{"name":"Rustik Tavern","phone":"2022902936","address":"84 T St NW","lat":38.91541476443963,"lng":-77.01195538043976,"neighborhood":"LeDroit Park - Bloomingdale","city_fetched":"Washington,US","state":"D.C.","country":"United States","canonicalUrl":"https://foursquare.com/v/rustik-tavern/4c5b5a636147be9ae8878c09","categoryId":"4bf58dd8d48988d11b941735","category":"Pub","checkinsCount":4594,"usersCount":1897,"tipCount":56,"visitsCount":4658,"url":"http://www.rustikdc.com","tier":2,"message":"Moderate","currency":"$","rating":7.1},{"name":"Muzette","address":"2305 18th St NW","lat":38.91977890864792,"lng":-77.04148339061231,"neighborhood":"Adams Morgan","city_fetched":"Washington,US","state":"D.C.","country":"United States","canonicalUrl":"https://foursquare.com/v/muzette/4cf99602084f54810a027609","categoryId":"4bf58dd8d48988d120941735","category":"Karaoke Bar","checkinsCount":2888,"usersCount":2089,"tipCount":18,"visitsCount":2961,"url":"http://muzette.com","tier":"","message":"","currency":"","rating":7.1},{"name":"Opera Ultra Lounge","phone":"2022891400","twitter":"operadc","address":"1400 I St NW","lat":38.90129538359046,"lng":-77.032267996997,"neighborhood":"Downtown-Penn Quarter-Chinatown","city_fetched":"Washington,US","state":"D.C.","country":"United States","canonicalUrl":"https://foursquare.com/v/opera-ultra-lounge/4dc828ee45dd264552b1d402","categoryId":"4bf58dd8d48988d11f941735","category":"Nightclub","checkinsCount":3882,"usersCount":2004,"tipCount":17,"visitsCount":4034,"url":"http://www.operadc.com","tier":"","message":"","currency":"","rating":7.1},{"name":"The Fireplace","phone":"2022931293","address":"2161 P St NW","lat":38.90965244068918,"lng":-77.04866409301758,"neighborhood":"Dupont Circle","city_fetched":"Washington,US","state":"D.C.","country":"United States","canonicalUrl":"https://foursquare.com/v/the-fireplace/40b13b00f964a52066f41ee3","categoryId":"4bf58dd8d48988d1d8941735","category":"Gay Bar","checkinsCount":8856,"usersCount":2076,"tipCount":37,"visitsCount":9969,"url":"http://www.fireplacedc.com","tier":1,"message":"Cheap","currency":"$","rating":7.1},{"name":"Zeba","phone":"2025064603","twitter":"zebabar","address":"3423 14th St NW","lat":38.9322647,"lng":-77.0324402,"neighborhood":"Columbia Heights","city_fetched":"Washington,US","state":"D.C.","country":"United States","canonicalUrl":"https://foursquare.com/v/zeba/4e0ea417e4cd27fc7d323989","categoryId":"4bf58dd8d48988d116941735","category":"Bar","checkinsCount":3084,"usersCount":1481,"tipCount":17,"visitsCount":3491,"url":"http://www.zebabar.com","tier":1,"message":"Cheap","currency":"$","rating":7.1},{"name":"Bourbon","phone":"2023320800","twitter":"bourbon_admo","address":"2321 18th St NW","lat":38.920236,"lng":-77.041704,"neighborhood":"Adams Morgan","city_fetched":"Washington,US","state":"D.C.","country":"United States","canonicalUrl":"https://foursquare.com/v/bourbon/450c3e56f964a52050391fe3","categoryId":"4bf58dd8d48988d122941735","category":"Whisky Bar","checkinsCount":9756,"usersCount":5115,"tipCount":78,"visitsCount":9852,"url":"http://bourbondc.com","tier":2,"message":"Moderate","currency":"$","rating":7.1},{"name":"Modern","phone":"2023387027","twitter":"moderndc","address":"3287 M St NW","lat":38.905155,"lng":-77.06557,"neighborhood":"Georgetown","city_fetched":"Washington,US","state":"D.C.","country":"United States","canonicalUrl":"https://foursquare.com/v/modern/40b13b00f964a520acf41ee3","categoryId":"4bf58dd8d48988d11f941735","category":"Nightclub","checkinsCount":1547,"usersCount":767,"tipCount":6,"visitsCount":1550,"url":"http://www.modern-dc.com","tier":"","message":"","currency":"","rating":7.1},{"name":"Tunnicliff's Tavern","phone":"2025445680","twitter":"tunnicliffs","address":"222 7th St SE","lat":38.88659846771609,"lng":-76.99595868587494,"neighborhood":"Capitol Hill","city_fetched":"Washington,US","state":"D.C.","country":"United States","canonicalUrl":"https://foursquare.com/v/tunnicliffs-tavern/40b13b00f964a52079f71ee3","categoryId":"4bf58dd8d48988d11b941735","category":"Pub","checkinsCount":10015,"usersCount":3423,"tipCount":48,"visitsCount":10270,"url":"http://www.tunnicliffs.com","tier":2,"message":"Moderate","currency":"$","rating":7.1},{"name":"Eden Rooftop","address":"1716 I St NW","lat":38.901123035018074,"lng":-77.04035329166628,"neighborhood":"Connecticut Avenue - K Street","city_fetched":"Washington,US","state":"D.C.","country":"United States","canonicalUrl":"https://foursquare.com/v/eden-rooftop/4d8d661b788c5481683f21fd","categoryId":"4bf58dd8d48988d11f941735","category":"Nightclub","checkinsCount":466,"usersCount":274,"tipCount":3,"visitsCount":468,"url":"http://edendc.com","tier":"","message":"","currency":"","rating":7.1},{"name":"Lucky Bar","phone":"2023313733","twitter":"luckybardc","address":"1221 Connecticut Ave NW","lat":38.906639969942,"lng":-77.0412528737749,"neighborhood":"Connecticut Avenue - K Street","city_fetched":"Washington,US","state":"D.C.","country":"United States","canonicalUrl":"https://foursquare.com/v/lucky-bar/3fd66200f964a520c5ed1ee3","categoryId":"4bf58dd8d48988d11d941735","category":"Sports Bar","checkinsCount":13273,"usersCount":7051,"tipCount":74,"visitsCount":13418,"url":"http://www.luckybardc.com","tier":2,"message":"Moderate","currency":"$","rating":7.1},{"name":"Good Guys Club","phone":"2023338128","twitter":"goodguysclubdc","address":"2311 Wisconsin Ave NW","lat":38.92062188,"lng":-77.07165781,"neighborhood":"Glover Park","city_fetched":"Washington,US","state":"D.C.","country":"United States","canonicalUrl":"https://foursquare.com/v/good-guys-club/40b13b00f964a52075f41ee3","categoryId":"4bf58dd8d48988d1d6941735","category":"Strip Club","checkinsCount":1598,"usersCount":632,"tipCount":5,"visitsCount":1648,"url":"http://www.goodguysclub.com","tier":"","message":"","currency":"","rating":7.1},{"name":"Canteen","twitter":"canteen2100m","address":"2100 M St NW","lat":38.90553401234972,"lng":-77.04704377324475,"neighborhood":"Connecticut Avenue - K Street","city_fetched":"Washington,US","state":"D.C.","country":"United States","canonicalUrl":"https://foursquare.com/v/canteen/5761b759498e1dbf2d42e822","categoryId":"4bf58dd8d48988d117941735","category":"Beer Garden","checkinsCount":78,"usersCount":59,"tipCount":3,"visitsCount":80,"url":"http://canteen.com","tier":"","message":"","currency":"","rating":7},{"name":"L2 Lounge","phone":"2029652001","twitter":"l2lounge","address":"3315 Cady's Alley NW","lat":38.9047600464012,"lng":-77.06694602966309,"neighborhood":"Georgetown","city_fetched":"Washington,US","state":"D.C.","country":"United States","canonicalUrl":"https://foursquare.com/v/l2-lounge/4a3db5cbf964a5209fa21fe3","categoryId":"4bf58dd8d48988d1d4941735","category":"Speakeasy","checkinsCount":3295,"usersCount":1541,"tipCount":16,"visitsCount":3323,"url":"http://www.l2lounge.com","tier":"","message":"","currency":"","rating":7},{"name":"Twisted Horn","address":"819 Upshur St NW","lat":38.94195548125396,"lng":-77.0242777555923,"neighborhood":"Petworth","city_fetched":"Washington,US","state":"D.C.","country":"United States","canonicalUrl":"https://foursquare.com/v/twisted-horn/56904e3e498ed48be4a98e97","categoryId":"4bf58dd8d48988d11e941735","category":"Cocktail Bar","checkinsCount":157,"usersCount":101,"tipCount":3,"visitsCount":159,"tier":"","message":"","currency":"","rating":7},{"name":"Beacon Bar and Grill","phone":"2028721126","twitter":"beaconhotelwdc","address":"1615 Rhode Island Ave NW","lat":38.90684783333333,"lng":-77.038219,"neighborhood":"Dupont Circle","city_fetched":"Washington,US","state":"D.C.","country":"United States","canonicalUrl":"https://foursquare.com/v/beacon-bar-and-grill/4a345574f964a520169c1fe3","categoryId":"4bf58dd8d48988d1d5941735","category":"Hotel Bar","checkinsCount":9494,"usersCount":6125,"tipCount":66,"visitsCount":9792,"url":"http://www.bbgwdc.com","tier":2,"message":"Moderate","currency":"$","rating":7},{"name":"Red Light","address":"1401 R St NW","lat":38.912696647253014,"lng":-77.0320655765643,"neighborhood":"Logan Circle - Shaw","city_fetched":"Washington,US","state":"D.C.","country":"United States","canonicalUrl":"https://foursquare.com/v/red-light/5349bdc9498ef20282e11b4f","categoryId":"4bf58dd8d48988d11e941735","category":"Cocktail Bar","checkinsCount":1120,"usersCount":1011,"tipCount":12,"visitsCount":1353,"tier":2,"message":"Moderate","currency":"$","rating":7},{"name":"Bliss Club DC","lat":38.9199291857881,"lng":-76.97149858189043,"neighborhood":"Langdon","city_fetched":"Washington,US","state":"D.C.","country":"United States","canonicalUrl":"https://foursquare.com/v/bliss-club-dc/54bb3614498ec3ed3da041b2","categoryId":"4bf58dd8d48988d11f941735","category":"Nightclub","checkinsCount":178,"usersCount":200,"tipCount":1,"visitsCount":257,"tier":"","message":"","currency":"","rating":7},{"name":"Iron Horse Tap Room","phone":"2023477665","twitter":"ironhorsedc","address":"507 7th St NW","lat":38.896316533787335,"lng":-77.021723985672,"neighborhood":"Penn Quarter","city_fetched":"Washington,US","state":"D.C.","country":"United States","canonicalUrl":"https://foursquare.com/v/iron-horse-tap-room/4b4fb528f964a520e11127e3","categoryId":"4bf58dd8d48988d116941735","category":"Bar","checkinsCount":20516,"usersCount":9567,"tipCount":105,"visitsCount":20819,"url":"http://www.ironhorsedc.com","tier":2,"message":"Moderate","currency":"$","rating":7},{"name":"Nomad Hookah Bar","phone":"2023266623","twitter":"nomadhookah","address":"1200 H St NE","lat":38.900301495875894,"lng":-76.99010610580444,"neighborhood":"Capitol Hill","city_fetched":"Washington,US","state":"D.C.","country":"United States","canonicalUrl":"https://foursquare.com/nomadhookah","categoryId":"4bf58dd8d48988d119941735","category":"Hookah Bar","checkinsCount":461,"usersCount":314,"tipCount":6,"visitsCount":482,"tier":2,"message":"Moderate","currency":"$","rating":7},{"name":"Empress Lounge at Mandarin Oriental, Washington D.C.","phone":"2027876868","twitter":"mo_hotels","address":"1330 Maryland Ave SW","lat":38.88387258934918,"lng":-77.03021566303009,"neighborhood":"Southwest Employment Area","city_fetched":"Washington,US","state":"D.C.","country":"United States","canonicalUrl":"https://foursquare.com/v/empress-lounge-at-mandarin-oriental-washington-dc/4c101764ce57c928025381d2","categoryId":"4bf58dd8d48988d121941735","category":"Lounge","checkinsCount":626,"usersCount":410,"tipCount":6,"visitsCount":627,"url":"http://www.mandarinoriental.com","tier":"","message":"","currency":"","rating":7},{"name":"the brig","phone":"2026751000","twitter":"beergardenlive","address":"1007 8th Street SE","lat":38.877754,"lng":-76.995258,"neighborhood":"SW Ballpark - Navy Yard","city_fetched":"Washington,US","state":"D.C.","country":"United States","canonicalUrl":"https://foursquare.com/v/the-brig/576478a8498ea13a28488ea0","categoryId":"4bf58dd8d48988d117941735","category":"Beer Garden","checkinsCount":201,"usersCount":220,"tipCount":3,"visitsCount":288,"url":"http://thebrigdc.com","tier":"","message":"","currency":"","rating":7},{"name":"Le Bar @ Sofitel DC","phone":"2027308700","address":"806 15th St NW","lat":38.90027258571429,"lng":-77.033628,"neighborhood":"Connecticut Avenue - K Street","city_fetched":"Washington,US","state":"D.C.","country":"United States","canonicalUrl":"https://foursquare.com/v/le-bar--sofitel-dc/4b761135f964a5206d3a2ee3","categoryId":"4bf58dd8d48988d116941735","category":"Bar","checkinsCount":1464,"usersCount":968,"tipCount":12,"visitsCount":1468,"url":"http://colettebarandbistro.com","tier":2,"message":"Moderate","currency":"$","rating":7},{"name":"Bottom Line","phone":"2022988488","twitter":"bottomlinedc","address":"1716 I St NW","lat":38.90146550133789,"lng":-77.04031955720693,"neighborhood":"Connecticut Avenue - K Street","city_fetched":"Washington,US","state":"D.C.","country":"United States","canonicalUrl":"https://foursquare.com/v/bottom-line/40b13b00f964a52023f41ee3","categoryId":"4bf58dd8d48988d11d941735","category":"Sports Bar","checkinsCount":8837,"usersCount":3429,"tipCount":60,"visitsCount":9213,"url":"http://www.thebottomlinedc.com","tier":1,"message":"Cheap","currency":"$","rating":7},{"name":"Eden","phone":"2029059300","twitter":"clubedendc","address":"1716 I St NW","lat":38.90124477861089,"lng":-77.0403870261162,"neighborhood":"Connecticut Avenue - K Street","city_fetched":"Washington,US","state":"D.C.","country":"United States","canonicalUrl":"https://foursquare.com/v/eden/4c06fc128b4520a15b518697","categoryId":"4bf58dd8d48988d11f941735","category":"Nightclub","checkinsCount":6360,"usersCount":3426,"tipCount":34,"visitsCount":6541,"url":"http://edendc.com","tier":3,"message":"Expensive","currency":"$","rating":7},{"name":"The Scotch Bar at The Willard Hotel","address":"Willard Hotel","lat":38.89639518742988,"lng":-77.03192500662009,"neighborhood":"Downtown-Penn Quarter-Chinatown","city_fetched":"Washington,US","state":"D.C.","country":"United States","canonicalUrl":"https://foursquare.com/v/the-scotch-bar-at-the-willard-hotel/4dcf0648ae603b786d3f3e44","categoryId":"4bf58dd8d48988d1d5941735","category":"Hotel Bar","checkinsCount":123,"usersCount":98,"tipCount":4,"visitsCount":123,"tier":"","message":"","currency":"","rating":7},{"name":"DC Eagle","twitter":"dc_eagle","address":"3701 Benning Rd NE","lat":38.89507125826754,"lng":-76.95082275169837,"neighborhood":"Benning","city_fetched":"Washington,US","state":"D.C.","country":"United States","canonicalUrl":"https://foursquare.com/v/dc-eagle/54c44e5f498ecb20e89832a3","categoryId":"4bf58dd8d48988d1d8941735","category":"Gay Bar","checkinsCount":213,"usersCount":204,"tipCount":0,"visitsCount":457,"url":"http://www.dceagle.com","tier":"","message":"","currency":"","rating":7},{"name":"Marriott Wardman Park Lobby Bar","address":"2660 Woodley Rd NW","lat":38.92440849870964,"lng":-77.05467834049269,"neighborhood":"Woodley Park","city_fetched":"Washington,US","state":"D.C.","country":"United States","canonicalUrl":"https://foursquare.com/v/marriott-wardman-park-lobby-bar/4b0b121ef964a5206b2c23e3","categoryId":"4bf58dd8d48988d1d5941735","category":"Hotel Bar","checkinsCount":1303,"usersCount":874,"tipCount":9,"visitsCount":1320,"url":"http://marriott.com","tier":"","message":"","currency":"","rating":7},{"name":"Desperados","phone":"2022990443","address":"1342 U St NW","lat":38.91703389578584,"lng":-77.03124464578171,"neighborhood":"U-Street","city_fetched":"Washington,US","state":"D.C.","country":"United States","canonicalUrl":"https://foursquare.com/v/desperados/4c59ebf1d3aee21e8b766955","categoryId":"4bf58dd8d48988d116941735","category":"Bar","checkinsCount":2709,"usersCount":1752,"tipCount":36,"visitsCount":2736,"url":"http://desperadosburgersbar.com","tier":2,"message":"Moderate","currency":"$","rating":7},{"name":"Ozio Restaurant & Lounge","phone":"2028226000","twitter":"ozio_dc","address":"1813 M St Nw","lat":38.90578697623218,"lng":-77.0424735546112,"neighborhood":"Connecticut Avenue - K Street","city_fetched":"Washington,US","state":"D.C.","country":"United States","canonicalUrl":"https://foursquare.com/v/ozio-restaurant--lounge/40b13b00f964a520c4f41ee3","categoryId":"4bf58dd8d48988d121941735","category":"Lounge","checkinsCount":9523,"usersCount":4582,"tipCount":46,"visitsCount":9908,"url":"http://www.oziodc.com","tier":2,"message":"Moderate","currency":"$","rating":6.9},{"name":"Mason Inn","phone":"2023371313","twitter":"masoninndc","address":"2408 Wisconsin Ave NW","lat":38.92130600109751,"lng":-77.07234263420105,"neighborhood":"Glover Park","city_fetched":"Washington,US","state":"D.C.","country":"United States","canonicalUrl":"https://foursquare.com/masoninndc","categoryId":"4bf58dd8d48988d11d941735","category":"Sports Bar","checkinsCount":5344,"usersCount":2010,"tipCount":15,"visitsCount":5506,"url":"http://www.masoninndc.com","tier":2,"message":"Moderate","currency":"$","rating":6.9},{"name":"Taste Lounge","address":"1812 Hamlin St NE","lat":38.92837246,"lng":-76.9783112,"neighborhood":"Brookland","city_fetched":"Washington,US","state":"D.C.","country":"United States","canonicalUrl":"https://foursquare.com/v/taste-lounge/4d1ffdb4dd6a236a53f73338","categoryId":"4bf58dd8d48988d121941735","category":"Lounge","checkinsCount":315,"usersCount":118,"tipCount":7,"visitsCount":346,"tier":"","message":"","currency":"","rating":6.9},{"name":"Capital Hilton Executive Lounge","phone":"2023931000","address":"1001 16th St NW","lat":38.903093166536145,"lng":-77.03651312524302,"neighborhood":"Connecticut Avenue - K Street","city_fetched":"Washington,US","state":"D.C.","country":"United States","canonicalUrl":"https://foursquare.com/v/capital-hilton-executive-lounge/4c63e69958810f4700ba0a1e","categoryId":"4bf58dd8d48988d121941735","category":"Lounge","checkinsCount":1526,"usersCount":720,"tipCount":7,"visitsCount":1530,"url":"http://www3.hilton.com/en/hotels/district-of-columbia/capital-hilton-DCASHHH/","tier":"","message":"","currency":"","rating":6.9},{"name":"The Reliable Source at The National Press Club","phone":"2026627443","address":"529 14th St NW","lat":38.89708936214447,"lng":-77.03167498111725,"neighborhood":"Downtown-Penn Quarter-Chinatown","city_fetched":"Washington,US","state":"D.C.","country":"United States","canonicalUrl":"https://foursquare.com/v/the-reliable-source-at-the-national-press-club/4b22768af964a5202b4724e3","categoryId":"4bf58dd8d48988d116941735","category":"Bar","checkinsCount":396,"usersCount":88,"tipCount":8,"visitsCount":397,"tier":"","message":"","currency":"","rating":6.9},{"name":"Maddy's Tap Room","phone":"2024085500","twitter":"maddystap","address":"1100 13th St NW","lat":38.90380497724414,"lng":-77.0297264714399,"neighborhood":"Downtown-Penn Quarter-Chinatown","city_fetched":"Washington,US","state":"D.C.","country":"United States","canonicalUrl":"https://foursquare.com/v/maddys-tap-room/506b19b3e4b04c2e39a76d58","categoryId":"4bf58dd8d48988d116941735","category":"Bar","checkinsCount":4661,"usersCount":2528,"tipCount":50,"visitsCount":5627,"url":"http://www.maddystaproom.com","tier":2,"message":"Moderate","currency":"$","rating":6.9},{"name":"Wunder Garten","phone":"2027167302","twitter":"wundergartendc","address":"150 M St NE","lat":38.906163777316195,"lng":-77.00388647550326,"neighborhood":"NoMa","city_fetched":"Washington,US","state":"D.C.","country":"United States","canonicalUrl":"https://foursquare.com/v/wunder-garten/555d394d498e47aafff0ca41","categoryId":"4bf58dd8d48988d117941735","category":"Beer Garden","checkinsCount":323,"usersCount":269,"tipCount":2,"visitsCount":421,"url":"http://wundergartendc.com","tier":"","message":"","currency":"","rating":6.9},{"name":"The Manor","phone":"2025067776","twitter":"themanordc","address":"1327 Connecticut Ave NW","lat":38.90803972567515,"lng":-77.04231549651273,"neighborhood":"Connecticut Avenue - K Street","city_fetched":"Washington,US","state":"D.C.","country":"United States","canonicalUrl":"https://foursquare.com/v/the-manor/542a1a7a498ef4e6e7cbe1f7","categoryId":"4bf58dd8d48988d121941735","category":"Lounge","checkinsCount":685,"usersCount":412,"tipCount":6,"visitsCount":728,"url":"http://www.themanordc.com","tier":2,"message":"Moderate","currency":"$","rating":6.9},{"name":"Quadrant Bar and Lounge","phone":"2028350500","address":"1150 22nd St NW","lat":38.904758,"lng":-77.048744,"neighborhood":"West End","city_fetched":"Washington,US","state":"D.C.","country":"United States","canonicalUrl":"https://foursquare.com/v/quadrant-bar-and-lounge/560dfc76498ef02048c65c8c","categoryId":"4bf58dd8d48988d121941735","category":"Lounge","checkinsCount":121,"usersCount":41,"tipCount":2,"visitsCount":121,"url":"http://ritzcarlton.com","tier":"","message":"","currency":"","rating":6.9},{"name":"The Black Rooster","phone":"2026594431","twitter":"blackroosterpub","address":"1919 L St NW","lat":38.90373286962042,"lng":-77.04428329171785,"neighborhood":"Connecticut Avenue - K Street","city_fetched":"Washington,US","state":"D.C.","country":"United States","canonicalUrl":"https://foursquare.com/v/the-black-rooster/49c12729f964a52086551fe3","categoryId":"4bf58dd8d48988d11b941735","category":"Pub","checkinsCount":3338,"usersCount":1707,"tipCount":18,"visitsCount":3406,"url":"http://www.blackroosterpub.com","tier":2,"message":"Moderate","currency":"$","rating":6.8},{"name":"Rebellion DC","twitter":"rebelliondc","address":"1836 18th Street NW","lat":38.915253,"lng":-77.041602,"neighborhood":"Dupont Circle","city_fetched":"Washington,US","state":"D.C.","country":"United States","canonicalUrl":"https://foursquare.com/v/rebellion-dc/531b657e498ec9de9b7aafa1","categoryId":"4bf58dd8d48988d116941735","category":"Bar","checkinsCount":2054,"usersCount":1157,"tipCount":20,"visitsCount":2196,"url":"http://rebelliondc.com","tier":2,"message":"Moderate","currency":"$","rating":6.8},{"name":"Café Citron","phone":"2025308844","address":"1343 Connecticut Ave NW","lat":38.90832107954709,"lng":-77.0427034358184,"neighborhood":"Connecticut Avenue - K Street","city_fetched":"Washington,US","state":"D.C.","country":"United States","canonicalUrl":"https://foursquare.com/v/caf%C3%A9-citron/3fd66200f964a520c4f01ee3","categoryId":"4bf58dd8d48988d11f941735","category":"Nightclub","checkinsCount":6857,"usersCount":4156,"tipCount":49,"visitsCount":6912,"url":"http://www.cafecitrondc.com","tier":2,"message":"Moderate","currency":"$","rating":6.8},{"name":"JPs Lounge","phone":"2023337607","twitter":"jpsloungedc","address":"2412 Wisconsin Ave NW","lat":38.92141660057979,"lng":-77.07243651151657,"neighborhood":"Glover Park","city_fetched":"Washington,US","state":"D.C.","country":"United States","canonicalUrl":"https://foursquare.com/v/jps-lounge/51e967728bbd8ad043606d94","categoryId":"4bf58dd8d48988d1d6941735","category":"Strip Club","checkinsCount":112,"usersCount":86,"tipCount":3,"visitsCount":113,"url":"http://www.jpsloungedc.com","tier":"","message":"","currency":"","rating":6.8},{"name":"Apple Lounge","lat":38.91703601626602,"lng":-77.02785403018659,"neighborhood":"U-Street","city_fetched":"Washington,US","state":"D.C.","country":"United States","canonicalUrl":"https://foursquare.com/v/apple-lounge/53d49990498e2d92df9f7c13","categoryId":"4bf58dd8d48988d119941735","category":"Hookah Bar","checkinsCount":542,"usersCount":252,"tipCount":4,"visitsCount":566,"url":"http://appleloungedc.com","tier":"","message":"","currency":"","rating":6.8},{"name":"Marrakesh Palace","phone":"2027751882","address":"2147 P St NW","lat":38.90977599851872,"lng":-77.04828625044588,"neighborhood":"Dupont Circle","city_fetched":"Washington,US","state":"D.C.","country":"United States","canonicalUrl":"https://foursquare.com/v/marrakesh-palace/4b340933f964a520312425e3","categoryId":"4bf58dd8d48988d121941735","category":"Lounge","checkinsCount":866,"usersCount":752,"tipCount":14,"visitsCount":885,"url":"http://marrakeshpalace.com","tier":2,"message":"Moderate","currency":"$","rating":6.8},{"name":"Froggy Bottom Pub","phone":"2023383000","twitter":"froggybottompub","address":"2021 K St NW","lat":38.902490773116355,"lng":-77.04587999341057,"neighborhood":"Connecticut Avenue - K Street","city_fetched":"Washington,US","state":"D.C.","country":"United States","canonicalUrl":"https://foursquare.com/v/froggy-bottom-pub/40be6a00f964a520c7001fe3","categoryId":"4bf58dd8d48988d11b941735","category":"Pub","checkinsCount":5504,"usersCount":2541,"tipCount":41,"visitsCount":5665,"url":"http://froggybottompub.com","tier":2,"message":"Moderate","currency":"$","rating":6.8},{"name":"Sauf Haus Bier Hall & Garden","phone":"2024663355","twitter":"sauf_haus_dc","address":"1216 18th St NW","lat":38.906344267300476,"lng":-77.04194784164429,"neighborhood":"Connecticut Avenue - K Street","city_fetched":"Washington,US","state":"D.C.","country":"United States","canonicalUrl":"https://foursquare.com/v/sauf-haus-bier-hall--garden/53cf1c56498e8b7355e6c5e5","categoryId":"4bf58dd8d48988d117941735","category":"Beer Garden","checkinsCount":2936,"usersCount":1947,"tipCount":29,"visitsCount":3032,"url":"http://www.saufhausdc.com","tier":"","message":"","currency":"","rating":6.8},{"name":"Spellbound 1823 L Street","address":"1823 L St.","lat":38.90372305112357,"lng":-77.04266407971373,"neighborhood":"Connecticut Avenue - K Street","city_fetched":"Washington,US","state":"D.C.","country":"United States","canonicalUrl":"https://foursquare.com/v/spellbound-1823-l-street/50024952e4b042c51cb41b6c","categoryId":"4bf58dd8d48988d116941735","category":"Bar","checkinsCount":523,"usersCount":99,"tipCount":4,"visitsCount":549,"tier":"","message":"","currency":"","rating":6.8},{"name":"Capitol Lounge","phone":"2025472098","twitter":"caplounge","address":"229 Pennsylvania Ave SE","lat":38.88707716731544,"lng":-77.00236795844707,"neighborhood":"Capitol Hill","city_fetched":"Washington,US","state":"D.C.","country":"United States","canonicalUrl":"https://foursquare.com/v/capitol-lounge/40b13b00f964a52033f41ee3","categoryId":"4bf58dd8d48988d116941735","category":"Bar","checkinsCount":10858,"usersCount":4337,"tipCount":50,"visitsCount":11512,"url":"http://capitolloungedc.com","tier":2,"message":"Moderate","currency":"$","rating":6.8},{"name":"The High Dive","address":"2337 18th St NW","lat":38.92062153254231,"lng":-77.04175740480423,"neighborhood":"Adams Morgan","city_fetched":"Washington,US","state":"D.C.","country":"United States","canonicalUrl":"https://foursquare.com/v/the-high-dive/5540047c498e1a8c728f3612","categoryId":"4bf58dd8d48988d118941735","category":"Dive Bar","checkinsCount":246,"usersCount":107,"tipCount":2,"visitsCount":261,"tier":"","message":"","currency":"","rating":6.8},{"name":"Hawthorne","phone":"2028539194","twitter":"hawthorneust","address":"1336 U St NW","lat":38.91702571987169,"lng":-77.03107596068442,"neighborhood":"U-Street","city_fetched":"Washington,US","state":"D.C.","country":"United States","canonicalUrl":"https://foursquare.com/v/hawthorne/561ebd4b498e059a2a855a0d","categoryId":"4bf58dd8d48988d116941735","category":"Bar","checkinsCount":588,"usersCount":445,"tipCount":1,"visitsCount":614,"url":"http://www.hawthornedc.com","tier":"","message":"","currency":"","rating":6.7},{"name":"Sutra Lounge","address":"2406 18th street","lat":38.920887,"lng":-77.042181,"neighborhood":"Adams Morgan","city_fetched":"Washington,US","state":"D.C.","country":"United States","canonicalUrl":"https://foursquare.com/v/sutra-lounge/4b492d74f964a520fc6826e3","categoryId":"4bf58dd8d48988d121941735","category":"Lounge","checkinsCount":942,"usersCount":601,"tipCount":10,"visitsCount":942,"url":"http://www.sutraloungeadamsmorgan.com","tier":"","message":"","currency":"","rating":6.7},{"name":"Penn Quarter Sports Tavern","phone":"2023477939","twitter":"pqst","address":"639 Indiana Ave. NW","lat":38.8940256383127,"lng":-77.02157861048592,"neighborhood":"Penn Quarter","city_fetched":"Washington,US","state":"D.C.","country":"United States","canonicalUrl":"https://foursquare.com/v/penn-quarter-sports-tavern/4ac69b75f964a52067b520e3","categoryId":"4bf58dd8d48988d11d941735","category":"Sports Bar","checkinsCount":9092,"usersCount":5644,"tipCount":70,"visitsCount":9545,"url":"http://www.dcsportstavern.com","tier":2,"message":"Moderate","currency":"$","rating":6.7},{"name":"Soussi","phone":"2022999314","twitter":"soussidc","address":"2228 18th St NW","lat":38.91962872065375,"lng":-77.04177013045485,"neighborhood":"Adams Morgan","city_fetched":"Washington,US","state":"D.C.","country":"United States","canonicalUrl":"https://foursquare.com/v/soussi/40b3de00f964a5201e001fe3","categoryId":"4bf58dd8d48988d119941735","category":"Hookah Bar","checkinsCount":3863,"usersCount":2374,"tipCount":51,"visitsCount":4129,"url":"http://soussiindc.com","tier":1,"message":"Cheap","currency":"$","rating":6.7},{"name":"Crystal City Restaurant","phone":"7038920726","address":"422 23rd St S","lat":38.85326475,"lng":-77.05314,"city_fetched":"Washington,US","state":"VA","country":"United States","canonicalUrl":"https://foursquare.com/v/crystal-city-restaurant/4b29bed2f964a52017a324e3","categoryId":"4bf58dd8d48988d1d6941735","category":"Strip Club","checkinsCount":1588,"usersCount":892,"tipCount":15,"visitsCount":1608,"url":"http://crystalcityrestaurant.com","tier":"","message":"","currency":"","rating":6.7},{"name":"M Street Bar & Grill","phone":"2025303621","address":"2033 M St NW","lat":38.905778,"lng":-77.046144,"neighborhood":"Connecticut Avenue - K Street","city_fetched":"Washington,US","state":"D.C.","country":"United States","canonicalUrl":"https://foursquare.com/v/m-street-bar--grill/45a756e3f964a52014411fe3","categoryId":"4bf58dd8d48988d121941735","category":"Lounge","checkinsCount":2553,"usersCount":1894,"tipCount":22,"visitsCount":2626,"url":"http://www.mstreetdc.com","tier":2,"message":"Moderate","currency":"$","rating":6.7},{"name":"Degrees Bistro","phone":"2029124100","twitter":"ritzcarlton","address":"3100 South St NW","lat":38.90315187056989,"lng":-77.06177277030812,"neighborhood":"Georgetown","city_fetched":"Washington,US","state":"D.C.","country":"United States","canonicalUrl":"https://foursquare.com/v/degrees-bistro/412fcb00f964a520260d1fe3","categoryId":"4bf58dd8d48988d1d5941735","category":"Hotel Bar","checkinsCount":400,"usersCount":273,"tipCount":12,"visitsCount":400,"url":"http://ritzcarlton.com","tier":"","message":"","currency":"","rating":6.7},{"name":"15 Ria","phone":"2027420015","address":"1515 Rhode Island Ave NW","lat":38.907705158831185,"lng":-77.03526490432442,"neighborhood":"Dupont Circle","city_fetched":"Washington,US","state":"D.C.","country":"United States","canonicalUrl":"https://foursquare.com/v/15-ria/44dc3c9df964a520a1361fe3","categoryId":"4bf58dd8d48988d1d5941735","category":"Hotel Bar","checkinsCount":868,"usersCount":572,"tipCount":12,"visitsCount":876,"url":"http://www.15ria.com","tier":"","message":"","currency":"","rating":6.7},{"name":"Capital Hilton Lobby Bar","lat":38.902951,"lng":-77.03635,"neighborhood":"Connecticut Avenue - K Street","city_fetched":"Washington,US","state":"D.C.","country":"United States","canonicalUrl":"https://foursquare.com/v/capital-hilton-lobby-bar/514fc2cde4b066e104704cf9","categoryId":"4bf58dd8d48988d1d5941735","category":"Hotel Bar","checkinsCount":149,"usersCount":92,"tipCount":3,"visitsCount":150,"tier":"","message":"","currency":"","rating":6.7},{"name":"Chuck & Billy's Bar","phone":"2022345870","address":"2718 Georgia Ave NW","lat":38.92554759979248,"lng":-77.022904,"neighborhood":"Columbia Heights","city_fetched":"Washington,US","state":"D.C.","country":"United States","canonicalUrl":"https://foursquare.com/v/chuck--billys-bar/4c8a92cce51e6dcb4e376ade","categoryId":"4bf58dd8d48988d116941735","category":"Bar","checkinsCount":100,"usersCount":74,"tipCount":4,"visitsCount":100,"tier":"","message":"","currency":"","rating":6.7},{"name":"The Elroy H St.","address":"1423 H St. NE","lat":38.90001552123623,"lng":-76.98452979326248,"neighborhood":"Capitol Hill","city_fetched":"Washington,US","state":"D.C.","country":"United States","canonicalUrl":"https://foursquare.com/v/the-elroy-h-st/519e7df1454a553a6ba97267","categoryId":"4bf58dd8d48988d121941735","category":"Lounge","checkinsCount":456,"usersCount":217,"tipCount":5,"visitsCount":460,"tier":"","message":"","currency":"","rating":6.7},{"name":"TDL Bar","phone":"2024833000","twitter":"hiltonhotels","address":"1919 Connecticut Ave NW","lat":38.91626807880671,"lng":-77.04533464344551,"neighborhood":"Adams Morgan","city_fetched":"Washington,US","state":"D.C.","country":"United States","canonicalUrl":"https://foursquare.com/v/tdl-bar/50ca02c7245f2d4aa8c2ca1b","categoryId":"4bf58dd8d48988d1d5941735","category":"Hotel Bar","checkinsCount":228,"usersCount":150,"tipCount":2,"visitsCount":228,"url":"http://www.hilton.com","tier":"","message":"","currency":"","rating":6.7},{"name":"Heist DC","phone":"2027162055","address":"1802 Jefferson Pl NW","lat":38.90647490567619,"lng":-77.0418207315329,"neighborhood":"Connecticut Avenue - K Street","city_fetched":"Washington,US","state":"D.C.","country":"United States","canonicalUrl":"https://foursquare.com/v/heist-dc/50bfd553e4b0b88ccdb1dfc4","categoryId":"4bf58dd8d48988d121941735","category":"Lounge","checkinsCount":2384,"usersCount":1115,"tipCount":10,"visitsCount":2488,"url":"http://heistdc.com","tier":3,"message":"Expensive","currency":"$","rating":6.7},{"name":"PostScript at The Madison Hotel","phone":"2028621600","twitter":"madisondc","address":"1177 15th St NW","lat":38.905244,"lng":-77.034523,"neighborhood":"Downtown-Penn Quarter-Chinatown","city_fetched":"Washington,US","state":"D.C.","country":"United States","canonicalUrl":"https://foursquare.com/v/postscript-at-the-madison-hotel/4ac28527f964a520849920e3","categoryId":"4bf58dd8d48988d1d5941735","category":"Hotel Bar","checkinsCount":754,"usersCount":418,"tipCount":5,"visitsCount":756,"url":"http://www.madisonhoteldc.com/washington-dc-dining.php","tier":"","message":"","currency":"","rating":6.6},{"name":"BlackFinn American Saloon","phone":"2024294350","twitter":"blackfinndc","address":"1620 I St NW","lat":38.90114480124606,"lng":-77.03761875629425,"neighborhood":"Connecticut Avenue - K Street","city_fetched":"Washington,US","state":"D.C.","country":"United States","canonicalUrl":"https://foursquare.com/v/blackfinn-american-saloon/4aa06751f964a520813f20e3","categoryId":"4bf58dd8d48988d116941735","category":"Bar","checkinsCount":15559,"usersCount":8835,"tipCount":105,"visitsCount":16788,"url":"http://blackfinndc.com","tier":2,"message":"Moderate","currency":"$","rating":6.6},{"name":"Molly Malone's Capitol Hill Saloon","phone":"2025471222","twitter":"mollymalonesdc","address":"713 8th St SE","lat":38.8807989197584,"lng":-76.99521380045492,"neighborhood":"Capitol Hill","city_fetched":"Washington,US","state":"D.C.","country":"United States","canonicalUrl":"https://foursquare.com/v/molly-malones-capitol-hill-saloon/4a9d433af964a520093820e3","categoryId":"4bf58dd8d48988d116941735","category":"Bar","checkinsCount":8281,"usersCount":4049,"tipCount":38,"visitsCount":8356,"url":"http://www.mollymalonescapitolhillsaloon.com","tier":2,"message":"Moderate","currency":"$","rating":6.6},{"name":"Capitale","phone":"2029623933","twitter":"capitaledc","address":"1301 K St. NW","lat":38.902598079734894,"lng":-77.03057552684537,"neighborhood":"Downtown-Penn Quarter-Chinatown","city_fetched":"Washington,US","state":"D.C.","country":"United States","canonicalUrl":"https://foursquare.com/v/capitale/5049729be4b00235e8286ada","categoryId":"4bf58dd8d48988d11f941735","category":"Nightclub","checkinsCount":2930,"usersCount":1932,"tipCount":15,"visitsCount":3383,"url":"http://capitaleofdc.com","tier":"","message":"","currency":"","rating":6.6},{"name":"The Mayflower Bar & Lounge","address":"The Mayflower Hotel","lat":38.90449855064742,"lng":-77.04029144515027,"neighborhood":"Connecticut Avenue - K Street","city_fetched":"Washington,US","state":"D.C.","country":"United States","canonicalUrl":"https://foursquare.com/v/the-mayflower-bar--lounge/5042c57be4b00fd08f480f69","categoryId":"4bf58dd8d48988d1d5941735","category":"Hotel Bar","checkinsCount":171,"usersCount":116,"tipCount":1,"visitsCount":171,"tier":"","message":"","currency":"","rating":6.6},{"name":"Flight","phone":"2028646445","twitter":"flightwinebardc","address":"777 6th St NW","lat":38.899466530196555,"lng":-77.01982498168944,"neighborhood":"Chinatown","city_fetched":"Washington,US","state":"D.C.","country":"United States","canonicalUrl":"https://foursquare.com/v/flight/52d7210f498e11715af81cef","categoryId":"4bf58dd8d48988d123941735","category":"Wine Bar","checkinsCount":901,"usersCount":772,"tipCount":29,"visitsCount":962,"url":"http://flightdc.com","tier":2,"message":"Moderate","currency":"$","rating":6.5},{"name":"Dirty Bar","phone":"2026815224","address":"1223 Connecticut Ave. NW","lat":38.906699232618664,"lng":-77.04120227245905,"neighborhood":"Connecticut Avenue - K Street","city_fetched":"Washington,US","state":"D.C.","country":"United States","canonicalUrl":"https://foursquare.com/v/dirty-bar/4e4ea59318383eb2af15cb3b","categoryId":"4bf58dd8d48988d1d4941735","category":"Speakeasy","checkinsCount":3680,"usersCount":1926,"tipCount":17,"visitsCount":3711,"url":"http://dirtybardc.com","tier":"","message":"","currency":"","rating":6.5},{"name":"A BAR + Kitchen","phone":"2024645610","twitter":"abardc","address":"2500 Pennsylvania Avenue","lat":38.903560948239274,"lng":-77.0537676148388,"neighborhood":"West End","city_fetched":"Washington,US","state":"D.C.","country":"United States","canonicalUrl":"https://foursquare.com/v/a-bar--kitchen/4fb181cfe4b0da11f2f3d63a","categoryId":"4bf58dd8d48988d1d5941735","category":"Hotel Bar","checkinsCount":984,"usersCount":591,"tipCount":9,"visitsCount":988,"url":"http://www.abardc.com","tier":2,"message":"Moderate","currency":"$","rating":6.5},{"name":"Hops Restaurant Bar & Brewery","phone":"7038379107","address":"3625 Jefferson Davis Hwy","lat":38.83750140309922,"lng":-77.05139994621277,"neighborhood":"Potomac Yard - Potomac Greens","city_fetched":"Washington,US","state":"VA","country":"United States","canonicalUrl":"https://foursquare.com/v/hops-restaurant-bar--brewery/4a981c4af964a520842a20e3","categoryId":"50327c8591d4c4b30a586d5d","category":"Brewery","checkinsCount":5733,"usersCount":3400,"tipCount":67,"visitsCount":5914,"url":"http://hopsonline.com","tier":2,"message":"Moderate","currency":"$","rating":6.5},{"name":"Solly's Kostume Karaoke","lat":38.91693098333333,"lng":-77.02724933624268,"neighborhood":"U-Street","city_fetched":"Washington,US","state":"D.C.","country":"United States","canonicalUrl":"https://foursquare.com/v/sollys-kostume-karaoke/4bc684dad35d9c7426f4e23a","categoryId":"4bf58dd8d48988d120941735","category":"Karaoke Bar","checkinsCount":717,"usersCount":187,"tipCount":4,"visitsCount":733,"tier":"","message":"","currency":"","rating":6.5},{"name":"9 1/2","address":"1435 P St NW","lat":38.90986986520593,"lng":-77.03333069871164,"neighborhood":"Logan Circle - Shaw","city_fetched":"Washington,US","state":"D.C.","country":"United States","canonicalUrl":"https://foursquare.com/v/9-12/503c0f1ce4b04dc6703b1c93","categoryId":"4bf58dd8d48988d1d8941735","category":"Gay Bar","checkinsCount":676,"usersCount":173,"tipCount":1,"visitsCount":693,"tier":"","message":"","currency":"","rating":6.5},{"name":"Dan's Cafe","phone":"2022659241","address":"2315 18th St NW","lat":38.920052,"lng":-77.041694,"neighborhood":"Adams Morgan","city_fetched":"Washington,US","state":"D.C.","country":"United States","canonicalUrl":"https://foursquare.com/v/dans-cafe/410c3280f964a520b30b1fe3","categoryId":"4bf58dd8d48988d118941735","category":"Dive Bar","checkinsCount":3836,"usersCount":2543,"tipCount":30,"visitsCount":4007,"tier":2,"message":"Moderate","currency":"$","rating":6.5},{"name":"Queen's Cafe and Hookah","phone":"2026298924","address":"2405 18th St NW","lat":38.92063627607843,"lng":-77.04193317829713,"neighborhood":"Adams Morgan","city_fetched":"Washington,US","state":"D.C.","country":"United States","canonicalUrl":"https://foursquare.com/v/queens-cafe-and-hookah/4b1b5ac0f964a520f2fa23e3","categoryId":"4bf58dd8d48988d119941735","category":"Hookah Bar","checkinsCount":1089,"usersCount":731,"tipCount":13,"visitsCount":1096,"tier":"","message":"","currency":"","rating":6.5},{"name":"Walters Sports Bar","address":"3632 Georgia Ave NW","lat":38.93497103536241,"lng":-77.0243713259697,"neighborhood":"Columbia Heights","city_fetched":"Washington,US","state":"D.C.","country":"United States","canonicalUrl":"https://foursquare.com/v/walters-sports-bar/55a3c161498e98f11e02ea1f","categoryId":"4bf58dd8d48988d11d941735","category":"Sports Bar","checkinsCount":341,"usersCount":142,"tipCount":8,"visitsCount":357,"tier":"","message":"","currency":"","rating":6.5},{"name":"Dirty Martini","phone":"2025032640","twitter":"dirtymartinidc","address":"1223 Connecticut Ave NW","lat":38.906600685683365,"lng":-77.04153961416446,"neighborhood":"Connecticut Avenue - K Street","city_fetched":"Washington,US","state":"D.C.","country":"United States","canonicalUrl":"https://foursquare.com/dirtymartinidc","categoryId":"4bf58dd8d48988d11e941735","category":"Cocktail Bar","checkinsCount":8200,"usersCount":5165,"tipCount":53,"visitsCount":8235,"url":"http://www.dirtymartinidc.com","tier":2,"message":"Moderate","currency":"$","rating":6.5},{"name":"The Statler Lounge","phone":"2023931000","twitter":"hiltonhotels","address":"1001 16th St NW","lat":38.90311848371859,"lng":-77.0365412381784,"neighborhood":"Connecticut Avenue - K Street","city_fetched":"Washington,US","state":"D.C.","country":"United States","canonicalUrl":"https://foursquare.com/v/the-statler-lounge/50ca02be245f2d4aa8c2acf9","categoryId":"4bf58dd8d48988d1d5941735","category":"Hotel Bar","checkinsCount":155,"usersCount":104,"tipCount":4,"visitsCount":155,"url":"http://www.hilton.com","tier":"","message":"","currency":"","rating":6.4},{"name":"Smith Point","phone":"2023339003","address":"1338 Wisconsin Ave NW","lat":38.907644,"lng":-77.063733,"neighborhood":"Georgetown","city_fetched":"Washington,US","state":"D.C.","country":"United States","canonicalUrl":"https://foursquare.com/v/smith-point/4a50472bf964a5200bb01fe3","categoryId":"4bf58dd8d48988d118941735","category":"Dive Bar","checkinsCount":6150,"usersCount":1354,"tipCount":8,"visitsCount":6456,"url":"http://smithpointdc.com","tier":2,"message":"Moderate","currency":"$","rating":6.4},{"name":"Cloakroom","phone":"2023712223","twitter":"cloakroomdc","address":"476 K St NW","lat":38.90244772304757,"lng":-77.01872194973929,"neighborhood":"Mount Vernon Square","city_fetched":"Washington,US","state":"D.C.","country":"United States","canonicalUrl":"https://foursquare.com/v/cloakroom/5220281d498e0362483723a1","categoryId":"4bf58dd8d48988d1d6941735","category":"Strip Club","checkinsCount":273,"usersCount":146,"tipCount":7,"visitsCount":274,"url":"http://www.cloakroomdc.com","tier":"","message":"","currency":"","rating":6.4},{"name":"The Exchange","phone":"2023934690","address":"1719 G St. NW","lat":38.898485432977544,"lng":-77.04042702913284,"neighborhood":"Connecticut Avenue - K Street","city_fetched":"Washington,US","state":"D.C.","country":"United States","canonicalUrl":"https://foursquare.com/v/the-exchange/40b13b00f964a52061f41ee3","categoryId":"4bf58dd8d48988d11d941735","category":"Sports Bar","checkinsCount":9877,"usersCount":3809,"tipCount":40,"visitsCount":10667,"url":"http://www.theexchangesaloon.com","tier":2,"message":"Moderate","currency":"$","rating":6.4},{"name":"Halftime Sports Bar","phone":"2023991100","twitter":"halftimeonh","address":"1427 H St NE","lat":38.900123596191406,"lng":-76.98453521728516,"neighborhood":"Capitol Hill","city_fetched":"Washington,US","state":"D.C.","country":"United States","canonicalUrl":"https://foursquare.com/v/halftime-sports-bar/5382a1cd498e6914138ee2a4","categoryId":"4bf58dd8d48988d11d941735","category":"Sports Bar","checkinsCount":192,"usersCount":114,"tipCount":3,"visitsCount":201,"url":"http://halftimesportsbaronh.com","tier":"","message":"","currency":"","rating":6.4},{"name":"The Greene Turtle","phone":"2026378889","twitter":"thegreeneturtle","address":"601 F St NW","lat":38.897359489636074,"lng":-77.02039771558822,"neighborhood":"Chinatown","city_fetched":"Washington,US","state":"D.C.","country":"United States","canonicalUrl":"https://foursquare.com/v/the-greene-turtle/49f38bd0f964a520b66a1fe3","categoryId":"4bf58dd8d48988d11d941735","category":"Sports Bar","checkinsCount":12029,"usersCount":7083,"tipCount":63,"visitsCount":12079,"url":"http://thegreeneturtle.com","tier":2,"message":"Moderate","currency":"$","rating":6.4},{"name":"Sign of the Whale","phone":"2027851110","twitter":"thewhaledc","address":"1825 M St NW","lat":38.90564071091048,"lng":-77.04282150405548,"neighborhood":"Connecticut Avenue - K Street","city_fetched":"Washington,US","state":"D.C.","country":"United States","canonicalUrl":"https://foursquare.com/v/sign-of-the-whale/40b13b00f964a520fcf41ee3","categoryId":"4bf58dd8d48988d11d941735","category":"Sports Bar","checkinsCount":21179,"usersCount":8430,"tipCount":100,"visitsCount":21812,"url":"http://www.calicojacksnyc.com","tier":1,"message":"Cheap","currency":"$","rating":6.4},{"name":"Paper Moon Gentlemen's Club","phone":"7038664160","address":"6315 Amherst Ave","lat":38.78119781415016,"lng":-77.18593602664816,"city_fetched":"Washington,US","state":"VA","country":"United States","canonicalUrl":"https://foursquare.com/v/paper-moon-gentlemens-club/4b7f8a08f964a520903330e3","categoryId":"4bf58dd8d48988d1d6941735","category":"Strip Club","checkinsCount":730,"usersCount":347,"tipCount":11,"visitsCount":813,"url":"http://papermoonclub.com","tier":"","message":"","currency":"","rating":6.4},{"name":"Elephant & Castle Pub and Restaurant","phone":"2022962575","twitter":"elephantcastle","address":"900 19th St NW","lat":38.901633245815496,"lng":-77.04373955726624,"neighborhood":"Connecticut Avenue - K Street","city_fetched":"Washington,US","state":"D.C.","country":"United States","canonicalUrl":"https://foursquare.com/v/elephant--castle-pub-and-restaurant/4a95d9a5f964a520072520e3","categoryId":"4bf58dd8d48988d11b941735","category":"Pub","checkinsCount":7224,"usersCount":4291,"tipCount":45,"visitsCount":7697,"url":"http://www.elephantcastle.com","tier":2,"message":"Moderate","currency":"$","rating":6.4},{"name":"Bar Rouge","phone":"2029396422","twitter":"kimptonindc","address":"1315 16th St NW","lat":38.908243886496386,"lng":-77.03631071191536,"neighborhood":"Dupont Circle","city_fetched":"Washington,US","state":"D.C.","country":"United States","canonicalUrl":"https://foursquare.com/v/bar-rouge/412a8500f964a520880c1fe3","categoryId":"4bf58dd8d48988d1d5941735","category":"Hotel Bar","checkinsCount":1455,"usersCount":658,"tipCount":16,"visitsCount":1456,"url":"https://www.kimptonhotels.com/boutique-hotels-in-dc-metro-area","tier":"","message":"","currency":"","rating":6.4},{"name":"Roses Deja 'Vu","address":"1378 H St NE","lat":38.900438,"lng":-76.985764,"neighborhood":"Capitol Hill","city_fetched":"Washington,US","state":"D.C.","country":"United States","canonicalUrl":"https://foursquare.com/v/roses-deja-vu/510c4da0e4b0a47ab0a13c00","categoryId":"4bf58dd8d48988d116941735","category":"Bar","checkinsCount":514,"usersCount":229,"tipCount":20,"visitsCount":525,"tier":"","message":"","currency":"","rating":6.3},{"name":"Macombo Lounge","phone":"2027262880","address":"5335 Georgia Ave NW","lat":38.95498,"lng":-77.027824,"neighborhood":"Northwest Washington","city_fetched":"Washington,US","state":"D.C.","country":"United States","canonicalUrl":"https://foursquare.com/v/macombo-lounge/4c5971f2f346c928b7824cca","categoryId":"4bf58dd8d48988d1d6941735","category":"Strip Club","checkinsCount":189,"usersCount":95,"tipCount":5,"visitsCount":192,"url":"http://www.macomboloungedc.com","tier":"","message":"","currency":"","rating":6.3},{"name":"The Meeting Place","phone":"2022937755","twitter":"themeetingplace","address":"1100 17th St NW","lat":38.903750269184,"lng":-77.03884085415314,"neighborhood":"Connecticut Avenue - K Street","city_fetched":"Washington,US","state":"D.C.","country":"United States","canonicalUrl":"https://foursquare.com/v/the-meeting-place/40b13b00f964a52013f51ee3","categoryId":"4bf58dd8d48988d120941735","category":"Karaoke Bar","checkinsCount":1080,"usersCount":557,"tipCount":12,"visitsCount":1107,"url":"http://themeetingplacedc.net","tier":2,"message":"Moderate","currency":"$","rating":6.3},{"name":"Beacon Sky Bar","phone":"2028721126","twitter":"beaconhotelwdc","address":"1615 Rhode Island Ave NW","lat":38.90691043216228,"lng":-77.03823924735318,"neighborhood":"Dupont Circle","city_fetched":"Washington,US","state":"D.C.","country":"United States","canonicalUrl":"https://foursquare.com/beaconhotelwdc","categoryId":"4bf58dd8d48988d116941735","category":"Bar","checkinsCount":1766,"usersCount":1426,"tipCount":13,"visitsCount":1779,"url":"http://bbgwdc.com","tier":"","message":"","currency":"","rating":6.3},{"name":"Bulldog Tavern","address":"3700 O St NW","lat":38.906192,"lng":-77.074028,"neighborhood":"Georgetown","city_fetched":"Washington,US","state":"D.C.","country":"United States","canonicalUrl":"https://foursquare.com/v/bulldog-tavern/545e70cf498eb987b70a9835","categoryId":"4bf58dd8d48988d11b941735","category":"Pub","checkinsCount":203,"usersCount":139,"tipCount":2,"visitsCount":247,"tier":"","message":"","currency":"","rating":6.3},{"name":"The Prospect","address":"1214 U Street","lat":38.916906713728764,"lng":-77.02866936101988,"neighborhood":"U-Street","city_fetched":"Washington,US","state":"D.C.","country":"United States","canonicalUrl":"https://foursquare.com/v/the-prospect/55f36f4d498e324dbab51405","categoryId":"4bf58dd8d48988d11d941735","category":"Sports Bar","checkinsCount":713,"usersCount":543,"tipCount":5,"visitsCount":832,"url":"http://theprospectdc.com","tier":"","message":"","currency":"","rating":6.3},{"name":"Red Lounge Bar & Grill","phone":"2022325788","address":"2013 14th St NW","lat":38.917455203399086,"lng":-77.03185753298884,"neighborhood":"U-Street","city_fetched":"Washington,US","state":"D.C.","country":"United States","canonicalUrl":"https://foursquare.com/v/red-lounge-bar--grill/4a74c186f964a5207cdf1fe3","categoryId":"4bf58dd8d48988d11f941735","category":"Nightclub","checkinsCount":1030,"usersCount":666,"tipCount":11,"visitsCount":1039,"url":"http://redloungedc.com","tier":"","message":"","currency":"","rating":6.3},{"name":"Buffalo Billiards","phone":"2023317665","twitter":"buffalobilldc","address":"1330 19th St NW","lat":38.9084418967038,"lng":-77.04371273517609,"neighborhood":"Connecticut Avenue - K Street","city_fetched":"Washington,US","state":"D.C.","country":"United States","canonicalUrl":"https://foursquare.com/v/buffalo-billiards/40b13b00f964a52025f41ee3","categoryId":"4bf58dd8d48988d11d941735","category":"Sports Bar","checkinsCount":20020,"usersCount":10897,"tipCount":95,"visitsCount":20489,"url":"http://www.buffalobilliards.com","tier":2,"message":"Moderate","currency":"$","rating":6.3},{"name":"Town Tavern","phone":"2023878696","twitter":"towntaverndc","address":"2323 18th St NW","lat":38.920298077116726,"lng":-77.0417332649231,"neighborhood":"Adams Morgan","city_fetched":"Washington,US","state":"D.C.","country":"United States","canonicalUrl":"https://foursquare.com/v/town-tavern/4a502b10f964a52004b01fe3","categoryId":"4bf58dd8d48988d116941735","category":"Bar","checkinsCount":9070,"usersCount":3876,"tipCount":38,"visitsCount":9206,"url":"http://www.towntaverndc.com","tier":1,"message":"Cheap","currency":"$","rating":6.3},{"name":"Rocket Bar","phone":"2026287665","twitter":"rocketbar7thst","address":"714 7th St NW","lat":38.898915,"lng":-77.021899,"neighborhood":"Chinatown","city_fetched":"Washington,US","state":"D.C.","country":"United States","canonicalUrl":"https://foursquare.com/v/rocket-bar/46ac4856f964a52070491fe3","categoryId":"4bf58dd8d48988d116941735","category":"Bar","checkinsCount":16382,"usersCount":9057,"tipCount":91,"visitsCount":16464,"url":"http://www.rocketbardc.com","tier":2,"message":"Moderate","currency":"$","rating":6.3},{"name":"Cleveland Park Bar & Grill","phone":"2028068940","twitter":"cpbg01","address":"3421 Connecticut Ave NW","lat":38.9350073413853,"lng":-77.05789955568694,"neighborhood":"Cleveland Park","city_fetched":"Washington,US","state":"D.C.","country":"United States","canonicalUrl":"https://foursquare.com/v/cleveland-park-bar--grill/46157d1df964a52044451fe3","categoryId":"4bf58dd8d48988d11d941735","category":"Sports Bar","checkinsCount":9455,"usersCount":3816,"tipCount":51,"visitsCount":9585,"url":"http://cpbargrill.com","tier":2,"message":"Moderate","currency":"$","rating":6.3},{"name":"Public Bar Dupont","phone":"2022232200","twitter":"publicbar","address":"1214 18th St NW","lat":38.906275388866064,"lng":-77.04195320606232,"neighborhood":"Connecticut Avenue - K Street","city_fetched":"Washington,US","state":"D.C.","country":"United States","canonicalUrl":"https://foursquare.com/v/public-bar-dupont/4a411589f964a520bfa41fe3","categoryId":"4bf58dd8d48988d11d941735","category":"Sports Bar","checkinsCount":17855,"usersCount":10244,"tipCount":84,"visitsCount":17927,"url":"http://www.publicbar.co","tier":2,"message":"Moderate","currency":"$","rating":6.3},{"name":"Washington Hilton Executive Lounge","address":"1919 Connecticut Ave NW","lat":38.916487157110616,"lng":-77.04530653255583,"neighborhood":"Adams Morgan","city_fetched":"Washington,US","state":"D.C.","country":"United States","canonicalUrl":"https://foursquare.com/v/washington-hilton-executive-lounge/4c33d41e7cc0c9b6707ff29a","categoryId":"4bf58dd8d48988d121941735","category":"Lounge","checkinsCount":793,"usersCount":398,"tipCount":4,"visitsCount":804,"tier":"","message":"","currency":"","rating":6.2},{"name":"ULTRABAR","phone":"2026384663","twitter":"ultrabar","address":"911 F St NW","lat":38.89736306811502,"lng":-77.02463201392156,"neighborhood":"Downtown-Penn Quarter-Chinatown","city_fetched":"Washington,US","state":"D.C.","country":"United States","canonicalUrl":"https://foursquare.com/v/ultrabar/4a3191c9f964a520f3991fe3","categoryId":"4bf58dd8d48988d11f941735","category":"Nightclub","checkinsCount":5126,"usersCount":2896,"tipCount":37,"visitsCount":5181,"url":"http://www.ultrabardc.com","tier":4,"message":"Very Expensive","currency":"$","rating":6.2},{"name":"The Ugly Mug","phone":"2025478459","twitter":"theuglymugdc","address":"723 8th St SE","lat":38.88047870975257,"lng":-76.995061938762,"neighborhood":"Capitol Hill","city_fetched":"Washington,US","state":"D.C.","country":"United States","canonicalUrl":"https://foursquare.com/v/the-ugly-mug/4a613961f964a5201ec21fe3","categoryId":"4bf58dd8d48988d116941735","category":"Bar","checkinsCount":9184,"usersCount":3526,"tipCount":30,"visitsCount":9324,"url":"http://uglymugdc.com","tier":1,"message":"Cheap","currency":"$","rating":6.2},{"name":"Laughing Man Tavern","phone":"2027371797","address":"1306 G St NW","lat":38.89821823819494,"lng":-77.03025877475739,"neighborhood":"Downtown-Penn Quarter-Chinatown","city_fetched":"Washington,US","state":"D.C.","country":"United States","canonicalUrl":"https://foursquare.com/v/laughing-man-tavern/49ff7213f964a52025701fe3","categoryId":"4bf58dd8d48988d116941735","category":"Bar","checkinsCount":8938,"usersCount":4674,"tipCount":47,"visitsCount":9558,"url":"http://www.laughingmantavern.com","tier":2,"message":"Moderate","currency":"$","rating":6.2},{"name":"Gazuza Lounge","phone":"2026675500","address":"1629 Connecticut Ave NW","lat":38.91203257399241,"lng":-77.04460375818734,"neighborhood":"Dupont Circle","city_fetched":"Washington,US","state":"D.C.","country":"United States","canonicalUrl":"https://foursquare.com/v/gazuza-lounge/42911d00f964a5200d241fe3","categoryId":"4bf58dd8d48988d11f941735","category":"Nightclub","checkinsCount":4211,"usersCount":2702,"tipCount":45,"visitsCount":4236,"tier":"","message":"","currency":"","rating":6.2},{"name":"Sports tavern","address":"7 st","lat":38.894084322785,"lng":-77.02148301466052,"neighborhood":"Penn Quarter","city_fetched":"Washington,US","state":"D.C.","country":"United States","canonicalUrl":"https://foursquare.com/v/sports-tavern/4aef2101f964a520d3d521e3","categoryId":"4bf58dd8d48988d11d941735","category":"Sports Bar","checkinsCount":174,"usersCount":166,"tipCount":4,"visitsCount":174,"url":"http://dcsportstavern.com","tier":"","message":"","currency":"","rating":6.2},{"name":"Vita Lounge","lat":38.90785039670034,"lng":-77.02401909012583,"neighborhood":"Logan Circle - Shaw","city_fetched":"Washington,US","state":"D.C.","country":"United States","canonicalUrl":"https://foursquare.com/v/vita-lounge/50f0d609e4b06fac78493c3e","categoryId":"4bf58dd8d48988d121941735","category":"Lounge","checkinsCount":472,"usersCount":283,"tipCount":4,"visitsCount":490,"tier":2,"message":"Moderate","currency":"$","rating":6.2},{"name":"Recessions","phone":"2022966686","address":"1823 L St NW","lat":38.904028535106605,"lng":-77.042709058118,"neighborhood":"Connecticut Avenue - K Street","city_fetched":"Washington,US","state":"D.C.","country":"United States","canonicalUrl":"https://foursquare.com/v/recessions/40b13b00f964a520dff41ee3","categoryId":"4bf58dd8d48988d118941735","category":"Dive Bar","checkinsCount":3466,"usersCount":2040,"tipCount":26,"visitsCount":3498,"url":"http://www.recessionsdc.com","tier":1,"message":"Cheap","currency":"$","rating":6.1},{"name":"District Underground","address":"2477 18th St NW","lat":38.922256,"lng":-77.042446,"neighborhood":"Adams Morgan","city_fetched":"Washington,US","state":"D.C.","country":"United States","canonicalUrl":"https://foursquare.com/v/district-underground/4e4f0f5ab61cf637a4f09499","categoryId":"4bf58dd8d48988d11f941735","category":"Nightclub","checkinsCount":377,"usersCount":255,"tipCount":8,"visitsCount":377,"tier":"","message":"","currency":"","rating":6.1},{"name":"Archipelago","address":"1201 U St NW","lat":38.917162,"lng":-77.028164,"neighborhood":"U-Street","city_fetched":"Washington,US","state":"D.C.","country":"United States","canonicalUrl":"https://foursquare.com/v/archipelago/56d0f443cd1004ac324cd353","categoryId":"56aa371be4b08b9a8d57354d","category":"Tiki Bar","checkinsCount":404,"usersCount":352,"tipCount":7,"visitsCount":458,"tier":"","message":"","currency":"","rating":6.1},{"name":"Fuego","address":"5005 Jackson St","lat":38.93062276875732,"lng":-76.92910233079486,"city_fetched":"Washington,US","state":"MD","country":"United States","canonicalUrl":"https://foursquare.com/v/fuego/4bfaadde633d9c747c1e0843","categoryId":"4bf58dd8d48988d1d6941735","category":"Strip Club","checkinsCount":411,"usersCount":473,"tipCount":10,"visitsCount":648,"tier":"","message":"","currency":"","rating":6.1},{"name":"Mr. Smith's of Georgetown","phone":"2023333104","twitter":"mrsmithsdc","address":"3205 K St NW","lat":38.90268944352402,"lng":-77.06295490264893,"neighborhood":"Georgetown","city_fetched":"Washington,US","state":"D.C.","country":"United States","canonicalUrl":"https://foursquare.com/v/mr-smiths-of-georgetown/40b3de00f964a5201b001fe3","categoryId":"4bf58dd8d48988d116941735","category":"Bar","checkinsCount":8098,"usersCount":5516,"tipCount":63,"visitsCount":8274,"url":"http://mrsmiths.com","tier":2,"message":"Moderate","currency":"$","rating":6.1},{"name":"Rosebar Lounge","phone":"2029555525","twitter":"rosebardc","address":"1215 Connecticut Ave NW","lat":38.906578762929975,"lng":-77.04101673411961,"neighborhood":"Connecticut Avenue - K Street","city_fetched":"Washington,US","state":"D.C.","country":"United States","canonicalUrl":"https://foursquare.com/v/rosebar-lounge/4e45d170aeb70e74f48ca985","categoryId":"4bf58dd8d48988d121941735","category":"Lounge","checkinsCount":1833,"usersCount":1044,"tipCount":8,"visitsCount":1904,"url":"http://rosebardc-hub.com","tier":"","message":"","currency":"","rating":6},{"name":"High Velocity","address":"901 Massachusetts Ave NW","lat":38.90392210937143,"lng":-77.02418216189731,"neighborhood":"Mount Vernon Square","city_fetched":"Washington,US","state":"D.C.","country":"United States","canonicalUrl":"https://foursquare.com/v/high-velocity/53407ac1498e37d365a70348","categoryId":"4bf58dd8d48988d11d941735","category":"Sports Bar","checkinsCount":1068,"usersCount":849,"tipCount":7,"visitsCount":1216,"tier":"","message":"","currency":"","rating":6},{"name":"Trio's Fox & Hounds","phone":"2022326305","address":"1537 17th St NW","lat":38.91097409237181,"lng":-77.03836856495533,"neighborhood":"Dupont Circle","city_fetched":"Washington,US","state":"D.C.","country":"United States","canonicalUrl":"https://foursquare.com/v/trios-fox--hounds/40b13b00f964a52023f51ee3","categoryId":"4bf58dd8d48988d116941735","category":"Bar","checkinsCount":11166,"usersCount":4699,"tipCount":73,"visitsCount":11344,"url":"http://www.triofoxandhounds.com","tier":1,"message":"Cheap","currency":"$","rating":6},{"name":"Post Pub","phone":"2026282111","address":"1422 L St NW","lat":38.903751044864116,"lng":-77.034044784037,"neighborhood":"Downtown-Penn Quarter-Chinatown","city_fetched":"Washington,US","state":"D.C.","country":"United States","canonicalUrl":"https://foursquare.com/v/post-pub/40b13b00f964a520daf41ee3","categoryId":"4bf58dd8d48988d118941735","category":"Dive Bar","checkinsCount":4213,"usersCount":2088,"tipCount":39,"visitsCount":4451,"url":"http://postpubdc.com","tier":1,"message":"Cheap","currency":"$","rating":6},{"name":"Rumors","phone":"2024667378","twitter":"rumorsdc","address":"1900 M St NW","lat":38.90548262960392,"lng":-77.04341746577667,"neighborhood":"Connecticut Avenue - K Street","city_fetched":"Washington,US","state":"D.C.","country":"United States","canonicalUrl":"https://foursquare.com/v/rumors/40b13b00f964a520f3f41ee3","categoryId":"4bf58dd8d48988d116941735","category":"Bar","checkinsCount":8092,"usersCount":4089,"tipCount":41,"visitsCount":8247,"url":"http://www.rumorsrestaurant.com","tier":2,"message":"Moderate","currency":"$","rating":6},{"name":"Chuck Brown Way","address":"Chuck Brown Way","lat":38.91562588656294,"lng":-77.02329369924,"neighborhood":"U-Street","city_fetched":"Washington,US","state":"D.C.","country":"United States","canonicalUrl":"https://foursquare.com/v/chuck-brown-way/4d7d039dcf3f37043c0a5c40","categoryId":"4bf58dd8d48988d118941735","category":"Dive Bar","checkinsCount":1255,"usersCount":298,"tipCount":3,"visitsCount":1293,"tier":"","message":"","currency":"","rating":6},{"name":"Cities Restaurant  & Lounge","address":"1909 K Street NW","lat":38.90257018107728,"lng":-77.04424393612787,"neighborhood":"Connecticut Avenue - K Street","city_fetched":"Washington,US","state":"D.C.","country":"United States","canonicalUrl":"https://foursquare.com/v/cities-restaurant---lounge/562c59a6498eccd0b83a0e4f","categoryId":"4bf58dd8d48988d121941735","category":"Lounge","checkinsCount":204,"usersCount":342,"tipCount":3,"visitsCount":420,"tier":"","message":"","currency":"","rating":6},{"name":"The Camelot Showbar","phone":"2028875966","twitter":"camelotshowbar","address":"1823 M St NW","lat":38.90566065061043,"lng":-77.04288334927647,"neighborhood":"Connecticut Avenue - K Street","city_fetched":"Washington,US","state":"D.C.","country":"United States","canonicalUrl":"https://foursquare.com/camelotshowbar","categoryId":"4bf58dd8d48988d1d6941735","category":"Strip Club","checkinsCount":214,"usersCount":160,"tipCount":1,"visitsCount":215,"url":"http://www.camelotshowbar.com","tier":"","message":"","currency":"","rating":5.9},{"name":"Hawk 'n' Dove","phone":"2025470030","twitter":"hawkndovedc","address":"329 Pennsylvania Ave SE","lat":38.886566,"lng":-77.00109,"neighborhood":"Capitol Hill","city_fetched":"Washington,US","state":"D.C.","country":"United States","canonicalUrl":"https://foursquare.com/v/hawk-n-dove/4f32831719836c91c7df040a","categoryId":"4bf58dd8d48988d116941735","category":"Bar","checkinsCount":3500,"usersCount":2328,"tipCount":36,"visitsCount":3650,"tier":2,"message":"Moderate","currency":"$","rating":5.9},{"name":"Tropicalia","phone":"2022991269","address":"2001 14th St NW","lat":38.9171302228237,"lng":-77.03167229890823,"neighborhood":"U-Street","city_fetched":"Washington,US","state":"D.C.","country":"United States","canonicalUrl":"https://foursquare.com/v/tropicalia/501d72d9e4b0876f2b424e87","categoryId":"4bf58dd8d48988d11f941735","category":"Nightclub","checkinsCount":2418,"usersCount":1549,"tipCount":17,"visitsCount":2447,"tier":1,"message":"Cheap","currency":"$","rating":5.9},{"name":"Cities Restaurant & Lounge","phone":"2022505557","twitter":"citiesdc","address":"1909 K St NW","lat":38.90190460245776,"lng":-77.04336404800415,"neighborhood":"Connecticut Avenue - K Street","city_fetched":"Washington,US","state":"D.C.","country":"United States","canonicalUrl":"https://foursquare.com/v/cities-restaurant--lounge/4cf92916de096dcbcdf18c79","categoryId":"4bf58dd8d48988d121941735","category":"Lounge","checkinsCount":7038,"usersCount":3939,"tipCount":46,"visitsCount":7647,"url":"http://www.citiesdc.com","tier":2,"message":"Moderate","currency":"$","rating":5.8},{"name":"Hangar Club","phone":"3014496970","address":"6410 Old Branch Ave","lat":38.801544662108064,"lng":-76.9044624378423,"city_fetched":"Washington,US","state":"MD","country":"United States","canonicalUrl":"https://foursquare.com/v/hangar-club/4bef5b265e4aa5930af558bb","categoryId":"4bf58dd8d48988d1d6941735","category":"Strip Club","checkinsCount":460,"usersCount":328,"tipCount":6,"visitsCount":665,"url":"http://www.hangarclub.com","tier":"","message":"","currency":"","rating":5.8},{"name":"The Huxley","phone":"2026701730","address":"1730 M St NW","lat":38.905780108712385,"lng":-77.04008903814938,"neighborhood":"Connecticut Avenue - K Street","city_fetched":"Washington,US","state":"D.C.","country":"United States","canonicalUrl":"https://foursquare.com/v/the-huxley/503532358aca10f34944e063","categoryId":"4bf58dd8d48988d11f941735","category":"Nightclub","checkinsCount":2575,"usersCount":1702,"tipCount":19,"visitsCount":2868,"url":"http://www.huxleydc.com","tier":3,"message":"Expensive","currency":"$","rating":5.8},{"name":"Handsome Cock","address":"1334 U St. NW","lat":38.91713677745075,"lng":-77.03102535510938,"neighborhood":"U-Street","city_fetched":"Washington,US","state":"D.C.","country":"United States","canonicalUrl":"https://foursquare.com/v/handsome-cock/532a4560498ed970769e7ec9","categoryId":"4bf58dd8d48988d118941735","category":"Dive Bar","checkinsCount":457,"usersCount":345,"tipCount":4,"visitsCount":460,"tier":"","message":"","currency":"","rating":5.8},{"name":"The 51st State Tavern","phone":"2026252444","twitter":"51ststatetavern","address":"2512 L St NW","lat":38.9037786579112,"lng":-77.05395875536091,"neighborhood":"West End","city_fetched":"Washington,US","state":"D.C.","country":"United States","canonicalUrl":"https://foursquare.com/v/the-51st-state-tavern/4a5a4d91f964a52020ba1fe3","categoryId":"4bf58dd8d48988d116941735","category":"Bar","checkinsCount":5355,"usersCount":2910,"tipCount":35,"visitsCount":5385,"url":"http://www.51ststatetavern.com","tier":2,"message":"Moderate","currency":"$","rating":5.8},{"name":"BRICK LANE","phone":"2022470526","address":"1636 17th Street NW","lat":38.91237290147018,"lng":-77.03862719974462,"neighborhood":"Dupont Circle","city_fetched":"Washington,US","state":"D.C.","country":"United States","canonicalUrl":"https://foursquare.com/v/brick-lane/56ec8a18498e0692bdea3f74","categoryId":"4bf58dd8d48988d121941735","category":"Lounge","checkinsCount":157,"usersCount":88,"tipCount":3,"visitsCount":159,"url":"http://bricklanedc.com","tier":"","message":"","currency":"","rating":5.8},{"name":"Mcclellan's Sports Bar","phone":"2024833000","twitter":"hiltonhotels","address":"1919 Connecticut Ave NW","lat":38.916062200802635,"lng":-77.04550330864619,"neighborhood":"Adams Morgan","city_fetched":"Washington,US","state":"D.C.","country":"United States","canonicalUrl":"https://foursquare.com/v/mcclellans-sports-bar/50ca02c5245f2d4aa8c2c3a4","categoryId":"4bf58dd8d48988d11d941735","category":"Sports Bar","checkinsCount":1367,"usersCount":990,"tipCount":16,"visitsCount":1380,"url":"http://www.hilton.com","tier":"","message":"","currency":"","rating":5.7},{"name":"Aqua","address":"1818 New York Ave NE","lat":38.917599252322795,"lng":-76.97644900897733,"neighborhood":"Langdon","city_fetched":"Washington,US","state":"D.C.","country":"United States","canonicalUrl":"https://foursquare.com/v/aqua/4c258550a852c928f927e56c","categoryId":"4bf58dd8d48988d11f941735","category":"Nightclub","checkinsCount":1868,"usersCount":1000,"tipCount":14,"visitsCount":2226,"tier":1,"message":"Cheap","currency":"$","rating":5.7},{"name":"BlackBerry Appy Hour","twitter":"blackberry4biz","address":"410 1st St SE","lat":38.88480293298636,"lng":-77.00559854507446,"neighborhood":"Capitol Hill","city_fetched":"Washington,US","state":"D.C.","country":"United States","canonicalUrl":"https://foursquare.com/v/blackberry-appy-hour/4fc77c544fc688043e6f89d4","categoryId":"4bf58dd8d48988d116941735","category":"Bar","checkinsCount":40,"usersCount":31,"tipCount":13,"visitsCount":40,"tier":"","message":"","currency":"","rating":5.7},{"name":"Harry's Pub","address":"2660 Woodley Rd NW","lat":38.9245185176863,"lng":-77.05441974008005,"neighborhood":"Woodley Park","city_fetched":"Washington,US","state":"D.C.","country":"United States","canonicalUrl":"https://foursquare.com/v/harrys-pub/47b859aef964a520b94d1fe3","categoryId":"4bf58dd8d48988d1d5941735","category":"Hotel Bar","checkinsCount":1284,"usersCount":977,"tipCount":10,"visitsCount":1291,"tier":"","message":"","currency":"","rating":5.7},{"name":"K Street Lounge","phone":"2029623933","twitter":"kstreetlounge","address":"1301 K St NW, Ste 103","lat":38.90253109010697,"lng":-77.0304686923869,"neighborhood":"Downtown-Penn Quarter-Chinatown","city_fetched":"Washington,US","state":"D.C.","country":"United States","canonicalUrl":"https://foursquare.com/v/k-street-lounge/456ebf98f964a520193e1fe3","categoryId":"4bf58dd8d48988d11f941735","category":"Nightclub","checkinsCount":1587,"usersCount":1122,"tipCount":9,"visitsCount":1587,"url":"http://www.kstreetdc.com","tier":"","message":"","currency":"","rating":5.6},{"name":"Bravo! Bravo!","phone":"2022235330","address":"1001 Connecticut Ave NW","lat":38.90275,"lng":-77.039593,"neighborhood":"Connecticut Avenue - K Street","city_fetched":"Washington,US","state":"D.C.","country":"United States","canonicalUrl":"https://foursquare.com/v/bravo-bravo/40b13b00f964a52046f71ee3","categoryId":"4bf58dd8d48988d116941735","category":"Bar","checkinsCount":1209,"usersCount":555,"tipCount":9,"visitsCount":1259,"url":"http://www.bravobravodc.com","tier":1,"message":"Cheap","currency":"$","rating":5.6},{"name":"Marshall's Bar and Grille","phone":"2023331155","address":"2524 L St NW","lat":38.903698,"lng":-77.05423055,"neighborhood":"West End","city_fetched":"Washington,US","state":"D.C.","country":"United States","canonicalUrl":"https://foursquare.com/v/marshalls-bar-and-grille/40b13b00f964a5204ef71ee3","categoryId":"4bf58dd8d48988d118941735","category":"Dive Bar","checkinsCount":1425,"usersCount":764,"tipCount":20,"visitsCount":1426,"url":"http://marshallsbarandgrill.com","tier":"","message":"","currency":"","rating":5.6},{"name":"Kabin","phone":"2028102770","address":"1337 Connecticut Ave NW","lat":38.90832833056579,"lng":-77.0424391874411,"neighborhood":"Connecticut Avenue - K Street","city_fetched":"Washington,US","state":"D.C.","country":"United States","canonicalUrl":"https://foursquare.com/v/kabin/51e72024498ef2f273cfeb58","categoryId":"4bf58dd8d48988d11f941735","category":"Nightclub","checkinsCount":1809,"usersCount":1053,"tipCount":13,"visitsCount":1859,"url":"http://www.kabindc.com","tier":2,"message":"Moderate","currency":"$","rating":5.6},{"name":"Da Luft","twitter":"daluftdc","address":"1242 H St NE","lat":38.90024187534845,"lng":-76.98885794520939,"neighborhood":"Capitol Hill","city_fetched":"Washington,US","state":"D.C.","country":"United States","canonicalUrl":"https://foursquare.com/v/da-luft/5245b27711d23b788fecf02f","categoryId":"4bf58dd8d48988d121941735","category":"Lounge","checkinsCount":322,"usersCount":187,"tipCount":9,"visitsCount":332,"tier":"","message":"","currency":"","rating":5.6},{"name":"Daily Grill - Georgetown","phone":"2023374900","twitter":"dailygrill","address":"1310 Wisconsin Ave NW","lat":38.9072956608563,"lng":-77.06343339374729,"neighborhood":"Georgetown","city_fetched":"Washington,US","state":"D.C.","country":"United States","canonicalUrl":"https://foursquare.com/v/daily-grill--georgetown/4b353c6af964a520732b25e3","categoryId":"4bf58dd8d48988d116941735","category":"Bar","checkinsCount":2755,"usersCount":1827,"tipCount":31,"visitsCount":2817,"url":"http://t.co/GmPLdB5Wf0","tier":3,"message":"Expensive","currency":"$","rating":5.6},{"name":"Pure Lounge","twitter":"purelounge","address":"1326 U St NW","lat":38.916928335314815,"lng":-77.03069360692655,"neighborhood":"U-Street","city_fetched":"Washington,US","state":"D.C.","country":"United States","canonicalUrl":"https://foursquare.com/v/pure-lounge/4b36e891f964a5200f3e25e3","categoryId":"4bf58dd8d48988d11f941735","category":"Nightclub","checkinsCount":2517,"usersCount":1202,"tipCount":17,"visitsCount":2545,"tier":"","message":"","currency":"","rating":5.6},{"name":"Redline","phone":"2023471248","twitter":"redlinebardc","address":"707 G St NW","lat":38.89861922178747,"lng":-77.02194412324029,"neighborhood":"Chinatown","city_fetched":"Washington,US","state":"D.C.","country":"United States","canonicalUrl":"https://foursquare.com/redlinebardc","categoryId":"4bf58dd8d48988d11d941735","category":"Sports Bar","checkinsCount":12724,"usersCount":7217,"tipCount":97,"visitsCount":12822,"url":"http://dcredline.com","tier":2,"message":"Moderate","currency":"$","rating":5.6},{"name":"James Mackey's Public House","phone":"2023317667","address":"1823 L St NW","lat":38.90389799830653,"lng":-77.04262912273407,"neighborhood":"Connecticut Avenue - K Street","city_fetched":"Washington,US","state":"D.C.","country":"United States","canonicalUrl":"https://foursquare.com/v/james-mackeys-public-house/40b13b00f964a52086f41ee3","categoryId":"4bf58dd8d48988d11b941735","category":"Pub","checkinsCount":5232,"usersCount":3090,"tipCount":24,"visitsCount":5426,"url":"http://mackeyspub.com","tier":2,"message":"Moderate","currency":"$","rating":5.5},{"name":"Layla Lounge","address":"501 Morris Street NE","lat":38.90724759317376,"lng":-76.99876843476024,"neighborhood":"Ivy City","city_fetched":"Washington,US","state":"D.C.","country":"United States","canonicalUrl":"https://foursquare.com/v/layla-lounge/5544365c498eede8a250bac7","categoryId":"4bf58dd8d48988d121941735","category":"Lounge","checkinsCount":73,"usersCount":24,"tipCount":4,"visitsCount":99,"tier":"","message":"","currency":"","rating":5.5},{"name":"Brass Monkey","phone":"2026677800","address":"2317 18th St NW","lat":38.92012688333333,"lng":-77.041737,"neighborhood":"Adams Morgan","city_fetched":"Washington,US","state":"D.C.","country":"United States","canonicalUrl":"https://foursquare.com/v/brass-monkey/3fd66200f964a52075f11ee3","categoryId":"4bf58dd8d48988d120941735","category":"Karaoke Bar","checkinsCount":4487,"usersCount":2686,"tipCount":17,"visitsCount":4550,"tier":1,"message":"Cheap","currency":"$","rating":5.5},{"name":"Chinese Disco","address":"3251 Prospect Street NW","lat":38.90642963425571,"lng":-77.06372338424772,"neighborhood":"Georgetown","city_fetched":"Washington,US","state":"D.C.","country":"United States","canonicalUrl":"https://foursquare.com/v/chinese-disco/53e42f7a498e40c7e22ae7f6","categoryId":"4bf58dd8d48988d116941735","category":"Bar","checkinsCount":487,"usersCount":359,"tipCount":9,"visitsCount":579,"url":"http://www.chinesediscodc.com","tier":"","message":"","currency":"","rating":5.5},{"name":"Harry's Restaurant & Saloon","phone":"2026240053","address":"436 11th St NW","lat":38.89625085436139,"lng":-77.02746042023236,"neighborhood":"Downtown-Penn Quarter-Chinatown","city_fetched":"Washington,US","state":"D.C.","country":"United States","canonicalUrl":"https://foursquare.com/v/harrys-restaurant--saloon/45fec67bf964a5208c441fe3","categoryId":"4bf58dd8d48988d116941735","category":"Bar","checkinsCount":6250,"usersCount":3676,"tipCount":82,"visitsCount":6402,"url":"http://harryssaloon.com","tier":2,"message":"Moderate","currency":"$","rating":5.5},{"name":"President's Sports Bar","phone":"2028989000","address":"999 9th Street","lat":38.90166723172432,"lng":-77.02346239518258,"neighborhood":"Chinatown","city_fetched":"Washington,US","state":"D.C.","country":"United States","canonicalUrl":"https://foursquare.com/v/presidents-sports-bar/4ae11229f964a520088521e3","categoryId":"4bf58dd8d48988d11d941735","category":"Sports Bar","checkinsCount":1024,"usersCount":742,"tipCount":8,"visitsCount":1033,"tier":"","message":"","currency":"","rating":5.5},{"name":"Archibald's","phone":"2026385112","address":"1520 K St NW","lat":38.902592320734925,"lng":-77.03551792311941,"neighborhood":"Connecticut Avenue - K Street","city_fetched":"Washington,US","state":"D.C.","country":"United States","canonicalUrl":"https://foursquare.com/v/archibalds/40b13b00f964a5200bf41ee3","categoryId":"4bf58dd8d48988d1d6941735","category":"Strip Club","checkinsCount":810,"usersCount":501,"tipCount":6,"visitsCount":818,"url":"http://www.archibalds.com","tier":"","message":"","currency":"","rating":5.5},{"name":"Shenanigan's Irish Pub","phone":"2025887405","address":"2450 18th St NW","lat":38.92192368656473,"lng":-77.04261302947998,"neighborhood":"Adams Morgan","city_fetched":"Washington,US","state":"D.C.","country":"United States","canonicalUrl":"https://foursquare.com/v/shenanigans-irish-pub/513a9d88e4b0dcaa86f3b270","categoryId":"4bf58dd8d48988d11b941735","category":"Pub","checkinsCount":1280,"usersCount":809,"tipCount":7,"visitsCount":1312,"tier":1,"message":"Cheap","currency":"$","rating":5.5},{"name":"The Zoo Bar Cafe","phone":"2022324225","twitter":"zoobarcafedc","address":"3000 Connecticut Ave NW","lat":38.93007,"lng":-77.055346,"neighborhood":"Woodley Park","city_fetched":"Washington,US","state":"D.C.","country":"United States","canonicalUrl":"https://foursquare.com/v/the-zoo-bar-cafe/4bf42f9a2d629521a5166058","categoryId":"4bf58dd8d48988d11b941735","category":"Pub","checkinsCount":1647,"usersCount":1009,"tipCount":14,"visitsCount":1668,"url":"http://zoobardc.com","tier":2,"message":"Moderate","currency":"$","rating":5.4},{"name":"Lou's City Bar","phone":"2025185687","twitter":"louscitybar","address":"1400 Irving St NW","lat":38.928550946293626,"lng":-77.03383415937424,"neighborhood":"Columbia Heights","city_fetched":"Washington,US","state":"D.C.","country":"United States","canonicalUrl":"https://foursquare.com/v/lous-city-bar/4d5d58541da1cbffbf9b2405","categoryId":"4bf58dd8d48988d11d941735","category":"Sports Bar","checkinsCount":7912,"usersCount":3076,"tipCount":65,"visitsCount":8361,"tier":2,"message":"Moderate","currency":"$","rating":5.4},{"name":"The Powerhouse","address":"3255 Grace St NW","lat":38.90407402824631,"lng":-77.06490385573271,"neighborhood":"Georgetown","city_fetched":"Washington,US","state":"D.C.","country":"United States","canonicalUrl":"https://foursquare.com/v/the-powerhouse/4f7dbd2ae4b0015becbb746d","categoryId":"4bf58dd8d48988d1d4941735","category":"Speakeasy","checkinsCount":524,"usersCount":379,"tipCount":3,"visitsCount":528,"tier":"","message":"","currency":"","rating":5.4},{"name":"Heaven and Hell","phone":"2026674355","twitter":"clubheavenhell","address":"2327 18th St NW","lat":38.92034604056282,"lng":-77.04184322089412,"neighborhood":"Adams Morgan","city_fetched":"Washington,US","state":"D.C.","country":"United States","canonicalUrl":"https://foursquare.com/v/heaven-and-hell/40b13b00f964a5207cf41ee3","categoryId":"4bf58dd8d48988d11f941735","category":"Nightclub","checkinsCount":1187,"usersCount":921,"tipCount":12,"visitsCount":1194,"url":"http://www.heavenandhellclub.com","tier":"","message":"","currency":"","rating":5.3},{"name":"Cloak & Dagger","address":"1359 U St NW","lat":38.91693329816064,"lng":-77.03143019911707,"neighborhood":"U-Street","city_fetched":"Washington,US","state":"D.C.","country":"United States","canonicalUrl":"https://foursquare.com/v/cloak--dagger/564bfb84498e686dd8944986","categoryId":"4bf58dd8d48988d121941735","category":"Lounge","checkinsCount":287,"usersCount":240,"tipCount":0,"visitsCount":294,"tier":"","message":"","currency":"","rating":5.3},{"name":"Peyote Café","phone":"2024628330","address":"2319 18th St NW","lat":38.92019999679311,"lng":-77.04157501459122,"neighborhood":"Adams Morgan","city_fetched":"Washington,US","state":"D.C.","country":"United States","canonicalUrl":"https://foursquare.com/v/peyote-caf%C3%A9/40b13b00f964a52077f71ee3","categoryId":"4bf58dd8d48988d120941735","category":"Karaoke Bar","checkinsCount":1270,"usersCount":876,"tipCount":8,"visitsCount":1279,"tier":"","message":"","currency":"","rating":5.1},{"name":"Prince Cafe","phone":"2023620080","address":"4629 41st St NW","lat":38.95044988,"lng":-77.080454,"neighborhood":"Tenleytown","city_fetched":"Washington,US","state":"D.C.","country":"United States","canonicalUrl":"https://foursquare.com/v/prince-cafe/4b6f785ff964a520d1f12ce3","categoryId":"4bf58dd8d48988d119941735","category":"Hookah Bar","checkinsCount":399,"usersCount":164,"tipCount":7,"visitsCount":400,"url":"http://princecafes.com","tier":"","message":"","currency":"","rating":4.8}]