[{"name":"Mulligan's Brick Oven Grill & Pub","phone":"3192773426","address":"205 E 18th St","lat":42.52156415,"lng":-92.443742,"city_fetched":"Waterloo,US","state":"IA","country":"United States","canonicalUrl":"https://foursquare.com/v/mulligans-brick-oven-grill--pub/4b61d8def964a520b9262ae3","categoryId":"4bf58dd8d48988d11d941735","category":"Sports Bar","checkinsCount":3553,"usersCount":1207,"tipCount":13,"visitsCount":4128,"url":"http://www.mulligansbrickoven.com","tier":2,"message":"Moderate","currency":"$","rating":8.6},{"name":"Jameson's Public House","phone":"3192330701","address":"310 E 4th St","lat":42.49911933932455,"lng":-92.33467943038413,"city_fetched":"Waterloo,US","state":"IA","country":"United States","canonicalUrl":"https://foursquare.com/v/jamesons-public-house/4b65229df964a520c7e52ae3","categoryId":"4bf58dd8d48988d11b941735","category":"Pub","checkinsCount":1763,"usersCount":687,"tipCount":20,"visitsCount":1909,"url":"http://jamesonspublichouse.com","tier":2,"message":"Moderate","currency":"$","rating":8.5},{"name":"Spicoli's Grill & Reverb Rock Garden","phone":"3192875747","twitter":"spicolis","address":"3555 University Ave","lat":42.50228343701066,"lng":-92.39532289644028,"city_fetched":"Waterloo,US","state":"IA","country":"United States","canonicalUrl":"https://foursquare.com/v/spicolis-grill--reverb-rock-garden/4b495672f964a520c66d26e3","categoryId":"4bf58dd8d48988d116941735","category":"Bar","checkinsCount":2911,"usersCount":619,"tipCount":12,"visitsCount":3188,"url":"http://www.spicolis.net","tier":2,"message":"Moderate","currency":"$","rating":8.5},{"name":"SingleSpeed Brewing Company","phone":"3192663581","address":"128 Main St","lat":42.5368340362111,"lng":-92.44526562392602,"city_fetched":"Waterloo,US","state":"IA","country":"United States","canonicalUrl":"https://foursquare.com/v/singlespeed-brewing-company/50c9c48ae4b038bd6de755f2","categoryId":"50327c8591d4c4b30a586d5d","category":"Brewery","checkinsCount":1771,"usersCount":621,"tipCount":21,"visitsCount":1960,"url":"http://singlespeedbrewing.com","tier":2,"message":"Moderate","currency":"$","rating":8.2},{"name":"Peppers Grill & Sports Pub","phone":"3192669394","address":"620 E 18th St","lat":42.521743311557515,"lng":-92.43909358978271,"city_fetched":"Waterloo,US","state":"IA","country":"United States","canonicalUrl":"https://foursquare.com/v/peppers-grill--sports-pub/4b53d774f964a520e7ac27e3","categoryId":"4bf58dd8d48988d11d941735","category":"Sports Bar","checkinsCount":3087,"usersCount":1381,"tipCount":22,"visitsCount":3752,"url":"http://pepperssportspub.com","tier":1,"message":"Cheap","currency":"$","rating":8.2},{"name":"Broad Street Brewing Co","address":"113 Broad St","lat":42.32526981429836,"lng":-92.5979573689494,"city_fetched":"Waterloo,US","state":"IA","country":"United States","canonicalUrl":"https://foursquare.com/v/broad-street-brewing-co/4e3cbd0c1f6e844231dcb2ba","categoryId":"50327c8591d4c4b30a586d5d","category":"Brewery","checkinsCount":105,"usersCount":69,"tipCount":4,"visitsCount":111,"tier":"","message":"","currency":"","rating":7.9},{"name":"Vic's Lounge","phone":"3192349110","address":"1106 Laporte Rd","lat":42.475477066005276,"lng":-92.32327682270993,"city_fetched":"Waterloo,US","state":"IA","country":"United States","canonicalUrl":"https://foursquare.com/v/vics-lounge/4cfdbd9ca9042c0fa0f5e30a","categoryId":"4bf58dd8d48988d121941735","category":"Lounge","checkinsCount":805,"usersCount":138,"tipCount":8,"visitsCount":843,"tier":1,"message":"Cheap","currency":"$","rating":7.9},{"name":"Smitty's","address":"709 Jefferson St","lat":42.49351016666667,"lng":-92.339071,"neighborhood":"Downtown Waterloo","city_fetched":"Waterloo,US","state":"IA","country":"United States","canonicalUrl":"https://foursquare.com/v/smittys/4c007f719cf52d7faeef13e7","categoryId":"4bf58dd8d48988d11d941735","category":"Sports Bar","checkinsCount":418,"usersCount":181,"tipCount":3,"visitsCount":431,"tier":"","message":"","currency":"","rating":7.7},{"name":"Zsavooz Sports Lounge & Grill","phone":"3192663050","address":"206 Brandilynn Blvd","lat":42.484398989006415,"lng":-92.44458011779415,"city_fetched":"Waterloo,US","state":"IA","country":"United States","canonicalUrl":"https://foursquare.com/v/zsavooz-sports-lounge--grill/4b798b88f964a52063002fe3","categoryId":"4bf58dd8d48988d11d941735","category":"Sports Bar","checkinsCount":1424,"usersCount":547,"tipCount":4,"visitsCount":1705,"url":"http://zsavooz.com","tier":"","message":"","currency":"","rating":7.7},{"name":"Damons","phone":"3198838025","address":"2122 Kimball Ave","lat":42.47050842217953,"lng":-92.35772930307857,"city_fetched":"Waterloo,US","state":"IA","country":"United States","canonicalUrl":"https://foursquare.com/v/damons/4e91066229c2117fa4120429","categoryId":"4bf58dd8d48988d11d941735","category":"Sports Bar","checkinsCount":1099,"usersCount":225,"tipCount":8,"visitsCount":1211,"tier":"","message":"","currency":"","rating":7.6},{"name":"Gingers","phone":"3192771760","twitter":"gingerscf","address":"925 W 22nd St","lat":42.518046961303156,"lng":-92.45654415004033,"city_fetched":"Waterloo,US","state":"IA","country":"United States","canonicalUrl":"https://foursquare.com/v/gingers/513402e9fe1ef1458d09cdc7","categoryId":"4bf58dd8d48988d11b941735","category":"Pub","checkinsCount":682,"usersCount":265,"tipCount":3,"visitsCount":780,"url":"http://www.gingerscf.com","tier":"","message":"","currency":"","rating":7.5},{"name":"Casey's Pub","phone":"3192349653","address":"4014 University Ave","lat":42.505655781541954,"lng":-92.40448134248577,"city_fetched":"Waterloo,US","state":"IA","country":"United States","canonicalUrl":"https://foursquare.com/v/caseys-pub/4c425493cc410f4733b0ac61","categoryId":"4bf58dd8d48988d116941735","category":"Bar","checkinsCount":1017,"usersCount":380,"tipCount":3,"visitsCount":1147,"tier":"","message":"","currency":"","rating":7.5},{"name":"Toad's Bar & Grill","phone":"3192663507","address":"204 Main St","lat":42.53670866694935,"lng":-92.44537183001617,"city_fetched":"Waterloo,US","state":"IA","country":"United States","canonicalUrl":"https://foursquare.com/v/toads-bar--grill/4ba592d5f964a5207a1339e3","categoryId":"4bf58dd8d48988d116941735","category":"Bar","checkinsCount":5391,"usersCount":1485,"tipCount":18,"visitsCount":5511,"url":"http://toadsbarandgrill.com","tier":1,"message":"Cheap","currency":"$","rating":7.5},{"name":"Flirts Gentlemen's Club","phone":"3192877000","address":"319 Jefferson St","lat":42.496213086663744,"lng":-92.3430061340332,"neighborhood":"Downtown Waterloo","city_fetched":"Waterloo,US","state":"IA","country":"United States","canonicalUrl":"https://foursquare.com/v/flirts-gentlemens-club/4c3907713849c928099fc0b1","categoryId":"4bf58dd8d48988d1d6941735","category":"Strip Club","checkinsCount":531,"usersCount":199,"tipCount":4,"visitsCount":564,"url":"http://www.flirtsgc.net","tier":"","message":"","currency":"","rating":7.4},{"name":"The Saloon","phone":"3192352573","address":"303 W 4th St","lat":42.49415270367454,"lng":-92.34069969421991,"neighborhood":"Downtown Waterloo","city_fetched":"Waterloo,US","state":"IA","country":"United States","canonicalUrl":"https://foursquare.com/v/the-saloon/4d8571c7e83fa143a9717ba1","categoryId":"4bf58dd8d48988d116941735","category":"Bar","checkinsCount":712,"usersCount":151,"tipCount":5,"visitsCount":766,"tier":2,"message":"Moderate","currency":"$","rating":7.3},{"name":"Locker Room","phone":"3192349270","address":"1918 Hawthorne Ave","lat":42.480862736492085,"lng":-92.32507755151774,"city_fetched":"Waterloo,US","state":"IA","country":"United States","canonicalUrl":"https://foursquare.com/v/locker-room/4c60e17213791b8d9cc250af","categoryId":"4bf58dd8d48988d116941735","category":"Bar","checkinsCount":1108,"usersCount":146,"tipCount":9,"visitsCount":1198,"tier":"","message":"","currency":"","rating":7.3},{"name":"The Library","phone":"3192773962","address":"2222 College St","lat":42.5170774,"lng":-92.4556781,"city_fetched":"Waterloo,US","state":"IA","country":"United States","canonicalUrl":"https://foursquare.com/v/the-library/4ba18592f964a520e1bd37e3","categoryId":"4bf58dd8d48988d116941735","category":"Bar","checkinsCount":3082,"usersCount":400,"tipCount":13,"visitsCount":3136,"tier":"","message":"","currency":"","rating":7.3},{"name":"Chasers Pub","phone":"3192367770","address":"3005 University Ave","lat":42.498529885873616,"lng":-92.38450295472803,"city_fetched":"Waterloo,US","state":"IA","country":"United States","canonicalUrl":"https://foursquare.com/v/chasers-pub/4b8a1721f964a520905f32e3","categoryId":"4bf58dd8d48988d116941735","category":"Bar","checkinsCount":1968,"usersCount":224,"tipCount":10,"visitsCount":2040,"tier":1,"message":"Cheap","currency":"$","rating":7.3},{"name":"The Cellar","phone":"3192748889","address":"320 E 4th St","lat":42.4992106482132,"lng":-92.33442418876871,"city_fetched":"Waterloo,US","state":"IA","country":"United States","canonicalUrl":"https://foursquare.com/v/the-cellar/4c2a846a57a9c9b63ba1f467","categoryId":"4bf58dd8d48988d116941735","category":"Bar","checkinsCount":456,"usersCount":132,"tipCount":6,"visitsCount":465,"tier":"","message":"","currency":"","rating":7.2},{"name":"Kings And Queens Tap","phone":"3192323001","address":"304 W 4th St","lat":42.494338244765544,"lng":-92.3409703373909,"neighborhood":"Downtown Waterloo","city_fetched":"Waterloo,US","state":"IA","country":"United States","canonicalUrl":"https://foursquare.com/v/kings-and-queens-tap/4c3e86f66faac9b64f710e76","categoryId":"4bf58dd8d48988d1d8941735","category":"Gay Bar","checkinsCount":1177,"usersCount":295,"tipCount":5,"visitsCount":1205,"tier":"","message":"","currency":"","rating":7},{"name":"Landmark","phone":"3195530106","address":"118 Main St","lat":42.53708335734429,"lng":-92.4454683812202,"city_fetched":"Waterloo,US","state":"IA","country":"United States","canonicalUrl":"https://foursquare.com/v/landmark/4b89fe75f964a5209e5a32e3","categoryId":"4bf58dd8d48988d11b941735","category":"Pub","checkinsCount":1808,"usersCount":508,"tipCount":2,"visitsCount":1866,"tier":"","message":"","currency":"","rating":7},{"name":"Lava Lounge","phone":"3192345686","address":"2401 Falls Ave","lat":42.499698,"lng":-92.377281,"city_fetched":"Waterloo,US","state":"IA","country":"United States","canonicalUrl":"https://foursquare.com/v/lava-lounge/4b4e4514f964a52090e726e3","categoryId":"4bf58dd8d48988d121941735","category":"Lounge","checkinsCount":656,"usersCount":208,"tipCount":6,"visitsCount":669,"tier":"","message":"","currency":"","rating":7},{"name":"Risque Gentleman's Club","phone":"3192349676","address":"301 W 4th St","lat":42.494153866666664,"lng":-92.34051656,"neighborhood":"Downtown Waterloo","city_fetched":"Waterloo,US","state":"IA","country":"United States","canonicalUrl":"https://foursquare.com/v/risque-gentlemans-club/4c39129bdfb0e21eb0deafa8","categoryId":"4bf58dd8d48988d1d6941735","category":"Strip Club","checkinsCount":286,"usersCount":97,"tipCount":1,"visitsCount":300,"tier":"","message":"","currency":"","rating":6.9},{"name":"Suds","phone":"3192779961","address":"2223 1/2 College St","lat":42.51710408024949,"lng":-92.45630754296161,"city_fetched":"Waterloo,US","state":"IA","country":"United States","canonicalUrl":"https://foursquare.com/v/suds/4b6f6e7ef964a5203ff02ce3","categoryId":"4bf58dd8d48988d116941735","category":"Bar","checkinsCount":2176,"usersCount":454,"tipCount":7,"visitsCount":2179,"tier":"","message":"","currency":"","rating":6.9},{"name":"Slice - Ultra Shed","address":"Elder St.","lat":42.46514845,"lng":-92.629158,"city_fetched":"Waterloo,US","state":"Iowa","country":"United States","canonicalUrl":"https://foursquare.com/v/slice--ultra-shed/4e262320aeb7663625310cfa","categoryId":"4bf58dd8d48988d11d941735","category":"Sports Bar","checkinsCount":179,"usersCount":81,"tipCount":1,"visitsCount":197,"tier":"","message":"","currency":"","rating":6.8},{"name":"Buzz's Bar","phone":"3192349100","address":"1016 Maynard Ave","lat":42.50727832317352,"lng":-92.3784327507019,"city_fetched":"Waterloo,US","state":"IA","country":"United States","canonicalUrl":"https://foursquare.com/v/buzzs-bar/4cba6331d78f4688c5b7bc73","categoryId":"4bf58dd8d48988d116941735","category":"Bar","checkinsCount":993,"usersCount":235,"tipCount":2,"visitsCount":1121,"tier":"","message":"","currency":"","rating":6.8},{"name":"S.A.C.'s Pub","lat":42.48098762409209,"lng":-92.32408088265647,"city_fetched":"Waterloo,US","state":"IA","country":"United States","canonicalUrl":"https://foursquare.com/v/sacs-pub/5168c526e4b089297793ebdd","categoryId":"4bf58dd8d48988d116941735","category":"Bar","checkinsCount":150,"usersCount":55,"tipCount":2,"visitsCount":164,"tier":"","message":"","currency":"","rating":6.8},{"name":"The Blue Room Lounge","phone":"3192779950","address":"201 Main St","lat":42.536834981836535,"lng":-92.44569527734805,"city_fetched":"Waterloo,US","state":"IA","country":"United States","canonicalUrl":"https://foursquare.com/v/the-blue-room-lounge/4b8a0431f964a520c65b32e3","categoryId":"4bf58dd8d48988d116941735","category":"Bar","checkinsCount":1094,"usersCount":394,"tipCount":3,"visitsCount":1154,"tier":"","message":"","currency":"","rating":6.7},{"name":"The Broken Record Bar","address":"315 W 4th St","lat":42.49406039468004,"lng":-92.34094533786543,"neighborhood":"Downtown Waterloo","city_fetched":"Waterloo,US","state":"IA","country":"United States","canonicalUrl":"https://foursquare.com/v/the-broken-record-bar/4fe6a01ae4b0e91f09c1dc7a","categoryId":"4bf58dd8d48988d116941735","category":"Bar","checkinsCount":320,"usersCount":117,"tipCount":0,"visitsCount":334,"tier":"","message":"","currency":"","rating":6.3},{"name":"Beck's Taproom Grill","phone":"3192344333","address":"3295 University Ave","lat":42.5008692681278,"lng":-92.39007172289455,"city_fetched":"Waterloo,US","state":"IA","country":"United States","canonicalUrl":"https://foursquare.com/v/becks-taproom-grill/4b6cc3f0f964a520cc522ce3","categoryId":"4bf58dd8d48988d11d941735","category":"Sports Bar","checkinsCount":2565,"usersCount":999,"tipCount":12,"visitsCount":2871,"url":"http://www.beckstaproom.com","tier":2,"message":"Moderate","currency":"$","rating":6.2},{"name":"Sharky's Fun House","phone":"3192773019","twitter":"sharkysfunhouse","address":"2223 College St","lat":42.51711123,"lng":-92.45609879493713,"city_fetched":"Waterloo,US","state":"IA","country":"United States","canonicalUrl":"https://foursquare.com/v/sharkys-fun-house/4bbff0fc74a9a5936176cff6","categoryId":"4bf58dd8d48988d11f941735","category":"Nightclub","checkinsCount":525,"usersCount":225,"tipCount":2,"visitsCount":526,"tier":"","message":"","currency":"","rating":6.1},{"name":"Beck's Sports Grill","phone":"3192772646","twitter":"beckshillcf","address":"2210 College St","lat":42.51731502383746,"lng":-92.45574474334717,"city_fetched":"Waterloo,US","state":"IA","country":"United States","canonicalUrl":"https://foursquare.com/v/becks-sports-grill/4b6a0eb7f964a520b5c42be3","categoryId":"4bf58dd8d48988d11d941735","category":"Sports Bar","checkinsCount":2950,"usersCount":760,"tipCount":12,"visitsCount":2978,"url":"http://www.barmuda.com/becks_hill","tier":2,"message":"Moderate","currency":"$","rating":5.8},{"name":"The Winning Edge","phone":"3192363901","address":"341 Fletcher Ave","lat":42.488278533333336,"lng":-92.36671253333333,"city_fetched":"Waterloo,US","state":"IA","country":"United States","canonicalUrl":"https://foursquare.com/v/the-winning-edge/4be4c2172457a59306bfaa15","categoryId":"4bf58dd8d48988d116941735","category":"Bar","checkinsCount":632,"usersCount":204,"tipCount":7,"visitsCount":645,"tier":"","message":"","currency":"","rating":5.8},{"name":"Times Lounge","address":"213 E 5th St","lat":42.49801713486864,"lng":-92.3345060585651,"city_fetched":"Waterloo,US","state":"IA","country":"United States","canonicalUrl":"https://foursquare.com/v/times-lounge/500a12cce4b053e657262b18","categoryId":"4bf58dd8d48988d116941735","category":"Bar","checkinsCount":308,"usersCount":98,"tipCount":2,"visitsCount":339,"tier":"","message":"","currency":"","rating":5.3}]