[{"name":"The Paddock Club","phone":"3157866633","address":"1 Public Sq Ste 5","lat":43.974235307901296,"lng":-75.91093567685294,"city_fetched":"Watertown","state":"NY","country":"United States","canonicalUrl":"https://foursquare.com/v/the-paddock-club/4d408cc7c5eaa1cd259ca250","category":"Cocktail Bar","checkinsCount":560,"usersCount":318,"tipCount":8,"visitsCount":700,"url":"http://www.paddockclubusa.com","tier":"","message":"","currency":"","rating":8.2},{"name":"1025 Ruyi Japanese Steakhouse","phone":"3154054501","address":"1025 Arsenal St.","lat":43.97655912474256,"lng":-75.93518477400752,"city_fetched":"Watertown","state":"NY","country":"United States","canonicalUrl":"https://foursquare.com/v/1025-ruyi-japanese-steakhouse/4da37a86b521224b3bf21eee","category":"Japanese Restaurant","checkinsCount":460,"usersCount":352,"tipCount":20,"visitsCount":609,"url":"http://www.1025ruyisteakhouse.com","tier":3,"message":"Expensive","currency":"$","rating":8.2},{"name":"Sboro's Restaurant & Chophouse","phone":"3157881728","address":"836 Coffeen St","lat":43.983592890726314,"lng":-75.92785264301432,"city_fetched":"Watertown","state":"NY","country":"United States","canonicalUrl":"https://foursquare.com/v/sboros-restaurant--chophouse/4e01124162843b639cfa781d","category":"Steakhouse","checkinsCount":152,"usersCount":96,"tipCount":8,"visitsCount":168,"url":"http://www.sborosrestaurant.com","tier":3,"message":"Expensive","currency":"$","rating":7.5},{"name":"Tilted Kilt Watertown","phone":"3157825458","twitter":"tiltedkiltpub","address":"1050 Arsenal St","lat":43.97757739689749,"lng":-75.93617143519836,"city_fetched":"Watertown","state":"NY","country":"United States","canonicalUrl":"https://foursquare.com/v/tilted-kilt-watertown/4c76b6b659a3236a707bbf18","category":"Pub","checkinsCount":1216,"usersCount":761,"tipCount":22,"visitsCount":1383,"url":"http://www.tiltedkilt.com","tier":2,"message":"Moderate","currency":"$","rating":7.4},{"name":"Seth's Pub","phone":"3156816645","address":"558 State St","lat":43.97262413749565,"lng":-75.90215030052482,"city_fetched":"Watertown","state":"NY","country":"United States","canonicalUrl":"https://foursquare.com/v/seths-pub/4c7a7aa1794e224bb3966828","category":"Bar","checkinsCount":321,"usersCount":90,"tipCount":4,"visitsCount":321,"tier":"","message":"","currency":"","rating":7.2},{"name":"Time Warp","phone":"3157829784","address":"285 State St","lat":43.97374765164369,"lng":-75.90613186250685,"city_fetched":"Watertown","state":"NY","country":"United States","canonicalUrl":"https://foursquare.com/v/time-warp/4c76d4bf5cd6b1f7be263d94","category":"Bar","checkinsCount":229,"usersCount":118,"tipCount":5,"visitsCount":338,"tier":"","message":"","currency":"","rating":7.2},{"name":"Mick's Place","address":"398 State Hig. 283","lat":43.97546225,"lng":-75.90599893333334,"city_fetched":"Watertown","state":"NY","country":"United States","canonicalUrl":"https://foursquare.com/v/micks-place/4c033e14187ec9289b7bb57b","category":"Bar","checkinsCount":165,"usersCount":69,"tipCount":3,"visitsCount":168,"tier":"","message":"","currency":"","rating":5.8},{"name":"Pewter Mug","address":"1313 State St","lat":43.96913019703493,"lng":-75.90103861922503,"city_fetched":"Watertown","state":"NY","country":"United States","canonicalUrl":"https://foursquare.com/v/pewter-mug/4bd3059741b9ef3b2d0effe5","category":"Bar","checkinsCount":387,"usersCount":123,"tipCount":7,"visitsCount":392,"tier":"","message":"","currency":"","rating":5.5}]