[{"name":"Red Eye Brewing Co","phone":"7158437334","address":"612 Washington St","lat":44.958792,"lng":-89.622657,"city_fetched":"Wausau,US","state":"WI","country":"United States","canonicalUrl":"https://foursquare.com/v/red-eye-brewing-co/4b37eedef964a520e54825e3","categoryId":"50327c8591d4c4b30a586d5d","category":"Brewery","checkinsCount":4585,"usersCount":1512,"tipCount":52,"visitsCount":5339,"url":"http://www.redeyebrewing.com","tier":2,"message":"Moderate","currency":"$","rating":9.1},{"name":"Hiawatha","phone":"7158485166","address":"709 Grant St","lat":44.961665868759155,"lng":-89.620245,"city_fetched":"Wausau,US","state":"WI","country":"United States","canonicalUrl":"https://foursquare.com/v/hiawatha/4bdb862a3904a593d1f64a9e","categoryId":"4bf58dd8d48988d121941735","category":"Lounge","checkinsCount":1133,"usersCount":384,"tipCount":17,"visitsCount":1396,"tier":2,"message":"Moderate","currency":"$","rating":8.5},{"name":"Malarkey's Pub","phone":"7158193663","address":"408 N 3rd St","lat":44.96001679445849,"lng":-89.62800356173021,"city_fetched":"Wausau,US","state":"WI","country":"United States","canonicalUrl":"https://foursquare.com/v/malarkeys-pub/4b85b673f964a520806e31e3","categoryId":"4bf58dd8d48988d116941735","category":"Bar","checkinsCount":2606,"usersCount":721,"tipCount":21,"visitsCount":2680,"url":"http://www.malarkeyspub.com","tier":2,"message":"Moderate","currency":"$","rating":8.4},{"name":"Great Dane Pub & Brewing Company","phone":"7158453000","address":"2305 Sherman St","lat":44.95148334146034,"lng":-89.66485738489882,"city_fetched":"Wausau,US","state":"WI","country":"United States","canonicalUrl":"https://foursquare.com/v/great-dane-pub--brewing-company/4bbbe445e5b0d13ab8b86e7c","categoryId":"50327c8591d4c4b30a586d5d","category":"Brewery","checkinsCount":4826,"usersCount":2318,"tipCount":48,"visitsCount":5878,"url":"http://wausau.greatdanepub.com","tier":2,"message":"Moderate","currency":"$","rating":8.3},{"name":"Treu's Tic Toc","phone":"7158482465","address":"Thomas St","lat":44.948163628578186,"lng":-89.65057790279388,"city_fetched":"Wausau,US","state":"WI","country":"United States","canonicalUrl":"https://foursquare.com/v/treus-tic-toc/4c5c401794fd0f47e30fc845","categoryId":"4bf58dd8d48988d116941735","category":"Bar","checkinsCount":302,"usersCount":132,"tipCount":7,"visitsCount":358,"tier":"","message":"","currency":"","rating":8.3},{"name":"Luckys Eastside Pub","phone":"7158485825","address":"1803 E Wausau Ave","lat":44.974192,"lng":-89.602358,"city_fetched":"Wausau,US","state":"WI","country":"United States","canonicalUrl":"https://foursquare.com/v/luckys-eastside-pub/4c7fec3451ada1cdd4140510","categoryId":"4bf58dd8d48988d116941735","category":"Bar","checkinsCount":222,"usersCount":112,"tipCount":10,"visitsCount":277,"tier":"","message":"","currency":"","rating":7.9},{"name":"19th Hole","phone":"7153592343","address":"1821 Grand Ave","lat":44.90524523,"lng":-89.61345208,"city_fetched":"Wausau,US","state":"WI","country":"United States","canonicalUrl":"https://foursquare.com/v/19th-hole/4c1efa82fcf8c9b60318ae0b","categoryId":"4bf58dd8d48988d120941735","category":"Karaoke Bar","checkinsCount":306,"usersCount":104,"tipCount":4,"visitsCount":416,"tier":"","message":"","currency":"","rating":7.8},{"name":"Chatterbox Bar","phone":"7158423059","address":"102 S 2nd Ave","lat":44.962667,"lng":-89.63828802108765,"city_fetched":"Wausau,US","state":"WI","country":"United States","canonicalUrl":"https://foursquare.com/v/chatterbox-bar/4b7a11a3f964a520a0212fe3","categoryId":"4bf58dd8d48988d117941735","category":"Beer Garden","checkinsCount":656,"usersCount":267,"tipCount":10,"visitsCount":811,"tier":1,"message":"Cheap","currency":"$","rating":7.8},{"name":"Loading Zone","phone":"7158459585","address":"2704 E. Hamilton St.","lat":44.967338614158905,"lng":-89.59025000299874,"city_fetched":"Wausau,US","state":"WI","country":"United States","canonicalUrl":"https://foursquare.com/v/loading-zone/4bb6879d941ad13a4e991fe3","categoryId":"4bf58dd8d48988d11b941735","category":"Pub","checkinsCount":573,"usersCount":206,"tipCount":4,"visitsCount":657,"tier":"","message":"","currency":"","rating":7.6},{"name":"Bob& Randy's","phone":"7158459079","address":"501-599 E Bridge St","lat":44.969435436548814,"lng":-89.62376913015481,"city_fetched":"Wausau,US","state":"WI","country":"United States","canonicalUrl":"https://foursquare.com/v/bob-randys/4c0742b6b4aa0f4705686562","categoryId":"4bf58dd8d48988d116941735","category":"Bar","checkinsCount":761,"usersCount":160,"tipCount":16,"visitsCount":926,"tier":1,"message":"Cheap","currency":"$","rating":7.4},{"name":"Limerick Public House","address":"121Scott Street","lat":44.96077441268706,"lng":-89.62946090981188,"city_fetched":"Wausau,US","state":"WI","country":"United States","canonicalUrl":"https://foursquare.com/v/limerick-public-house/4e7d3f96dab4fbe1c9274783","categoryId":"4bf58dd8d48988d116941735","category":"Bar","checkinsCount":568,"usersCount":178,"tipCount":5,"visitsCount":582,"tier":"","message":"","currency":"","rating":7.4},{"name":"Pro Players Sports Bar and Grill","phone":"7152417447","address":"206 Grand Ave","lat":44.92949637764593,"lng":-89.61464125220397,"city_fetched":"Wausau,US","state":"WI","country":"United States","canonicalUrl":"https://foursquare.com/v/pro-players-sports-bar-and-grill/4bef400a2ff520a1875ae8a2","categoryId":"4bf58dd8d48988d11d941735","category":"Sports Bar","checkinsCount":2198,"usersCount":243,"tipCount":19,"visitsCount":2377,"tier":2,"message":"Moderate","currency":"$","rating":7.4},{"name":"Brews Brothers Pub","address":"4107 Barbican Ave","lat":44.89701824674254,"lng":-89.57183385290038,"city_fetched":"Wausau,US","state":"WI","country":"United States","canonicalUrl":"https://foursquare.com/v/brews-brothers-pub/51366a11582f411c52b1fb74","categoryId":"4bf58dd8d48988d11b941735","category":"Pub","checkinsCount":568,"usersCount":385,"tipCount":16,"visitsCount":823,"tier":"","message":"","currency":"","rating":7.3},{"name":"Koo Coo's Nest Comedy Club","phone":"7152120138","address":"320 Ross Ave #8","lat":44.91468719101382,"lng":-89.60689583931516,"city_fetched":"Wausau,US","state":"WI","country":"United States","canonicalUrl":"https://foursquare.com/v/koo-coos-nest-comedy-club/5340b9f3498e3b54774de87d","categoryId":"4bf58dd8d48988d121941735","category":"Lounge","checkinsCount":176,"usersCount":36,"tipCount":5,"visitsCount":212,"url":"http://www.wausaucomedy.com","tier":1,"message":"Cheap","currency":"$","rating":7.1},{"name":"Bull Falls Brewery","phone":"7158422337","address":"901 E Thomas St","lat":44.95126191420607,"lng":-89.61749250465795,"city_fetched":"Wausau,US","state":"WI","country":"United States","canonicalUrl":"https://foursquare.com/v/bull-falls-brewery/4c12a6f5b7b9c928c930a837","categoryId":"50327c8591d4c4b30a586d5d","category":"Brewery","checkinsCount":918,"usersCount":424,"tipCount":15,"visitsCount":1289,"url":"http://www.bullfallsbrewery.com","tier":2,"message":"Moderate","currency":"$","rating":7.1},{"name":"The Domino Bar","phone":"7158424539","address":"740 Washington St","lat":44.95875760778959,"lng":-89.61930432216312,"city_fetched":"Wausau,US","state":"WI","country":"United States","canonicalUrl":"https://foursquare.com/v/the-domino-bar/4d13f38b25cda14364c15cd6","categoryId":"4bf58dd8d48988d116941735","category":"Bar","checkinsCount":1208,"usersCount":237,"tipCount":9,"visitsCount":1339,"tier":"","message":"","currency":"","rating":7},{"name":"Glass Hat","phone":"7152980016","address":"1203 N 3rd St","lat":44.96646794633756,"lng":-89.6270227432251,"city_fetched":"Wausau,US","state":"WI","country":"United States","canonicalUrl":"https://foursquare.com/v/glass-hat/4bbea3fd4e7bd13ad85e9b7f","categoryId":"4bf58dd8d48988d116941735","category":"Bar","checkinsCount":1527,"usersCount":317,"tipCount":9,"visitsCount":1729,"tier":"","message":"","currency":"","rating":7},{"name":"Oz Night Club","phone":"7158423225","address":"320 Washington St","lat":44.95903591,"lng":-89.62726414203644,"city_fetched":"Wausau,US","state":"WI","country":"United States","canonicalUrl":"https://foursquare.com/v/oz-night-club/4c5647657329c928e36d8c80","categoryId":"4bf58dd8d48988d116941735","category":"Bar","checkinsCount":797,"usersCount":235,"tipCount":6,"visitsCount":834,"tier":"","message":"","currency":"","rating":6.7},{"name":"Intermission","phone":"7158499377","address":"325 4th St","lat":44.9595,"lng":-89.62663,"city_fetched":"Wausau,US","state":"WI","country":"United States","canonicalUrl":"https://foursquare.com/v/intermission/4ba50181f964a52058cf38e3","categoryId":"4bf58dd8d48988d116941735","category":"Bar","checkinsCount":876,"usersCount":251,"tipCount":13,"visitsCount":907,"tier":1,"message":"Cheap","currency":"$","rating":6.7},{"name":"Loppnow's","address":"1502 N 3rd St","lat":44.968805887068385,"lng":-89.62753772735596,"city_fetched":"Wausau,US","state":"WI","country":"United States","canonicalUrl":"https://foursquare.com/v/loppnows/4bd267bd77b29c74a4d08e82","categoryId":"4bf58dd8d48988d116941735","category":"Bar","checkinsCount":467,"usersCount":222,"tipCount":5,"visitsCount":572,"tier":"","message":"","currency":"","rating":6.4},{"name":"Campus Pub","phone":"7156751960","twitter":"campuspubwausau","address":"1110 W Campus Dr","lat":44.98842148367541,"lng":-89.65037731859435,"city_fetched":"Wausau,US","state":"WI","country":"United States","canonicalUrl":"https://foursquare.com/v/campus-pub/4c0701868a81c9b654ac2690","categoryId":"4bf58dd8d48988d116941735","category":"Bar","checkinsCount":555,"usersCount":291,"tipCount":3,"visitsCount":659,"url":"http://www.campuspubandgrub.com","tier":"","message":"","currency":"","rating":6.3},{"name":"The Bar","phone":"7153557001","address":"10302 Market St","lat":44.863912161099215,"lng":-89.63670087543244,"city_fetched":"Wausau,US","state":"WI","country":"United States","canonicalUrl":"https://foursquare.com/v/the-bar/4bdba54063c5c9b6a2292968","categoryId":"4bf58dd8d48988d11d941735","category":"Sports Bar","checkinsCount":2246,"usersCount":984,"tipCount":14,"visitsCount":2642,"url":"http://www.meetatthebar.com/wausau.html","tier":"","message":"","currency":"","rating":6.2},{"name":"Player's Sports Bar & Grill","phone":"7158420306","address":"4411 Stewart Ave","lat":44.95503525298831,"lng":-89.69236945776166,"city_fetched":"Wausau,US","state":"WI","country":"United States","canonicalUrl":"https://foursquare.com/v/players-sports-bar--grill/4bf05a01d5bc0f47de376921","categoryId":"4bf58dd8d48988d11d941735","category":"Sports Bar","checkinsCount":567,"usersCount":158,"tipCount":4,"visitsCount":658,"tier":"","message":"","currency":"","rating":6.1},{"name":"Whiskey river bar","phone":"7158451609","address":"5512 Stewart Ave","lat":44.955459,"lng":-89.706345,"city_fetched":"Wausau,US","state":"WI","country":"United States","canonicalUrl":"https://foursquare.com/v/whiskey-river-bar/4bb680d346d4a593505ac6c0","categoryId":"4bf58dd8d48988d116941735","category":"Bar","checkinsCount":213,"usersCount":150,"tipCount":0,"visitsCount":287,"tier":"","message":"","currency":"","rating":5.9}]