[{"name":"The Point","lat":32.783748,"lng":-97.453519,"city_fetched":"Weatherford,US","state":"TX","country":"United States","canonicalUrl":"https://foursquare.com/v/the-point/4bf5bf1a9abec9b6e89924e8","categoryId":"4bf58dd8d48988d116941735","category":"Bar","checkinsCount":164,"usersCount":150,"tipCount":2,"visitsCount":274,"tier":"","message":"","currency":"","rating":8.1},{"name":"Antebellum Social Club","lat":32.757586565167784,"lng":-97.79255848403984,"city_fetched":"Weatherford,US","state":"TX","country":"United States","canonicalUrl":"https://foursquare.com/v/antebellum-social-club/54a89e88498ead5db97bbdb4","categoryId":"4bf58dd8d48988d117941735","category":"Beer Garden","checkinsCount":35,"usersCount":81,"tipCount":2,"visitsCount":134,"tier":"","message":"","currency":"","rating":7.9},{"name":"Augie's Sunset Cafe","phone":"6172727573","address":"6172 Park Rd","lat":32.87218823975874,"lng":-97.4970430449149,"city_fetched":"Weatherford,US","state":"TX","country":"United States","canonicalUrl":"https://foursquare.com/v/augies-sunset-cafe/4c2e9d5e213c2d7fda952f5d","categoryId":"4bf58dd8d48988d116941735","category":"Bar","checkinsCount":538,"usersCount":285,"tipCount":8,"visitsCount":770,"tier":"","message":"","currency":"","rating":7.8},{"name":"Rick's Cabaret","phone":"8177320000","twitter":"ricksftw","address":"7101 Calmont Ave","lat":32.733249518379644,"lng":-97.43953776640136,"neighborhood":"Alta Mere","city_fetched":"Weatherford,US","state":"TX","country":"United States","canonicalUrl":"https://foursquare.com/v/ricks-cabaret/4c5a2cc25c57c9b6e0d31c4a","categoryId":"4bf58dd8d48988d1d6941735","category":"Strip Club","checkinsCount":280,"usersCount":234,"tipCount":2,"visitsCount":332,"url":"http://www.ricksfortworth.com","tier":"","message":"","currency":"","rating":6.8},{"name":"Royal Falcon Pub","phone":"8177325999","address":"3803 Southwest Blvd","lat":32.716893724974355,"lng":-97.441523731188,"city_fetched":"Weatherford,US","state":"TX","country":"United States","canonicalUrl":"https://foursquare.com/v/royal-falcon-pub/4b6cce5ff964a520bd552ce3","categoryId":"4bf58dd8d48988d116941735","category":"Bar","checkinsCount":649,"usersCount":227,"tipCount":6,"visitsCount":728,"url":"http://theroyalfalcon.com","tier":"","message":"","currency":"","rating":6.7},{"name":"Electric Cowboy","phone":"8175602813","address":"8740 Camp Bowie West Blvd","lat":32.72529302472998,"lng":-97.46889998009414,"city_fetched":"Weatherford,US","state":"TX","country":"United States","canonicalUrl":"https://foursquare.com/v/electric-cowboy/4bb6202fef159c74177275f7","categoryId":"4bf58dd8d48988d116941735","category":"Bar","checkinsCount":814,"usersCount":405,"tipCount":7,"visitsCount":966,"url":"http://www.electriccowboyftworth.com","tier":"","message":"","currency":"","rating":6.4},{"name":"Cutting Horse Bar & Grill","phone":"8175998667","address":"2132 Tin Top Rd","lat":32.728613129977504,"lng":-97.79905116562243,"city_fetched":"Weatherford,US","state":"TX","country":"United States","canonicalUrl":"https://foursquare.com/v/cutting-horse-bar--grill/4dbcd40bfa8cee727358fbcf","categoryId":"4bf58dd8d48988d116941735","category":"Bar","checkinsCount":272,"usersCount":122,"tipCount":14,"visitsCount":273,"tier":"","message":"","currency":"","rating":6.3},{"name":"Cowtown Sports Bar & Grill","phone":"8175707910","address":"7108 Camp Bowie West Blvd","lat":32.722217316666665,"lng":-97.44016885757446,"neighborhood":"Alta Mere","city_fetched":"Weatherford,US","state":"TX","country":"United States","canonicalUrl":"https://foursquare.com/v/cowtown-sports-bar--grill/4b81b955f964a52021ba30e3","categoryId":"4bf58dd8d48988d11d941735","category":"Sports Bar","checkinsCount":409,"usersCount":185,"tipCount":2,"visitsCount":409,"tier":"","message":"","currency":"","rating":5.6},{"name":"Anthony's","phone":"8172444690","address":"8108 Camp Bowie W. Blvd.","lat":32.7237941665457,"lng":-97.4557493552693,"city_fetched":"Weatherford,US","state":"TX","country":"United States","canonicalUrl":"https://foursquare.com/v/anthonys/4c6ee70b9375a09375490237","categoryId":"4bf58dd8d48988d120941735","category":"Karaoke Bar","checkinsCount":172,"usersCount":52,"tipCount":3,"visitsCount":184,"tier":"","message":"","currency":"","rating":5.5}]