[{"name":"Wheeling Brewing Company","lat":40.05912440600696,"lng":-80.72452488190552,"city_fetched":"Wheeling,US","state":"WV","country":"United States","canonicalUrl":"https://foursquare.com/v/wheeling-brewing-company/5494b951498e3c926e6f53bc","categoryId":"50327c8591d4c4b30a586d5d","category":"Brewery","checkinsCount":233,"usersCount":104,"tipCount":4,"visitsCount":314,"tier":"","message":"","currency":"","rating":8.4},{"name":"Generations Restaurant & Pub","phone":"3042321512","address":"336 National Rd","lat":40.080140154898096,"lng":-80.71507215499878,"city_fetched":"Wheeling,US","state":"WV","country":"United States","canonicalUrl":"https://foursquare.com/v/generations-restaurant--pub/4be8e38c9a54a593c38c0a11","categoryId":"4bf58dd8d48988d116941735","category":"Bar","checkinsCount":1028,"usersCount":600,"tipCount":8,"visitsCount":1453,"url":"http://www.generationswhg.com","tier":"","message":"","currency":"","rating":8.2},{"name":"19th Hole","address":"780 National Rd","lat":40.07626339715296,"lng":-80.69772255822566,"city_fetched":"Wheeling,US","state":"WV","country":"United States","canonicalUrl":"https://foursquare.com/v/19th-hole/4b5a55bef964a5201fbe28e3","categoryId":"4bf58dd8d48988d116941735","category":"Bar","checkinsCount":636,"usersCount":217,"tipCount":2,"visitsCount":647,"tier":"","message":"","currency":"","rating":8.1},{"name":"The Beer Room at Sheetz in Wheeling","twitter":"sheetz","lat":40.077461,"lng":-80.69355,"city_fetched":"Wheeling,US","state":"WV","country":"United States","canonicalUrl":"https://foursquare.com/v/the-beer-room-at-sheetz-in-wheeling/4e9b6cf0f5b9d59004f0e69e","categoryId":"4bf58dd8d48988d117941735","category":"Beer Garden","checkinsCount":47,"usersCount":11,"tipCount":0,"visitsCount":47,"url":"http://www.sheetz.com","tier":"","message":"","currency":"","rating":7.5},{"name":"River City Restaurant","phone":"3042334555","address":"1400 Main St","lat":40.06559237576285,"lng":-80.72316602770512,"city_fetched":"Wheeling,US","state":"WV","country":"United States","canonicalUrl":"https://foursquare.com/v/river-city-restaurant/4b4931a9f964a520a06926e3","categoryId":"50327c8591d4c4b30a586d5d","category":"Brewery","checkinsCount":852,"usersCount":551,"tipCount":7,"visitsCount":1001,"url":"http://rivercitybanquets.com","tier":"","message":"","currency":"","rating":7.1},{"name":"TJ's Sports Garden","phone":"3042329555","address":"National Road","lat":40.07624594686945,"lng":-80.69718100594554,"city_fetched":"Wheeling,US","state":"WV","country":"United States","canonicalUrl":"https://foursquare.com/v/tjs-sports-garden/4b64879af964a52027bb2ae3","categoryId":"4bf58dd8d48988d11d941735","category":"Sports Bar","checkinsCount":1308,"usersCount":761,"tipCount":13,"visitsCount":1557,"url":"http://tjsportsgarden.com","tier":2,"message":"Moderate","currency":"$","rating":6.4},{"name":"Wild Wild West","address":"100 Kensington Dr","lat":40.09110439883965,"lng":-80.68149608666515,"city_fetched":"Wheeling,US","state":"WV","country":"United States","canonicalUrl":"https://foursquare.com/v/wild-wild-west/4c72ddb00e23b1f76af11edc","categoryId":"4bf58dd8d48988d11d941735","category":"Sports Bar","checkinsCount":184,"usersCount":152,"tipCount":4,"visitsCount":225,"tier":"","message":"","currency":"","rating":6.1},{"name":"Pickles'","phone":"3049059008","address":"Fulton St","lat":40.07684132889978,"lng":-80.710599,"city_fetched":"Wheeling,US","state":"WV","country":"United States","canonicalUrl":"https://foursquare.com/v/pickles/4b2c2699f964a520b0c224e3","categoryId":"4bf58dd8d48988d11b941735","category":"Pub","checkinsCount":377,"usersCount":135,"tipCount":1,"visitsCount":502,"tier":"","message":"","currency":"","rating":6},{"name":"The Owl's Nest","address":"88-90 Edgington Ln","lat":40.07615366459952,"lng":-80.68273105879557,"city_fetched":"Wheeling,US","state":"WV","country":"United States","canonicalUrl":"https://foursquare.com/v/the-owls-nest/4c78a938566db60cad95420e","categoryId":"4bf58dd8d48988d116941735","category":"Bar","checkinsCount":436,"usersCount":120,"tipCount":7,"visitsCount":455,"tier":"","message":"","currency":"","rating":5.7}]