[{"name":"Denny K's Bar and Grill","phone":"2624737898","address":"156 W Whitewater St","lat":42.83274926480779,"lng":-88.73187035186093,"city_fetched":"Whitewater","state":"WI","country":"United States","canonicalUrl":"https://foursquare.com/v/denny-ks-bar-and-grill/4d3710fbc47db1f7b564eca5","category":"Bar","checkinsCount":2304,"usersCount":385,"tipCount":20,"visitsCount":2384,"tier":"","message":"","currency":"","rating":7.9},{"name":"Coyote Grill","phone":"2624720510","address":"132 W Center St","lat":42.833764,"lng":-88.731916,"city_fetched":"Whitewater","state":"WI","country":"United States","canonicalUrl":"https://foursquare.com/v/coyote-grill/4b8af1e3f964a520948a32e3","category":"Bar","checkinsCount":2207,"usersCount":563,"tipCount":22,"visitsCount":2320,"tier":2,"message":"Moderate","currency":"$","rating":7.6},{"name":"Station 1","phone":"2624734455","address":"140 W Center St","lat":42.833409948300115,"lng":-88.73231291770935,"city_fetched":"Whitewater","state":"WI","country":"United States","canonicalUrl":"https://foursquare.com/v/station-1/4baa7b54f964a520ea6d3ae3","category":"Bar","checkinsCount":1544,"usersCount":252,"tipCount":6,"visitsCount":1585,"url":"http://www.hammers-tap.com","tier":"","message":"","currency":"","rating":7.4},{"name":"Fratelli's Ristorante Italiano","phone":"2624720747","address":"162 W Main St","lat":42.83404774204802,"lng":-88.73093975667744,"city_fetched":"Whitewater","state":"WI","country":"United States","canonicalUrl":"https://foursquare.com/v/fratellis-ristorante-italiano/4baa82cdf964a52046703ae3","category":"Italian Restaurant","checkinsCount":916,"usersCount":308,"tipCount":3,"visitsCount":926,"tier":"","message":"","currency":"","rating":7.4},{"name":"Second Salem Brewing Company","phone":"2624732920","twitter":"secondsalem","address":"111 W Whitewater St","lat":42.833461677712044,"lng":-88.73046975128054,"city_fetched":"Whitewater","state":"WI","country":"United States","canonicalUrl":"https://foursquare.com/v/second-salem-brewing-company/53504019498e48af90529ebc","category":"Pub","checkinsCount":268,"usersCount":160,"tipCount":1,"visitsCount":368,"url":"http://www.secondsalem.com","tier":"","message":"","currency":"","rating":7.3},{"name":"Mad Boar Pub","phone":"2624720832","address":"123 W Center St","lat":42.8335826486692,"lng":-88.73187505178433,"city_fetched":"Whitewater","state":"WI","country":"United States","canonicalUrl":"https://foursquare.com/v/mad-boar-pub/4bdb8fbcc79cc9280f8a83e9","category":"Bar","checkinsCount":2770,"usersCount":623,"tipCount":10,"visitsCount":2792,"tier":"","message":"","currency":"","rating":7.2},{"name":"Hawk's Nest","phone":"2624736361","address":"235 Whitewater St.","lat":42.83252,"lng":-88.73262405395508,"city_fetched":"Whitewater","state":"WI","country":"United States","canonicalUrl":"https://foursquare.com/v/hawks-nest/4bc16117b492d13a4015a660","category":"Bar","checkinsCount":2001,"usersCount":448,"tipCount":6,"visitsCount":2006,"tier":"","message":"","currency":"","rating":7.2},{"name":"Fat Jack's","phone":"2624729360","twitter":"fatjacksww","address":"146 W Main St","lat":42.8340629886769,"lng":-88.73091901045632,"city_fetched":"Whitewater","state":"WI","country":"United States","canonicalUrl":"https://foursquare.com/v/fat-jacks/4b985924f964a5202d3d35e3","category":"Sports Bar","checkinsCount":5917,"usersCount":739,"tipCount":24,"visitsCount":5954,"url":"http://www.fatjacksww.com","tier":2,"message":"Moderate","currency":"$","rating":7},{"name":"Rick's Eastside Pub & Grill","phone":"2624739879","address":"561 E Milwaukee St","lat":42.83239341785139,"lng":-88.72047149209307,"city_fetched":"Whitewater","state":"WI","country":"United States","canonicalUrl":"https://foursquare.com/v/ricks-eastside-pub--grill/4bec4bacfd60a59301cb3af1","category":"Pub","checkinsCount":957,"usersCount":328,"tipCount":8,"visitsCount":1100,"tier":1,"message":"Cheap","currency":"$","rating":7},{"name":"College Pub","phone":"2624734283","address":"202 W Whitewater St","lat":42.832886671261974,"lng":-88.73216174611738,"city_fetched":"Whitewater","state":"WI","country":"United States","canonicalUrl":"https://foursquare.com/v/college-pub/4b9f3e14f964a520621937e3","category":"Bar","checkinsCount":3701,"usersCount":680,"tipCount":9,"visitsCount":3729,"tier":1,"message":"Cheap","currency":"$","rating":6.8},{"name":"Brass Rail","phone":"2624734038","address":"130 W Main St","lat":42.833873216181956,"lng":-88.73021594618135,"city_fetched":"Whitewater","state":"WI","country":"United States","canonicalUrl":"https://foursquare.com/v/brass-rail/4bc8d24c6501c9b607ff4029","category":"Bar","checkinsCount":892,"usersCount":319,"tipCount":5,"visitsCount":925,"tier":2,"message":"Moderate","currency":"$","rating":6.5},{"name":"Mitchell's (Pumpers & Mitchell's)","phone":"6087181802","address":"158 W Whitewater St","lat":42.832879524593395,"lng":-88.73204894858031,"city_fetched":"Whitewater","state":"WI","country":"United States","canonicalUrl":"https://foursquare.com/v/mitchells-pumpers--mitchells/4be0eea07f060f470b5540bf","category":"Bar","checkinsCount":2440,"usersCount":485,"tipCount":11,"visitsCount":2451,"tier":"","message":"","currency":"","rating":5.8},{"name":"Pumper's (Pumper's & Mitchell's Bar)","phone":"2624574928","address":"158 W Whitewater St","lat":42.83291631613966,"lng":-88.73205834838663,"city_fetched":"Whitewater","state":"WI","country":"United States","canonicalUrl":"https://foursquare.com/v/pumpers-pumpers--mitchells-bar/4b972c2df964a520f7fa34e3","category":"Bar","checkinsCount":2462,"usersCount":480,"tipCount":9,"visitsCount":2486,"tier":"","message":"","currency":"","rating":5.7}]