[{"name":"Central Standard Brewing","phone":"3162608515","twitter":"drinkcsb","address":"156 S Greenwood St","lat":37.68447276451443,"lng":-97.31814960382074,"city_fetched":"Wichita,US","state":"KS","country":"United States","canonicalUrl":"https://foursquare.com/v/central-standard-brewing/55590093498ef57fb6d7fb9c","categoryId":"50327c8591d4c4b30a586d5d","category":"Brewery","checkinsCount":352,"usersCount":271,"tipCount":12,"visitsCount":821,"url":"http://centralstandardbrewing.com","tier":"","message":"","currency":"","rating":9.1},{"name":"The Anchor","phone":"3162608989","twitter":"anchorwichita","address":"1109 E Douglas Ave","lat":37.68583645380619,"lng":-97.32485110413617,"city_fetched":"Wichita,US","state":"KS","country":"United States","canonicalUrl":"https://foursquare.com/v/the-anchor/4b3d6896f964a520c29325e3","categoryId":"4bf58dd8d48988d116941735","category":"Bar","checkinsCount":5521,"usersCount":2132,"tipCount":78,"visitsCount":6443,"url":"http://www.anchorwichita.com","tier":1,"message":"Cheap","currency":"$","rating":8.9},{"name":"Wichita Brewing Company & Pizzeria","phone":"3164402885","twitter":"wichitabrew","address":"535 N Woodlawn St","lat":37.695256111882514,"lng":-97.26397139625068,"city_fetched":"Wichita,US","state":"KS","country":"United States","canonicalUrl":"https://foursquare.com/v/wichita-brewing-company--pizzeria/5564c534498ef9cbccc18fc2","categoryId":"50327c8591d4c4b30a586d5d","category":"Brewery","checkinsCount":407,"usersCount":379,"tipCount":8,"visitsCount":933,"url":"http://wichitabrew.com","tier":"","message":"","currency":"","rating":8.8},{"name":"Mort's Martini and Cigar Bar","phone":"3162621785","twitter":"mortsmartinibar","address":"923 E 1st St N","lat":37.687779037888745,"lng":-97.32668727636337,"neighborhood":"Old Town","city_fetched":"Wichita,US","state":"KS","country":"United States","canonicalUrl":"https://foursquare.com/v/morts-martini-and-cigar-bar/4b58cc25f964a520b26b28e3","categoryId":"4bf58dd8d48988d11e941735","category":"Cocktail Bar","checkinsCount":3576,"usersCount":1412,"tipCount":34,"visitsCount":4056,"url":"http://www.mortswichita.com","tier":2,"message":"Moderate","currency":"$","rating":8.8},{"name":"Wichita Brewing Company & Pizzeria","phone":"3164402885","twitter":"wichitabrew","address":"8815 W 13th St N","lat":37.70840554,"lng":-97.44507737,"neighborhood":"Westlink","city_fetched":"Wichita,US","state":"KS","country":"United States","canonicalUrl":"https://foursquare.com/wichitabrew","categoryId":"50327c8591d4c4b30a586d5d","category":"Brewery","checkinsCount":2849,"usersCount":1143,"tipCount":31,"visitsCount":3499,"url":"http://wichitabrew.com","tier":2,"message":"Moderate","currency":"$","rating":8.7},{"name":"River City Brewing Co","phone":"3162632739","address":"150 N Mosley St","lat":37.687452583635945,"lng":-97.32742431846634,"neighborhood":"Old Town","city_fetched":"Wichita,US","state":"KS","country":"United States","canonicalUrl":"https://foursquare.com/v/river-city-brewing-co/4b37e7d6f964a5205c4825e3","categoryId":"50327c8591d4c4b30a586d5d","category":"Brewery","checkinsCount":4437,"usersCount":2701,"tipCount":45,"visitsCount":5290,"url":"http://rivercitybrewingco.com","tier":2,"message":"Moderate","currency":"$","rating":8.6},{"name":"Twin Peaks Restaurant","address":"7325 S. Ridge Road","lat":37.67676382744221,"lng":-97.42798228213907,"city_fetched":"Wichita,US","state":"KS","country":"United States","canonicalUrl":"https://foursquare.com/v/twin-peaks-restaurant/542f573f498e87553f19147e","categoryId":"4bf58dd8d48988d117941735","category":"Beer Garden","checkinsCount":464,"usersCount":423,"tipCount":2,"visitsCount":940,"tier":"","message":"","currency":"","rating":8.5},{"name":"The Brickyard","phone":"3162634044","twitter":"theyard_oldtown","address":"129 N Rock Island St","lat":37.68717588738839,"lng":-97.32850003530623,"neighborhood":"Old Town","city_fetched":"Wichita,US","state":"KS","country":"United States","canonicalUrl":"https://foursquare.com/theyard_oldtown","categoryId":"4bf58dd8d48988d116941735","category":"Bar","checkinsCount":1124,"usersCount":622,"tipCount":7,"visitsCount":1179,"url":"http://brickyardoldtown.com","tier":"","message":"","currency":"","rating":8.4},{"name":"O'Briens Irish Pub","address":"5205 E Kellogg Dr","lat":37.678910672093465,"lng":-97.27534627830417,"city_fetched":"Wichita,US","state":"KS","country":"United States","canonicalUrl":"https://foursquare.com/v/obriens-irish-pub/4fd7cfb0e4b07d78f8df26e8","categoryId":"4bf58dd8d48988d116941735","category":"Bar","checkinsCount":537,"usersCount":300,"tipCount":2,"visitsCount":771,"tier":1,"message":"Cheap","currency":"$","rating":8.3},{"name":"Heat Cigar And Hookah Lounge","phone":"3162608895","address":"338 N Rock Rd","lat":37.691611367720405,"lng":-97.24375001461952,"city_fetched":"Wichita,US","state":"KS","country":"United States","canonicalUrl":"https://foursquare.com/v/heat-cigar-and-hookah-lounge/4b651079f964a52048e22ae3","categoryId":"4bf58dd8d48988d119941735","category":"Hookah Bar","checkinsCount":1171,"usersCount":338,"tipCount":11,"visitsCount":1224,"url":"http://www.heatlounge.net","tier":"","message":"","currency":"","rating":8.2},{"name":"Granite City Food & Brewery","phone":"3167218500","twitter":"gcfb","address":"2661 N Maize Rd","lat":37.731327884606046,"lng":-97.46361136436462,"city_fetched":"Wichita,US","state":"KS","country":"United States","canonicalUrl":"https://foursquare.com/v/granite-city-food--brewery/4c55975a6a4bb713b1aa5227","categoryId":"50327c8591d4c4b30a586d5d","category":"Brewery","checkinsCount":3043,"usersCount":901,"tipCount":32,"visitsCount":3265,"url":"http://www.gcfb.net","tier":"","message":"","currency":"","rating":8.2},{"name":"Merle's","phone":"3162630444","address":"440 N Seneca St","lat":37.68931823,"lng":-97.35286831855774,"neighborhood":"Delano","city_fetched":"Wichita,US","state":"KS","country":"United States","canonicalUrl":"https://foursquare.com/v/merles/4b9ab5e2f964a52020cf35e3","categoryId":"4bf58dd8d48988d116941735","category":"Bar","checkinsCount":597,"usersCount":250,"tipCount":7,"visitsCount":782,"tier":"","message":"","currency":"","rating":8.2},{"name":"Headshots Bar and Grill","phone":"3162604370","twitter":"headshotsbar","address":"6140 E 21st St N","lat":37.72388422762015,"lng":-97.2644349946056,"city_fetched":"Wichita,US","state":"KS","country":"United States","canonicalUrl":"https://foursquare.com/headshotsbar","categoryId":"4bf58dd8d48988d116941735","category":"Bar","checkinsCount":274,"usersCount":119,"tipCount":5,"visitsCount":382,"url":"http://www.headshotsbar.com","tier":"","message":"","currency":"","rating":8.1},{"name":"Walts Bar And Grill","phone":"3169439567","address":"5534 W Central Ave","lat":37.69504527311597,"lng":-97.40744283563008,"city_fetched":"Wichita,US","state":"KS","country":"United States","canonicalUrl":"https://foursquare.com/v/walts-bar-and-grill/4bb69d682ea195219800ac2f","categoryId":"4bf58dd8d48988d116941735","category":"Bar","checkinsCount":1693,"usersCount":166,"tipCount":8,"visitsCount":1709,"url":"http://waltsbarandgrill.com","tier":"","message":"","currency":"","rating":8.1},{"name":"Harry's Uptown Bar & Grill","phone":"3166876511","address":"3023 E Douglas Ave","lat":37.68614915,"lng":-97.300119,"neighborhood":"East Front","city_fetched":"Wichita,US","state":"KS","country":"United States","canonicalUrl":"https://foursquare.com/v/harrys-uptown-bar--grill/4b569110f964a520601528e3","categoryId":"4bf58dd8d48988d116941735","category":"Bar","checkinsCount":2166,"usersCount":573,"tipCount":17,"visitsCount":2251,"url":"http://www.harrysuptown.com","tier":1,"message":"Cheap","currency":"$","rating":8},{"name":"Walt's Bar and Grill","phone":"3166918800","address":"7732 E Central Ave","lat":37.694855768605095,"lng":-97.24619901302623,"city_fetched":"Wichita,US","state":"KS","country":"United States","canonicalUrl":"https://foursquare.com/v/walts-bar-and-grill/4b678315f964a52031532be3","categoryId":"4bf58dd8d48988d116941735","category":"Bar","checkinsCount":1920,"usersCount":535,"tipCount":19,"visitsCount":2245,"url":"http://waltsbarandgrill.com","tier":2,"message":"Moderate","currency":"$","rating":8},{"name":"Hopping Gnome Brewing Company","twitter":"hoppinggnome","address":"1710 E Douglas Ave","lat":37.68624845365921,"lng":-97.31676825952715,"neighborhood":"Downtown Wichita","city_fetched":"Wichita,US","state":"KS","country":"United States","canonicalUrl":"https://foursquare.com/v/hopping-gnome-brewing-company/556920fc498ee2f2c603830f","categoryId":"50327c8591d4c4b30a586d5d","category":"Brewery","checkinsCount":255,"usersCount":176,"tipCount":6,"visitsCount":392,"url":"http://www.hoppinggnome.com","tier":"","message":"","currency":"","rating":7.9},{"name":"Shesha","phone":"3164408144","address":"2628 E 21st St N","lat":37.723223961638205,"lng":-97.30565071105957,"city_fetched":"Wichita,US","state":"KS","country":"United States","canonicalUrl":"https://foursquare.com/v/shesha/4c428224af052d7f252c7f79","categoryId":"4bf58dd8d48988d119941735","category":"Hookah Bar","checkinsCount":811,"usersCount":239,"tipCount":10,"visitsCount":880,"url":"http://sheshatobaccoshop.com","tier":"","message":"","currency":"","rating":7.8},{"name":"The Stop","phone":"3167780248","twitter":"thestopwichita","address":"1450 S Washington St","lat":37.666380729093135,"lng":-97.32621679386881,"neighborhood":"South Central","city_fetched":"Wichita,US","state":"KS","country":"United States","canonicalUrl":"https://foursquare.com/v/the-stop/4c4a4e839c8d2d7fb8a05269","categoryId":"4bf58dd8d48988d116941735","category":"Bar","checkinsCount":1177,"usersCount":207,"tipCount":5,"visitsCount":1336,"tier":"","message":"","currency":"","rating":7.7},{"name":"The Vagabond","phone":"3163031110","address":"614 W Douglas Ave","lat":37.68415995631537,"lng":-97.34754145145416,"neighborhood":"Delano","city_fetched":"Wichita,US","state":"KS","country":"United States","canonicalUrl":"https://foursquare.com/v/the-vagabond/4b4febccf964a5208d1927e3","categoryId":"4bf58dd8d48988d116941735","category":"Bar","checkinsCount":1286,"usersCount":429,"tipCount":20,"visitsCount":1349,"url":"http://myspace.com","tier":1,"message":"Cheap","currency":"$","rating":7.7},{"name":"Heroes Sports Bar & Grill","phone":"3162644376","twitter":"heroessportsbar","address":"117 N Mosley St","lat":37.68687693730413,"lng":-97.32781648635864,"neighborhood":"Old Town","city_fetched":"Wichita,US","state":"KS","country":"United States","canonicalUrl":"https://foursquare.com/heroessportsbar","categoryId":"4bf58dd8d48988d11d941735","category":"Sports Bar","checkinsCount":4820,"usersCount":1651,"tipCount":27,"visitsCount":5180,"url":"http://heroeswichita.com","tier":2,"message":"Moderate","currency":"$","rating":7.7},{"name":"Whiskey Dicks","phone":"3164257660","address":"801 S Seneca St","lat":37.67521019642458,"lng":-97.35323309898376,"city_fetched":"Wichita,US","state":"KS","country":"United States","canonicalUrl":"https://foursquare.com/v/whiskey-dicks/4be8d085947820a17f69b5db","categoryId":"4bf58dd8d48988d116941735","category":"Bar","checkinsCount":656,"usersCount":258,"tipCount":3,"visitsCount":843,"tier":"","message":"","currency":"","rating":7.6},{"name":"Magoos Bar and Grill","phone":"3166129600","twitter":"magoosbargrill","address":"2304 S Oliver Ave","lat":37.65083982914308,"lng":-97.27995156845063,"city_fetched":"Wichita,US","state":"KS","country":"United States","canonicalUrl":"https://foursquare.com/magoosbargrill","categoryId":"4bf58dd8d48988d116941735","category":"Bar","checkinsCount":980,"usersCount":259,"tipCount":28,"visitsCount":1155,"url":"http://www.magoosbarwichita.com","tier":"","message":"","currency":"","rating":7.6},{"name":"J's Lounge","address":"513 E Central Ave","lat":37.69328713417053,"lng":-97.33232259750366,"neighborhood":"Old Town","city_fetched":"Wichita,US","state":"KS","country":"United States","canonicalUrl":"https://foursquare.com/v/js-lounge/4bc4e2a7461576b0409a8032","categoryId":"4bf58dd8d48988d1d8941735","category":"Gay Bar","checkinsCount":4027,"usersCount":307,"tipCount":10,"visitsCount":4286,"url":"http://jsloungewichita.com","tier":2,"message":"Moderate","currency":"$","rating":7.6},{"name":"Joe's Oldtown Bar and Grill","phone":"3163039885","address":"222 N Washington St","lat":37.68858337402344,"lng":-97.32626342773438,"neighborhood":"Downtown Wichita","city_fetched":"Wichita,US","state":"KS","country":"United States","canonicalUrl":"https://foursquare.com/v/joes-oldtown-bar-and-grill/4f64d8a6e4b04d4b15fa9e34","categoryId":"4bf58dd8d48988d116941735","category":"Bar","checkinsCount":1338,"usersCount":569,"tipCount":17,"visitsCount":1522,"tier":2,"message":"Moderate","currency":"$","rating":7.5},{"name":"Dudley's Sports Bar & Grill","phone":"3164407555","address":"8550 W 21st St N","lat":37.72377556567079,"lng":-97.44199275970459,"city_fetched":"Wichita,US","state":"KS","country":"United States","canonicalUrl":"https://foursquare.com/v/dudleys-sports-bar--grill/4b5a6baff964a5201dc428e3","categoryId":"4bf58dd8d48988d11d941735","category":"Sports Bar","checkinsCount":1624,"usersCount":541,"tipCount":4,"visitsCount":1695,"tier":"","message":"","currency":"","rating":7.5},{"name":"Spirit Pub","address":"231 E Main St","lat":37.83145308494568,"lng":-97.36954092979431,"city_fetched":"Wichita,US","state":"KS","country":"United States","canonicalUrl":"https://foursquare.com/v/spirit-pub/4c4146ccd7fad13a866b07da","categoryId":"4bf58dd8d48988d11b941735","category":"Pub","checkinsCount":158,"usersCount":71,"tipCount":4,"visitsCount":196,"tier":"","message":"","currency":"","rating":7.4},{"name":"Quincy's","phone":"3169428200","address":"2047 N West St","lat":37.720348824540075,"lng":-97.39070959225327,"city_fetched":"Wichita,US","state":"KS","country":"United States","canonicalUrl":"https://foursquare.com/v/quincys/4b492c9af964a520de6826e3","categoryId":"4bf58dd8d48988d116941735","category":"Bar","checkinsCount":786,"usersCount":275,"tipCount":6,"visitsCount":988,"tier":"","message":"","currency":"","rating":7.4},{"name":"Oasis Lounge","phone":"3169439260","address":"4121 W Maple St","lat":37.680000445528194,"lng":-97.39108960784638,"city_fetched":"Wichita,US","state":"KS","country":"United States","canonicalUrl":"https://foursquare.com/v/oasis-lounge/4bb6d4abf562ef3b14cf3097","categoryId":"4bf58dd8d48988d116941735","category":"Bar","checkinsCount":627,"usersCount":348,"tipCount":3,"visitsCount":781,"url":"http://oasisloungewichita.com","tier":2,"message":"Moderate","currency":"$","rating":7.4},{"name":"Champs Bar & Grill","phone":"3162621284","address":"1106 S Seneca St","lat":37.672160697316684,"lng":-97.35265541343323,"city_fetched":"Wichita,US","state":"KS","country":"United States","canonicalUrl":"https://foursquare.com/v/champs-bar--grill/4bc0078b4cdfc9b6a16c9221","categoryId":"4bf58dd8d48988d116941735","category":"Bar","checkinsCount":423,"usersCount":172,"tipCount":4,"visitsCount":530,"tier":"","message":"","currency":"","rating":7.3},{"name":"Granite City Food & Brewery","phone":"3166365050","address":"2244 N Webb Rd","lat":37.72410924478268,"lng":-97.22540378890847,"city_fetched":"Wichita,US","state":"KS","country":"United States","canonicalUrl":"https://foursquare.com/v/granite-city-food--brewery/4c5596f86a4bb7130a9d5227","categoryId":"50327c8591d4c4b30a586d5d","category":"Brewery","checkinsCount":2337,"usersCount":1259,"tipCount":28,"visitsCount":2762,"url":"http://gcfb.net","tier":2,"message":"Moderate","currency":"$","rating":7.3},{"name":"The Candle Club","address":"6135 E 13th St N","lat":37.70717875,"lng":-97.26445607,"city_fetched":"Wichita,US","state":"KS","country":"United States","canonicalUrl":"https://foursquare.com/v/the-candle-club/4b798beef964a5207c002fe3","categoryId":"4bf58dd8d48988d11a941735","category":"Other Nightlife","checkinsCount":1023,"usersCount":327,"tipCount":9,"visitsCount":1314,"tier":2,"message":"Moderate","currency":"$","rating":7.3},{"name":"Side Pockets","phone":"3167294000","address":"600 S Tyler Rd","lat":37.673240914908035,"lng":-97.44209417850692,"city_fetched":"Wichita,US","state":"KS","country":"United States","canonicalUrl":"https://foursquare.com/v/side-pockets/4bd6647029eb9c74162295e1","categoryId":"4bf58dd8d48988d11d941735","category":"Sports Bar","checkinsCount":751,"usersCount":446,"tipCount":6,"visitsCount":953,"url":"http://sidepockets.com","tier":"","message":"","currency":"","rating":7.3},{"name":"Annex Lounge","phone":"3166849851","address":"6305 E Harry St","lat":37.66421735286713,"lng":-97.262883,"city_fetched":"Wichita,US","state":"KS","country":"United States","canonicalUrl":"https://foursquare.com/v/annex-lounge/4b9068d5f964a520da8833e3","categoryId":"4bf58dd8d48988d121941735","category":"Lounge","checkinsCount":167,"usersCount":88,"tipCount":7,"visitsCount":171,"tier":"","message":"","currency":"","rating":7.2},{"name":"The Basement","phone":"8005882300","address":"13629 E North Point Dr","lat":37.70802952664854,"lng":-97.17927070669067,"neighborhood":"Crestview","city_fetched":"Wichita,US","state":"KS","country":"United States","canonicalUrl":"https://foursquare.com/v/the-basement/4de28df7d164df8574fded1f","categoryId":"4bf58dd8d48988d118941735","category":"Dive Bar","checkinsCount":1783,"usersCount":32,"tipCount":4,"visitsCount":1824,"tier":"","message":"","currency":"","rating":7.2},{"name":"Midian Shrine","address":"N Topeka St, 130","lat":37.6869543574952,"lng":-97.33397379941418,"neighborhood":"Old Town","city_fetched":"Wichita,US","state":"KS","country":"United States","canonicalUrl":"https://foursquare.com/v/midian-shrine/4d927334d176a1cd915424f0","categoryId":"4bf58dd8d48988d116941735","category":"Bar","checkinsCount":486,"usersCount":47,"tipCount":3,"visitsCount":500,"tier":"","message":"","currency":"","rating":7.1},{"name":"Mulligan's Pub","phone":"3166365303","address":"8343 E 32nd St N","lat":37.742475964200786,"lng":-97.24016884366935,"city_fetched":"Wichita,US","state":"KS","country":"United States","canonicalUrl":"https://foursquare.com/v/mulligans-pub/4b630df7f964a52012602ae3","categoryId":"4bf58dd8d48988d116941735","category":"Bar","checkinsCount":987,"usersCount":382,"tipCount":10,"visitsCount":1309,"tier":1,"message":"Cheap","currency":"$","rating":7.1},{"name":"Gianni Bacci's","lat":37.68990213314899,"lng":-97.3267177294161,"neighborhood":"Old Town","city_fetched":"Wichita,US","state":"KS","country":"United States","canonicalUrl":"https://foursquare.com/v/gianni-baccis/55331e5e498e7dc6435e5ecd","categoryId":"4bf58dd8d48988d1d4941735","category":"Speakeasy","checkinsCount":46,"usersCount":38,"tipCount":2,"visitsCount":54,"tier":"","message":"","currency":"","rating":7.1},{"name":"Club Rodeo","phone":"3166132424","twitter":"clubrodeoks","address":"10001 E Kellogg Dr","lat":37.6766863446525,"lng":-97.22064954019717,"city_fetched":"Wichita,US","state":"KS","country":"United States","canonicalUrl":"https://foursquare.com/v/club-rodeo/4ba2faa9f964a5200f2638e3","categoryId":"4bf58dd8d48988d11f941735","category":"Nightclub","checkinsCount":679,"usersCount":602,"tipCount":7,"visitsCount":1022,"url":"http://clubrodeokansas.com/pages/home","tier":"","message":"","currency":"","rating":7.1},{"name":"Emerson Biggins","phone":"3168662577","address":"2330 N Maize Rd","lat":37.72491383833739,"lng":-97.46148692403051,"city_fetched":"Wichita,US","state":"KS","country":"United States","canonicalUrl":"https://foursquare.com/v/emerson-biggins/4b5ce58ff964a520d14929e3","categoryId":"4bf58dd8d48988d11d941735","category":"Sports Bar","checkinsCount":1690,"usersCount":619,"tipCount":16,"visitsCount":1739,"url":"http://www.emerson-biggins.com","tier":"","message":"","currency":"","rating":7.1},{"name":"A.J. Sports Grill","phone":"3166361991","address":"3232 N Rock Rd","lat":37.74035626421466,"lng":-97.24279150611476,"city_fetched":"Wichita,US","state":"KS","country":"United States","canonicalUrl":"https://foursquare.com/v/aj-sports-grill/4b513f36f964a520974827e3","categoryId":"4bf58dd8d48988d11d941735","category":"Sports Bar","checkinsCount":601,"usersCount":306,"tipCount":7,"visitsCount":618,"tier":"","message":"","currency":"","rating":7.1},{"name":"Lizard's Lounge","phone":"3165588426","address":"300 S Greenwich Rd","lat":37.68232,"lng":-97.20663793,"city_fetched":"Wichita,US","state":"KS","country":"United States","canonicalUrl":"https://foursquare.com/v/lizards-lounge/4b450bc3f964a520530226e3","categoryId":"4bf58dd8d48988d118941735","category":"Dive Bar","checkinsCount":267,"usersCount":179,"tipCount":4,"visitsCount":312,"tier":"","message":"","currency":"","rating":7},{"name":"The Fieldhouse","address":"3825 E 17th St N","lat":37.71529713908306,"lng":-97.29080738221306,"city_fetched":"Wichita,US","state":"KS","country":"United States","canonicalUrl":"https://foursquare.com/v/the-fieldhouse/4ba92b69f964a5200e113ae3","categoryId":"4bf58dd8d48988d116941735","category":"Bar","checkinsCount":957,"usersCount":234,"tipCount":7,"visitsCount":1048,"tier":"","message":"","currency":"","rating":7},{"name":"The Store","address":"3210 E Osie St","lat":37.663628250578796,"lng":-97.29799636402505,"city_fetched":"Wichita,US","state":"KS","country":"United States","canonicalUrl":"https://foursquare.com/v/the-store/4c3e40930596c928470b8478","categoryId":"4bf58dd8d48988d116941735","category":"Bar","checkinsCount":420,"usersCount":106,"tipCount":3,"visitsCount":472,"tier":"","message":"","currency":"","rating":7},{"name":"Cleats Sports Bar & Grill","phone":"3162011627","address":"1014 N West St","lat":37.701969899981115,"lng":-97.3892845526031,"city_fetched":"Wichita,US","state":"KS","country":"United States","canonicalUrl":"https://foursquare.com/v/cleats-sports-bar--grill/52fec0af11d237ef2567f97b","categoryId":"4bf58dd8d48988d11d941735","category":"Sports Bar","checkinsCount":82,"usersCount":21,"tipCount":0,"visitsCount":85,"tier":2,"message":"Moderate","currency":"$","rating":7},{"name":"Oeno Wine Bar","phone":"3164405000","twitter":"oenowinebar","address":"300 N Mead St","lat":37.690392238775864,"lng":-97.32872150853403,"neighborhood":"Old Town","city_fetched":"Wichita,US","state":"KS","country":"United States","canonicalUrl":"https://foursquare.com/v/oeno-wine-bar/4b4cea3bf964a5200cc426e3","categoryId":"4bf58dd8d48988d123941735","category":"Wine Bar","checkinsCount":1635,"usersCount":797,"tipCount":15,"visitsCount":1650,"url":"http://oenowine.com","tier":3,"message":"Expensive","currency":"$","rating":6.9},{"name":"Pumphouse","phone":"3162627867","twitter":"pumphouseict","address":"825 E 2nd St N","lat":37.6895892036497,"lng":-97.32779343507084,"neighborhood":"Old Town","city_fetched":"Wichita,US","state":"KS","country":"United States","canonicalUrl":"https://foursquare.com/v/pumphouse/4b3bdee7f964a5201a7d25e3","categoryId":"4bf58dd8d48988d116941735","category":"Bar","checkinsCount":3763,"usersCount":1754,"tipCount":27,"visitsCount":4312,"url":"http://pumphousewichita.com","tier":2,"message":"Moderate","currency":"$","rating":6.8},{"name":"Finn's","phone":"3163031131","address":"131 N Rock Island St","lat":37.68736937945386,"lng":-97.32839584350586,"neighborhood":"Old Town","city_fetched":"Wichita,US","state":"KS","country":"United States","canonicalUrl":"https://foursquare.com/v/finns/4b43da9ef964a5201aec25e3","categoryId":"4bf58dd8d48988d116941735","category":"Bar","checkinsCount":856,"usersCount":337,"tipCount":5,"visitsCount":858,"tier":"","message":"","currency":"","rating":6.8},{"name":"Larry Bud's Sports Bar & Grill","phone":"3164401069","address":"2120 N Woodlawn St","lat":37.72086474726702,"lng":-97.26080417633057,"city_fetched":"Wichita,US","state":"KS","country":"United States","canonicalUrl":"https://foursquare.com/v/larry-buds-sports-bar--grill/4b47818cf964a520473426e3","categoryId":"4bf58dd8d48988d116941735","category":"Bar","checkinsCount":2201,"usersCount":804,"tipCount":20,"visitsCount":2345,"url":"http://www.larrybudsbar.com","tier":2,"message":"Moderate","currency":"$","rating":6.8},{"name":"Bricktown Brewery","address":"2035 N Rock Rd","lat":37.720468278924805,"lng":-97.2452141363148,"city_fetched":"Wichita,US","state":"KS","country":"United States","canonicalUrl":"https://foursquare.com/v/bricktown-brewery/55d36daa498e23dd89178800","categoryId":"50327c8591d4c4b30a586d5d","category":"Brewery","checkinsCount":218,"usersCount":200,"tipCount":2,"visitsCount":350,"tier":"","message":"","currency":"","rating":6.8},{"name":"The Alibi Room","phone":"3162954636","address":"919 E Douglas Ave","lat":37.68583595752716,"lng":-97.326736,"city_fetched":"Wichita,US","state":"KS","country":"United States","canonicalUrl":"https://foursquare.com/v/the-alibi-room/4b57d2c3f964a520cb4228e3","categoryId":"4bf58dd8d48988d116941735","category":"Bar","checkinsCount":1280,"usersCount":320,"tipCount":3,"visitsCount":1318,"tier":"","message":"","currency":"","rating":6.7},{"name":"Revolution Rock Bar","lat":37.689136,"lng":-97.327811,"neighborhood":"Old Town","city_fetched":"Wichita,US","state":"KS","country":"United States","canonicalUrl":"https://foursquare.com/v/revolution-rock-bar/50b97d7fe4b0e015e4bebff3","categoryId":"4bf58dd8d48988d11e941735","category":"Cocktail Bar","checkinsCount":250,"usersCount":110,"tipCount":3,"visitsCount":268,"tier":"","message":"","currency":"","rating":6.7},{"name":"Emerson Biggins","phone":"3163039800","address":"808 E Douglas Ave","lat":37.68630383240959,"lng":-97.32831001281738,"neighborhood":"Old Town","city_fetched":"Wichita,US","state":"KS","country":"United States","canonicalUrl":"https://foursquare.com/v/emerson-biggins/4b4974f2f964a5200b7026e3","categoryId":"4bf58dd8d48988d11d941735","category":"Sports Bar","checkinsCount":2219,"usersCount":968,"tipCount":19,"visitsCount":2373,"tier":2,"message":"Moderate","currency":"$","rating":6.7},{"name":"The Port Of Wichita","phone":"3164257652","twitter":"theportwichita","address":"1548 S Webb Rd","lat":37.66520439188416,"lng":-97.22518791873705,"city_fetched":"Wichita,US","state":"KS","country":"United States","canonicalUrl":"https://foursquare.com/theportwichita","categoryId":"4bf58dd8d48988d116941735","category":"Bar","checkinsCount":1089,"usersCount":250,"tipCount":11,"visitsCount":1121,"url":"http://theportwichita.com","tier":"","message":"","currency":"","rating":6.6},{"name":"Loft 150","phone":"3162632739","address":"150 N Mosley St","lat":37.68741486133081,"lng":-97.32741904538652,"neighborhood":"Old Town","city_fetched":"Wichita,US","state":"KS","country":"United States","canonicalUrl":"https://foursquare.com/v/loft-150/4b59fb55f964a52090a528e3","categoryId":"4bf58dd8d48988d116941735","category":"Bar","checkinsCount":769,"usersCount":412,"tipCount":5,"visitsCount":772,"tier":"","message":"","currency":"","rating":6.6},{"name":"John Barleycorns","phone":"3162621740","address":"608 E Douglas Ave","lat":37.6862086336213,"lng":-97.3312263155131,"neighborhood":"Old Town","city_fetched":"Wichita,US","state":"KS","country":"United States","canonicalUrl":"https://foursquare.com/v/john-barleycorns/4f2e0cc4e4b0ccb91389ba95","categoryId":"4bf58dd8d48988d116941735","category":"Bar","checkinsCount":468,"usersCount":224,"tipCount":2,"visitsCount":483,"tier":1,"message":"Cheap","currency":"$","rating":6.6},{"name":"Back Alley Sports Grill","phone":"3166180059","twitter":"back_alley","address":"11413 E 13th St N","lat":37.70594299,"lng":-97.204415,"city_fetched":"Wichita,US","state":"KS","country":"United States","canonicalUrl":"https://foursquare.com/v/back-alley-sports-grill/4b4b7686f964a520b39c26e3","categoryId":"4bf58dd8d48988d11d941735","category":"Sports Bar","checkinsCount":1639,"usersCount":491,"tipCount":15,"visitsCount":1926,"tier":4,"message":"Very Expensive","currency":"$","rating":6.5},{"name":"Soggy Bottoms","phone":"3169419931","address":"753 N West St","lat":37.69721650521735,"lng":-97.39018707426376,"city_fetched":"Wichita,US","state":"KS","country":"United States","canonicalUrl":"https://foursquare.com/v/soggy-bottoms/4c773d52a5676dcb514d1821","categoryId":"4bf58dd8d48988d116941735","category":"Bar","checkinsCount":294,"usersCount":107,"tipCount":5,"visitsCount":314,"tier":"","message":"","currency":"","rating":6.5},{"name":"Jerry's Bar & Grill","phone":"3167734100","twitter":"jerrybargrill","address":"630 N Robin Rd","lat":37.69307212280624,"lng":-97.44163465112867,"city_fetched":"Wichita,US","state":"KS","country":"United States","canonicalUrl":"https://foursquare.com/v/jerrys-bar--grill/4bca802c68f976b080a55f83","categoryId":"4bf58dd8d48988d116941735","category":"Bar","checkinsCount":747,"usersCount":371,"tipCount":5,"visitsCount":888,"url":"http://www.jerrysbar.com","tier":"","message":"","currency":"","rating":6.4},{"name":"Shamrock Lounge","address":"1724 W Douglas Ave","lat":37.684214502722135,"lng":-97.36128064353713,"neighborhood":"Delano","city_fetched":"Wichita,US","state":"KS","country":"United States","canonicalUrl":"https://foursquare.com/v/shamrock-lounge/4b47f49ff964a520114526e3","categoryId":"4bf58dd8d48988d116941735","category":"Bar","checkinsCount":821,"usersCount":439,"tipCount":5,"visitsCount":1031,"tier":"","message":"","currency":"","rating":6.3},{"name":"Lucky's","phone":"3162601509","address":"1217 E Douglas Ave","lat":37.68585,"lng":-97.32305432,"city_fetched":"Wichita,US","state":"KS","country":"United States","canonicalUrl":"https://foursquare.com/v/luckys/4b63c383f964a52076902ae3","categoryId":"4bf58dd8d48988d116941735","category":"Bar","checkinsCount":1833,"usersCount":364,"tipCount":9,"visitsCount":1935,"tier":"","message":"","currency":"","rating":6.2},{"name":"Our Fantasy Complex","phone":"3166825494","address":"3201 S Hillside St","lat":37.63466349314214,"lng":-97.29965668449672,"city_fetched":"Wichita,US","state":"KS","country":"United States","canonicalUrl":"https://foursquare.com/v/our-fantasy-complex/4b6f25d1f964a5204ae02ce3","categoryId":"4bf58dd8d48988d1d8941735","category":"Gay Bar","checkinsCount":721,"usersCount":254,"tipCount":6,"visitsCount":787,"tier":"","message":"","currency":"","rating":6.2},{"name":"Pour Haus","phone":"3162637687","address":"1021 W Maple St","lat":37.680417546325934,"lng":-97.35248661248636,"neighborhood":"Delano","city_fetched":"Wichita,US","state":"KS","country":"United States","canonicalUrl":"https://foursquare.com/v/pour-haus/4f5c012be4b0241542a0fb94","categoryId":"4bf58dd8d48988d117941735","category":"Beer Garden","checkinsCount":127,"usersCount":71,"tipCount":6,"visitsCount":127,"url":"http://www.poorhaustavern.com","tier":"","message":"","currency":"","rating":6},{"name":"Indigo","phone":"3162656760","address":"126 N Mosley St","lat":37.68667316718231,"lng":-97.32745170593262,"neighborhood":"Old Town","city_fetched":"Wichita,US","state":"KS","country":"United States","canonicalUrl":"https://foursquare.com/v/indigo/4b63cd88f964a5204b922ae3","categoryId":"4bf58dd8d48988d116941735","category":"Bar","checkinsCount":1072,"usersCount":397,"tipCount":6,"visitsCount":1079,"tier":"","message":"","currency":"","rating":5.9},{"name":"Pandora Nightclub","address":"115 N Rock Island St","lat":37.686865,"lng":-97.328567,"neighborhood":"Old Town","city_fetched":"Wichita,US","state":"KS","country":"United States","canonicalUrl":"https://foursquare.com/v/pandora-nightclub/4fee9319e4b0099eb0af01c3","categoryId":"4bf58dd8d48988d11f941735","category":"Nightclub","checkinsCount":168,"usersCount":94,"tipCount":0,"visitsCount":172,"tier":"","message":"","currency":"","rating":5.9},{"name":"Side Street Retro Lounge","phone":"3162670324","address":"1106 S Pattie St","lat":37.6730484,"lng":-97.32213020324707,"city_fetched":"Wichita,US","state":"KS","country":"United States","canonicalUrl":"https://foursquare.com/v/side-street-retro-lounge/4c3d4d047d002d7ff6aeaf18","categoryId":"4bf58dd8d48988d116941735","category":"Bar","checkinsCount":1754,"usersCount":172,"tipCount":9,"visitsCount":1757,"url":"http://www.sidestreetretrolounge.com","tier":"","message":"","currency":"","rating":5.7},{"name":"o'malleys irish pub","phone":"3162602562","address":"2405 W 31st St S","lat":37.63652588640698,"lng":-97.36973812167354,"neighborhood":"Southwest Wichita","city_fetched":"Wichita,US","state":"KS","country":"United States","canonicalUrl":"https://foursquare.com/v/omalleys-irish-pub/4fa32fafe4b09d4d43ed04df","categoryId":"4bf58dd8d48988d116941735","category":"Bar","checkinsCount":146,"usersCount":72,"tipCount":3,"visitsCount":206,"tier":"","message":"","currency":"","rating":5.7},{"name":"MoJoes","phone":"3162603070","address":"10919 E Harry St","lat":37.663947,"lng":-97.21111357212067,"city_fetched":"Wichita,US","state":"KS","country":"United States","canonicalUrl":"https://foursquare.com/v/mojoes/4c45353ef0bdd13af1b6cacc","categoryId":"4bf58dd8d48988d11d941735","category":"Sports Bar","checkinsCount":268,"usersCount":136,"tipCount":4,"visitsCount":406,"tier":"","message":"","currency":"","rating":5.5}]