[{"name":"TR's Great American","phone":"5162941680","twitter":"trspub","address":"17 Hillside Ave","lat":40.75753425593072,"lng":-73.64014268213064,"city_fetched":"Williston","state":"NY","country":"United States","canonicalUrl":"https://foursquare.com/v/trs-great-american/4b4e74e5f964a52071ee26e3","category":"Bar","checkinsCount":2979,"usersCount":655,"tipCount":23,"visitsCount":3288,"url":"http://trspub.com","tier":1,"message":"Cheap","currency":"$","rating":8.9},{"name":"Da-Angelo","phone":"5167418694","address":"815 Willis Ave","lat":40.76585193307263,"lng":-73.6474,"city_fetched":"Williston","state":"NY","country":"United States","canonicalUrl":"https://foursquare.com/v/daangelo/4b36b2f2f964a520e23a25e3","category":"Italian Restaurant","checkinsCount":1076,"usersCount":417,"tipCount":12,"visitsCount":1496,"url":"http://daangelopizza.com","tier":1,"message":"Cheap","currency":"$","rating":7.8},{"name":"Memories Bar & Grill","phone":"5162480695","address":"121 Hillside Ave","lat":40.756502906589766,"lng":-73.64415549340315,"city_fetched":"Williston","state":"NY","country":"United States","canonicalUrl":"https://foursquare.com/v/memories-bar--grill/4cdb5a54d549548107d43bb2","category":"Bar","checkinsCount":604,"usersCount":259,"tipCount":8,"visitsCount":615,"url":"http://memoriesllc.com","tier":"","message":"","currency":"","rating":7.1},{"name":"Le Caire Lounge","phone":"5168775072","twitter":"lecairelounge","address":"279 Hillside Ave","lat":40.72302419781942,"lng":-73.98359693517386,"city_fetched":"Williston","state":"NY","country":"United States","canonicalUrl":"https://foursquare.com/lecairelounge","category":"Lounge","checkinsCount":938,"usersCount":668,"tipCount":20,"visitsCount":938,"url":"http://www.lecairelounge.com","tier":1,"message":"Cheap","currency":"$","rating":5.7},{"name":"Molly Downs","address":"607 Willis Ave","lat":40.761233,"lng":-73.646293,"city_fetched":"Williston","state":"NY","country":"United States","canonicalUrl":"https://foursquare.com/v/molly-downs/4f9b494be4b020e60ee6d2d4","category":"Bar","checkinsCount":349,"usersCount":147,"tipCount":8,"visitsCount":361,"tier":"","message":"","currency":"","rating":5.6},{"name":"The Stumble Inn","phone":"5164144465","address":"279 Hillside Ave","lat":40.754227707802286,"lng":-73.65063446558437,"city_fetched":"Williston","state":"NY","country":"United States","canonicalUrl":"https://foursquare.com/v/the-stumble-inn/524b7969498e584437071a0f","category":"Bar","checkinsCount":171,"usersCount":58,"tipCount":2,"visitsCount":183,"tier":2,"message":"Moderate","currency":"$","rating":5.5}]