[{"name":"Bullfrog Brewery","phone":"5703264700","address":"229 W 4th St","lat":41.240321217935296,"lng":-77.00568169355392,"city_fetched":"Williamsport","state":"PA","country":"United States","canonicalUrl":"https://foursquare.com/v/bullfrog-brewery/4bb3dac4a32876b0674e02fe","category":"Brewery","checkinsCount":3759,"usersCount":2215,"tipCount":55,"visitsCount":4522,"url":"http://www.bullfrogbrewery.com","tier":2,"message":"Moderate","currency":"$","rating":9},{"name":"The Brickyard Restaurant and Ale House","phone":"5703223339","address":"343 Pine St Ste 3","lat":41.24100057660242,"lng":-77.00381336215428,"city_fetched":"Williamsport","state":"PA","country":"United States","canonicalUrl":"https://foursquare.com/v/the-brickyard-restaurant-and-ale-house/4f8f7bf2e4b0736826ce6fd1","category":"American Restaurant","checkinsCount":1748,"usersCount":746,"tipCount":21,"visitsCount":1982,"url":"http://thebrickyard.net","tier":1,"message":"Cheap","currency":"$","rating":8.9},{"name":"Moon & Raven Public House","address":"155  W Fouth st","lat":41.24073682197607,"lng":-77.00502253880666,"city_fetched":"Williamsport","state":"PA","country":"United States","canonicalUrl":"https://foursquare.com/v/moon--raven-public-house/50707834e4b09a19d771c885","category":"Pub","checkinsCount":542,"usersCount":371,"tipCount":12,"visitsCount":811,"tier":2,"message":"Moderate","currency":"$","rating":8.6},{"name":"Kimball's Pub","phone":"5703221115","twitter":"kimballs_pub","address":"972 2nd St","lat":41.23676332673513,"lng":-77.02283710241318,"city_fetched":"Williamsport","state":"PA","country":"United States","canonicalUrl":"https://foursquare.com/v/kimballs-pub/4b57c0e6f964a5205d3f28e3","category":"Pub","checkinsCount":1213,"usersCount":346,"tipCount":13,"visitsCount":1430,"url":"http://kimballspub.com","tier":2,"message":"Moderate","currency":"$","rating":8.5},{"name":"Mountaineer Lounge","phone":"5703262537","address":"420 E Mountain Ave","lat":41.23241468924028,"lng":-76.98630426027088,"city_fetched":"Williamsport","state":"PA","country":"United States","canonicalUrl":"https://foursquare.com/v/mountaineer-lounge/4c79aa30bd346dcb865af6ef","category":"American Restaurant","checkinsCount":450,"usersCount":205,"tipCount":8,"visitsCount":561,"url":"http://mountaineerlounge.com","tier":"","message":"","currency":"","rating":8.1},{"name":"Riepstine's Pub","address":"913 Arch St","lat":41.2402775262605,"lng":-77.05326727497945,"city_fetched":"Williamsport","state":"PA","country":"United States","canonicalUrl":"https://foursquare.com/v/riepstines-pub/5206c39e11d2676ee696a921","category":"Brewery","checkinsCount":243,"usersCount":118,"tipCount":7,"visitsCount":340,"url":"http://riepstinespub.com","tier":"","message":"","currency":"","rating":8},{"name":"Rumrunners Pub & Eatery","phone":"5703220303","twitter":"rumrunnerspub","address":"341 Market St","lat":41.24178827720432,"lng":-77.001743,"city_fetched":"Williamsport","state":"PA","country":"United States","canonicalUrl":"https://foursquare.com/v/rumrunners-pub--eatery/4b47c9e3f964a520c53e26e3","category":"Pub","checkinsCount":1162,"usersCount":309,"tipCount":12,"visitsCount":1222,"url":"http://rumrunnerspub.com","tier":"","message":"","currency":"","rating":7.9},{"name":"Old Corner Hotel","phone":"5703264286","address":"328 Court St","lat":41.24150351666667,"lng":-77.00240921999999,"city_fetched":"Williamsport","state":"PA","country":"United States","canonicalUrl":"https://foursquare.com/v/old-corner-hotel/4b63eb95f964a52024972ae3","category":"Bar","checkinsCount":1697,"usersCount":495,"tipCount":7,"visitsCount":1850,"url":"http://oldcornerhotel.com","tier":"","message":"","currency":"","rating":7.8},{"name":"JP's","address":"2020 Riverside Dr","lat":41.22696129411655,"lng":-77.0195317186809,"city_fetched":"Williamsport","state":"PA","country":"United States","canonicalUrl":"https://foursquare.com/v/jps/4c412769af052d7ffb0a7d79","category":"Bar","checkinsCount":388,"usersCount":155,"tipCount":4,"visitsCount":444,"tier":"","message":"","currency":"","rating":7.6},{"name":"Morrone's Pub","phone":"5706519532","address":"200 E 4th St","lat":41.2437286,"lng":-76.998667,"city_fetched":"Williamsport","state":"PA","country":"United States","canonicalUrl":"https://foursquare.com/v/morrones-pub/4b63ecfef964a52057972ae3","category":"Bar","checkinsCount":550,"usersCount":144,"tipCount":6,"visitsCount":575,"tier":"","message":"","currency":"","rating":7},{"name":"Imbibe Lounge & Night Venue","phone":"5703236483","address":"321 Pine St","lat":41.2406473754201,"lng":-77.00356027714471,"city_fetched":"Williamsport","state":"PA","country":"United States","canonicalUrl":"https://foursquare.com/v/imbibe-lounge--night-venue/5089c8f8e4b017e576d39d33","category":"Cocktail Bar","checkinsCount":231,"usersCount":100,"tipCount":2,"visitsCount":233,"tier":"","message":"","currency":"","rating":6.8},{"name":"Valley Inn","phone":"5703263383","address":"204 Valley St","lat":41.22232060287124,"lng":-77.03693481858726,"city_fetched":"Williamsport","state":"PA","country":"United States","canonicalUrl":"https://foursquare.com/v/valley-inn/4b74bd2ff964a5208bef2de3","category":"Wings Joint","checkinsCount":814,"usersCount":298,"tipCount":12,"visitsCount":921,"tier":1,"message":"Cheap","currency":"$","rating":5.8},{"name":"The Cell Block","phone":"5703221728","address":"154 W 3rd St","lat":41.23999343136433,"lng":-77.00383023446949,"city_fetched":"Williamsport","state":"PA","country":"United States","canonicalUrl":"https://foursquare.com/v/the-cell-block/4b61e926f964a520b32a2ae3","category":"Nightclub","checkinsCount":1670,"usersCount":522,"tipCount":12,"visitsCount":1735,"url":"http://thecellblock.com","tier":"","message":"","currency":"","rating":5.5},{"name":"Benjie's","phone":"5703271553","address":"350 Hughes St","lat":41.24800742062347,"lng":-76.99628245144643,"city_fetched":"Williamsport","state":"PA","country":"United States","canonicalUrl":"https://foursquare.com/v/benjies/4bd0e54741b9ef3b5019fbe5","category":"Bar","checkinsCount":297,"usersCount":166,"tipCount":3,"visitsCount":297,"tier":"","message":"","currency":"","rating":5.3}]