[{"name":"Copper Penny","phone":"9107621373","twitter":"copperpennync","address":"109 Chestnut St","lat":34.237630101835,"lng":-77.94851303100586,"neighborhood":"Downtown Wilmington","city_fetched":"Wilmington,US","state":"NC","country":"United States","canonicalUrl":"https://foursquare.com/v/copper-penny/4b4e65f2f964a52046ec26e3","categoryId":"4bf58dd8d48988d116941735","category":"Bar","checkinsCount":4047,"usersCount":2304,"tipCount":61,"visitsCount":4688,"url":"http://www.copperpennync.com","tier":2,"message":"Moderate","currency":"$","rating":9.1},{"name":"Duck & Dive Pub","phone":"9103992866","twitter":"duckanddivepub","address":"114 Dock St","lat":34.234175252892015,"lng":-77.94796143106092,"neighborhood":"Downtown Wilmington","city_fetched":"Wilmington,US","state":"NC","country":"United States","canonicalUrl":"https://foursquare.com/v/duck--dive-pub/4ba29614f964a520ba0638e3","categoryId":"4bf58dd8d48988d11b941735","category":"Pub","checkinsCount":3969,"usersCount":865,"tipCount":22,"visitsCount":4038,"tier":"","message":"","currency":"","rating":8.7},{"name":"Front Street Brewery","phone":"9102511935","twitter":"fsbrewery","address":"9 N Front St","lat":34.235740679540505,"lng":-77.94877022724364,"neighborhood":"Riverwalk","city_fetched":"Wilmington,US","state":"NC","country":"United States","canonicalUrl":"https://foursquare.com/v/front-street-brewery/4b44d7daf964a520e3fd25e3","categoryId":"50327c8591d4c4b30a586d5d","category":"Brewery","checkinsCount":8635,"usersCount":5603,"tipCount":143,"visitsCount":9157,"url":"http://frontstreetbrewery.com","tier":2,"message":"Moderate","currency":"$","rating":8.7},{"name":"The Olive Cafe & Wine Bar","phone":"9106794772","address":"1125 Military Cutoff Rd","lat":34.235448,"lng":-77.827709,"neighborhood":"Landfall Business Park","city_fetched":"Wilmington,US","state":"NC","country":"United States","canonicalUrl":"https://foursquare.com/v/the-olive-cafe--wine-bar/516849c5e4b06ff46a68c88a","categoryId":"4bf58dd8d48988d123941735","category":"Wine Bar","checkinsCount":179,"usersCount":106,"tipCount":12,"visitsCount":180,"url":"http://www.olivecafenc.com","tier":"","message":"","currency":"","rating":8.7},{"name":"Wilmington Brewing Co","phone":"9103923315","twitter":"wilmhomebrew","address":"824 S Kerr Ave","lat":34.22136150569059,"lng":-77.8866036482147,"city_fetched":"Wilmington,US","state":"NC","country":"United States","canonicalUrl":"https://foursquare.com/v/wilmington-brewing-co/53cef136498edd62f5f091fd","categoryId":"50327c8591d4c4b30a586d5d","category":"Brewery","checkinsCount":226,"usersCount":248,"tipCount":6,"visitsCount":411,"url":"http://wilmingtonbeer.com","tier":"","message":"","currency":"","rating":8.6},{"name":"Flytrap Brewing","phone":"9107692881","twitter":"flytrapbrewing","address":"319 Walnut St","lat":34.24033086673391,"lng":-77.94535875320435,"neighborhood":"Downtown Wilmington","city_fetched":"Wilmington,US","state":"NC","country":"United States","canonicalUrl":"https://foursquare.com/v/flytrap-brewing/529e9bf311d266d68f5626c1","categoryId":"50327c8591d4c4b30a586d5d","category":"Brewery","checkinsCount":535,"usersCount":483,"tipCount":9,"visitsCount":898,"url":"http://flytrapbrewing.com","tier":"","message":"","currency":"","rating":8.6},{"name":"Cape Fear Wine And Beer","phone":"9107633377","twitter":"capefearbeer","address":"139 N Front St","lat":34.237007300314374,"lng":-77.94914952268327,"neighborhood":"Riverwalk","city_fetched":"Wilmington,US","state":"NC","country":"United States","canonicalUrl":"https://foursquare.com/v/cape-fear-wine-and-beer/4b47e5d6f964a520334326e3","categoryId":"4bf58dd8d48988d116941735","category":"Bar","checkinsCount":4473,"usersCount":1391,"tipCount":43,"visitsCount":4574,"url":"http://www.capefearwineandbeer.net","tier":2,"message":"Moderate","currency":"$","rating":8.5},{"name":"Le Catalan","phone":"9108150200","address":"224 S Water St.","lat":34.23232144935434,"lng":-77.94937133789062,"neighborhood":"Riverwalk","city_fetched":"Wilmington,US","state":"NC","country":"United States","canonicalUrl":"https://foursquare.com/v/le-catalan/4c5454704623be9a89389cf2","categoryId":"4bf58dd8d48988d123941735","category":"Wine Bar","checkinsCount":730,"usersCount":336,"tipCount":8,"visitsCount":792,"url":"http://www.lecatalan.com","tier":1,"message":"Cheap","currency":"$","rating":8.5},{"name":"Satellite Bar and Lounge","phone":"9103992796","twitter":"satellitebar","address":"120 Greenfield St","lat":34.21629145707054,"lng":-77.94532656669617,"city_fetched":"Wilmington,US","state":"NC","country":"United States","canonicalUrl":"https://foursquare.com/v/satellite-bar-and-lounge/4b5e6a41f964a520b28d29e3","categoryId":"4bf58dd8d48988d116941735","category":"Bar","checkinsCount":2348,"usersCount":1082,"tipCount":28,"visitsCount":2709,"url":"http://satellitebarandlounge.com","tier":2,"message":"Moderate","currency":"$","rating":8.4},{"name":"Fermental","phone":"9108210362","twitter":"fermentalnc","address":"7250 Market St","lat":34.27391609518445,"lng":-77.81662807276413,"city_fetched":"Wilmington,US","state":"NC","country":"United States","canonicalUrl":"https://foursquare.com/v/fermental/51325cdee4b0e80cdb6ed2f6","categoryId":"4bf58dd8d48988d117941735","category":"Beer Garden","checkinsCount":628,"usersCount":298,"tipCount":5,"visitsCount":982,"url":"http://www.fermental.net","tier":"","message":"","currency":"","rating":8.3},{"name":"The Goat & Compass","phone":"9107721400","twitter":"goatandcompass","address":"710 N 4th St","lat":34.24390432278509,"lng":-77.94558520871837,"neighborhood":"Carolina Heights","city_fetched":"Wilmington,US","state":"NC","country":"United States","canonicalUrl":"https://foursquare.com/v/the-goat--compass/4b6f393af964a52040e52ce3","categoryId":"4bf58dd8d48988d116941735","category":"Bar","checkinsCount":862,"usersCount":315,"tipCount":6,"visitsCount":894,"url":"http://www.goatandcompass.com","tier":"","message":"","currency":"","rating":8.3},{"name":"The Harp","phone":"9107631607","address":"1423 S 3rd St","lat":34.21695959255878,"lng":-77.94366076510224,"city_fetched":"Wilmington,US","state":"NC","country":"United States","canonicalUrl":"https://foursquare.com/v/the-harp/4c084133009a0f472ddbe5bf","categoryId":"4bf58dd8d48988d11b941735","category":"Pub","checkinsCount":882,"usersCount":530,"tipCount":19,"visitsCount":1103,"url":"http://www.harpwilmington.com","tier":2,"message":"Moderate","currency":"$","rating":8.1},{"name":"The Whiskey","phone":"9107633088","address":"1 S Front St","lat":34.23516873816729,"lng":-77.94856667518616,"neighborhood":"Downtown Wilmington","city_fetched":"Wilmington,US","state":"NC","country":"United States","canonicalUrl":"https://foursquare.com/v/the-whiskey/4cb524e652edb1f7618f65fe","categoryId":"4bf58dd8d48988d122941735","category":"Whisky Bar","checkinsCount":870,"usersCount":527,"tipCount":5,"visitsCount":873,"tier":"","message":"","currency":"","rating":8.1},{"name":"Kickback Jack's","phone":"9105235669","address":"418 S College Rd","lat":34.2336677348175,"lng":-77.87563070272196,"city_fetched":"Wilmington,US","state":"NC","country":"United States","canonicalUrl":"https://foursquare.com/v/kickback-jacks/4ef9f9f89adf7bbf8ad0c704","categoryId":"4bf58dd8d48988d11d941735","category":"Sports Bar","checkinsCount":3699,"usersCount":1737,"tipCount":41,"visitsCount":4542,"url":"http://kbjacks.com/wilmington-nc","tier":2,"message":"Moderate","currency":"$","rating":8},{"name":"Halligan's Public House","phone":"9107911019","address":"3317 Masonboro Loop Rd","lat":34.18400931542223,"lng":-77.85997867584229,"city_fetched":"Wilmington,US","state":"NC","country":"United States","canonicalUrl":"https://foursquare.com/v/halligans-public-house/4ce5b9ed678aa0939c1dd8ea","categoryId":"4bf58dd8d48988d11b941735","category":"Pub","checkinsCount":880,"usersCount":356,"tipCount":14,"visitsCount":1017,"url":"http://halligansnc.com","tier":2,"message":"Moderate","currency":"$","rating":8},{"name":"The Fortunate Glass","phone":"9103994292","address":"29 S Front St","lat":34.234405922569195,"lng":-77.94853448867798,"neighborhood":"Downtown Wilmington","city_fetched":"Wilmington,US","state":"NC","country":"United States","canonicalUrl":"https://foursquare.com/v/the-fortunate-glass/4ca535bed971b1f77be4f4e0","categoryId":"4bf58dd8d48988d123941735","category":"Wine Bar","checkinsCount":857,"usersCount":381,"tipCount":8,"visitsCount":864,"url":"http://www.fortunateglasswinebar.com","tier":"","message":"","currency":"","rating":8},{"name":"Juggling Gypsy","phone":"9107632223","address":"1612 Castle St","lat":34.22920672392539,"lng":-77.92727650962723,"city_fetched":"Wilmington,US","state":"NC","country":"United States","canonicalUrl":"https://foursquare.com/v/juggling-gypsy/4b9713f3f964a520def634e3","categoryId":"4bf58dd8d48988d119941735","category":"Hookah Bar","checkinsCount":955,"usersCount":324,"tipCount":9,"visitsCount":1037,"url":"http://www.jugglinggypsy.com","tier":"","message":"","currency":"","rating":8},{"name":"Broomtail Craft Brewery","phone":"9102641369","twitter":"broomtailbeer","address":"6404 Amsterdam Way Ste 100","lat":34.25873666153001,"lng":-77.84888581241525,"city_fetched":"Wilmington,US","state":"NC","country":"United States","canonicalUrl":"https://foursquare.com/v/broomtail-craft-brewery/536e6958498ea2c77d5524d1","categoryId":"50327c8591d4c4b30a586d5d","category":"Brewery","checkinsCount":338,"usersCount":139,"tipCount":5,"visitsCount":494,"url":"http://www.broomtailcraftbrewery.com","tier":"","message":"","currency":"","rating":7.9},{"name":"Liberty Tavern","lat":34.29103903612749,"lng":-77.79927522200602,"city_fetched":"Wilmington,US","state":"NC","country":"United States","canonicalUrl":"https://foursquare.com/v/liberty-tavern/52916321498ebf4fc6cdeb41","categoryId":"4bf58dd8d48988d116941735","category":"Bar","checkinsCount":162,"usersCount":126,"tipCount":3,"visitsCount":308,"tier":"","message":"","currency":"","rating":7.9},{"name":"Lula's","phone":"9107630070","twitter":"lulasapub","address":"138 S Front St","lat":34.232918726901254,"lng":-77.94874791570582,"neighborhood":"Riverwalk","city_fetched":"Wilmington,US","state":"NC","country":"United States","canonicalUrl":"https://foursquare.com/v/lulas/4b6b1f9ef964a52056f42be3","categoryId":"4bf58dd8d48988d11b941735","category":"Pub","checkinsCount":3638,"usersCount":474,"tipCount":12,"visitsCount":3755,"url":"http://lulasapub.com","tier":"","message":"","currency":"","rating":7.8},{"name":"Tilted Kilt Wilmington","phone":"9103995737","twitter":"tiltedkiltpub","address":"11 Van Campen Blvd","lat":34.245018,"lng":-77.873509,"city_fetched":"Wilmington,US","state":"NC","country":"United States","canonicalUrl":"https://foursquare.com/v/tilted-kilt-wilmington/53b3191711d296b7f0f09f27","categoryId":"4bf58dd8d48988d11d941735","category":"Sports Bar","checkinsCount":161,"usersCount":179,"tipCount":6,"visitsCount":291,"url":"http://www.tiltedkilt.com","tier":"","message":"","currency":"","rating":7.7},{"name":"Whiskey Creek Sports Pub","phone":"9103993266","address":"4039 Masonboro Loop Rd","lat":34.16528727128413,"lng":-77.86299314742384,"city_fetched":"Wilmington,US","state":"NC","country":"United States","canonicalUrl":"https://foursquare.com/v/whiskey-creek-sports-pub/4b4937a3f964a520626a26e3","categoryId":"4bf58dd8d48988d11d941735","category":"Sports Bar","checkinsCount":1067,"usersCount":439,"tipCount":13,"visitsCount":1627,"url":"http://www.whiskeycreeksportspub.com","tier":2,"message":"Moderate","currency":"$","rating":7.7},{"name":"Reggie's 42nd St Tavern","phone":"9107996465","address":"1415 S 42nd St","lat":34.21212568,"lng":-77.89177296,"city_fetched":"Wilmington,US","state":"NC","country":"United States","canonicalUrl":"https://foursquare.com/v/reggies-42nd-st-tavern/4bf5e08b9abec9b636f024e8","categoryId":"4bf58dd8d48988d116941735","category":"Bar","checkinsCount":514,"usersCount":207,"tipCount":4,"visitsCount":587,"tier":"","message":"","currency":"","rating":7.7},{"name":"Palate Bottle Shop & Reserve","phone":"9103991081","address":"1007 N 4th St","lat":34.22283,"lng":-77.94292,"city_fetched":"Wilmington,US","state":"NC","country":"United States","canonicalUrl":"https://foursquare.com/v/palate-bottle-shop--reserve/548f2bb1498e6b0708cc22ff","categoryId":"4bf58dd8d48988d117941735","category":"Beer Garden","checkinsCount":78,"usersCount":102,"tipCount":3,"visitsCount":145,"url":"http://www.palatenc.com","tier":"","message":"","currency":"","rating":7.7},{"name":"The Blind Elephant","lat":34.235861523787264,"lng":-77.94897660875056,"neighborhood":"Riverwalk","city_fetched":"Wilmington,US","state":"NC","country":"United States","canonicalUrl":"https://foursquare.com/v/the-blind-elephant/52c8f3a2498e2a3637bc8d6e","categoryId":"4bf58dd8d48988d116941735","category":"Bar","checkinsCount":298,"usersCount":208,"tipCount":9,"visitsCount":305,"tier":"","message":"","currency":"","rating":7.7},{"name":"Coat Of Arms","phone":"9105551212","address":"3818 Wrightsville Ave","lat":34.219120911455775,"lng":-77.89612454683302,"city_fetched":"Wilmington,US","state":"NC","country":"United States","canonicalUrl":"https://foursquare.com/v/coat-of-arms/4c1d873a63750f47af7fb867","categoryId":"4bf58dd8d48988d118941735","category":"Dive Bar","checkinsCount":292,"usersCount":118,"tipCount":2,"visitsCount":367,"tier":"","message":"","currency":"","rating":7.7},{"name":"Fox & Hound","phone":"9105090805","twitter":"the_foxandhound","address":"920 Town Center Drive","lat":34.24231719,"lng":-77.8326593,"neighborhood":"Mayfaire Town Center","city_fetched":"Wilmington,US","state":"NC","country":"United States","canonicalUrl":"https://foursquare.com/v/fox--hound/4c40fb563735be9a05c417a4","categoryId":"4bf58dd8d48988d11b941735","category":"Pub","checkinsCount":3820,"usersCount":1719,"tipCount":31,"visitsCount":3874,"url":"http://t.co/6Wlr3nrgdg","tier":2,"message":"Moderate","currency":"$","rating":7.6},{"name":"Tinyz Tavern","phone":"9103131245","address":"2420 S 17th St","lat":34.19813936661313,"lng":-77.92267374560909,"city_fetched":"Wilmington,US","state":"NC","country":"United States","canonicalUrl":"https://foursquare.com/v/tinyz-tavern/4dba2902a86ede8c0f94cf48","categoryId":"4bf58dd8d48988d116941735","category":"Bar","checkinsCount":313,"usersCount":107,"tipCount":2,"visitsCount":350,"tier":"","message":"","currency":"","rating":7.6},{"name":"Liquid Room","phone":"9103433341","twitter":"theliquidroom","address":"23 Market St","lat":34.23532456666667,"lng":-77.94899218333333,"neighborhood":"Riverwalk","city_fetched":"Wilmington,US","state":"NC","country":"United States","canonicalUrl":"https://foursquare.com/v/liquid-room/4b9477e2f964a520a07a34e3","categoryId":"4bf58dd8d48988d11f941735","category":"Nightclub","checkinsCount":3036,"usersCount":794,"tipCount":12,"visitsCount":3056,"tier":"","message":"","currency":"","rating":7.6},{"name":"Ted's Fun On The River","phone":"9102315871","address":"2 Castle St","lat":34.227533,"lng":-77.948964,"city_fetched":"Wilmington,US","state":"NC","country":"United States","canonicalUrl":"https://foursquare.com/v/teds-fun-on-the-river/4f63d5c6e4b0aa8f6687ae7c","categoryId":"4bf58dd8d48988d121941735","category":"Lounge","checkinsCount":97,"usersCount":50,"tipCount":2,"visitsCount":113,"url":"http://www.tedsfun.com","tier":"","message":"","currency":"","rating":7.5},{"name":"Waterline Brewing Co.","twitter":"waterline_beer","address":"721 Surrey St","lat":34.22557767994479,"lng":-77.9486084684903,"city_fetched":"Wilmington,US","state":"NC","country":"United States","canonicalUrl":"https://foursquare.com/v/waterline-brewing-co/55f70a5f498e324dc4109320","categoryId":"50327c8591d4c4b30a586d5d","category":"Brewery","checkinsCount":81,"usersCount":98,"tipCount":5,"visitsCount":127,"tier":"","message":"","currency":"","rating":7.5},{"name":"Wilmington Wine","phone":"9102024749","twitter":"wilmingtonwino","address":"605 Castle St","lat":34.22851244,"lng":-77.94073823,"city_fetched":"Wilmington,US","state":"NC","country":"United States","canonicalUrl":"https://foursquare.com/v/wilmington-wine/4b4526bcf964a520650626e3","categoryId":"4bf58dd8d48988d123941735","category":"Wine Bar","checkinsCount":970,"usersCount":122,"tipCount":7,"visitsCount":990,"url":"http://www.wilmingtonwineshop.com","tier":"","message":"","currency":"","rating":7.5},{"name":"Carolina Ale House","phone":"9107919393","twitter":"carolinalehouse","address":"331 S College Rd.","lat":34.23568462040577,"lng":-77.87270030436277,"city_fetched":"Wilmington,US","state":"NC","country":"United States","canonicalUrl":"https://foursquare.com/v/carolina-ale-house/4b5376def964a520379e27e3","categoryId":"4bf58dd8d48988d11d941735","category":"Sports Bar","checkinsCount":5550,"usersCount":2693,"tipCount":34,"visitsCount":6011,"url":"http://www.carolinaalehouse.com","tier":2,"message":"Moderate","currency":"$","rating":7.5},{"name":"Barbary Coast","phone":"9107628996","address":"116 S Front St","lat":34.23361101745747,"lng":-77.94863635794776,"neighborhood":"Riverwalk","city_fetched":"Wilmington,US","state":"NC","country":"United States","canonicalUrl":"https://foursquare.com/v/barbary-coast/4b88846bf964a520b7fd31e3","categoryId":"4bf58dd8d48988d118941735","category":"Dive Bar","checkinsCount":2164,"usersCount":689,"tipCount":13,"visitsCount":2231,"tier":1,"message":"Cheap","currency":"$","rating":7.4},{"name":"Ibiza Nightclub","phone":"9102511301","address":"118 Market St","lat":34.235164,"lng":-77.948002,"neighborhood":"Downtown Wilmington","city_fetched":"Wilmington,US","state":"NC","country":"United States","canonicalUrl":"https://foursquare.com/v/ibiza-nightclub/4bc22d9b74a9a5933ae6d2f6","categoryId":"4bf58dd8d48988d1d8941735","category":"Gay Bar","checkinsCount":1725,"usersCount":597,"tipCount":8,"visitsCount":1767,"url":"http://www.ibizawilmington.com","tier":"","message":"","currency":"","rating":7.3},{"name":"Ogden Tap Room","phone":"9108218185","address":"7324 Market St","lat":34.27521459216151,"lng":-77.81495266739951,"city_fetched":"Wilmington,US","state":"NC","country":"United States","canonicalUrl":"https://foursquare.com/v/ogden-tap-room/51c9f0f3498e5cd42fa2db05","categoryId":"4bf58dd8d48988d11b941735","category":"Pub","checkinsCount":530,"usersCount":381,"tipCount":14,"visitsCount":1052,"url":"http://ogdentaproom.com","tier":"","message":"","currency":"","rating":7.2},{"name":"Fibbers Public House","phone":"9102560102","twitter":"fibberspubhouse","address":"1610 Pavillion Pl","lat":34.22106528047174,"lng":-77.82043673265632,"city_fetched":"Wilmington,US","state":"NC","country":"United States","canonicalUrl":"https://foursquare.com/v/fibbers-public-house/4b620dc8f964a520c3322ae3","categoryId":"4bf58dd8d48988d11b941735","category":"Pub","checkinsCount":1743,"usersCount":740,"tipCount":16,"visitsCount":1803,"url":"http://www.fibberspublichouse.com","tier":"","message":"","currency":"","rating":7.1},{"name":"Opera Room","phone":"9102518866","address":"119 Grace St","lat":34.23896763,"lng":-77.948367,"neighborhood":"Downtown Wilmington","city_fetched":"Wilmington,US","state":"NC","country":"United States","canonicalUrl":"https://foursquare.com/v/opera-room/4bdcbf102a3a0f47243bb4b6","categoryId":"4bf58dd8d48988d116941735","category":"Bar","checkinsCount":880,"usersCount":200,"tipCount":12,"visitsCount":892,"tier":"","message":"","currency":"","rating":7.1},{"name":"The Cellar","phone":"9103992997","twitter":"thecellarilm","address":"16 Princess St","lat":34.23622024197788,"lng":-77.949060276817,"neighborhood":"Riverwalk","city_fetched":"Wilmington,US","state":"NC","country":"United States","canonicalUrl":"https://foursquare.com/v/the-cellar/4bd076d3046076b087fa6f71","categoryId":"4bf58dd8d48988d116941735","category":"Bar","checkinsCount":1233,"usersCount":479,"tipCount":5,"visitsCount":1233,"url":"http://www.thecellarwilmington.com","tier":"","message":"","currency":"","rating":7.1},{"name":"The Husk Seed Store And Bar","phone":"9105555555","address":"33 S Front St","lat":34.23433450899327,"lng":-77.9482793723498,"neighborhood":"Downtown Wilmington","city_fetched":"Wilmington,US","state":"NC","country":"United States","canonicalUrl":"https://foursquare.com/v/the-husk-seed-store-and-bar/4e860502e5fab0fb114a3a48","categoryId":"4bf58dd8d48988d116941735","category":"Bar","checkinsCount":2856,"usersCount":1069,"tipCount":17,"visitsCount":2981,"tier":"","message":"","currency":"","rating":7},{"name":"Black Sheep Tavern","address":"21 N Front St","lat":34.23606343355098,"lng":-77.94887062910695,"neighborhood":"Riverwalk","city_fetched":"Wilmington,US","state":"NC","country":"United States","canonicalUrl":"https://foursquare.com/v/black-sheep-tavern/4d6c254d9c5337041e9e37fa","categoryId":"4bf58dd8d48988d118941735","category":"Dive Bar","checkinsCount":234,"usersCount":146,"tipCount":2,"visitsCount":234,"tier":"","message":"","currency":"","rating":7},{"name":"Rusty Nail","phone":"9102511888","address":"1312 S 5th Ave","lat":34.218797353197,"lng":-77.94166934833513,"city_fetched":"Wilmington,US","state":"NC","country":"United States","canonicalUrl":"https://foursquare.com/v/rusty-nail/4cb13c61c5e6a1cd4170dcf6","categoryId":"4bf58dd8d48988d118941735","category":"Dive Bar","checkinsCount":394,"usersCount":116,"tipCount":5,"visitsCount":426,"tier":"","message":"","currency":"","rating":6.9},{"name":"Level 5","phone":"9103420272","address":"21 N Front St","lat":34.235984,"lng":-77.94917988,"neighborhood":"Riverwalk","city_fetched":"Wilmington,US","state":"NC","country":"United States","canonicalUrl":"https://foursquare.com/v/level-5/4b3bf990f964a520977f25e3","categoryId":"4bf58dd8d48988d11f941735","category":"Nightclub","checkinsCount":2302,"usersCount":1325,"tipCount":12,"visitsCount":2332,"tier":"","message":"","currency":"","rating":6.9},{"name":"Ironclad Brewery","phone":"9107690290","twitter":"ironcladbrewery","address":"115 N 2nd St","lat":34.23700035437736,"lng":-77.94772982597351,"neighborhood":"Downtown Wilmington","city_fetched":"Wilmington,US","state":"NC","country":"United States","canonicalUrl":"https://foursquare.com/v/ironclad-brewery/53dbd858498e33be781da324","categoryId":"50327c8591d4c4b30a586d5d","category":"Brewery","checkinsCount":262,"usersCount":308,"tipCount":3,"visitsCount":405,"url":"http://www.ironcladbrewery.com","tier":2,"message":"Moderate","currency":"$","rating":6.8},{"name":"Joe's Oasis","phone":"9103998585","twitter":"joesoasis","address":"6400 Carolina Beach Rd","lat":34.10997466164623,"lng":-77.90055513381958,"city_fetched":"Wilmington,US","state":"NC","country":"United States","canonicalUrl":"https://foursquare.com/joesoasis","categoryId":"4bf58dd8d48988d116941735","category":"Bar","checkinsCount":73,"usersCount":38,"tipCount":4,"visitsCount":73,"url":"http://joesoasis.com","tier":"","message":"","currency":"","rating":6.7},{"name":"Triangle Lounge","phone":"9107996253","address":"5920 Wrightsville Ave","lat":34.216582233333334,"lng":-77.84904446666667,"city_fetched":"Wilmington,US","state":"NC","country":"United States","canonicalUrl":"https://foursquare.com/v/triangle-lounge/4c0dbac5d64c0f47c33b275d","categoryId":"4bf58dd8d48988d121941735","category":"Lounge","checkinsCount":1165,"usersCount":309,"tipCount":2,"visitsCount":1281,"tier":"","message":"","currency":"","rating":6.7},{"name":"Five Star Tavern","phone":"9102512148","twitter":"fivestartavern1","address":"106 N 2nd St","lat":34.23683626447746,"lng":-77.94737577438354,"neighborhood":"Downtown Wilmington","city_fetched":"Wilmington,US","state":"NC","country":"United States","canonicalUrl":"https://foursquare.com/v/five-star-tavern/4e73f843b3ad7830927dd510","categoryId":"4bf58dd8d48988d116941735","category":"Bar","checkinsCount":661,"usersCount":203,"tipCount":5,"visitsCount":667,"tier":"","message":"","currency":"","rating":6.7},{"name":"Schreiner's Restaurant","address":"2206 Carolina Beach Rd","lat":34.20050070349426,"lng":-77.93967231662613,"neighborhood":"Sunset Park","city_fetched":"Wilmington,US","state":"NC","country":"United States","canonicalUrl":"https://foursquare.com/v/schreiners-restaurant/4c538aa053fe76b0cf80e103","categoryId":"4bf58dd8d48988d120941735","category":"Karaoke Bar","checkinsCount":184,"usersCount":108,"tipCount":3,"visitsCount":197,"tier":"","message":"","currency":"","rating":6.6},{"name":"Calico Room","phone":"9107622091","address":"107 S Front St","lat":34.233911199999994,"lng":-77.948498,"neighborhood":"Downtown Wilmington","city_fetched":"Wilmington,US","state":"NC","country":"United States","canonicalUrl":"https://foursquare.com/v/calico-room/4bcba5bd0687ef3b0c36decc","categoryId":"4bf58dd8d48988d116941735","category":"Bar","checkinsCount":607,"usersCount":349,"tipCount":6,"visitsCount":616,"tier":"","message":"","currency":"","rating":6.6},{"name":"Station 21","phone":"9102518265","address":"21 N Front St","lat":34.23579364269517,"lng":-77.94893756363076,"neighborhood":"Riverwalk","city_fetched":"Wilmington,US","state":"NC","country":"United States","canonicalUrl":"https://foursquare.com/v/station-21/4f90bbe3e4b0fa3813bbdafe","categoryId":"4bf58dd8d48988d116941735","category":"Bar","checkinsCount":487,"usersCount":196,"tipCount":3,"visitsCount":491,"tier":"","message":"","currency":"","rating":6.5},{"name":"The River Rat","phone":"9107631680","address":"1 S Front St","lat":34.23525585677139,"lng":-77.94872002627709,"neighborhood":"Riverwalk","city_fetched":"Wilmington,US","state":"NC","country":"United States","canonicalUrl":"https://foursquare.com/v/the-river-rat/4b49113bf964a520766426e3","categoryId":"4bf58dd8d48988d116941735","category":"Bar","checkinsCount":1579,"usersCount":602,"tipCount":5,"visitsCount":1588,"tier":"","message":"","currency":"","rating":6.4},{"name":"Might As well Bar & Grill","phone":"9102285365","address":"250 Racine Dr","lat":34.23875076597094,"lng":-77.8672523454095,"city_fetched":"Wilmington,US","state":"NC","country":"United States","canonicalUrl":"https://foursquare.com/v/might-as-well-bar--grill/50678f57e4b02bd344439b83","categoryId":"4bf58dd8d48988d116941735","category":"Bar","checkinsCount":986,"usersCount":479,"tipCount":21,"visitsCount":1096,"url":"http://mightaswellbarandgrill.com","tier":1,"message":"Cheap","currency":"$","rating":6.4},{"name":"Goodfella's","phone":"9107634382","address":"106 Market St","lat":34.235204,"lng":-77.948563,"neighborhood":"Downtown Wilmington","city_fetched":"Wilmington,US","state":"NC","country":"United States","canonicalUrl":"https://foursquare.com/v/goodfellas/4b3d5297f964a520679225e3","categoryId":"4bf58dd8d48988d116941735","category":"Bar","checkinsCount":1548,"usersCount":541,"tipCount":4,"visitsCount":1559,"tier":"","message":"","currency":"","rating":6.4},{"name":"Mugsy's Pub","phone":"9107633664","address":"202 Princess St","lat":34.236505,"lng":-77.947406,"neighborhood":"Downtown Wilmington","city_fetched":"Wilmington,US","state":"NC","country":"United States","canonicalUrl":"https://foursquare.com/v/mugsys-pub/4bc3cd392a89ef3b249df588","categoryId":"4bf58dd8d48988d116941735","category":"Bar","checkinsCount":330,"usersCount":132,"tipCount":6,"visitsCount":330,"tier":"","message":"","currency":"","rating":6.4},{"name":"Buzz's Roost","phone":"9107692335","address":"15 S Front St","lat":34.23477,"lng":-77.948472,"neighborhood":"Downtown Wilmington","city_fetched":"Wilmington,US","state":"NC","country":"United States","canonicalUrl":"https://foursquare.com/v/buzzs-roost/51394473e4b0668118640b27","categoryId":"4bf58dd8d48988d116941735","category":"Bar","checkinsCount":224,"usersCount":150,"tipCount":6,"visitsCount":236,"url":"http://buzzsroost.com","tier":"","message":"","currency":"","rating":6.3},{"name":"Beach House Bar & Grill","phone":"9106867219","twitter":"beachhousebar","address":"7219 Market St","lat":34.27356668134553,"lng":-77.81920909881592,"city_fetched":"Wilmington,US","state":"NC","country":"United States","canonicalUrl":"https://foursquare.com/v/beach-house-bar--grill/4cedac218604a1cd4ae3f3c0","categoryId":"4bf58dd8d48988d116941735","category":"Bar","checkinsCount":1075,"usersCount":417,"tipCount":19,"visitsCount":1171,"url":"http://www.thebeachhousebar.com","tier":"","message":"","currency":"","rating":6.3},{"name":"The Pour House","phone":"9102516388","twitter":"pour_house_wilm","address":"103 Market St","lat":34.235401172229,"lng":-77.94863635794776,"neighborhood":"Downtown Wilmington","city_fetched":"Wilmington,US","state":"NC","country":"United States","canonicalUrl":"https://foursquare.com/pour_house_wilm","categoryId":"4bf58dd8d48988d116941735","category":"Bar","checkinsCount":2878,"usersCount":578,"tipCount":12,"visitsCount":2888,"tier":"","message":"","currency":"","rating":6.2},{"name":"Sputnik","address":"21 N Front St","lat":34.236134256567816,"lng":-77.94902123172736,"neighborhood":"Riverwalk","city_fetched":"Wilmington,US","state":"NC","country":"United States","canonicalUrl":"https://foursquare.com/v/sputnik/4c9c354b9975a143107230cf","categoryId":"4bf58dd8d48988d116941735","category":"Bar","checkinsCount":804,"usersCount":372,"tipCount":7,"visitsCount":807,"tier":2,"message":"Moderate","currency":"$","rating":6},{"name":"Firebelly Lounge","twitter":"firebellylounge","address":"5607 Carolina Beach Rd","lat":34.13613144904203,"lng":-77.89274265813904,"city_fetched":"Wilmington,US","state":"NC","country":"United States","canonicalUrl":"https://foursquare.com/v/firebelly-lounge/52684144498ef2d7e4f4243e","categoryId":"4bf58dd8d48988d121941735","category":"Lounge","checkinsCount":303,"usersCount":128,"tipCount":14,"visitsCount":338,"url":"http://www.thefirebellylounge.com","tier":2,"message":"Moderate","currency":"$","rating":5.9},{"name":"Sidebar","phone":"9107631401","twitter":"thesidebarnc","address":"18 S Front St","lat":34.234787,"lng":-77.94866513333334,"neighborhood":"Riverwalk","city_fetched":"Wilmington,US","state":"NC","country":"United States","canonicalUrl":"https://foursquare.com/v/sidebar/4b7ac52ff964a520e93b2fe3","categoryId":"4bf58dd8d48988d116941735","category":"Bar","checkinsCount":1156,"usersCount":536,"tipCount":2,"visitsCount":1157,"tier":"","message":"","currency":"","rating":5.8},{"name":"Charley Brownz","phone":"9107728024","address":"21 S Front St","lat":34.234742992241266,"lng":-77.94855268955382,"neighborhood":"Downtown Wilmington","city_fetched":"Wilmington,US","state":"NC","country":"United States","canonicalUrl":"https://foursquare.com/v/charley-brownz/4bd288a4b221c9b699fdd7d0","categoryId":"4bf58dd8d48988d116941735","category":"Bar","checkinsCount":1308,"usersCount":502,"tipCount":2,"visitsCount":1323,"tier":"","message":"","currency":"","rating":5.8},{"name":"Pravda","phone":"9102549853","address":"11 N Front St.","lat":34.236182,"lng":-77.948882,"neighborhood":"Riverwalk","city_fetched":"Wilmington,US","state":"NC","country":"United States","canonicalUrl":"https://foursquare.com/v/pravda/4b47ef2ff964a5206a4426e3","categoryId":"4bf58dd8d48988d11f941735","category":"Nightclub","checkinsCount":1439,"usersCount":717,"tipCount":9,"visitsCount":1443,"tier":"","message":"","currency":"","rating":5.8},{"name":"City Limits Saloon","phone":"9107632336","address":"28 S Front St","lat":34.234336134743714,"lng":-77.94882042818692,"neighborhood":"Riverwalk","city_fetched":"Wilmington,US","state":"NC","country":"United States","canonicalUrl":"https://foursquare.com/v/city-limits-saloon/4bc543090a30d13aefe5599c","categoryId":"4bf58dd8d48988d11f941735","category":"Nightclub","checkinsCount":1225,"usersCount":575,"tipCount":7,"visitsCount":1226,"url":"http://www.hellyeahwilmington.com","tier":"","message":"","currency":"","rating":5.5}]