[{"name":"Village Square","phone":"5406678961","address":"103 N Loudoun St","lat":39.184844668484594,"lng":-78.16552544938504,"city_fetched":"Winchester,US","state":"VA","country":"United States","canonicalUrl":"https://foursquare.com/v/village-square/4bca6805cc8cd13a2abebdcf","categoryId":"4bf58dd8d48988d11e941735","category":"Cocktail Bar","checkinsCount":724,"usersCount":391,"tipCount":5,"visitsCount":739,"url":"http://villagesquarerestaurant.com","tier":"","message":"","currency":"","rating":8.8},{"name":"Union Jack Pub & Restaurant","phone":"5407222055","twitter":"winunionjackpub","address":"101 N Loudoun St","lat":39.184737,"lng":-78.165552,"city_fetched":"Winchester,US","state":"VA","country":"United States","canonicalUrl":"https://foursquare.com/v/union-jack-pub--restaurant/4b3272f0f964a520fe0b25e3","categoryId":"4bf58dd8d48988d11b941735","category":"Pub","checkinsCount":4313,"usersCount":1472,"tipCount":33,"visitsCount":4574,"url":"http://www.theunionjackpub.com","tier":2,"message":"Moderate","currency":"$","rating":8.2},{"name":"Piccadilly's Public House & Restaurant","phone":"5405351899","address":"125 E Piccadilly St","lat":39.18563271139873,"lng":-78.16236914526338,"city_fetched":"Winchester,US","state":"VA","country":"United States","canonicalUrl":"https://foursquare.com/v/piccadillys-public-house--restaurant/4b53cfeaf964a52026ac27e3","categoryId":"4bf58dd8d48988d11b941735","category":"Pub","checkinsCount":2391,"usersCount":1197,"tipCount":20,"visitsCount":2760,"url":"http://www.piccadillypublichouse.com","tier":2,"message":"Moderate","currency":"$","rating":8.1},{"name":"Brewbaker's Restaurant","phone":"5405350111","address":"168 N Loudoun St","lat":39.185898863420185,"lng":-78.16481709480286,"city_fetched":"Winchester,US","state":"VA","country":"United States","canonicalUrl":"https://foursquare.com/v/brewbakers-restaurant/4720340af964a520c34b1fe3","categoryId":"4bf58dd8d48988d116941735","category":"Bar","checkinsCount":1353,"usersCount":777,"tipCount":17,"visitsCount":1431,"url":"http://www.brewbakersrestaurant.com","tier":2,"message":"Moderate","currency":"$","rating":8},{"name":"Escutcheon Brewing Co.","phone":"5407733042","twitter":"escutcheonbrew","address":"142 W Commercial St.","lat":39.19563059785455,"lng":-78.16290355259177,"city_fetched":"Winchester,US","state":"VA","country":"United States","canonicalUrl":"https://foursquare.com/v/escutcheon-brewing-co/54fdb400498ee99fd35ed4c2","categoryId":"50327c8591d4c4b30a586d5d","category":"Brewery","checkinsCount":75,"usersCount":106,"tipCount":1,"visitsCount":170,"url":"http://www.escutcheonbrewing.com","tier":"","message":"","currency":"","rating":7.8},{"name":"50/50 Taphouse","address":"29 W Cork St","lat":39.18215659935755,"lng":-78.16737055778503,"city_fetched":"Winchester,US","state":"VA","country":"United States","canonicalUrl":"https://foursquare.com/v/5050-taphouse/5488e277498e812f84119d16","categoryId":"4bf58dd8d48988d117941735","category":"Beer Garden","checkinsCount":389,"usersCount":264,"tipCount":8,"visitsCount":566,"url":"http://www.5050taphouse.com","tier":2,"message":"Moderate","currency":"$","rating":7.6},{"name":"The Greene Turtle","phone":"5405084164","address":"185 Kernstown Commons Blvd","lat":39.11868629753785,"lng":-78.19426740945062,"city_fetched":"Winchester,US","state":"VA","country":"United States","canonicalUrl":"https://foursquare.com/v/the-greene-turtle/5678c847498e5a075c537509","categoryId":"4bf58dd8d48988d11d941735","category":"Sports Bar","checkinsCount":57,"usersCount":33,"tipCount":2,"visitsCount":58,"tier":"","message":"","currency":"","rating":7.4},{"name":"Ali Baba Hookah Bar","phone":"5403237049","address":"932 Berryville Ave","lat":39.186156,"lng":-78.14427,"city_fetched":"Winchester,US","state":"VA","country":"United States","canonicalUrl":"https://foursquare.com/v/ali-baba-hookah-bar/4e279543d4c0e361d9d62e20","categoryId":"4bf58dd8d48988d119941735","category":"Hookah Bar","checkinsCount":72,"usersCount":48,"tipCount":3,"visitsCount":72,"url":"http://www.alibabahookahbarva.com","tier":"","message":"","currency":"","rating":6.9},{"name":"Sweet Caroline's","phone":"5407238805","address":"29 W Cork St","lat":39.182139966628135,"lng":-78.16747784614563,"city_fetched":"Winchester,US","state":"VA","country":"United States","canonicalUrl":"https://foursquare.com/v/sweet-carolines/4bb6a0fa46d4a5930895c6c0","categoryId":"4bf58dd8d48988d116941735","category":"Bar","checkinsCount":562,"usersCount":289,"tipCount":3,"visitsCount":579,"url":"http://www.sweetcarolines.net","tier":"","message":"","currency":"","rating":6.4}]