[{"name":"Juggheads Growlers & Pints","address":"4843 Country Club Rd","lat":36.08211066591787,"lng":-80.34102090472616,"neighborhood":"South Fork","city_fetched":"Winston-Salem,US","state":"NC","country":"United States","canonicalUrl":"https://foursquare.com/v/juggheads-growlers--pints/5557c43d498ea0e925b1fd84","categoryId":"4bf58dd8d48988d116941735","category":"Bar","checkinsCount":369,"usersCount":159,"tipCount":6,"visitsCount":629,"url":"http://juggheadsgrowlers.com","tier":"","message":"","currency":"","rating":9.1},{"name":"Foothills Brewing","phone":"3367773348","twitter":"foothillsbeer","address":"638 W 4th St","lat":36.097526257170806,"lng":-80.25093734264374,"city_fetched":"Winston-Salem,US","state":"NC","country":"United States","canonicalUrl":"https://foursquare.com/v/foothills-brewing/4b2fc6c0f964a520b4ef24e3","categoryId":"50327c8591d4c4b30a586d5d","category":"Brewery","checkinsCount":9810,"usersCount":5255,"tipCount":115,"visitsCount":11857,"url":"http://www.foothillsbrewing.com","tier":2,"message":"Moderate","currency":"$","rating":9.1},{"name":"Finnigan's Wake","phone":"3367230322","address":"620 N Trade St","lat":36.10196670448711,"lng":-80.24658090515874,"city_fetched":"Winston-Salem,US","state":"NC","country":"United States","canonicalUrl":"https://foursquare.com/v/finnigans-wake/4b240561f964a520405f24e3","categoryId":"4bf58dd8d48988d116941735","category":"Bar","checkinsCount":8422,"usersCount":2913,"tipCount":60,"visitsCount":9463,"url":"http://www.f-wpub.net","tier":2,"message":"Moderate","currency":"$","rating":8.7},{"name":"Tate's","phone":"3362458388","address":"279 W. 4th Street","lat":36.098250893139145,"lng":-80.24682593031487,"city_fetched":"Winston-Salem,US","state":"NC","country":"United States","canonicalUrl":"https://foursquare.com/v/tates/4bef0a47d1b7d13af83ccdec","categoryId":"4bf58dd8d48988d116941735","category":"Bar","checkinsCount":3682,"usersCount":1489,"tipCount":49,"visitsCount":3777,"url":"http://tatesbar.com","tier":"","message":"","currency":"","rating":8.7},{"name":"6th and Vine","phone":"3367255577","address":"209 W 6th St","lat":36.1013867,"lng":-80.24670033333334,"city_fetched":"Winston-Salem,US","state":"NC","country":"United States","canonicalUrl":"https://foursquare.com/v/6th-and-vine/4b58fd98f964a520327728e3","categoryId":"4bf58dd8d48988d123941735","category":"Wine Bar","checkinsCount":3181,"usersCount":1610,"tipCount":42,"visitsCount":3427,"url":"http://www.6thandvine.com","tier":2,"message":"Moderate","currency":"$","rating":8.5},{"name":"First Street Draught House","phone":"3367226950","twitter":"1stdraughthouse","address":"1500 W 1st St","lat":36.09229945029255,"lng":-80.26560364135263,"city_fetched":"Winston-Salem,US","state":"NC","country":"United States","canonicalUrl":"https://foursquare.com/v/first-street-draught-house/4b648b11f964a52046bc2ae3","categoryId":"4bf58dd8d48988d116941735","category":"Bar","checkinsCount":3145,"usersCount":1072,"tipCount":35,"visitsCount":3908,"url":"http://firststreetdraughthouse.com","tier":2,"message":"Moderate","currency":"$","rating":8.3},{"name":"Putter's Patio and Grill","phone":"3367249990","address":"3005 Bonhurst Dr","lat":36.128906334146826,"lng":-80.26254057884216,"city_fetched":"Winston-Salem,US","state":"NC","country":"United States","canonicalUrl":"https://foursquare.com/v/putters-patio-and-grill/4b85b068f964a520ff6c31e3","categoryId":"4bf58dd8d48988d11d941735","category":"Sports Bar","checkinsCount":1396,"usersCount":681,"tipCount":17,"visitsCount":1532,"tier":2,"message":"Moderate","currency":"$","rating":8.2},{"name":"Old Winston Social Club","phone":"3367230060","address":"1131 Burke St","lat":36.094075616666665,"lng":-80.25909,"neighborhood":"Westend","city_fetched":"Winston-Salem,US","state":"NC","country":"United States","canonicalUrl":"https://foursquare.com/v/old-winston-social-club/4bef4e6bf2712d7fc9a0fbd8","categoryId":"4bf58dd8d48988d116941735","category":"Bar","checkinsCount":2099,"usersCount":808,"tipCount":7,"visitsCount":2392,"url":"http://oldwinstonsocialclub.com","tier":2,"message":"Moderate","currency":"$","rating":8.2},{"name":"Corks, Caps & Taps","address":"626 W 4th St","lat":36.09771,"lng":-80.250516,"city_fetched":"Winston-Salem,US","state":"NC","country":"United States","canonicalUrl":"https://foursquare.com/v/corks-caps--taps/537e8021498ec90f58a8470a","categoryId":"4bf58dd8d48988d123941735","category":"Wine Bar","checkinsCount":154,"usersCount":89,"tipCount":3,"visitsCount":161,"url":"http://corkscapstaps.com","tier":"","message":"","currency":"","rating":8.2},{"name":"Hoots Roller Bar","address":"840 NW Manley Street","lat":36.10386792032099,"lng":-80.25911439533621,"neighborhood":"Westend","city_fetched":"Winston-Salem,US","state":"NC","country":"United States","canonicalUrl":"https://foursquare.com/v/hoots-roller-bar/520e4a7d11d2ea2cbf5fcee7","categoryId":"4bf58dd8d48988d116941735","category":"Bar","checkinsCount":404,"usersCount":256,"tipCount":8,"visitsCount":450,"tier":"","message":"","currency":"","rating":8},{"name":"Carlisle's Pub","phone":"3367235550","address":"1314 S Hawthorne Rd","lat":36.07817216209019,"lng":-80.28468741752094,"neighborhood":"Ardmore","city_fetched":"Winston-Salem,US","state":"NC","country":"United States","canonicalUrl":"https://foursquare.com/v/carlisles-pub/4b782f2ff964a52090ba2ee3","categoryId":"4bf58dd8d48988d116941735","category":"Bar","checkinsCount":1516,"usersCount":255,"tipCount":10,"visitsCount":1569,"url":"http://carlislespub.amlnk.com","tier":"","message":"","currency":"","rating":8},{"name":"Small Batch Beer Co","twitter":"smallbatchws","address":"241 W 5th St","lat":36.09986253516536,"lng":-80.24708032608031,"city_fetched":"Winston-Salem,US","state":"NC","country":"United States","canonicalUrl":"https://foursquare.com/v/small-batch-beer-co/517be869e4b03ec76649c153","categoryId":"50327c8591d4c4b30a586d5d","category":"Brewery","checkinsCount":1157,"usersCount":656,"tipCount":15,"visitsCount":1486,"url":"http://smallbatchws.com","tier":2,"message":"Moderate","currency":"$","rating":7.9},{"name":"Second & Green Tavern","address":"207 N Green St","lat":36.095580028219736,"lng":-80.25394678115845,"neighborhood":"Westend","city_fetched":"Winston-Salem,US","state":"NC","country":"United States","canonicalUrl":"https://foursquare.com/v/second--green-tavern/4ff4f99ee4b00ee3e523450f","categoryId":"4bf58dd8d48988d116941735","category":"Bar","checkinsCount":252,"usersCount":92,"tipCount":5,"visitsCount":348,"tier":"","message":"","currency":"","rating":7.9},{"name":"Foothills Brewing Company","address":"3800 Kimwell Dr","lat":36.045851108336116,"lng":-80.32280940435727,"city_fetched":"Winston-Salem,US","state":"NC","country":"United States","canonicalUrl":"https://foursquare.com/v/foothills-brewing-company/4fc105b1e4b06f6d2308c425","categoryId":"50327c8591d4c4b30a586d5d","category":"Brewery","checkinsCount":290,"usersCount":272,"tipCount":2,"visitsCount":634,"url":"http://foothillsbrewing.com","tier":"","message":"","currency":"","rating":7.9},{"name":"The Treasure Club","phone":"3366640965","twitter":"treasureclubnc2","address":"7806 Boeing Dr","lat":36.06702804345865,"lng":-79.92251948982779,"city_fetched":"Winston-Salem,US","state":"NC","country":"United States","canonicalUrl":"https://foursquare.com/v/the-treasure-club/4f127a31e4b0380203ccc0d2","categoryId":"4bf58dd8d48988d1d6941735","category":"Strip Club","checkinsCount":103,"usersCount":46,"tipCount":3,"visitsCount":103,"url":"http://www.thetreasureclubs.com","tier":"","message":"","currency":"","rating":7.8},{"name":"Carolina's Vineyards & Hops","phone":"3364481284","address":"1111 S Marshall St","lat":36.08176509493804,"lng":-80.24161490956236,"neighborhood":"South Marshall","city_fetched":"Winston-Salem,US","state":"NC","country":"United States","canonicalUrl":"https://foursquare.com/v/carolinas-vineyards--hops/509d7e65498ec5d3bee16a57","categoryId":"4bf58dd8d48988d117941735","category":"Beer Garden","checkinsCount":179,"usersCount":167,"tipCount":1,"visitsCount":247,"tier":"","message":"","currency":"","rating":7.8},{"name":"Recreation Billiards","phone":"3367256006","address":"412 W 4th St","lat":36.097983755071766,"lng":-80.24845396838538,"city_fetched":"Winston-Salem,US","state":"NC","country":"United States","canonicalUrl":"https://foursquare.com/v/recreation-billiards/4b3990fef964a520c35d25e3","categoryId":"4bf58dd8d48988d116941735","category":"Bar","checkinsCount":3385,"usersCount":1062,"tipCount":16,"visitsCount":3451,"url":"http://recreationbilliards.com","tier":2,"message":"Moderate","currency":"$","rating":7.8},{"name":"Swaim's","address":"232 W Acadia Ave","lat":36.07105392328907,"lng":-80.24431575021937,"neighborhood":"Washington Park","city_fetched":"Winston-Salem,US","state":"NC","country":"United States","canonicalUrl":"https://foursquare.com/v/swaims/4c01e60d27dcc928e95be152","categoryId":"4bf58dd8d48988d11b941735","category":"Pub","checkinsCount":391,"usersCount":104,"tipCount":5,"visitsCount":405,"url":"http://washingtonperk.com/swaims/","tier":"","message":"","currency":"","rating":7.7},{"name":"The Claddagh Irish Pub","phone":"3368410521","twitter":"claddagh_hp","address":"130 E Parris Ave","lat":35.98452096994865,"lng":-80.02224093828822,"city_fetched":"Winston-Salem,US","state":"NC","country":"United States","canonicalUrl":"https://foursquare.com/v/the-claddagh-irish-pub/4bad454ef964a52053403be3","categoryId":"4bf58dd8d48988d11b941735","category":"Pub","checkinsCount":2154,"usersCount":561,"tipCount":19,"visitsCount":2341,"url":"http://www.thecladdaghrestaurant.net","tier":2,"message":"Moderate","currency":"$","rating":7.7},{"name":"Quiet Pint Tavern","address":"1420 W 1st St","lat":36.09250494649067,"lng":-80.26436244817019,"neighborhood":"Westend","city_fetched":"Winston-Salem,US","state":"NC","country":"United States","canonicalUrl":"https://foursquare.com/v/quiet-pint-tavern/528bdccd11d2168eed040722","categoryId":"4bf58dd8d48988d116941735","category":"Bar","checkinsCount":729,"usersCount":458,"tipCount":18,"visitsCount":1176,"tier":1,"message":"Cheap","currency":"$","rating":7.6},{"name":"Single Brothers","phone":"3366022657","address":"627 N Trade St","lat":36.10222041506304,"lng":-80.24624347686768,"city_fetched":"Winston-Salem,US","state":"NC","country":"United States","canonicalUrl":"https://foursquare.com/v/single-brothers/4b243b67f964a520476424e3","categoryId":"4bf58dd8d48988d11e941735","category":"Cocktail Bar","checkinsCount":2107,"usersCount":791,"tipCount":26,"visitsCount":2158,"url":"http://singlebrothersbar.com","tier":"","message":"","currency":"","rating":7.6},{"name":"Bender's Tavern","phone":"3362920080","address":"4517 W Market St","lat":36.069772839546204,"lng":-79.85907745,"city_fetched":"Winston-Salem,US","state":"NC","country":"United States","canonicalUrl":"https://foursquare.com/v/benders-tavern/4be88ae4d837c9b66f75a506","categoryId":"4bf58dd8d48988d11d941735","category":"Sports Bar","checkinsCount":1041,"usersCount":508,"tipCount":13,"visitsCount":1245,"tier":"","message":"","currency":"","rating":7.6},{"name":"Shooters Sports Bar & Billards","phone":"3368521448","address":"3808 W Gate City Blvd","lat":36.038491089029,"lng":-79.85632358799283,"city_fetched":"Winston-Salem,US","state":"NC","country":"United States","canonicalUrl":"https://foursquare.com/v/shooters-sports-bar--billards/4be88ef3c5220f4769e6a9ca","categoryId":"4bf58dd8d48988d11d941735","category":"Sports Bar","checkinsCount":3283,"usersCount":297,"tipCount":12,"visitsCount":3591,"tier":"","message":"","currency":"","rating":7.6},{"name":"Burke Street Pub","phone":"3367500097","twitter":"brewskisonburke","address":"1110 Burke St","lat":36.094298668856545,"lng":-80.25899462270263,"neighborhood":"Westend","city_fetched":"Winston-Salem,US","state":"NC","country":"United States","canonicalUrl":"https://foursquare.com/v/burke-street-pub/4b6f6851f964a52049ef2ce3","categoryId":"4bf58dd8d48988d116941735","category":"Bar","checkinsCount":3655,"usersCount":669,"tipCount":20,"visitsCount":3730,"url":"http://burkestreetpub.com","tier":"","message":"","currency":"","rating":7.5},{"name":"The Tap","phone":"3367731544","address":"473 West End Blvd","lat":36.10155,"lng":-80.26104951666667,"neighborhood":"Westend","city_fetched":"Winston-Salem,US","state":"NC","country":"United States","canonicalUrl":"https://foursquare.com/v/the-tap/4bb6b1191344b713def59d04","categoryId":"4bf58dd8d48988d116941735","category":"Bar","checkinsCount":1050,"usersCount":379,"tipCount":8,"visitsCount":1214,"tier":"","message":"","currency":"","rating":7.5},{"name":"Bull's Tavern","address":"410 Fourth Street","lat":36.098101642958596,"lng":-80.24821439283666,"city_fetched":"Winston-Salem,US","state":"NC","country":"United States","canonicalUrl":"https://foursquare.com/v/bulls-tavern/509450d3e4b08ccc273cf7c9","categoryId":"4bf58dd8d48988d116941735","category":"Bar","checkinsCount":1179,"usersCount":484,"tipCount":10,"visitsCount":1199,"tier":"","message":"","currency":"","rating":7.5},{"name":"The Box Seat Sports Restaurant","phone":"3362970073","address":"5006 High Point Rd","lat":36.02552446,"lng":-79.876899,"city_fetched":"Winston-Salem,US","state":"NC","country":"United States","canonicalUrl":"https://foursquare.com/v/the-box-seat-sports-restaurant/4c535aa530f92d7f8edba0b8","categoryId":"4bf58dd8d48988d11d941735","category":"Sports Bar","checkinsCount":877,"usersCount":408,"tipCount":14,"visitsCount":1060,"tier":1,"message":"Cheap","currency":"$","rating":7.4},{"name":"West End Opera House","phone":"3367210083","address":"853 Reynolda Rd","lat":36.10221608078991,"lng":-80.26216506958008,"neighborhood":"Westend","city_fetched":"Winston-Salem,US","state":"NC","country":"United States","canonicalUrl":"https://foursquare.com/v/west-end-opera-house/4b528680f964a520058127e3","categoryId":"4bf58dd8d48988d116941735","category":"Bar","checkinsCount":1245,"usersCount":507,"tipCount":9,"visitsCount":1441,"tier":"","message":"","currency":"","rating":7.3},{"name":"Silver Moon Saloon","phone":"3367226661","address":"632 N Trade St","lat":36.10248047101323,"lng":-80.24654388427734,"city_fetched":"Winston-Salem,US","state":"NC","country":"United States","canonicalUrl":"https://foursquare.com/v/silver-moon-saloon/4b63cb8ff964a520f1912ae3","categoryId":"4bf58dd8d48988d118941735","category":"Dive Bar","checkinsCount":1337,"usersCount":406,"tipCount":14,"visitsCount":1377,"tier":"","message":"","currency":"","rating":7.3},{"name":"George's Pizza Bar & Grill","address":"2505 N Main St","lat":35.989799754669235,"lng":-80.02778737485168,"city_fetched":"Winston-Salem,US","state":"NC","country":"United States","canonicalUrl":"https://foursquare.com/v/georges-pizza-bar--grill/4c896b096418a1432200d7ce","categoryId":"4bf58dd8d48988d11d941735","category":"Sports Bar","checkinsCount":443,"usersCount":152,"tipCount":6,"visitsCount":487,"tier":"","message":"","currency":"","rating":7.1},{"name":"Downtown Brody's","lat":36.09816481057065,"lng":-80.24639032954822,"city_fetched":"Winston-Salem,US","state":"NC","country":"United States","canonicalUrl":"https://foursquare.com/v/downtown-brodys/4ff3ba17e4b021ccc62cbaa4","categoryId":"4bf58dd8d48988d116941735","category":"Bar","checkinsCount":741,"usersCount":159,"tipCount":8,"visitsCount":748,"tier":"","message":"","currency":"","rating":7},{"name":"Johnny & June's","address":"2105 Peters Creek Pkwy","lat":36.069847091421636,"lng":-80.2556191425355,"city_fetched":"Winston-Salem,US","state":"NC","country":"United States","canonicalUrl":"https://foursquare.com/v/johnny--junes/4bcabad6fb84c9b648c01d3e","categoryId":"4bf58dd8d48988d116941735","category":"Bar","checkinsCount":1960,"usersCount":867,"tipCount":11,"visitsCount":2043,"url":"http://johnnynjunes.com","tier":"","message":"","currency":"","rating":7},{"name":"Gatsby's Pub","address":"1157 Burke street","lat":36.09374,"lng":-80.259581,"neighborhood":"Westend","city_fetched":"Winston-Salem,US","state":"NC","country":"United States","canonicalUrl":"https://foursquare.com/v/gatsbys-pub/4bc282b0f8219c74bf08b510","categoryId":"4bf58dd8d48988d116941735","category":"Bar","checkinsCount":1213,"usersCount":183,"tipCount":6,"visitsCount":1233,"tier":"","message":"","currency":"","rating":6.8},{"name":"Wingz & Spiritz","phone":"3364169113","address":"271 W. 4th Street","lat":36.098160541106076,"lng":-80.24675514534242,"city_fetched":"Winston-Salem,US","state":"NC","country":"United States","canonicalUrl":"https://foursquare.com/v/wingz--spiritz/51ef29e6498e4581e06075c8","categoryId":"4bf58dd8d48988d11d941735","category":"Sports Bar","checkinsCount":116,"usersCount":40,"tipCount":5,"visitsCount":116,"tier":"","message":"","currency":"","rating":6.7},{"name":"JP Looney's Sports Bar and Grill","phone":"3366431570","address":"2213 Oak Ridge Rd","lat":36.1740992561034,"lng":-79.98993245548424,"city_fetched":"Winston-Salem,US","state":"NC","country":"United States","canonicalUrl":"https://foursquare.com/v/jp-looneys-sports-bar-and-grill/4c1a458f55e4c9b6bc704723","categoryId":"4bf58dd8d48988d11d941735","category":"Sports Bar","checkinsCount":984,"usersCount":470,"tipCount":9,"visitsCount":1114,"url":"http://jplooneys.com","tier":"","message":"","currency":"","rating":6.5},{"name":"Chemistry Nightclub","phone":"3366178571","address":"2901 Spring Garden St","lat":36.063042,"lng":-79.840488,"neighborhood":"Lindley Park","city_fetched":"Winston-Salem,US","state":"NC","country":"United States","canonicalUrl":"https://foursquare.com/v/chemistry-nightclub/50a7157fe4b0445d65d68e66","categoryId":"4bf58dd8d48988d1d8941735","category":"Gay Bar","checkinsCount":359,"usersCount":220,"tipCount":3,"visitsCount":607,"url":"http://greensboro.chemistrynightclub.com","tier":"","message":"","currency":"","rating":6.3},{"name":"DT Winston","lat":36.095552164700784,"lng":-80.23405645537788,"city_fetched":"Winston-Salem,US","state":"NC","country":"United States","canonicalUrl":"https://foursquare.com/v/dt-winston/4dce228952b1f8915b8f837b","categoryId":"4bf58dd8d48988d116941735","category":"Bar","checkinsCount":552,"usersCount":145,"tipCount":0,"visitsCount":592,"tier":"","message":"","currency":"","rating":5.8},{"name":"JP Looney's Sports Bar And Grill","phone":"3369921671","twitter":"jplooneys","address":"1022 S Main St Ste J","lat":36.108859,"lng":-80.098168,"city_fetched":"Winston-Salem,US","state":"NC","country":"United States","canonicalUrl":"https://foursquare.com/v/jp-looneys-sports-bar-and-grill/4fa2813be4b08c046b11510d","categoryId":"4bf58dd8d48988d11d941735","category":"Sports Bar","checkinsCount":618,"usersCount":312,"tipCount":15,"visitsCount":619,"url":"http://www.jplooneys.com","tier":"","message":"","currency":"","rating":5.6}]