[{"name":"Jennings & Co.","phone":"7154245200","address":"210 1st St N","lat":44.392365573621014,"lng":-89.82372971100432,"city_fetched":"Wisconsin Rapids","state":"WI","country":"United States","canonicalUrl":"https://foursquare.com/v/jennings--co/4c77b5dd3114b7138cbeca2f","category":"Bar","checkinsCount":777,"usersCount":324,"tipCount":10,"visitsCount":1008,"tier":"","message":"","currency":"","rating":8.6},{"name":"Ida's Bar And Grill","phone":"7154212063","address":"1981 Lincoln St","lat":44.37695235,"lng":-89.821937,"city_fetched":"Wisconsin Rapids","state":"WI","country":"United States","canonicalUrl":"https://foursquare.com/v/idas-bar-and-grill/4d698072c16554813bc7ec81","category":"Bar","checkinsCount":441,"usersCount":236,"tipCount":8,"visitsCount":568,"tier":"","message":"","currency":"","rating":8.1},{"name":"Hollyrocks","phone":"7154232619","address":"114 2nd St N","lat":44.391531013484034,"lng":-89.82399044984375,"city_fetched":"Wisconsin Rapids","state":"WI","country":"United States","canonicalUrl":"https://foursquare.com/v/hollyrocks/4bd7b245f645c9b6ad9ba6e0","category":"Bar","checkinsCount":1849,"usersCount":256,"tipCount":4,"visitsCount":1918,"url":"http://www.hollyrocksbar.com/Home_Page.php","tier":"","message":"","currency":"","rating":7.4},{"name":"Applebee's","phone":"7154213290","twitter":"applebees","address":"4311 8th St S","lat":44.35576208,"lng":-89.81638498,"city_fetched":"Wisconsin Rapids","state":"WI","country":"United States","canonicalUrl":"https://foursquare.com/v/applebees/4d8f7d671d06b1f7ac63603b","category":"American Restaurant","checkinsCount":976,"usersCount":417,"tipCount":3,"visitsCount":1181,"url":"http://restaurants.applebees.com/wi/wisconsin-rapids/4311-8th-st-s.html","tier":2,"message":"Moderate","currency":"$","rating":7.4},{"name":"Jammer's Bar & Grill","phone":"00000000000","address":"2810 Eagle Rd","lat":44.412678737030134,"lng":-89.77415289598761,"city_fetched":"Wisconsin Rapids","state":"WI","country":"United States","canonicalUrl":"https://foursquare.com/v/jammers-bar--grill/4dde3d2efa769803ef8c6408","category":"Bar","checkinsCount":393,"usersCount":104,"tipCount":4,"visitsCount":456,"tier":"","message":"","currency":"","rating":6.6}]