[{"name":"JAFB Wooster Brewery","phone":"3306011827","address":"120 Beall Ave","lat":40.799533814513616,"lng":-81.93460661799331,"city_fetched":"Wooster","state":"OH","country":"United States","canonicalUrl":"https://foursquare.com/v/jafb-wooster-brewery/501582cae4b0e28d99cf8cf2","category":"Brewery","checkinsCount":883,"usersCount":540,"tipCount":27,"visitsCount":1299,"url":"http://jafbwooster.com","tier":2,"message":"Moderate","currency":"$","rating":8.6},{"name":"The Olde Jaol Tavern","phone":"3302623333","address":"215 N Walnut St","lat":40.79969855,"lng":-81.94171625,"city_fetched":"Wooster","state":"OH","country":"United States","canonicalUrl":"https://foursquare.com/v/the-olde-jaol-tavern/4b36f41bf964a520913e25e3","category":"Bar","checkinsCount":785,"usersCount":543,"tipCount":18,"visitsCount":1023,"url":"http://www.theoldejaol.com","tier":"","message":"","currency":"","rating":8.2},{"name":"SoMar Wine Cellars","phone":"3302027733","address":"213 S Market St","lat":40.79657169589803,"lng":-81.93969014548617,"city_fetched":"Wooster","state":"OH","country":"United States","canonicalUrl":"https://foursquare.com/v/somar-wine-cellars/4c424017d7fad13ae3e208da","category":"Wine Bar","checkinsCount":472,"usersCount":78,"tipCount":6,"visitsCount":473,"url":"http://www.somarwinecellars.com","tier":"","message":"","currency":"","rating":8},{"name":"The Market Grill","phone":"3306010782","address":"234 S Market St","lat":40.796298610167185,"lng":-81.93929583849881,"city_fetched":"Wooster","state":"OH","country":"United States","canonicalUrl":"https://foursquare.com/v/the-market-grill/4c142fa482a3c9b66ae8fcf8","category":"Bar","checkinsCount":395,"usersCount":166,"tipCount":6,"visitsCount":478,"tier":"","message":"","currency":"","rating":7.9},{"name":"Ugly Duck","address":"3331 E Lincoln Way","lat":40.79546265,"lng":-81.90023,"city_fetched":"Wooster","state":"OH","country":"United States","canonicalUrl":"https://foursquare.com/v/ugly-duck/4cf9d0000df3236acf43f0a9","category":"Bar","checkinsCount":150,"usersCount":73,"tipCount":2,"visitsCount":154,"tier":"","message":"","currency":"","rating":7.7},{"name":"First Amendment","phone":"3306010700","address":"150 W Liberty St","lat":40.79795745369809,"lng":-81.94150179866382,"city_fetched":"Wooster","state":"OH","country":"United States","canonicalUrl":"https://foursquare.com/v/first-amendment/50d35344e4b01ff9429f41b1","category":"American Restaurant","checkinsCount":311,"usersCount":165,"tipCount":13,"visitsCount":381,"url":"http://1apublichouse.com","tier":2,"message":"Moderate","currency":"$","rating":7.5},{"name":"Wooster Inn Pub","phone":"3302632660","address":"801 E Wayne Ave","lat":40.81342369536497,"lng":-81.92873400731872,"city_fetched":"Wooster","state":"OH","country":"United States","canonicalUrl":"https://foursquare.com/v/wooster-inn-pub/4b0d41a6f964a520434523e3","category":"Hotel Bar","checkinsCount":227,"usersCount":114,"tipCount":4,"visitsCount":231,"url":"http://thewoosterinn.com","tier":"","message":"","currency":"","rating":7.3},{"name":"Leroy's Place","phone":"3302649913","address":"400 Palmer St","lat":40.8017528,"lng":-81.92514,"city_fetched":"Wooster","state":"OH","country":"United States","canonicalUrl":"https://foursquare.com/v/leroys-place/4b36d50df964a520263d25e3","category":"Sports Bar","checkinsCount":539,"usersCount":199,"tipCount":5,"visitsCount":687,"tier":"","message":"","currency":"","rating":7},{"name":"Tumbleweed Tex Mex Grill","phone":"3303451550","twitter":"twtexmex","address":"4147 Burbank Rd","lat":40.85028221666666,"lng":-81.94623827934265,"city_fetched":"Wooster","state":"OH","country":"United States","canonicalUrl":"https://foursquare.com/v/tumbleweed-tex-mex-grill/4b9a7e7bf964a5207aba35e3","category":"Restaurant","checkinsCount":852,"usersCount":368,"tipCount":15,"visitsCount":919,"url":"http://tumbleweedrestaurants.com","tier":2,"message":"Moderate","currency":"$","rating":7}]