[{"name":"Armsby Abbey","phone":"5087951012","twitter":"armsbyabbey","address":"144 Main St","lat":42.268756,"lng":-71.800365,"neighborhood":"Central Business District","city_fetched":"Worcester","state":"MA","country":"United States","canonicalUrl":"https://foursquare.com/v/armsby-abbey/49c931f4f964a5203e581fe3","category":"New American Restaurant","checkinsCount":6088,"usersCount":3303,"tipCount":88,"visitsCount":7736,"url":"http://armsbyabbey.com","tier":2,"message":"Moderate","currency":"$","rating":9.3},{"name":"The Boynton Restaurant & Spirits","phone":"5087568458","twitter":"manta","address":"117 Highland St","lat":42.27081,"lng":-71.80727,"city_fetched":"Worcester","state":"MA","country":"United States","canonicalUrl":"https://foursquare.com/v/the-boynton-restaurant--spirits/4bd0f1ab9854d13ab8d9f84d","category":"Bar","checkinsCount":6198,"usersCount":2813,"tipCount":79,"visitsCount":7047,"url":"http://boyntonrestaurant.com","tier":2,"message":"Moderate","currency":"$","rating":9},{"name":"Bocado Tapas Wine Bar","phone":"5087971011","twitter":"nichedining","address":"82 Winter St","lat":42.258869,"lng":-71.79422,"neighborhood":"Green Island","city_fetched":"Worcester","state":"MA","country":"United States","canonicalUrl":"https://foursquare.com/v/bocado-tapas-wine-bar/4b2ec007f964a52027e624e3","category":"Tapas Restaurant","checkinsCount":1864,"usersCount":1392,"tipCount":40,"visitsCount":2400,"url":"http://www.bocadotapasbar.com","tier":3,"message":"Expensive","currency":"$","rating":9},{"name":"Vincent's Bar","phone":"5087529439","address":"49 Suffolk St","lat":42.25837041341894,"lng":-71.7870579470684,"city_fetched":"Worcester","state":"MA","country":"United States","canonicalUrl":"https://foursquare.com/v/vincents-bar/4a7332a5f964a520cddb1fe3","category":"Bar","checkinsCount":1705,"usersCount":447,"tipCount":16,"visitsCount":1901,"tier":"","message":"","currency":"","rating":8.8},{"name":"Wormtown Brewing","address":"72 Shrewsbury St","lat":42.26340611927713,"lng":-71.79118742622798,"neighborhood":"Shrewsbury Street","city_fetched":"Worcester","state":"MA","country":"United States","canonicalUrl":"https://foursquare.com/v/wormtown-brewing/55087fc5498e1ad7cf06d6e4","category":"Brewery","checkinsCount":662,"usersCount":462,"tipCount":6,"visitsCount":925,"url":"http://wormtownbrewery.com","tier":"","message":"","currency":"","rating":8.7},{"name":"The Citizen Wine Bar","phone":"5084599090","twitter":"nichedining","address":"1 Exchange St","lat":42.26569045154397,"lng":-71.79941147582979,"neighborhood":"Central Business District","city_fetched":"Worcester","state":"MA","country":"United States","canonicalUrl":"https://foursquare.com/v/the-citizen-wine-bar/4b5afedbf964a520f2dd28e3","category":"Wine Bar","checkinsCount":1434,"usersCount":721,"tipCount":22,"visitsCount":1458,"url":"http://www.1nichexchange.com/citizen-wine-bar.php","tier":2,"message":"Moderate","currency":"$","rating":8.5},{"name":"The Dive Bar","phone":"5087525802","address":"34 Green St","lat":42.25937286253884,"lng":-71.79801571892,"neighborhood":"Central Business District","city_fetched":"Worcester","state":"MA","country":"United States","canonicalUrl":"https://foursquare.com/v/the-dive-bar/42951180f964a5204b241fe3","category":"Bar","checkinsCount":1821,"usersCount":813,"tipCount":24,"visitsCount":2107,"url":"http://thedivebarworcester.com","tier":"","message":"","currency":"","rating":8.5},{"name":"EVO Dining","phone":"5084594240","twitter":"evodining","address":"234 Chandler St.","lat":42.260991,"lng":-71.82033373333333,"city_fetched":"Worcester","state":"MA","country":"United States","canonicalUrl":"https://foursquare.com/evodining","category":"Restaurant","checkinsCount":923,"usersCount":653,"tipCount":15,"visitsCount":1130,"url":"http://www.evodining.com/menus.aspx","tier":2,"message":"Moderate","currency":"$","rating":8.4},{"name":"Beatnik's","phone":"5089268877","twitter":"beatniksbeyou","address":"433 Park Ave","lat":42.255889,"lng":-71.824075,"city_fetched":"Worcester","state":"MA","country":"United States","canonicalUrl":"https://foursquare.com/beatniksbeyou","category":"Lounge","checkinsCount":811,"usersCount":258,"tipCount":9,"visitsCount":848,"url":"http://www.beatniksbeyou.com","tier":"","message":"","currency":"","rating":8.3},{"name":"Sahara Restaurant","phone":"5087982181","twitter":"eatsahara","address":"143 Highland St","lat":42.27098720390003,"lng":-71.80843452068699,"city_fetched":"Worcester","state":"MA","country":"United States","canonicalUrl":"https://foursquare.com/eatsahara","category":"Middle Eastern Restaurant","checkinsCount":589,"usersCount":306,"tipCount":6,"visitsCount":668,"url":"http://www.eatsahara.com","tier":2,"message":"Moderate","currency":"$","rating":8.3},{"name":"Michael's Cigar Bar","address":"1 Exchange St","lat":42.2658769423806,"lng":-71.79943464186817,"neighborhood":"Central Business District","city_fetched":"Worcester","state":"MA","country":"United States","canonicalUrl":"https://foursquare.com/v/michaels-cigar-bar/5290157d498e38fe0d88ceca","category":"Bar","checkinsCount":174,"usersCount":97,"tipCount":3,"visitsCount":197,"url":"http://michaelscigar.com","tier":"","message":"","currency":"","rating":8.3},{"name":"Eller's Restaurant","phone":"5088923925","twitter":"ellersrest","address":"190 Main St","lat":42.24323306438953,"lng":-71.87183183656659,"city_fetched":"Worcester","state":"MA","country":"United States","canonicalUrl":"https://foursquare.com/v/ellers-restaurant/4b92ea44f964a520a92634e3","category":"American Restaurant","checkinsCount":814,"usersCount":354,"tipCount":5,"visitsCount":1056,"url":"http://www.ellersrestaurant.com","tier":2,"message":"Moderate","currency":"$","rating":8.2},{"name":"The Banner Bar & Grille","phone":"5087550879","address":"112 Green St","lat":42.2573979,"lng":-71.7980318,"neighborhood":"Green Island","city_fetched":"Worcester","state":"MA","country":"United States","canonicalUrl":"https://foursquare.com/v/the-banner-bar--grille/4bb7fbbd98c7ef3b94ae3002","category":"Pub","checkinsCount":1773,"usersCount":747,"tipCount":7,"visitsCount":1984,"url":"http://www.thebannerbar.com","tier":1,"message":"Cheap","currency":"$","rating":8.2},{"name":"Flying Rhino Cafe & Wateringhole","phone":"5087571450","twitter":"chefoharra","address":"278 Shrewsbury St","lat":42.268364655321115,"lng":-71.78118507595002,"neighborhood":"Shrewsbury Street","city_fetched":"Worcester","state":"MA","country":"United States","canonicalUrl":"https://foursquare.com/v/flying-rhino-cafe--wateringhole/4a7ca2baf964a52001ed1fe3","category":"American Restaurant","checkinsCount":1872,"usersCount":1273,"tipCount":32,"visitsCount":2348,"url":"http://www.flyingrhinocafe.com","tier":2,"message":"Moderate","currency":"$","rating":8.1},{"name":"Cigar Masters","phone":"5084599035","twitter":"cigarmasterswor","address":"130 Commercial St","lat":42.265839,"lng":-71.799275,"neighborhood":"Central Business District","city_fetched":"Worcester","state":"MA","country":"United States","canonicalUrl":"https://foursquare.com/v/cigar-masters/4ada781ff964a520d92221e3","category":"Lounge","checkinsCount":825,"usersCount":444,"tipCount":8,"visitsCount":834,"tier":"","message":"","currency":"","rating":8},{"name":"Cafe Neo","phone":"5084380074","address":"97 Millbury St","lat":42.25268,"lng":-71.799187,"neighborhood":"Green Island","city_fetched":"Worcester","state":"MA","country":"United States","canonicalUrl":"https://foursquare.com/v/cafe-neo/4b6c16e5f964a5204c232ce3","category":"Caf√©","checkinsCount":458,"usersCount":163,"tipCount":7,"visitsCount":520,"tier":"","message":"","currency":"","rating":8},{"name":"Sweet Kitchen & Bar","phone":"5083732248","twitter":"sweetworcester","address":"72 Shrewsbury St","lat":42.26317461390908,"lng":-71.79134380097162,"neighborhood":"Shrewsbury Street","city_fetched":"Worcester","state":"MA","country":"United States","canonicalUrl":"https://foursquare.com/v/sweet-kitchen--bar/4b75f45af964a520cf312ee3","category":"Dessert Shop","checkinsCount":1445,"usersCount":744,"tipCount":27,"visitsCount":1491,"url":"http://www.sweetworcester.com","tier":1,"message":"Cheap","currency":"$","rating":8},{"name":"Bennies Cafe Pub & Deli","phone":"5088533303","address":"13 E Mountain St","lat":42.32409771950056,"lng":-71.79256583800698,"neighborhood":"Greendale","city_fetched":"Worcester","state":"MA","country":"United States","canonicalUrl":"https://foursquare.com/v/bennies-cafe-pub--deli/4b6c186df964a5209b232ce3","category":"Bar","checkinsCount":478,"usersCount":73,"tipCount":7,"visitsCount":487,"tier":"","message":"","currency":"","rating":7.9},{"name":"Still & Stir","address":"57 Exchange St.","lat":42.265839,"lng":-71.799464,"neighborhood":"Central Business District","city_fetched":"Worcester","state":"MA","country":"United States","canonicalUrl":"https://foursquare.com/v/still--stir/4e0527f545ddb2875c3c06a0","category":"Speakeasy","checkinsCount":299,"usersCount":169,"tipCount":7,"visitsCount":299,"tier":"","message":"","currency":"","rating":7.8},{"name":"Nick's Bar & Restaurant","phone":"5087534030","address":"124 Millbury St","lat":42.25200849657279,"lng":-71.79977416992188,"neighborhood":"Green Island","city_fetched":"Worcester","state":"MA","country":"United States","canonicalUrl":"https://foursquare.com/v/nicks-bar--restaurant/4b75fb41f964a52009342ee3","category":"Speakeasy","checkinsCount":1348,"usersCount":557,"tipCount":8,"visitsCount":1578,"url":"http://www.nicksworcester.com","tier":2,"message":"Moderate","currency":"$","rating":7.7},{"name":"Greendale's Pub","phone":"5088531350","address":"404 W Boylston St","lat":42.30516141353339,"lng":-71.80043657142258,"neighborhood":"Greendale","city_fetched":"Worcester","state":"MA","country":"United States","canonicalUrl":"https://foursquare.com/v/greendales-pub/4b8d7bf1f964a5207ffe32e3","category":"Pub","checkinsCount":288,"usersCount":197,"tipCount":7,"visitsCount":542,"url":"http://greendalespub.com","tier":"","message":"","currency":"","rating":7.7},{"name":"Victory Bar & Cigar","phone":"5087564747","twitter":"worcesterscene","address":"56 Shrewsbury St","lat":42.263045,"lng":-71.791851,"neighborhood":"Central Business District","city_fetched":"Worcester","state":"MA","country":"United States","canonicalUrl":"https://foursquare.com/v/victory-bar--cigar/4b6313ccf964a5205c612ae3","category":"Bar","checkinsCount":364,"usersCount":199,"tipCount":5,"visitsCount":372,"url":"http://worcesterscene.com","tier":"","message":"","currency":"","rating":7.5},{"name":"Funky Murphy's","phone":"5087532995","address":"305 Shrewsbury St","lat":42.26875700600068,"lng":-71.77989928511165,"neighborhood":"Shrewsbury Street","city_fetched":"Worcester","state":"MA","country":"United States","canonicalUrl":"https://foursquare.com/v/funky-murphys/4a835846f964a520e1fa1fe3","category":"Bar","checkinsCount":2230,"usersCount":1255,"tipCount":14,"visitsCount":2790,"url":"http://funkyandjosemurphys.com","tier":1,"message":"Cheap","currency":"$","rating":7.5},{"name":"Stake's Sports Pub","phone":"5087552925","address":"1281 Pleasant St","lat":42.28034590175246,"lng":-71.86922045266223,"neighborhood":"West Tatnuck","city_fetched":"Worcester","state":"MA","country":"United States","canonicalUrl":"https://foursquare.com/v/stakes-sports-pub/4c2c1739d1a10f473c11f964","category":"Sports Bar","checkinsCount":172,"usersCount":56,"tipCount":4,"visitsCount":173,"url":"http://stakessportspub.com","tier":"","message":"","currency":"","rating":7.3},{"name":"Blackstone Tap","phone":"5087529360","address":"81 Water St","lat":42.25659370422363,"lng":-71.79570257663727,"neighborhood":"Green Island","city_fetched":"Worcester","state":"MA","country":"United States","canonicalUrl":"https://foursquare.com/v/blackstone-tap/4b6c189af964a520a9232ce3","category":"Bar","checkinsCount":934,"usersCount":559,"tipCount":4,"visitsCount":992,"url":"http://www.blackstonetap.com","tier":"","message":"","currency":"","rating":7.2},{"name":"Spiritual Haze","phone":"5087990629","address":"482 Park Ave","lat":42.253985,"lng":-71.82702443,"city_fetched":"Worcester","state":"MA","country":"United States","canonicalUrl":"https://foursquare.com/v/spiritual-haze/4c526ed42543a593b49e8385","category":"Hookah Bar","checkinsCount":535,"usersCount":250,"tipCount":8,"visitsCount":548,"url":"http://www.spiritualhaze.com","tier":"","message":"","currency":"","rating":7.2},{"name":"The Ranch","phone":"5084591127","twitter":"theranchworc","address":"70 James St","lat":42.23230859714409,"lng":-71.84986889947217,"neighborhood":"Hadwen Park","city_fetched":"Worcester","state":"MA","country":"United States","canonicalUrl":"https://foursquare.com/theranchworc","category":"Nightclub","checkinsCount":428,"usersCount":248,"tipCount":9,"visitsCount":613,"tier":2,"message":"Moderate","currency":"$","rating":7.1},{"name":"The Other Place Pub","phone":"5088696003","address":"71 Shrewsbury St","lat":42.33449073,"lng":-71.7387793,"city_fetched":"Worcester","state":"MA","country":"United States","canonicalUrl":"https://foursquare.com/v/the-other-place-pub/4bae83f4f964a520a8bb3be3","category":"Pub","checkinsCount":562,"usersCount":255,"tipCount":12,"visitsCount":876,"tier":"","message":"","currency":"","rating":7.1},{"name":"Blarney Stone","phone":"6174368223","address":"77 Maywood St.","lat":42.2525308,"lng":-71.827753,"neighborhood":"Webster Square","city_fetched":"Worcester","state":"MA","country":"United States","canonicalUrl":"https://foursquare.com/v/blarney-stone/4b0c4fa0f964a520f43a23e3","category":"Bar","checkinsCount":990,"usersCount":393,"tipCount":6,"visitsCount":1086,"tier":"","message":"","currency":"","rating":7.1},{"name":"Ceres Bistro","phone":"5087542000","twitter":"beechwoodhotel","address":"363 Plantation Street","lat":42.27481347641861,"lng":-71.76811262981644,"neighborhood":"Biotech Park Area","city_fetched":"Worcester","state":"MA","country":"United States","canonicalUrl":"https://foursquare.com/v/ceres-bistro/4c23f723f7ced13a191f226d","category":"Breakfast Spot","checkinsCount":953,"usersCount":586,"tipCount":21,"visitsCount":988,"url":"http://www.ceresbistro.com/#LN5q5V","tier":4,"message":"Very Expensive","currency":"$","rating":7.1},{"name":"Herbie's","phone":"5087575083","address":"1030 Southbridge St","lat":42.2316346,"lng":-71.8189472,"neighborhood":"College Hill","city_fetched":"Worcester","state":"MA","country":"United States","canonicalUrl":"https://foursquare.com/v/herbies/4b8076cff964a520c37430e3","category":"Dive Bar","checkinsCount":938,"usersCount":295,"tipCount":8,"visitsCount":1046,"tier":"","message":"","currency":"","rating":7},{"name":"Ninety Nine Restaurant","phone":"5083633999","twitter":"99restaurants","address":"50 SW Cutoff","lat":42.24033749140099,"lng":-71.74604415893555,"city_fetched":"Worcester","state":"MA","country":"United States","canonicalUrl":"https://foursquare.com/v/ninety-nine-restaurant/4b4a54d8f964a520238426e3","category":"American Restaurant","checkinsCount":1051,"usersCount":553,"tipCount":14,"visitsCount":1339,"url":"http://www.facebook.com/99restaurants","tier":2,"message":"Moderate","currency":"$","rating":7},{"name":"Tweeds Pub","phone":"5087558047","address":"231 Grove St","lat":42.28078165843917,"lng":-71.80559456348419,"city_fetched":"Worcester","state":"MA","country":"United States","canonicalUrl":"https://foursquare.com/v/tweeds-pub/4b5cce60f964a520fb4429e3","category":"Pub","checkinsCount":708,"usersCount":312,"tipCount":5,"visitsCount":800,"url":"http://www.tweedspub.com","tier":2,"message":"Moderate","currency":"$","rating":6.9}]