[{"name":"El Mirador","phone":"5094521202","address":"1601 E Yakima Ave","lat":46.60567574447999,"lng":-120.48330952927378,"city_fetched":"Yakima","state":"WA","country":"United States","canonicalUrl":"https://foursquare.com/v/el-mirador/4b78520df964a5201cc52ee3","category":"Mexican Restaurant","checkinsCount":324,"usersCount":287,"tipCount":4,"visitsCount":398,"url":"http://elmiradorwa.com","tier":1,"message":"Cheap","currency":"$","rating":8.5},{"name":"Sportscenter","address":"214 E Yakima Ave","lat":46.602540661823355,"lng":-120.50391251874163,"city_fetched":"Yakima","state":"WA","country":"United States","canonicalUrl":"https://foursquare.com/v/sportscenter/4c95aa9b58d4b60cefd03429","category":"Bar","checkinsCount":1294,"usersCount":447,"tipCount":16,"visitsCount":1330,"tier":2,"message":"Moderate","currency":"$","rating":8.1},{"name":"Gilbert Cellars","phone":"5092499049","address":"5 N Front St Ste 100","lat":46.602103220577135,"lng":-120.50838947296143,"city_fetched":"Yakima","state":"WA","country":"United States","canonicalUrl":"https://foursquare.com/v/gilbert-cellars/4b774ea1f964a520b9902ee3","category":"Wine Bar","checkinsCount":358,"usersCount":257,"tipCount":10,"visitsCount":384,"url":"http://gilbertcellars.com","tier":"","message":"","currency":"","rating":7.7},{"name":"Zesta Cucina","phone":"5099722000","twitter":"zestacucina","address":"5110 Tieton Dr","lat":46.59243822097778,"lng":-120.57797133922577,"city_fetched":"Yakima","state":"WA","country":"United States","canonicalUrl":"https://foursquare.com/v/zesta-cucina/4b8096aef964a520277f30e3","category":"Italian Restaurant","checkinsCount":556,"usersCount":279,"tipCount":12,"visitsCount":670,"url":"http://zestacucina.com","tier":3,"message":"Expensive","currency":"$","rating":7.7},{"name":"Bill's Place","phone":"5095759513","address":"206 S 3rd Ave","lat":46.597775,"lng":-120.511489,"city_fetched":"Yakima","state":"WA","country":"United States","canonicalUrl":"https://foursquare.com/v/bills-place/4c857ad547cc224bccb5a19f","category":"Pub","checkinsCount":849,"usersCount":156,"tipCount":7,"visitsCount":974,"url":"http://billsplacetav.com","tier":"","message":"","currency":"","rating":7.6},{"name":"G-Spot Bar","phone":"5092480628","address":"1013 N 1st St","lat":46.615448,"lng":-120.511629,"city_fetched":"Yakima","state":"WA","country":"United States","canonicalUrl":"https://foursquare.com/v/gspot-bar/4b9b1e43f964a520fff335e3","category":"Bar","checkinsCount":220,"usersCount":85,"tipCount":5,"visitsCount":224,"url":"http://www.gasperettisrestaurant.com","tier":"","message":"","currency":"","rating":7.5},{"name":"The Beer Shoppe","address":"302 W Yakima Ave Ste 107","lat":46.60050592820431,"lng":-120.51286501943385,"city_fetched":"Yakima","state":"WA","country":"United States","canonicalUrl":"https://foursquare.com/v/the-beer-shoppe/4f4034b7e4b0f9f81921afcf","category":"Pub","checkinsCount":991,"usersCount":129,"tipCount":7,"visitsCount":1051,"url":"http://thebeershoppe.net","tier":"","message":"","currency":"","rating":7.5},{"name":"Yakima Craft Brewing Company","phone":"5096547357","address":"2920 River Rd","lat":46.61754327511082,"lng":-120.54882592474765,"city_fetched":"Yakima","state":"WA","country":"United States","canonicalUrl":"https://foursquare.com/v/yakima-craft-brewing-company/4c85595fd8086dcb55399152","category":"Brewery","checkinsCount":279,"usersCount":159,"tipCount":7,"visitsCount":324,"url":"http://yakimacraftbrewing.com","tier":"","message":"","currency":"","rating":7.1},{"name":"Second Street Grill","phone":"5094691486","address":"28 N 2nd St","lat":46.60346215599793,"lng":-120.50539530839438,"city_fetched":"Yakima","state":"WA","country":"United States","canonicalUrl":"https://foursquare.com/v/second-street-grill/4c34d4dd452620a174ca250f","category":"American Restaurant","checkinsCount":1668,"usersCount":887,"tipCount":14,"visitsCount":1979,"url":"http://www.secondstreetgrill.com","tier":2,"message":"Moderate","currency":"$","rating":7},{"name":"Bert's Pub","phone":"5099724557","address":"5110 Tieton Dr","lat":46.59228,"lng":-120.578133,"city_fetched":"Yakima","state":"WA","country":"United States","canonicalUrl":"https://foursquare.com/v/berts-pub/4bb2d29c2397b713618b37b3","category":"Bar","checkinsCount":440,"usersCount":187,"tipCount":10,"visitsCount":448,"tier":"","message":"","currency":"","rating":6.6},{"name":"Xochimilco Mexican Restaurant","phone":"5094533096","address":"2404 W Nob Hill Blv.","lat":46.58522621135157,"lng":-120.54008621531189,"city_fetched":"Yakima","state":"WA","country":"United States","canonicalUrl":"https://foursquare.com/v/xochimilco-mexican-restaurant/4bd24a18a8b3a593aca9675f","category":"Mexican Restaurant","checkinsCount":107,"usersCount":91,"tipCount":4,"visitsCount":124,"tier":2,"message":"Moderate","currency":"$","rating":6.6},{"name":"Jackson's Sports Bar","phone":"5099664340","address":"432 S 48th Ave","lat":46.592996966246886,"lng":-120.57315592424294,"city_fetched":"Yakima","state":"WA","country":"United States","canonicalUrl":"https://foursquare.com/v/jacksons-sports-bar/4bb2d94635f0c9b65ed3bb83","category":"Sports Bar","checkinsCount":516,"usersCount":238,"tipCount":6,"visitsCount":602,"tier":"","message":"","currency":"","rating":6.4}]