[{"name":"Holy Hound Taproom","phone":"7178552410","twitter":"holyhoundtaps","address":"57 W Market St","lat":39.96205456210228,"lng":-76.7297488587051,"neighborhood":"Downtown York","city_fetched":"York,US","state":"PA","country":"United States","canonicalUrl":"https://foursquare.com/v/holy-hound-taproom/4fedfd8fe4b0091824c28f8a","categoryId":"4bf58dd8d48988d116941735","category":"Bar","checkinsCount":5000,"usersCount":1376,"tipCount":30,"visitsCount":5859,"url":"http://www.holyhoundtaproom.com","tier":2,"message":"Moderate","currency":"$","rating":9},{"name":"The Cove","phone":"7178439938","address":"1500 S George St","lat":39.935793570339335,"lng":-76.7145347667924,"city_fetched":"York,US","state":"PA","country":"United States","canonicalUrl":"https://foursquare.com/v/the-cove/4ee2f635b634710b89860dc3","categoryId":"4bf58dd8d48988d116941735","category":"Bar","checkinsCount":2127,"usersCount":941,"tipCount":24,"visitsCount":2800,"url":"http://www.limage.net","tier":2,"message":"Moderate","currency":"$","rating":8.9},{"name":"Victor's Italian Restaurant","phone":"7178547958","address":"554 S Ogontz St","lat":39.96061958849722,"lng":-76.69793189243346,"city_fetched":"York,US","state":"PA","country":"United States","canonicalUrl":"https://foursquare.com/v/victors-italian-restaurant/4b47d91df964a520694126e3","categoryId":"4bf58dd8d48988d116941735","category":"Bar","checkinsCount":986,"usersCount":508,"tipCount":16,"visitsCount":1413,"url":"http://www.victorsofyork.com","tier":"","message":"","currency":"","rating":8.5},{"name":"Liquid Hero Brewery","phone":"7178149250","address":"50 E North St","lat":39.96680103,"lng":-76.728684,"city_fetched":"York,US","state":"PA","country":"United States","canonicalUrl":"https://foursquare.com/v/liquid-hero-brewery/4dcdc6bb45ddbe15f878d874","categoryId":"50327c8591d4c4b30a586d5d","category":"Brewery","checkinsCount":1230,"usersCount":631,"tipCount":13,"visitsCount":1485,"url":"http://www.liquidhero.com","tier":"","message":"","currency":"","rating":8.4},{"name":"Mexitaly Brick Oven Brewhouse","phone":"7176008226","address":"2440 E Market St","lat":39.97368482032187,"lng":-76.67825931213348,"city_fetched":"York,US","state":"PA","country":"United States","canonicalUrl":"https://foursquare.com/v/mexitaly-brick-oven-brewhouse/52f16ebd498ee46c6e0b8460","categoryId":"50327c8591d4c4b30a586d5d","category":"Brewery","checkinsCount":703,"usersCount":524,"tipCount":12,"visitsCount":1221,"url":"http://mexitaly.com","tier":2,"message":"Moderate","currency":"$","rating":8.2},{"name":"Brickyard Tavern","phone":"7178548739","address":"748 S Albemarle St","lat":39.95902,"lng":-76.702557,"city_fetched":"York,US","state":"PA","country":"United States","canonicalUrl":"https://foursquare.com/v/brickyard-tavern/4ba7f5cbf964a5200ec239e3","categoryId":"4bf58dd8d48988d116941735","category":"Bar","checkinsCount":399,"usersCount":241,"tipCount":9,"visitsCount":530,"tier":"","message":"","currency":"","rating":8.1},{"name":"Kiro's Tavern","address":"1241 N George St","lat":39.980138163129,"lng":-76.7336831410473,"city_fetched":"York,US","state":"PA","country":"United States","canonicalUrl":"https://foursquare.com/v/kiros-tavern/4be4d479cf200f477899123c","categoryId":"4bf58dd8d48988d116941735","category":"Bar","checkinsCount":342,"usersCount":70,"tipCount":8,"visitsCount":344,"url":"http://www.kirostavern.com","tier":"","message":"","currency":"","rating":8},{"name":"The Paddock","phone":"7177557300","address":"3406 E Market St","lat":39.979326853699355,"lng":-76.65843140032861,"neighborhood":"Stonybrook-Wilshire","city_fetched":"York,US","state":"PA","country":"United States","canonicalUrl":"https://foursquare.com/v/the-paddock/4bd483e05631c9b6647fa230","categoryId":"4bf58dd8d48988d116941735","category":"Bar","checkinsCount":444,"usersCount":358,"tipCount":5,"visitsCount":621,"url":"http://thepaddockonmarket.com","tier":2,"message":"Moderate","currency":"$","rating":8},{"name":"Mudhook Brewing Co.","phone":"7177473605","address":"34 N Cherry Ln","lat":39.96294106837896,"lng":-76.72939375266549,"neighborhood":"Downtown York","city_fetched":"York,US","state":"PA","country":"United States","canonicalUrl":"https://foursquare.com/v/mudhook-brewing-co/4d8a5825bc848cfa9dcbd72b","categoryId":"50327c8591d4c4b30a586d5d","category":"Brewery","checkinsCount":2188,"usersCount":959,"tipCount":30,"visitsCount":2247,"url":"http://mudhookbrewing.com","tier":1,"message":"Cheap","currency":"$","rating":7.7},{"name":"Granfalloons Tavern","phone":"7178435450","twitter":"falloonsyork","address":"41 E Princess St","lat":39.960162854261995,"lng":-76.72516622279797,"neighborhood":"Downtown York","city_fetched":"York,US","state":"PA","country":"United States","canonicalUrl":"https://foursquare.com/v/granfalloons-tavern/4b8c79c9f964a520a5d232e3","categoryId":"4bf58dd8d48988d116941735","category":"Bar","checkinsCount":2636,"usersCount":731,"tipCount":25,"visitsCount":2856,"url":"http://www.falloonsyork.com","tier":"","message":"","currency":"","rating":7.6},{"name":"Hawk Gunning Club","phone":"7177575788","address":"2486 Pleasant View Dr","lat":40.00148022500165,"lng":-76.70673072338104,"city_fetched":"York,US","state":"PA","country":"United States","canonicalUrl":"https://foursquare.com/v/hawk-gunning-club/4b64e680f964a5208ed82ae3","categoryId":"4bf58dd8d48988d116941735","category":"Bar","checkinsCount":1403,"usersCount":275,"tipCount":9,"visitsCount":1851,"url":"http://hawksclub.org","tier":1,"message":"Cheap","currency":"$","rating":7.6},{"name":"Red Rose Restaurant & Lounge","phone":"7172523679","address":"5370 Lincoln Hwy","lat":40.01080844128885,"lng":-76.58679734231046,"city_fetched":"York,US","state":"PA","country":"United States","canonicalUrl":"https://foursquare.com/v/red-rose-restaurant--lounge/4bf9ec694a67c9287bae27cf","categoryId":"4bf58dd8d48988d116941735","category":"Bar","checkinsCount":1268,"usersCount":198,"tipCount":6,"visitsCount":1351,"url":"http://redroselounge.com","tier":"","message":"","currency":"","rating":7.5},{"name":"Westgate Restaurant & Lounge","phone":"7177676614","address":"1550 Kenneth Rd","lat":39.97619106053293,"lng":-76.76974654197693,"city_fetched":"York,US","state":"PA","country":"United States","canonicalUrl":"https://foursquare.com/v/westgate-restaurant--lounge/4b6c9d74f964a520bc462ce3","categoryId":"4bf58dd8d48988d116941735","category":"Bar","checkinsCount":954,"usersCount":358,"tipCount":18,"visitsCount":1160,"tier":"","message":"","currency":"","rating":7.4},{"name":"Thirsty's Quick Stop","phone":"7177555969","address":"2914 E Market St","lat":39.976024,"lng":-76.6686,"city_fetched":"York,US","state":"PA","country":"United States","canonicalUrl":"https://foursquare.com/v/thirstys-quick-stop/4b9b1151f964a5202cf035e3","categoryId":"4bf58dd8d48988d117941735","category":"Beer Garden","checkinsCount":416,"usersCount":199,"tipCount":10,"visitsCount":422,"url":"http://www.thirstysquickstop.com","tier":"","message":"","currency":"","rating":7.4},{"name":"West York Inn","phone":"7178455884","address":"1400 W Market St","lat":39.95347077407202,"lng":-76.7592529719792,"city_fetched":"York,US","state":"PA","country":"United States","canonicalUrl":"https://foursquare.com/v/west-york-inn/4b8ae8a7f964a5207b8832e3","categoryId":"4bf58dd8d48988d116941735","category":"Bar","checkinsCount":334,"usersCount":127,"tipCount":2,"visitsCount":340,"tier":"","message":"","currency":"","rating":7.2},{"name":"PA Wine & Spirits","phone":"7177714446","twitter":"pawinespirits","address":"2075 Springwood Rd","lat":39.94036457658436,"lng":-76.69403032283697,"neighborhood":"Tyler Run-Queens Gate","city_fetched":"York,US","state":"PA","country":"United States","canonicalUrl":"https://foursquare.com/v/pa-wine--spirits/4be5ef33bcef2d7f668f04e5","categoryId":"4bf58dd8d48988d11e941735","category":"Cocktail Bar","checkinsCount":701,"usersCount":292,"tipCount":4,"visitsCount":731,"url":"http://finewineandgoodspirits.com","tier":"","message":"","currency":"","rating":7.2},{"name":"First Capital Dispensing Co.","phone":"7178541714","address":"57 N Pershing Ave","lat":39.962547027292985,"lng":-76.7321894810183,"neighborhood":"Downtown York","city_fetched":"York,US","state":"PA","country":"United States","canonicalUrl":"https://foursquare.com/v/first-capital-dispensing-co/4b8c78b1f964a5206ed232e3","categoryId":"4bf58dd8d48988d116941735","category":"Bar","checkinsCount":1486,"usersCount":317,"tipCount":6,"visitsCount":1503,"url":"http://firstcapitaldispensing.com","tier":"","message":"","currency":"","rating":7.1},{"name":"Corner Stable","phone":"7177414320","address":"2575 S Queen St","lat":39.91195810617569,"lng":-76.68105053517523,"city_fetched":"York,US","state":"PA","country":"United States","canonicalUrl":"https://foursquare.com/v/corner-stable/4bb6ac89941ad13af3da1fe3","categoryId":"4bf58dd8d48988d11b941735","category":"Pub","checkinsCount":1734,"usersCount":575,"tipCount":13,"visitsCount":1878,"url":"http://www.tollgatevillage.com/cornerstable","tier":"","message":"","currency":"","rating":7.1},{"name":"Stone Grille & Taphouse","phone":"7178859552","twitter":"stonegrille","address":"204 Saint Charles Way","lat":39.929809992056704,"lng":-76.68936181243596,"city_fetched":"York,US","state":"PA","country":"United States","canonicalUrl":"https://foursquare.com/v/stone-grille--taphouse/4b89cff8f964a520234e32e3","categoryId":"4bf58dd8d48988d116941735","category":"Bar","checkinsCount":2571,"usersCount":1063,"tipCount":21,"visitsCount":3141,"url":"http://www.stonegrilleandtaphouse.com","tier":2,"message":"Moderate","currency":"$","rating":7.1},{"name":"Water Way Bar & Grill","phone":"7178454773","twitter":"thekaraokekidpa","address":"220 W Philadelphia St","lat":39.96214998144731,"lng":-76.73342950191613,"city_fetched":"York,US","state":"PA","country":"United States","canonicalUrl":"https://foursquare.com/v/water-way-bar--grill/4b5bbcf5f964a520581329e3","categoryId":"4bf58dd8d48988d116941735","category":"Bar","checkinsCount":2449,"usersCount":701,"tipCount":14,"visitsCount":2638,"url":"http://waterwaybar.com","tier":"","message":"","currency":"","rating":7.1},{"name":"The Pub On The Trail","phone":"7177640188","address":"3594 N Susquehanna Trl","lat":40.0355387,"lng":-76.752842,"city_fetched":"York,US","state":"PA","country":"United States","canonicalUrl":"https://foursquare.com/v/the-pub-on-the-trail/4bbe34659474c9b6d53fd9b6","categoryId":"4bf58dd8d48988d11b941735","category":"Pub","checkinsCount":653,"usersCount":210,"tipCount":12,"visitsCount":889,"tier":2,"message":"Moderate","currency":"$","rating":7},{"name":"Knickers Pub at Heritage Hills","phone":"7177550123","address":"2700 Mount Rose Ave","lat":39.95745139661032,"lng":-76.6677474975586,"city_fetched":"York,US","state":"PA","country":"United States","canonicalUrl":"https://foursquare.com/v/knickers-pub-at-heritage-hills/4b4cfcf6f964a520c8c626e3","categoryId":"4bf58dd8d48988d11b941735","category":"Pub","checkinsCount":2211,"usersCount":951,"tipCount":11,"visitsCount":2336,"url":"http://www.hhgr.com","tier":"","message":"","currency":"","rating":7},{"name":"Banana Max","address":"2860 Whiteford Rd","lat":39.987173,"lng":-76.673243,"city_fetched":"York,US","state":"PA","country":"United States","canonicalUrl":"https://foursquare.com/v/banana-max/50a57a24e4b02336ed70fa3e","categoryId":"4bf58dd8d48988d116941735","category":"Bar","checkinsCount":475,"usersCount":209,"tipCount":5,"visitsCount":544,"tier":"","message":"","currency":"","rating":6.4},{"name":"Fat Daddy's Nightclub","phone":"7177558843","twitter":"fatdaddyspa","address":"2510 E Market St","lat":39.97404657049001,"lng":-76.67610523530765,"city_fetched":"York,US","state":"PA","country":"United States","canonicalUrl":"https://foursquare.com/v/fat-daddys-nightclub/4bc8d21f68f976b0960b5c83","categoryId":"4bf58dd8d48988d116941735","category":"Bar","checkinsCount":2626,"usersCount":716,"tipCount":14,"visitsCount":2872,"url":"http://www.fatdaddys.com","tier":"","message":"","currency":"","rating":6.4},{"name":"The Hop at San Carlos","phone":"7178542028","address":"333 Arsenal Rd","lat":39.984305528417224,"lng":-76.72472655153597,"city_fetched":"York,US","state":"PA","country":"United States","canonicalUrl":"https://foursquare.com/v/the-hop-at-san-carlos/4bc145a5461576b07ccd7b32","categoryId":"4bf58dd8d48988d116941735","category":"Bar","checkinsCount":811,"usersCount":281,"tipCount":3,"visitsCount":916,"tier":"","message":"","currency":"","rating":5.7},{"name":"Murph's Study Hall","phone":"7178484030","address":"850 Jessop Pl","lat":39.94901301666667,"lng":-76.73039028,"city_fetched":"York,US","state":"PA","country":"United States","canonicalUrl":"https://foursquare.com/v/murphs-study-hall/4bc484b7b492d13a831baa60","categoryId":"4bf58dd8d48988d116941735","category":"Bar","checkinsCount":3541,"usersCount":518,"tipCount":14,"visitsCount":3617,"tier":2,"message":"Moderate","currency":"$","rating":5.6}]