[{"name":"The All New Mojo's Pub & Grill","phone":"3307936656","address":"6292 Mahoning Ave","lat":41.099898,"lng":-80.78250825405121,"city_fetched":"Youngstown,US","state":"OH","country":"United States","canonicalUrl":"https://foursquare.com/v/the-all-new-mojos-pub--grill/4d756f2f818ca1cd207ce331","categoryId":"4bf58dd8d48988d116941735","category":"Bar","checkinsCount":380,"usersCount":209,"tipCount":4,"visitsCount":526,"tier":"","message":"","currency":"","rating":8.5},{"name":"Geno's Our Gang's Lounge","phone":"7243429902","address":"93 Sharpsville Ave.","lat":41.23437380500275,"lng":-80.50473004583597,"city_fetched":"Youngstown,US","state":"PA","country":"United States","canonicalUrl":"https://foursquare.com/v/genos-our-gangs-lounge/4be9ff5718389521cbc80acf","categoryId":"4bf58dd8d48988d121941735","category":"Lounge","checkinsCount":1048,"usersCount":298,"tipCount":13,"visitsCount":1188,"tier":"","message":"","currency":"","rating":8.4},{"name":"Barrel33","phone":"3303959463","twitter":"barrel33howland","address":"8208 E Market St","lat":41.237514208178276,"lng":-80.74317840041346,"city_fetched":"Youngstown,US","state":"OH","country":"United States","canonicalUrl":"https://foursquare.com/v/barrel33/5433f5c0498ec8da8a689a9c","categoryId":"4bf58dd8d48988d123941735","category":"Wine Bar","checkinsCount":285,"usersCount":82,"tipCount":3,"visitsCount":306,"url":"http://www.barrel33.us","tier":"","message":"","currency":"","rating":8.1},{"name":"Imbibe Martini Bar","phone":"3307431266","twitter":"imbibemartini","address":"124 W Federal St","lat":41.101013143960316,"lng":-80.65115213994778,"neighborhood":"Downtown Youngstown","city_fetched":"Youngstown,US","state":"OH","country":"United States","canonicalUrl":"https://foursquare.com/v/imbibe-martini-bar/4b88a059f964a5204d0532e3","categoryId":"4bf58dd8d48988d11e941735","category":"Cocktail Bar","checkinsCount":521,"usersCount":263,"tipCount":7,"visitsCount":534,"url":"http://imbibemartinibar.com","tier":"","message":"","currency":"","rating":7.9},{"name":"Utopia Video Nightclub","address":"876 E Midlothian Blvd","lat":41.06174788901807,"lng":-80.63810310190513,"city_fetched":"Youngstown,US","state":"OH","country":"United States","canonicalUrl":"https://foursquare.com/v/utopia-video-nightclub/5359bf80498eeeccf609b7e4","categoryId":"4bf58dd8d48988d1d8941735","category":"Gay Bar","checkinsCount":769,"usersCount":343,"tipCount":7,"visitsCount":866,"tier":"","message":"","currency":"","rating":7.9},{"name":"Cedar's Lounge","phone":"3307436560","twitter":"cedarslounge","address":"23 N Hazel St","lat":41.10166858137435,"lng":-80.65102100372314,"neighborhood":"Downtown Youngstown","city_fetched":"Youngstown,US","state":"OH","country":"United States","canonicalUrl":"https://foursquare.com/v/cedars-lounge/4d6866a5b6f46dcb993513b2","categoryId":"4bf58dd8d48988d116941735","category":"Bar","checkinsCount":1026,"usersCount":248,"tipCount":7,"visitsCount":1026,"url":"http://www.cedarsyoungstown.com","tier":"","message":"","currency":"","rating":7.7},{"name":"Draught Haus","phone":"3307469722","address":"219 W Federal St","lat":41.101212157446376,"lng":-80.65262056807272,"neighborhood":"Downtown Youngstown","city_fetched":"Youngstown,US","state":"OH","country":"United States","canonicalUrl":"https://foursquare.com/v/draught-haus/4b7764f2f964a5207c972ee3","categoryId":"4bf58dd8d48988d116941735","category":"Bar","checkinsCount":2457,"usersCount":595,"tipCount":15,"visitsCount":2664,"tier":1,"message":"Cheap","currency":"$","rating":7.6},{"name":"VÂ² Wine Bar Trattoria","phone":"3307468136","twitter":"v2youngstown","address":"100 W Federal St","lat":41.101102653247224,"lng":-80.65088152885437,"neighborhood":"Downtown Youngstown","city_fetched":"Youngstown,US","state":"OH","country":"United States","canonicalUrl":"https://foursquare.com/v/v%C2%B2-wine-bar-trattoria/4e4a6930091a90203e0a330b","categoryId":"4bf58dd8d48988d123941735","category":"Wine Bar","checkinsCount":1398,"usersCount":570,"tipCount":8,"visitsCount":1509,"url":"http://www.v2byvernon.com","tier":"","message":"","currency":"","rating":7.5},{"name":"Magic Tree Pub & Eatery","phone":"3306292667","twitter":"magictreepub","address":"7463 South Ave","lat":41.019428582032674,"lng":-80.63385486602783,"city_fetched":"Youngstown,US","state":"OH","country":"United States","canonicalUrl":"https://foursquare.com/magictreepub","categoryId":"4bf58dd8d48988d11b941735","category":"Pub","checkinsCount":1253,"usersCount":867,"tipCount":17,"visitsCount":2139,"url":"http://magictreepubandeatery.com","tier":2,"message":"Moderate","currency":"$","rating":7.5},{"name":"Laddie's","lat":41.23376969436374,"lng":-80.5220498259283,"city_fetched":"Youngstown,US","state":"Ohio","country":"United States","canonicalUrl":"https://foursquare.com/v/laddies/4b897013f964a520363632e3","categoryId":"4bf58dd8d48988d11b941735","category":"Pub","checkinsCount":554,"usersCount":159,"tipCount":7,"visitsCount":636,"tier":"","message":"","currency":"","rating":7.4},{"name":"The Royal Oaks","address":"924 Oak St","lat":41.10091565,"lng":-80.63280880451202,"city_fetched":"Youngstown,US","state":"OH","country":"United States","canonicalUrl":"https://foursquare.com/v/the-royal-oaks/4b8a0bb8f964a520455d32e3","categoryId":"4bf58dd8d48988d116941735","category":"Bar","checkinsCount":801,"usersCount":285,"tipCount":8,"visitsCount":1048,"tier":"","message":"","currency":"","rating":7.3},{"name":"Havana House","phone":"3305440500","twitter":"havanahouseoh","address":"5801 Youngstown Warren Rd","lat":41.21031137255234,"lng":-80.7470861089123,"city_fetched":"Youngstown,US","state":"OH","country":"United States","canonicalUrl":"https://foursquare.com/v/havana-house/4cac88192f08236a0f958c61","categoryId":"4bf58dd8d48988d11a941735","category":"Other Nightlife","checkinsCount":3029,"usersCount":449,"tipCount":13,"visitsCount":3314,"url":"http://thehavanahouse.com","tier":2,"message":"Moderate","currency":"$","rating":7.3},{"name":"O'Donalds Downtown","lat":41.10102865531818,"lng":-80.65097874447669,"neighborhood":"Downtown Youngstown","city_fetched":"Youngstown,US","state":"OH","country":"United States","canonicalUrl":"https://foursquare.com/v/odonalds-downtown/4fff545ae4b0ca9b908f8435","categoryId":"4bf58dd8d48988d118941735","category":"Dive Bar","checkinsCount":1174,"usersCount":348,"tipCount":11,"visitsCount":1239,"tier":2,"message":"Moderate","currency":"$","rating":7.2},{"name":"Spirits Ultralounge","phone":"3307810600","address":"1418 E Midlothian Blvd","lat":41.060981231063316,"lng":-80.63045045398472,"city_fetched":"Youngstown,US","state":"OH","country":"United States","canonicalUrl":"https://foursquare.com/v/spirits-ultralounge/4d37bfb9d60c6dcb754271bc","categoryId":"4bf58dd8d48988d116941735","category":"Bar","checkinsCount":312,"usersCount":146,"tipCount":4,"visitsCount":392,"tier":"","message":"","currency":"","rating":7.2},{"name":"Amen Corner","phone":"3305455694","address":"20 W Main St","lat":41.155105,"lng":-80.7018507,"city_fetched":"Youngstown,US","state":"OH","country":"United States","canonicalUrl":"https://foursquare.com/v/amen-corner/4c10280fb93cc9b6615656e0","categoryId":"4bf58dd8d48988d11b941735","category":"Pub","checkinsCount":530,"usersCount":231,"tipCount":8,"visitsCount":568,"url":"http://amencornergirard.com","tier":"","message":"","currency":"","rating":7.2},{"name":"Cedars: West End","address":"706 Steel St","lat":41.110105054085196,"lng":-80.68313187905464,"city_fetched":"Youngstown,US","state":"OH","country":"United States","canonicalUrl":"https://foursquare.com/v/cedars-west-end/51315a5be4b01a0b4d187b0b","categoryId":"4bf58dd8d48988d116941735","category":"Bar","checkinsCount":276,"usersCount":96,"tipCount":0,"visitsCount":344,"tier":"","message":"","currency":"","rating":7.1},{"name":"O'Donold's Irish Pub & Grille","phone":"3302702800","twitter":"odonolds","address":"6000 Mahoning Ave","lat":41.10113535334259,"lng":-80.7748405559192,"city_fetched":"Youngstown,US","state":"OH","country":"United States","canonicalUrl":"https://foursquare.com/v/odonolds-irish-pub--grille/4aeb9d8df964a520d5c321e3","categoryId":"4bf58dd8d48988d116941735","category":"Bar","checkinsCount":1381,"usersCount":552,"tipCount":22,"visitsCount":1553,"url":"http://www.odonaldsirishpub.com","tier":2,"message":"Moderate","currency":"$","rating":7.1},{"name":"The Dash Inn","address":"Mahoning Avenue","lat":41.10296892599759,"lng":-80.6996179627805,"city_fetched":"Youngstown,US","state":"OH","country":"United States","canonicalUrl":"https://foursquare.com/v/the-dash-inn/4c5a12066407d13a5aebb328","categoryId":"4bf58dd8d48988d118941735","category":"Dive Bar","checkinsCount":117,"usersCount":80,"tipCount":1,"visitsCount":206,"tier":"","message":"","currency":"","rating":7},{"name":"The Federal","address":"110 W Federal St","lat":41.10092095957802,"lng":-80.65076741824821,"neighborhood":"Downtown Youngstown","city_fetched":"Youngstown,US","state":"OH","country":"United States","canonicalUrl":"https://foursquare.com/v/the-federal/55cec0a0498e74ab4ae904f6","categoryId":"4bf58dd8d48988d11e941735","category":"Cocktail Bar","checkinsCount":105,"usersCount":58,"tipCount":4,"visitsCount":114,"tier":"","message":"","currency":"","rating":6.9},{"name":"Shakers Bar & Grill","phone":"3307590465","address":"4520 Belmont Ave","lat":41.162909,"lng":-80.665408,"city_fetched":"Youngstown,US","state":"OH","country":"United States","canonicalUrl":"https://foursquare.com/v/shakers-bar--grill/4c59af05ec2520a1d5a84f12","categoryId":"4bf58dd8d48988d11e941735","category":"Cocktail Bar","checkinsCount":789,"usersCount":308,"tipCount":4,"visitsCount":882,"tier":"","message":"","currency":"","rating":6.9},{"name":"Don Victor's","address":"4626 Mahoning Ave","lat":41.10144571407954,"lng":-80.73951948838744,"city_fetched":"Youngstown,US","state":"OH","country":"United States","canonicalUrl":"https://foursquare.com/v/don-victors/4d855a228de9721ea3a04551","categoryId":"4bf58dd8d48988d116941735","category":"Bar","checkinsCount":215,"usersCount":113,"tipCount":4,"visitsCount":215,"tier":"","message":"","currency":"","rating":6.9},{"name":"Rust Belt Taphouse","address":"112 Commerce Ave.","lat":41.10183503050254,"lng":-80.65059402195976,"neighborhood":"Downtown Youngstown","city_fetched":"Youngstown,US","state":"OH","country":"United States","canonicalUrl":"https://foursquare.com/v/rust-belt-taphouse/529d1b3d498e69ab0087cbec","categoryId":"4bf58dd8d48988d11b941735","category":"Pub","checkinsCount":226,"usersCount":128,"tipCount":6,"visitsCount":242,"tier":"","message":"","currency":"","rating":6.9},{"name":"Ryes Craft Beer & Whiskey","lat":41.10092931215917,"lng":-80.6510762794745,"neighborhood":"Downtown Youngstown","city_fetched":"Youngstown,US","state":"OH","country":"United States","canonicalUrl":"https://foursquare.com/v/ryes-craft-beer--whiskey/533f5e42498ea6859bc07a27","categoryId":"4bf58dd8d48988d116941735","category":"Bar","checkinsCount":97,"usersCount":50,"tipCount":4,"visitsCount":101,"tier":"","message":"","currency":"","rating":6.8},{"name":"Billy's Black & Gold","lat":41.2396939156215,"lng":-80.50305812335412,"city_fetched":"Youngstown,US","state":"PA","country":"United States","canonicalUrl":"https://foursquare.com/v/billys-black--gold/4b897b49f964a5208c3a32e3","categoryId":"4bf58dd8d48988d11d941735","category":"Sports Bar","checkinsCount":231,"usersCount":108,"tipCount":6,"visitsCount":243,"tier":"","message":"","currency":"","rating":6.8},{"name":"Club 76","lat":41.1223767522998,"lng":-80.76523120506018,"city_fetched":"Youngstown,US","state":"OH","country":"United States","canonicalUrl":"https://foursquare.com/v/club-76/4bb0f847f964a520e06e3ce3","categoryId":"4bf58dd8d48988d1d6941735","category":"Strip Club","checkinsCount":361,"usersCount":218,"tipCount":4,"visitsCount":367,"tier":"","message":"","currency":"","rating":6.7},{"name":"The Pink Elephant","lat":41.0993361085395,"lng":-80.77809210972228,"city_fetched":"Youngstown,US","state":"OH","country":"United States","canonicalUrl":"https://foursquare.com/v/the-pink-elephant/4c8c3deced3ab60cf93b6621","categoryId":"4bf58dd8d48988d116941735","category":"Bar","checkinsCount":110,"usersCount":69,"tipCount":2,"visitsCount":111,"tier":"","message":"","currency":"","rating":6.7},{"name":"Brewtus Brewing Company","lat":41.23240471047448,"lng":-80.5076449727653,"city_fetched":"Youngstown,US","state":"PA","country":"United States","canonicalUrl":"https://foursquare.com/v/brewtus-brewing-company/559ecfc3498e2b9bb286477e","categoryId":"50327c8591d4c4b30a586d5d","category":"Brewery","checkinsCount":121,"usersCount":118,"tipCount":4,"visitsCount":212,"tier":"","message":"","currency":"","rating":6.4},{"name":"Bill's Place","address":"4771 Mahoning Ave","lat":41.09943830128529,"lng":-80.74381706927846,"city_fetched":"Youngstown,US","state":"OH","country":"United States","canonicalUrl":"https://foursquare.com/v/bills-place/4b8894fdf964a520530232e3","categoryId":"4bf58dd8d48988d116941735","category":"Bar","checkinsCount":1110,"usersCount":273,"tipCount":13,"visitsCount":1277,"tier":1,"message":"Cheap","currency":"$","rating":6.2},{"name":"Quench Bar","address":"Market Street","lat":40.99514850096656,"lng":-80.66301801693184,"city_fetched":"Youngstown,US","state":"OH","country":"United States","canonicalUrl":"https://foursquare.com/v/quench-bar/4bad5589f964a5203a473be3","categoryId":"4bf58dd8d48988d116941735","category":"Bar","checkinsCount":796,"usersCount":318,"tipCount":10,"visitsCount":987,"tier":"","message":"","currency":"","rating":6},{"name":"Warehouse 50","address":"W Federal Plaza","lat":41.100560636114466,"lng":-80.64897383258835,"neighborhood":"Downtown Youngstown","city_fetched":"Youngstown,US","state":"OH","country":"United States","canonicalUrl":"https://foursquare.com/v/warehouse-50/51b0e49a498eb0bf39a71fa0","categoryId":"4bf58dd8d48988d116941735","category":"Bar","checkinsCount":88,"usersCount":53,"tipCount":2,"visitsCount":92,"tier":"","message":"","currency":"","rating":5.7}]