[{"name":"Silver Dollar Saloon","phone":"5307431558","address":"330 1st St","lat":39.135832,"lng":-121.58827900886536,"city_fetched":"Yuba City,US","state":"CA","country":"United States","canonicalUrl":"https://foursquare.com/v/silver-dollar-saloon/4bac190ef964a5201fe43ae3","categoryId":"4bf58dd8d48988d116941735","category":"Bar","checkinsCount":229,"usersCount":180,"tipCount":6,"visitsCount":264,"url":"http://www.silverdollarsteaks.com","tier":"","message":"","currency":"","rating":8.2},{"name":"The Happy Viking","phone":"5306717492","address":"741 Plumas St","lat":39.13867466666667,"lng":-121.6165977,"city_fetched":"Yuba City,US","state":"CA","country":"United States","canonicalUrl":"https://foursquare.com/v/the-happy-viking/4bad83a7f964a520f6573be3","categoryId":"4bf58dd8d48988d116941735","category":"Bar","checkinsCount":1294,"usersCount":633,"tipCount":27,"visitsCount":1702,"url":"http://thehappyviking.com","tier":2,"message":"Moderate","currency":"$","rating":8.1},{"name":"Sutter Buttes Brewing","phone":"5307907999","address":"421 Center St","lat":39.137262,"lng":-121.61511,"city_fetched":"Yuba City,US","state":"CA","country":"United States","canonicalUrl":"https://foursquare.com/v/sutter-buttes-brewing/4ce5a1199f776ea897214d22","categoryId":"50327c8591d4c4b30a586d5d","category":"Brewery","checkinsCount":362,"usersCount":268,"tipCount":7,"visitsCount":482,"url":"http://www.sutterbuttesbrewing.com","tier":"","message":"","currency":"","rating":7.7}]