[{"name":"Yuma's Main Squeeze","phone":"9282479338","twitter":"yumasmainsqueez","address":"251 S Main St","lat":32.72334333333333,"lng":-114.61776494979858,"city_fetched":"Yuma,US","state":"AZ","country":"United States","canonicalUrl":"https://foursquare.com/yumasmainsqueez","categoryId":"4bf58dd8d48988d123941735","category":"Wine Bar","checkinsCount":468,"usersCount":179,"tipCount":14,"visitsCount":468,"url":"http://www.yumasmainsqueeze.com","tier":"","message":"","currency":"","rating":8.4},{"name":"The Kress","phone":"9287821998","twitter":"thekressyuma","address":"284 S Main St","lat":32.72277,"lng":-114.61839,"city_fetched":"Yuma,US","state":"AZ","country":"United States","canonicalUrl":"https://foursquare.com/thekressyuma","categoryId":"4bf58dd8d48988d121941735","category":"Lounge","checkinsCount":690,"usersCount":267,"tipCount":9,"visitsCount":702,"url":"http://www.thekress.com","tier":2,"message":"Moderate","currency":"$","rating":8.3},{"name":"Jimmie Dee's","phone":"9287835647","address":"38 W 2nd St","lat":32.72413570002214,"lng":-114.61908403033428,"city_fetched":"Yuma,US","state":"AZ","country":"United States","canonicalUrl":"https://foursquare.com/v/jimmie-dees/4c6312ab69a1c9b6b83e3aa4","categoryId":"4bf58dd8d48988d116941735","category":"Bar","checkinsCount":931,"usersCount":325,"tipCount":6,"visitsCount":1147,"url":"http://jimmiedees.com","tier":1,"message":"Cheap","currency":"$","rating":7.9},{"name":"Brewers Restaurant & Sports Bar","phone":"9287830073","address":"2331 S Avenue B","lat":32.685286145528586,"lng":-114.64983013402255,"city_fetched":"Yuma,US","state":"AZ","country":"United States","canonicalUrl":"https://foursquare.com/v/brewers-restaurant--sports-bar/4bef5accd1b7d13a71b6cdec","categoryId":"4bf58dd8d48988d11d941735","category":"Sports Bar","checkinsCount":1506,"usersCount":606,"tipCount":14,"visitsCount":1770,"url":"http://brewerssportsbar.com","tier":2,"message":"Moderate","currency":"$","rating":7.8},{"name":"Pop-A-Top","phone":"9287820402","address":"2241 S Avenue A","lat":32.686053287181764,"lng":-114.63276386260986,"city_fetched":"Yuma,US","state":"AZ","country":"United States","canonicalUrl":"https://foursquare.com/v/popatop/4b7de6cdf964a520d9d82fe3","categoryId":"4bf58dd8d48988d116941735","category":"Bar","checkinsCount":1564,"usersCount":244,"tipCount":6,"visitsCount":1749,"tier":"","message":"","currency":"","rating":7.7},{"name":"Prison Hill Brewing Company","phone":"9282764001","twitter":"prisonhill","address":"278 S Main St","lat":32.722825778858095,"lng":-114.61823154682934,"city_fetched":"Yuma,US","state":"AZ","country":"United States","canonicalUrl":"https://foursquare.com/v/prison-hill-brewing-company/53f96091498ef93941ab857f","categoryId":"50327c8591d4c4b30a586d5d","category":"Brewery","checkinsCount":374,"usersCount":229,"tipCount":5,"visitsCount":461,"tier":"","message":"","currency":"","rating":7.4},{"name":"The Mine Shaft","phone":"9283171110","address":"3905 S 4th Ave","lat":32.656538360609154,"lng":-114.6224997441941,"city_fetched":"Yuma,US","state":"AZ","country":"United States","canonicalUrl":"https://foursquare.com/v/the-mine-shaft/4a999da2f964a520772f20e3","categoryId":"4bf58dd8d48988d116941735","category":"Bar","checkinsCount":1351,"usersCount":341,"tipCount":3,"visitsCount":1453,"tier":"","message":"","currency":"","rating":7.2},{"name":"Fat Harvey's","phone":"9287269743","address":"303 W 26th St","lat":32.68019269196618,"lng":-114.62373496075479,"city_fetched":"Yuma,US","state":"AZ","country":"United States","canonicalUrl":"https://foursquare.com/v/fat-harveys/4bbaab79935e952130752890","categoryId":"4bf58dd8d48988d116941735","category":"Bar","checkinsCount":1401,"usersCount":191,"tipCount":5,"visitsCount":1517,"tier":"","message":"","currency":"","rating":6.9},{"name":"Yuma Cigars and Hookah Lounge","phone":"9287826700","address":"1651 S Arizona Ave","lat":32.697688,"lng":-114.61565,"city_fetched":"Yuma,US","state":"AZ","country":"United States","canonicalUrl":"https://foursquare.com/v/yuma-cigars-and-hookah-lounge/4be7211b2468c9285b210243","categoryId":"4bf58dd8d48988d121941735","category":"Lounge","checkinsCount":167,"usersCount":84,"tipCount":9,"visitsCount":231,"tier":"","message":"","currency":"","rating":6.9},{"name":"Crazy Earls","phone":"9283422149","address":"11274 S Fortuna Rd","lat":32.667007,"lng":-114.445299,"city_fetched":"Yuma,US","state":"AZ","country":"United States","canonicalUrl":"https://foursquare.com/v/crazy-earls/4c3947c818e72d7f4b111af5","categoryId":"4bf58dd8d48988d116941735","category":"Bar","checkinsCount":1305,"usersCount":213,"tipCount":7,"visitsCount":1417,"tier":"","message":"","currency":"","rating":6.5},{"name":"Strummers Village Tavern","address":"3780 S 4th Ave","lat":32.659259476105575,"lng":-114.62464542294529,"city_fetched":"Yuma,US","state":"AZ","country":"United States","canonicalUrl":"https://foursquare.com/v/strummers-village-tavern/4e7d7721dab47614f2600e7d","categoryId":"4bf58dd8d48988d116941735","category":"Bar","checkinsCount":829,"usersCount":119,"tipCount":7,"visitsCount":831,"tier":"","message":"","currency":"","rating":6.4},{"name":"Red's Birdcage","phone":"9287831050","address":"231 S Main St","lat":32.72354646666667,"lng":-114.61766,"city_fetched":"Yuma,US","state":"AZ","country":"United States","canonicalUrl":"https://foursquare.com/v/reds-birdcage/4d479d9c551db1f7167c9a30","categoryId":"4bf58dd8d48988d116941735","category":"Bar","checkinsCount":660,"usersCount":242,"tipCount":6,"visitsCount":670,"tier":"","message":"","currency":"","rating":5.9},{"name":"The Standard","address":"130 Main Street","lat":32.724903,"lng":-114.61859,"city_fetched":"Yuma,US","state":"AZ","country":"United States","canonicalUrl":"https://foursquare.com/v/the-standard/524e363e11d2b6ff9a5f4c57","categoryId":"4bf58dd8d48988d121941735","category":"Lounge","checkinsCount":128,"usersCount":72,"tipCount":5,"visitsCount":134,"tier":"","message":"","currency":"","rating":5.1}]