[{"name":"Weasel Boy Brew Pub","phone":"7404553767","address":"126 Muskingum Ave","lat":39.936361983333335,"lng":-82.009609,"city_fetched":"Zanesville","state":"OH","country":"United States","canonicalUrl":"https://foursquare.com/v/weasel-boy-brew-pub/4c61d1a6e1621b8d83072253","category":"Brewery","checkinsCount":815,"usersCount":417,"tipCount":21,"visitsCount":976,"url":"http://www.weaselboybrewing.com","tier":"","message":"","currency":"","rating":8.4},{"name":"Terry's Tavern","lat":39.945836,"lng":-82.01106031666667,"city_fetched":"Zanesville","state":"OH","country":"United States","canonicalUrl":"https://foursquare.com/v/terrys-tavern/4c81888d47cc224bc4677d9f","category":"Bar","checkinsCount":286,"usersCount":144,"tipCount":5,"visitsCount":324,"tier":"","message":"","currency":"","rating":8.1},{"name":"Buffalo Wild Wings","phone":"7404549464","twitter":"bwwings","address":"1352 Brandywine Blvd","lat":39.98447453353952,"lng":-82.0263375358867,"city_fetched":"Zanesville","state":"OH","country":"United States","canonicalUrl":"https://foursquare.com/v/buffalo-wild-wings/4b6e0b72f964a520fea52ce3","category":"Wings Joint","checkinsCount":2191,"usersCount":701,"tipCount":13,"visitsCount":2578,"url":"http://www.buffalowildwings.com","tier":2,"message":"Moderate","currency":"$","rating":8.1},{"name":"Tumbleweed Tex Mex Grill","phone":"7404507760","twitter":"twtexmex","address":"746 Monroe St","lat":39.947455659618164,"lng":-82.0002653321545,"city_fetched":"Zanesville","state":"OH","country":"United States","canonicalUrl":"https://foursquare.com/v/tumbleweed-tex-mex-grill/4b539e08f964a520c5a427e3","category":"Restaurant","checkinsCount":1392,"usersCount":761,"tipCount":12,"visitsCount":1782,"url":"http://tumbleweedrestaurants.com","tier":2,"message":"Moderate","currency":"$","rating":8},{"name":"The Smiling Goat","phone":"7404507890","address":"1335 Linden Ave","lat":39.95566,"lng":-82.00455868,"city_fetched":"Zanesville","state":"OH","country":"United States","canonicalUrl":"https://foursquare.com/v/the-smiling-goat/4b9c826af964a5205a6d36e3","category":"Bar","checkinsCount":306,"usersCount":150,"tipCount":4,"visitsCount":336,"url":"http://smilinggoatsaloon.com","tier":"","message":"","currency":"","rating":7.8},{"name":"The Barn","phone":"7404503663","address":"1947 Linden Ave","lat":39.96250067515183,"lng":-81.99986100196838,"city_fetched":"Zanesville","state":"OH","country":"United States","canonicalUrl":"https://foursquare.com/v/the-barn/4ba2b4d9f964a520161238e3","category":"Bar","checkinsCount":758,"usersCount":376,"tipCount":5,"visitsCount":1008,"url":"http://thebarnzanesville.com","tier":"","message":"","currency":"","rating":7.7}]