[{"name":"BrewDog Castlegate","phone":"+441358724924","twitter":"brewdogcastleg","address":"5-9 Union St","lat":57.147765,"lng":-2.094495,"neighborhood":"City Centre East","city_fetched":"Aberdeen","state":"Aberdeen City","country":"United Kingdom","canonicalUrl":"https://foursquare.com/v/brewdog-castlegate/5669d04e498e6356a17d6440","category":"Beer Bar","checkinsCount":326,"usersCount":219,"tipCount":7,"visitsCount":464,"url":"https://www.brewdog.com/bars/uk/castlegate","tier":2,"message":"Moderate","currency":"£","rating":9.1},{"name":"CASC","phone":"+441224212373","twitter":"cascbar","address":"7 Stirling Street","lat":57.145868695132854,"lng":-2.097668982962674,"city_fetched":"Aberdeen","state":"Aberdeen City","country":"United Kingdom","canonicalUrl":"https://foursquare.com/v/casc/52b2148211d28c56b617dcfa","category":"Bar","checkinsCount":509,"usersCount":241,"tipCount":8,"visitsCount":658,"url":"http://www.cascbar.co.uk","tier":"","message":"","currency":"","rating":9.1},{"name":"BrewDog Aberdeen","phone":"+441346519009","twitter":"brewdog","address":"17 Gallowgate","lat":57.14949348203763,"lng":-2.097766399383545,"neighborhood":"City Centre East","city_fetched":"Aberdeen","state":"Aberdeen City","country":"United Kingdom","canonicalUrl":"https://foursquare.com/v/brewdog-aberdeen/4cb5e80c9c7ba35de2e98d06","category":"Beer Bar","checkinsCount":2925,"usersCount":933,"tipCount":32,"visitsCount":3370,"url":"http://www.brewdog.com","tier":2,"message":"Moderate","currency":"£","rating":9},{"name":"Six Degrees North","phone":"+441224379192","twitter":"sixdnorthabz","address":"6 Littlejohn St","lat":57.14994750807097,"lng":-2.0965454441498474,"neighborhood":"City Centre East","city_fetched":"Aberdeen","state":"Aberdeen City","country":"United Kingdom","canonicalUrl":"https://foursquare.com/v/six-degrees-north/51d09643498e476c06365966","category":"Bar","checkinsCount":756,"usersCount":356,"tipCount":23,"visitsCount":863,"url":"http://sixdnorth.co.uk","tier":2,"message":"Moderate","currency":"£","rating":8.6},{"name":"Malmaison Aberdeen","phone":"+441224507097","twitter":"malmaisonhotels","address":"49-53 Queens Rd","lat":57.14075213677684,"lng":-2.135458609436257,"city_fetched":"Aberdeen","state":"Aberdeen City","country":"United Kingdom","canonicalUrl":"https://foursquare.com/v/malmaison-aberdeen/4d8a18dc7d4c5481d5796171","category":"Hotel","checkinsCount":818,"usersCount":326,"tipCount":18,"visitsCount":916,"url":"http://www.malmaison.com/locations/aberdeen/","tier":"","message":"","currency":"","rating":8.5},{"name":"The College Bar/Babylon Nightclub","address":"9 Alford Place","lat":57.14284438455843,"lng":-2.1125804506097534,"city_fetched":"Aberdeen","state":"Aberdeen City","country":"United Kingdom","canonicalUrl":"https://foursquare.com/v/the-college-barbabylon-nightclub/4c79334d83a7bfb72bab7cf8","category":"Bar","checkinsCount":248,"usersCount":146,"tipCount":3,"visitsCount":255,"tier":"","message":"","currency":"","rating":8.3},{"name":"The Dutch Mill","phone":"+441224322555","address":"7 Queens Road","lat":57.142301403423964,"lng":-2.1292491830298155,"city_fetched":"Aberdeen","state":"Aberdeen City","country":"United Kingdom","canonicalUrl":"https://foursquare.com/v/the-dutch-mill/4c096c68a1b32d7f1fa897f0","category":"Pub","checkinsCount":413,"usersCount":218,"tipCount":5,"visitsCount":608,"url":"http://www.dutchmill.co.uk","tier":"","message":"","currency":"","rating":8.2},{"name":"Ferryhill hotel","address":"Bon Accord Street","lat":57.137924,"lng":-2.104655,"city_fetched":"Aberdeen","state":"Aberdeen City","country":"United Kingdom","canonicalUrl":"https://foursquare.com/v/ferryhill-hotel/4b59d939f964a520b59b28e3","category":"Restaurant","checkinsCount":263,"usersCount":214,"tipCount":6,"visitsCount":424,"tier":"","message":"","currency":"","rating":8.2},{"name":"The Grill","phone":"+441224573530","twitter":"grillaberdeen","address":"213 Union St","lat":57.14496127017608,"lng":-2.104418419982987,"city_fetched":"Aberdeen","state":"Aberdeen City","country":"United Kingdom","canonicalUrl":"https://foursquare.com/v/the-grill/4b5f5543f964a5208eb429e3","category":"Whisky Bar","checkinsCount":326,"usersCount":221,"tipCount":10,"visitsCount":330,"url":"http://www.thegrillaberdeen.co.uk","tier":"","message":"","currency":"","rating":8.1},{"name":"Fusion Bar and Bistro","phone":"+441224652959","address":"10 North Silver Street","lat":57.146668,"lng":-2.105618,"city_fetched":"Aberdeen","state":"Aberdeen City","country":"United Kingdom","canonicalUrl":"https://foursquare.com/v/fusion-bar-and-bistro/4bc08c3c2a89ef3b17a4f088","category":"Modern European Restaurant","checkinsCount":111,"usersCount":44,"tipCount":3,"visitsCount":113,"url":"http://www.fusionbarbistro.com","tier":2,"message":"Moderate","currency":"£","rating":8.1},{"name":"Ninety-Nine Bar & Kitchen","phone":"+441224631640","twitter":"99barandkitchen","address":"1 Back Wynd","lat":57.146413,"lng":-2.099759,"neighborhood":"City Centre East","city_fetched":"Aberdeen","state":"Aberdeen City","country":"United Kingdom","canonicalUrl":"https://foursquare.com/v/ninetynine-bar--kitchen/4b0991f4f964a5209f1923e3","category":"Bar","checkinsCount":315,"usersCount":175,"tipCount":11,"visitsCount":317,"url":"http://99aberdeen.com","tier":"","message":"","currency":"","rating":8},{"name":"Orchid","phone":"+447771332756","twitter":"orchid_aberdeen","address":"14 Bon Accord Square","lat":57.14329482683026,"lng":-2.1073365211486816,"city_fetched":"Aberdeen","state":"Aberdeen City","country":"United Kingdom","canonicalUrl":"https://foursquare.com/v/orchid/4b9f9259f964a520252c37e3","category":"Cocktail Bar","checkinsCount":250,"usersCount":111,"tipCount":6,"visitsCount":250,"tier":"","message":"","currency":"","rating":7.8},{"name":"Atholl Hotel","address":"54 King's Gate","lat":57.14711890866868,"lng":-2.136261463165283,"neighborhood":"Midstocket","city_fetched":"Aberdeen","state":"Aberdeen City","country":"United Kingdom","canonicalUrl":"https://foursquare.com/v/atholl-hotel/4bdf31c17ea362b5da6343c4","category":"Hotel Bar","checkinsCount":148,"usersCount":130,"tipCount":5,"visitsCount":288,"tier":"","message":"","currency":"","rating":7.6},{"name":"The Prince of Wales","phone":"+441224640597","twitter":"belhaven_pubs","address":"7 St Nicholas Ln","lat":57.147032,"lng":-2.098259,"neighborhood":"City Centre East","city_fetched":"Aberdeen","state":"Aberdeen City","country":"United Kingdom","canonicalUrl":"https://foursquare.com/v/the-prince-of-wales/4b5f6004f964a520cdb629e3","category":"Pub","checkinsCount":466,"usersCount":257,"tipCount":3,"visitsCount":495,"url":"http://www.princeofwales-aberdeen.co.uk","tier":"","message":"","currency":"","rating":7.5},{"name":"The Bieldside Inn","address":"37 North Deeside Rd","lat":57.1124782187335,"lng":-2.1973085403442383,"city_fetched":"Aberdeen","state":"Aberdeen City","country":"United Kingdom","canonicalUrl":"https://foursquare.com/v/the-bieldside-inn/4c03de44187ec928d832b67b","category":"Pub","checkinsCount":113,"usersCount":65,"tipCount":4,"visitsCount":126,"tier":"","message":"","currency":"","rating":7.5},{"name":"Soul","phone":"+441224587711","address":"333 Union St","lat":57.143975,"lng":-2.106735,"city_fetched":"Aberdeen","state":"Aberdeen City","country":"United Kingdom","canonicalUrl":"https://foursquare.com/v/soul/4b808c2cf964a520e67b30e3","category":"Bar","checkinsCount":1230,"usersCount":691,"tipCount":14,"visitsCount":1405,"tier":"","message":"","currency":"","rating":7.4},{"name":"The Tippling House","twitter":"tippling_house","address":"4 Belmont St","lat":57.146318129615366,"lng":-2.1007904696171007,"neighborhood":"City Centre East","city_fetched":"Aberdeen","state":"Aberdeen City","country":"United Kingdom","canonicalUrl":"https://foursquare.com/v/the-tippling-house/509d3fcc498efdffc5feb5e0","category":"Cocktail Bar","checkinsCount":293,"usersCount":128,"tipCount":9,"visitsCount":297,"url":"http://thetipplinghouse.com","tier":"","message":"","currency":"","rating":7.4},{"name":"Under the Hammer","phone":"+441224640253","address":"11 N Silver St","lat":57.1466729700566,"lng":-2.10557,"city_fetched":"Aberdeen","state":"Aberdeen City","country":"United Kingdom","canonicalUrl":"https://foursquare.com/v/under-the-hammer/4b524d22f964a520dd7527e3","category":"Pub","checkinsCount":120,"usersCount":82,"tipCount":5,"visitsCount":121,"tier":"","message":"","currency":"","rating":7.3},{"name":"Slains Castle","phone":"+441224631877","twitter":"slainscastle","address":"18 Belmont St.","lat":57.1466474678827,"lng":-2.101057469844818,"neighborhood":"City Centre East","city_fetched":"Aberdeen","state":"Aberdeen City","country":"United Kingdom","canonicalUrl":"https://foursquare.com/v/slains-castle/4b5a09e8f964a5204ca928e3","category":"Bar","checkinsCount":1162,"usersCount":541,"tipCount":14,"visitsCount":1215,"url":"http://www.eerie-pubs.co.uk/slains-castle","tier":"","message":"","currency":"","rating":7.3},{"name":"Palm Court Hotel","phone":"+441224310351","address":"81 Seafield Rd.","lat":57.13339203668861,"lng":-2.146082601713982,"neighborhood":"Mannofield","city_fetched":"Aberdeen","state":"Aberdeen City","country":"United Kingdom","canonicalUrl":"https://foursquare.com/v/palm-court-hotel/4e7a58261495668e603779a1","category":"Restaurant","checkinsCount":316,"usersCount":158,"tipCount":4,"visitsCount":372,"tier":"","message":"","currency":"","rating":7.3},{"name":"St Machar Bar","address":"High Street","lat":57.166584,"lng":-2.10231,"neighborhood":"Old Aberdeen","city_fetched":"Aberdeen","state":"Aberdeen City","country":"United Kingdom","canonicalUrl":"https://foursquare.com/v/st-machar-bar/4b79b0aaf964a520620b2fe3","category":"Bar","checkinsCount":248,"usersCount":87,"tipCount":5,"visitsCount":257,"tier":"","message":"","currency":"","rating":7.2},{"name":"The Archibald Simpson (Wetherspoon)","phone":"+441224621365","address":"5 Castle St.","lat":57.14808128302236,"lng":-2.0941076138010164,"neighborhood":"City Centre East","city_fetched":"Aberdeen","state":"Aberdeenshire","country":"United Kingdom","canonicalUrl":"https://foursquare.com/v/the-archibald-simpson-wetherspoon/4b65f483f964a520ce0a2be3","category":"Pub","checkinsCount":1575,"usersCount":481,"tipCount":14,"visitsCount":1607,"url":"http://www.jdwetherspoon.co.uk","tier":"","message":"","currency":"","rating":7.1},{"name":"Old Blackfriars","phone":"+441224581922","address":"52 Castle St.","lat":57.14783769879944,"lng":-2.0934104919433594,"city_fetched":"Aberdeen","state":"Aberdeen City","country":"United Kingdom","canonicalUrl":"https://foursquare.com/v/old-blackfriars/4b55f989f964a520e0f927e3","category":"Bar","checkinsCount":657,"usersCount":336,"tipCount":9,"visitsCount":700,"url":"http://oldblackfriars-aberdeen.co.uk","tier":"","message":"","currency":"","rating":7.1},{"name":"The Albyn","phone":"+441224211666","address":"11 Albyn Pl","lat":57.14277240445132,"lng":-2.1147769689559937,"city_fetched":"Aberdeen","state":"Aberdeenshire","country":"United Kingdom","canonicalUrl":"https://foursquare.com/v/the-albyn/4c07ccaec69aa593bdcb9ba2","category":"Bar","checkinsCount":246,"usersCount":163,"tipCount":4,"visitsCount":290,"url":"http://www.thealbyn.com","tier":"","message":"","currency":"","rating":7.1},{"name":"The Moorings","phone":"+441224587602","address":"2 Trinity Quay","lat":57.14590246278917,"lng":-2.095212936401367,"city_fetched":"Aberdeen","state":"Aberdeen City","country":"United Kingdom","canonicalUrl":"https://foursquare.com/v/the-moorings/4b6d2b26f964a520cd692ce3","category":"Pub","checkinsCount":712,"usersCount":192,"tipCount":8,"visitsCount":745,"tier":"","message":"","currency":"","rating":7.1},{"name":"Dusk","lat":57.1431169518629,"lng":-2.106992551741352,"city_fetched":"Aberdeen","country":"United Kingdom","canonicalUrl":"https://foursquare.com/v/dusk/4b8859eef964a52054f131e3","category":"Bar","checkinsCount":156,"usersCount":93,"tipCount":2,"visitsCount":159,"tier":"","message":"","currency":"","rating":7},{"name":"Hey Brazil Restaurant Churrascaria","phone":"+441224575227","address":"13 Crown Street","lat":57.14452546720361,"lng":-2.103532802996404,"city_fetched":"Aberdeen","state":"Aberdeen City","country":"United Kingdom","canonicalUrl":"https://foursquare.com/v/hey-brazil-restaurant-churrascaria/5226248511d26e5b1a638ce7","category":"Brazilian Restaurant","checkinsCount":57,"usersCount":46,"tipCount":4,"visitsCount":59,"url":"http://www.heybrazilrestaurants.co.uk","tier":"","message":"","currency":"","rating":7}]