[{"name":"The Brewery Tap","phone":"+441235521655","address":"40-42 Ock Street","lat":51.6699094,"lng":-1.2865232,"city_fetched":"Abingdon","state":"Oxfordshire","country":"United Kingdom","canonicalUrl":"https://foursquare.com/v/the-brewery-tap/4b560437f964a52023fc27e3","category":"Pub","checkinsCount":691,"usersCount":195,"tipCount":9,"visitsCount":857,"tier":"","message":"","currency":"","rating":8.5},{"name":"The Kings Head & Bell","phone":"+441235525362","address":"10 East St. Helen St.","lat":51.66958091839713,"lng":-1.281580924987793,"city_fetched":"Abingdon","state":"Oxfordshire","country":"United Kingdom","canonicalUrl":"https://foursquare.com/v/the-kings-head--bell/4b8167cbf964a52017a430e3","category":"Pub","checkinsCount":623,"usersCount":197,"tipCount":4,"visitsCount":722,"tier":"","message":"","currency":"","rating":8.4},{"name":"Crown And Thistle","phone":"+441235522556","twitter":"thecrownthistle","address":"18 Bridge St","lat":51.669646081163464,"lng":-1.2804224909907163,"city_fetched":"Abingdon","state":"Oxfordshire","country":"United Kingdom","canonicalUrl":"https://foursquare.com/v/crown-and-thistle/4db31e840cb6729b6a79120d","category":"Pub","checkinsCount":178,"usersCount":71,"tipCount":3,"visitsCount":194,"url":"http://crownandthistleabingdon.co.uk","tier":"","message":"","currency":"","rating":8.3},{"name":"The Nags Head","phone":"+441235524516","address":"The Bridge","lat":51.668651388293696,"lng":-1.279184833097042,"city_fetched":"Abingdon","state":"Oxfordshire","country":"United Kingdom","canonicalUrl":"https://foursquare.com/v/the-nags-head/508c3e2be4b0c3505360d984","category":"Pub","checkinsCount":262,"usersCount":229,"tipCount":7,"visitsCount":428,"url":"http://www.thenagsheadonthethames.co.uk","tier":"","message":"","currency":"","rating":8},{"name":"Ock Mill (Beefeater)","phone":"+441235554148","twitter":"beefeatergrill","address":"Marcham Rd","lat":51.66930810452529,"lng":-1.29913330078125,"city_fetched":"Abingdon","state":"Oxfordshire","country":"United Kingdom","canonicalUrl":"https://foursquare.com/v/ock-mill-beefeater/4b5461c5f964a5204cb927e3","category":"Pub","checkinsCount":163,"usersCount":93,"tipCount":2,"visitsCount":167,"url":"http://www.beefeater.co.uk","tier":"","message":"","currency":"","rating":6.1},{"name":"The Narrows (Wetherspoon)","address":"25 High St","lat":51.670443245417054,"lng":-1.283341479233141,"city_fetched":"Abingdon","state":"Oxfordshire","country":"United Kingdom","canonicalUrl":"https://foursquare.com/v/the-narrows-wetherspoon/525445ee498ef18127871866","category":"Pub","checkinsCount":221,"usersCount":98,"tipCount":5,"visitsCount":279,"tier":"","message":"","currency":"","rating":6.1},{"name":"The Boundary House","address":"69 Oxford Rd.","lat":51.68194800069372,"lng":-1.27333538423664,"city_fetched":"Abingdon","state":"Oxfordshire","country":"United Kingdom","canonicalUrl":"https://foursquare.com/v/the-boundary-house/4b5a08eef964a52016a928e3","category":"Pub","checkinsCount":369,"usersCount":108,"tipCount":3,"visitsCount":423,"tier":"","message":"","currency":"","rating":5.6},{"name":"The White Horse","phone":"+441235524490","address":"189 Ock Street","lat":51.66955762947222,"lng":-1.2948203086853027,"city_fetched":"Abingdon","state":"Oxfordshire","country":"United Kingdom","canonicalUrl":"https://foursquare.com/v/the-white-horse/4b62d747f964a520ea542ae3","category":"Pub","checkinsCount":411,"usersCount":130,"tipCount":2,"visitsCount":499,"tier":"","message":"","currency":"","rating":5.4}]