[{"name":"Sanctuary Burnley","phone":"+441282459595","address":"Cow lane","lat":53.78901555813945,"lng":-2.246532440185547,"city_fetched":"Accrington,UK","state":"Lancashire","country":"United Kingdom","canonicalUrl":"https://foursquare.com/v/sanctuary-burnley/4c5dc3947f661b8d96544c1c","categoryId":"4bf58dd8d48988d116941735","category":"Bar","checkinsCount":1800,"usersCount":83,"tipCount":14,"visitsCount":2026,"tier":"","message":"","currency":"","rating":7.6},{"name":"Grey Mare","lat":53.711923,"lng":-2.4082,"city_fetched":"Accrington,UK","country":"United Kingdom","canonicalUrl":"https://foursquare.com/v/grey-mare/4c80ecf3dc018cfa176cc06c","categoryId":"4bf58dd8d48988d11b941735","category":"Pub","checkinsCount":88,"usersCount":65,"tipCount":3,"visitsCount":104,"tier":"","message":"","currency":"","rating":7},{"name":"The Commercial Hotel (Wetherspoon)","phone":"+441254300140","twitter":"jdwtweet","address":"1 Church St.","lat":53.75268211529539,"lng":-2.3641204833984375,"city_fetched":"Accrington,UK","state":"Lancashire","country":"United Kingdom","canonicalUrl":"https://foursquare.com/v/the-commercial-hotel-wetherspoon/4e26fd47b61ce3fb0553e51a","categoryId":"4bf58dd8d48988d11b941735","category":"Pub","checkinsCount":338,"usersCount":105,"tipCount":3,"visitsCount":351,"url":"http://www.jdwetherspoon.co.uk","tier":"","message":"","currency":"","rating":7},{"name":"Buffer Stops","address":"Rawtenstall Station","lat":53.69884340695756,"lng":-2.2907818098725867,"city_fetched":"Accrington,UK","country":"United Kingdom","canonicalUrl":"https://foursquare.com/v/buffer-stops/51bb4998498ec2da204d5f48","categoryId":"4bf58dd8d48988d11b941735","category":"Pub","checkinsCount":66,"usersCount":40,"tipCount":2,"visitsCount":71,"tier":"","message":"","currency":"","rating":6.9},{"name":"The Cobblers","lat":53.697142224551655,"lng":-2.2959107796194336,"city_fetched":"Accrington,UK","country":"United Kingdom","canonicalUrl":"https://foursquare.com/v/the-cobblers/4ca6054044a8224b8113ff3f","categoryId":"4bf58dd8d48988d11b941735","category":"Pub","checkinsCount":127,"usersCount":59,"tipCount":5,"visitsCount":131,"tier":"","message":"","currency":"","rating":6.5},{"name":"The Brun Lea (Wetherspoon)","phone":"+441282463700","address":"31-39 Manchester Rd.","lat":53.78800323664691,"lng":-2.243784122507233,"city_fetched":"Accrington,UK","state":"Lancashire","country":"United Kingdom","canonicalUrl":"https://foursquare.com/v/the-brun-lea-wetherspoon/4bc0f97bb492d13aa34aa560","categoryId":"4bf58dd8d48988d11b941735","category":"Pub","checkinsCount":452,"usersCount":197,"tipCount":5,"visitsCount":494,"url":"http://www.jdwetherspoon.co.uk","tier":"","message":"","currency":"","rating":6.2},{"name":"Duke Of Wellington","phone":"+441706215610","lat":53.70200062549403,"lng":-2.355269193649292,"city_fetched":"Accrington,UK","country":"United Kingdom","canonicalUrl":"https://foursquare.com/v/duke-of-wellington/4bf6d9285317a59375effc7e","categoryId":"4bf58dd8d48988d11b941735","category":"Pub","checkinsCount":97,"usersCount":55,"tipCount":8,"visitsCount":147,"tier":"","message":"","currency":"","rating":6.2},{"name":"The Willows","phone":"+441254681550","address":"Haslingden Rd","lat":53.728239,"lng":-2.44947406,"city_fetched":"Accrington,UK","state":"Blackburn with Darwen","country":"United Kingdom","canonicalUrl":"https://foursquare.com/v/the-willows/4c68082a1c91a59382e5ee07","categoryId":"4bf58dd8d48988d11b941735","category":"Pub","checkinsCount":224,"usersCount":114,"tipCount":9,"visitsCount":315,"url":"http://www.marstonstaverns.co.uk","tier":"","message":"","currency":"","rating":5.8},{"name":"Hollywood Star","phone":"+441282439521","twitter":"fayreandsquare","address":"Manchester Rd","lat":53.78548600335803,"lng":-2.247356140098902,"city_fetched":"Accrington,UK","state":"Lancashire","country":"United Kingdom","canonicalUrl":"https://foursquare.com/v/hollywood-star/4f75c7bee4b0488590811bf2","categoryId":"4bf58dd8d48988d11b941735","category":"Pub","checkinsCount":68,"usersCount":27,"tipCount":2,"visitsCount":68,"url":"http://www.fayreandsquare.com","tier":"","message":"","currency":"","rating":5.8},{"name":"The Boot Inn (Wetherspoon)","phone":"+441282463720","address":"18 St. James St","lat":53.788807514658814,"lng":-2.2407298819066312,"city_fetched":"Accrington,UK","state":"Lancashire","country":"United Kingdom","canonicalUrl":"https://foursquare.com/v/the-boot-inn-wetherspoon/4d4945ab5129a35d9eb137ac","categoryId":"4bf58dd8d48988d11b941735","category":"Pub","checkinsCount":411,"usersCount":150,"tipCount":13,"visitsCount":429,"url":"http://www.jdwetherspoon.co.uk","tier":"","message":"","currency":"","rating":5.4},{"name":"The Calder","phone":"+441254397020","address":"89-95 Blackburn Rd.","lat":53.75312299729932,"lng":-2.366529107093811,"city_fetched":"Accrington,UK","state":"Lancashire","country":"United Kingdom","canonicalUrl":"https://foursquare.com/v/the-calder/4c5476a1fd2ea59366ab242a","categoryId":"4bf58dd8d48988d116941735","category":"Bar","checkinsCount":206,"usersCount":76,"tipCount":2,"visitsCount":214,"tier":"","message":"","currency":"","rating":5.3}]