[{"name":"Turks Head","phone":"+441789765948","address":"4 High St","lat":52.21492,"lng":-1.869743,"city_fetched":"Alcester","state":"Warwickshire","country":"United Kingdom","canonicalUrl":"https://foursquare.com/v/turks-head/4bb6686eef159c745ee775f7","category":"Pub","checkinsCount":140,"usersCount":73,"tipCount":6,"visitsCount":182,"url":"http://www.theturkshead.net","tier":"","message":"","currency":"","rating":7.9},{"name":"The Moat House","phone":"+441789762984","twitter":"lp_themoathouse","address":"Birmingham Rd, Kings Coughton","lat":52.229687860761686,"lng":-1.879513154045977,"city_fetched":"Alcester","state":"Warwickshire","country":"United Kingdom","canonicalUrl":"https://foursquare.com/v/the-moat-house/548a1101498e22e197e5c020","category":"Gastropub","checkinsCount":57,"usersCount":97,"tipCount":0,"visitsCount":195,"url":"http://www.lovelypubs.co.uk/venues/moat-house-inn-alcester","tier":"","message":"","currency":"","rating":7.7},{"name":"The Mother Huff Cap","phone":"+441789488800","address":"Spernal Lane","lat":52.2319459460573,"lng":-1.834942102432251,"city_fetched":"Alcester","country":"United Kingdom","canonicalUrl":"https://foursquare.com/v/the-mother-huff-cap/4d83c050f9f3a1cd7063a764","category":"Gastropub","checkinsCount":95,"usersCount":63,"tipCount":9,"visitsCount":104,"tier":"","message":"","currency":"","rating":6.1},{"name":"The Throckmorton Arms","phone":"+441789766366","address":"Coughton Hill","lat":52.246113274100466,"lng":-1.8856344911867777,"city_fetched":"Alcester","country":"United Kingdom","canonicalUrl":"https://foursquare.com/v/the-throckmorton-arms/4dcd77e6d22deadedd39b994","category":"Gastropub","checkinsCount":192,"usersCount":64,"tipCount":4,"visitsCount":240,"url":"http://www.thethrockmorton.com","tier":2,"message":"Moderate","currency":"Â£","rating":6.1}]