[{"name":"The Clock Inn","phone":"+441773811396","twitter":"theclockinn","address":"107 Market St","lat":53.10465952300996,"lng":-1.342697492541969,"city_fetched":"Alfreton,UK","state":"Derbyshire","country":"United Kingdom","canonicalUrl":"https://foursquare.com/v/the-clock-inn/4c8402f5d4e237048f3f7688","categoryId":"4bf58dd8d48988d11b941735","category":"Pub","checkinsCount":939,"usersCount":39,"tipCount":6,"visitsCount":1000,"url":"http://www.theclockinn.co.uk","tier":"","message":"","currency":"","rating":8.2},{"name":"The Devonshire Arms","phone":"+441773810748","address":"Market St","lat":53.10586267103518,"lng":-1.3426105116874014,"city_fetched":"Alfreton,UK","state":"Derbyshire","country":"United Kingdom","canonicalUrl":"https://foursquare.com/v/the-devonshire-arms/4c6023c012e5c92886861e4c","categoryId":"4bf58dd8d48988d11b941735","category":"Pub","checkinsCount":5417,"usersCount":55,"tipCount":4,"visitsCount":5472,"tier":"","message":"","currency":"","rating":7.9},{"name":"Talbot Taphouse","phone":"+441773742626","twitter":"talbottaphouse","address":"Butterley Hill","lat":53.053225,"lng":-1.405398,"city_fetched":"Alfreton,UK","state":"Derbyshire","country":"United Kingdom","canonicalUrl":"https://foursquare.com/v/talbot-taphouse/4ceea05f0acea35dcb91eaae","categoryId":"4bf58dd8d48988d11b941735","category":"Pub","checkinsCount":101,"usersCount":31,"tipCount":6,"visitsCount":107,"tier":"","message":"","currency":"","rating":7.8},{"name":"The Red Lion (Wetherspoon)","phone":"+441773512875","address":"Market Place","lat":53.050692010657905,"lng":-1.4073047559755123,"city_fetched":"Alfreton,UK","state":"Derbyshire","country":"United Kingdom","canonicalUrl":"https://foursquare.com/v/the-red-lion-wetherspoon/4c87abdb821e9eb0b8cd8d89","categoryId":"4bf58dd8d48988d11b941735","category":"Pub","checkinsCount":1898,"usersCount":190,"tipCount":4,"visitsCount":2080,"url":"http://www.jdwetherspoon.co.uk","tier":1,"message":"Cheap","currency":"£","rating":7.3},{"name":"The Greyhound","phone":"+441773832016","address":"Chesterfield Rd.","lat":53.12989495913213,"lng":-1.4176145195960999,"city_fetched":"Alfreton,UK","state":"Derbyshire","country":"United Kingdom","canonicalUrl":"https://foursquare.com/v/the-greyhound/4d9f56b47ec88cfa825c815a","categoryId":"4bf58dd8d48988d11b941735","category":"Pub","checkinsCount":132,"usersCount":97,"tipCount":4,"visitsCount":174,"tier":2,"message":"Moderate","currency":"£","rating":6.2},{"name":"The Waggon and Horses (Wetherspoon)","phone":"+441773545890","address":"9 King St.","lat":53.097188,"lng":-1.390198,"city_fetched":"Alfreton,UK","state":"Derbyshire","country":"United Kingdom","canonicalUrl":"https://foursquare.com/v/the-waggon-and-horses-wetherspoon/4c87aa32821e9eb037cc8d89","categoryId":"4bf58dd8d48988d11b941735","category":"Pub","checkinsCount":1950,"usersCount":175,"tipCount":6,"visitsCount":2132,"url":"http://www.jdwetherspoon.co.uk","tier":1,"message":"Cheap","currency":"£","rating":5.8},{"name":"Butterley Park Table Table","phone":"+441773512334","address":"Nottingham Road","lat":53.055383,"lng":-1.398160457611084,"city_fetched":"Alfreton,UK","country":"United Kingdom","canonicalUrl":"https://foursquare.com/v/butterley-park-table-table/4b884e54f964a520fbed31e3","categoryId":"4bf58dd8d48988d11b941735","category":"Pub","checkinsCount":108,"usersCount":59,"tipCount":4,"visitsCount":108,"tier":"","message":"","currency":"","rating":5.8},{"name":"The Castlewood (Brewers Fayre)","phone":"+441773862899","twitter":"brewersfayre","address":"Carter Lane East","lat":53.10448573590061,"lng":-1.3211917877197266,"city_fetched":"Alfreton,UK","state":"Derbyshire","country":"United Kingdom","canonicalUrl":"https://foursquare.com/v/the-castlewood-brewers-fayre/4c4efb85960e76b0fd4524e7","categoryId":"4bf58dd8d48988d11b941735","category":"Pub","checkinsCount":492,"usersCount":269,"tipCount":9,"visitsCount":583,"url":"http://www.brewersfayre.co.uk/pub-restaurant/Derbyshire/Castlewood-Mansfield.html","tier":"","message":"","currency":"","rating":5.6}]