[{"name":"The Queen's Head","phone":"+441494778690","address":"120 Church St.","lat":51.70252339761554,"lng":-0.6174075765258796,"city_fetched":"Amersham,UK","state":"Buckinghamshire","country":"United Kingdom","canonicalUrl":"https://foursquare.com/v/the-queens-head/4ba64f62f964a520de4439e3","categoryId":"4bf58dd8d48988d11b941735","category":"Pub","checkinsCount":396,"usersCount":187,"tipCount":10,"visitsCount":557,"tier":"","message":"","currency":"","rating":8.8},{"name":"Red Squirrel Brewery Shop","phone":"+441494784857","twitter":"cheshambrewshop","address":"8 Market Square","lat":51.70362158966782,"lng":-0.6132001830941747,"city_fetched":"Amersham,UK","state":"Buckinghamshire","country":"United Kingdom","canonicalUrl":"https://foursquare.com/v/red-squirrel-brewery-shop/520bc475498e74377dc9b06d","categoryId":"4bf58dd8d48988d11b941735","category":"Pub","checkinsCount":134,"usersCount":60,"tipCount":6,"visitsCount":171,"tier":"","message":"","currency":"","rating":8.6},{"name":"The Harte & Magpies","address":"Magpie Ln.","lat":51.637426387048095,"lng":-0.6201731062294793,"city_fetched":"Amersham,UK","state":"Buckinghamshire","country":"United Kingdom","canonicalUrl":"https://foursquare.com/v/the-harte--magpies/4be5bf2ecf200f4777a9133c","categoryId":"4bf58dd8d48988d11b941735","category":"Pub","checkinsCount":172,"usersCount":121,"tipCount":9,"visitsCount":211,"tier":"","message":"","currency":"","rating":7.8},{"name":"The Swan","phone":"+441494727079","address":"122 High St","lat":51.66764,"lng":-0.621707,"city_fetched":"Amersham,UK","state":"Buckinghamshire","country":"United Kingdom","canonicalUrl":"https://foursquare.com/v/the-swan/4bd2da23a8b3a5932194685f","categoryId":"4bf58dd8d48988d116941735","category":"Bar","checkinsCount":279,"usersCount":194,"tipCount":3,"visitsCount":365,"tier":"","message":"","currency":"","rating":7.8},{"name":"The Ivy House","phone":"+441494872184","address":"London Rd","lat":51.65149815726717,"lng":-0.5797415879053301,"city_fetched":"Amersham,UK","state":"Buckinghamshire","country":"United Kingdom","canonicalUrl":"https://foursquare.com/v/the-ivy-house/4c322eed7cc0c9b6f4e0ef9a","categoryId":"4bf58dd8d48988d11b941735","category":"Pub","checkinsCount":77,"usersCount":51,"tipCount":7,"visitsCount":78,"url":"http://www.ivyhousechalfontstgiles.co.uk","tier":"","message":"","currency":"","rating":7.2},{"name":"Red Lion Knotty Green","phone":"+441494680888","twitter":"beaconsfieldpub","address":"Penn Road Knotty Green","lat":51.622306383213534,"lng":-0.654759407043457,"city_fetched":"Amersham,UK","state":"Buckinghamshire","country":"United Kingdom","canonicalUrl":"https://foursquare.com/v/red-lion-knotty-green/4ccafb3754f0b1f7d5620cca","categoryId":"4bf58dd8d48988d11b941735","category":"Pub","checkinsCount":117,"usersCount":65,"tipCount":2,"visitsCount":217,"url":"http://www.myredlion.com","tier":"","message":"","currency":"","rating":7.1},{"name":"The Red Lion","address":"Chenies","lat":51.672816,"lng":-0.525437,"city_fetched":"Amersham,UK","state":"Hertfordshire","country":"United Kingdom","canonicalUrl":"https://foursquare.com/v/the-red-lion/4c002b53c30a2d7fcf22121d","categoryId":"4bf58dd8d48988d117941735","category":"Beer Garden","checkinsCount":69,"usersCount":80,"tipCount":4,"visitsCount":135,"tier":"","message":"","currency":"","rating":7.1},{"name":"Pomeroy Inn","address":"White Lion Rd","lat":51.670391652092974,"lng":-0.583135700184759,"city_fetched":"Amersham,UK","state":"Buckinghamshire","country":"United Kingdom","canonicalUrl":"https://foursquare.com/v/pomeroy-inn/4e35507fb61cddd1cd3bb686","categoryId":"4bf58dd8d48988d11b941735","category":"Pub","checkinsCount":335,"usersCount":181,"tipCount":8,"visitsCount":427,"tier":"","message":"","currency":"","rating":6.9},{"name":"The Elephant & Castle","phone":"+441494726410","address":"97 High Street","lat":51.66717280688548,"lng":-0.6192654378146493,"city_fetched":"Amersham,UK","state":"Buckinghamshire","country":"United Kingdom","canonicalUrl":"https://foursquare.com/v/the-elephant--castle/4bdb3f23fed22d7fd18057c9","categoryId":"4bf58dd8d48988d11b941735","category":"Pub","checkinsCount":352,"usersCount":127,"tipCount":3,"visitsCount":417,"tier":"","message":"","currency":"","rating":6.6},{"name":"The Kings Arms Hotel","phone":"+441494725722","address":"30 High St","lat":51.666469287228814,"lng":-0.6180562092749078,"city_fetched":"Amersham,UK","state":"Buckinghamshire","country":"United Kingdom","canonicalUrl":"https://foursquare.com/v/the-kings-arms-hotel/4c3f528dff711b8d09bf0e05","categoryId":"4bf58dd8d48988d11b941735","category":"Pub","checkinsCount":368,"usersCount":187,"tipCount":7,"visitsCount":413,"tier":"","message":"","currency":"","rating":6.5},{"name":"The George & Dragon","phone":"+441494782402","address":"14 High Street","lat":51.704440988559,"lng":-0.6130456924438477,"city_fetched":"Amersham,UK","state":"Buckinghamshire","country":"United Kingdom","canonicalUrl":"https://foursquare.com/v/the-george--dragon/4b6cb22ef964a520f84c2ce3","categoryId":"4bf58dd8d48988d11b941735","category":"Pub","checkinsCount":155,"usersCount":77,"tipCount":2,"visitsCount":172,"tier":"","message":"","currency":"","rating":6.3},{"name":"Boot & Slipper","phone":"+441494727082","address":"2 Rickmansworth Rd.","lat":51.680314867422396,"lng":-0.6082337795030136,"city_fetched":"Amersham,UK","state":"Buckinghamshire","country":"United Kingdom","canonicalUrl":"https://foursquare.com/v/boot--slipper/4bc9fa6bfb84c9b6e30e1c3e","categoryId":"4bf58dd8d48988d11b941735","category":"Pub","checkinsCount":313,"usersCount":178,"tipCount":9,"visitsCount":420,"tier":"","message":"","currency":"","rating":5.7},{"name":"The Misty Moon","address":"Hg St Chesham","lat":51.70639348557067,"lng":-0.611961870344082,"city_fetched":"Amersham,UK","state":"Buckinghamshire","country":"United Kingdom","canonicalUrl":"https://foursquare.com/v/the-misty-moon/4c0933536071a5937b79dd32","categoryId":"4bf58dd8d48988d11b941735","category":"Pub","checkinsCount":247,"usersCount":81,"tipCount":4,"visitsCount":255,"tier":"","message":"","currency":"","rating":5.1}]