[{"name":"The Fox Inn","phone":"+441264730276","address":"Hungerford Lane","lat":51.264643,"lng":-1.522722,"city_fetched":"Andover,UK","state":"Hampshire","country":"United Kingdom","canonicalUrl":"https://foursquare.com/v/the-fox-inn/4bc1b1a82a89ef3b4fa1f288","categoryId":"4bf58dd8d48988d11b941735","category":"Pub","checkinsCount":80,"usersCount":54,"tipCount":6,"visitsCount":126,"tier":"","message":"","currency":"","rating":7.5},{"name":"The Town Mills","phone":"+441264332540","address":"20 Bridge Street","lat":51.20726665074923,"lng":-1.481361547093919,"city_fetched":"Andover,UK","state":"Hampshire","country":"United Kingdom","canonicalUrl":"https://foursquare.com/v/the-town-mills/4b5b7ec4f964a5207a0229e3","categoryId":"4bf58dd8d48988d11b941735","category":"Pub","checkinsCount":157,"usersCount":56,"tipCount":4,"visitsCount":157,"tier":"","message":"","currency":"","rating":7.4},{"name":"The Plough","phone":"+441264720358","address":"Longparish","lat":51.19401492159931,"lng":-1.389474284925598,"city_fetched":"Andover,UK","state":"Hampshire","country":"United Kingdom","canonicalUrl":"https://foursquare.com/v/the-plough/4e58eb0c1f6e804280bd9ea7","categoryId":"4bf58dd8d48988d11b941735","category":"Pub","checkinsCount":44,"usersCount":33,"tipCount":3,"visitsCount":49,"tier":"","message":"","currency":"","rating":6.6},{"name":"The Chalkhill Blue","phone":"+441264356023","address":"Hawker Siddeley Way","lat":51.20997528457351,"lng":-1.5192246437072754,"city_fetched":"Andover,UK","state":"Hampshire","country":"United Kingdom","canonicalUrl":"https://foursquare.com/v/the-chalkhill-blue/529899f411d20906f1f9983b","categoryId":"4bf58dd8d48988d11b941735","category":"Pub","checkinsCount":60,"usersCount":61,"tipCount":5,"visitsCount":138,"tier":"","message":"","currency":"","rating":5.9},{"name":"The John Russell Fox (Wetherspoon)","phone":"+441264320920","address":"10 High St","lat":51.20692389336232,"lng":-1.4787301509978963,"city_fetched":"Andover,UK","state":"Hampshire","country":"United Kingdom","canonicalUrl":"https://foursquare.com/v/the-john-russell-fox-wetherspoon/4c139221a9c220a105ea559d","categoryId":"4bf58dd8d48988d11b941735","category":"Pub","checkinsCount":1123,"usersCount":195,"tipCount":4,"visitsCount":1158,"url":"http://www.jdwetherspoon.co.uk","tier":"","message":"","currency":"","rating":5.7},{"name":"Magic Roundabout","phone":"+441264334249","address":"Charlton Rd","lat":51.21320138295561,"lng":-1.486501693725586,"city_fetched":"Andover,UK","state":"Hampshire","country":"United Kingdom","canonicalUrl":"https://foursquare.com/v/magic-roundabout/4c0b9f39340720a14c578893","categoryId":"4bf58dd8d48988d11b941735","category":"Pub","checkinsCount":226,"usersCount":95,"tipCount":7,"visitsCount":277,"tier":"","message":"","currency":"","rating":5.7},{"name":"Brewers Fayre","phone":"+448708506304","address":"Joules Road","lat":51.212384,"lng":-1.5172508,"city_fetched":"Andover,UK","state":"Hampshire","country":"United Kingdom","canonicalUrl":"https://foursquare.com/v/brewers-fayre/4bfaaeb65317a5938d04037f","categoryId":"4bf58dd8d48988d11b941735","category":"Pub","checkinsCount":139,"usersCount":97,"tipCount":3,"visitsCount":140,"tier":"","message":"","currency":"","rating":5.6}]