[{"name":"Brewbot Belfast","twitter":"brewbotbelfast","address":"451 Ormeau Rd","lat":54.57562475386242,"lng":-5.917557004079113,"neighborhood":"Ballynafeigh","city_fetched":"Antrim","state":"Belfast","country":"United Kingdom","canonicalUrl":"https://foursquare.com/v/brewbot-belfast/557f140e498ec58585173940","category":"Bar","checkinsCount":358,"usersCount":246,"tipCount":10,"visitsCount":674,"url":"http://teambrewbot.github.io/brewbotbelfast/","tier":2,"message":"Moderate","currency":"£","rating":9.3},{"name":"The Duke of York","phone":"+442890241062","address":"7-11 Commercial Court","lat":54.6018286749013,"lng":-5.927402973175048,"neighborhood":"Cathedral Quarter","city_fetched":"Antrim","country":"United Kingdom","canonicalUrl":"https://foursquare.com/v/the-duke-of-york/4b47cc65f964a520313f26e3","category":"Pub","checkinsCount":1976,"usersCount":1132,"tipCount":19,"visitsCount":2167,"url":"http://www.dukeofyorkbelfast.com","tier":"","message":"","currency":"","rating":9},{"name":"The Hudson Bar","phone":"+442890232322","twitter":"hudsonbar","address":"10-12 Gresham St","lat":54.601853533828155,"lng":-5.932295322418212,"neighborhood":"Shankill","city_fetched":"Antrim","country":"United Kingdom","canonicalUrl":"https://foursquare.com/v/the-hudson-bar/4e8628a0775bb844cfa18b60","category":"Pub","checkinsCount":2147,"usersCount":747,"tipCount":24,"visitsCount":2753,"url":"http://hudsonbelfast.com","tier":3,"message":"Expensive","currency":"£","rating":9},{"name":"Muriel's Café Bar","phone":"+442890332445","twitter":"murielscafebar","address":"12-14 Church Lane","lat":54.60011337229497,"lng":-5.925557613372803,"neighborhood":"Cath","city_fetched":"Antrim","country":"United Kingdom","canonicalUrl":"https://foursquare.com/v/muriels-caf%C3%A9-bar/4b071106f964a52093f622e3","category":"Bar","checkinsCount":894,"usersCount":531,"tipCount":33,"visitsCount":1010,"tier":"","message":"","currency":"","rating":8.9},{"name":"The Dirty Duck Alehouse","phone":"+442890596666","address":"3 Kinnegar Rd","lat":54.641136926845135,"lng":-5.841220053405562,"city_fetched":"Antrim","country":"United Kingdom","canonicalUrl":"https://foursquare.com/v/the-dirty-duck-alehouse/4c5313e6fd2ea5936562de27","category":"Pub","checkinsCount":412,"usersCount":355,"tipCount":5,"visitsCount":581,"url":"http://thedirtyduckalehouse.co.uk","tier":"","message":"","currency":"","rating":8.9},{"name":"The Sunflower","phone":"+442890232474","address":"65 Union Street","lat":54.60302360559242,"lng":-5.932601911249365,"neighborhood":"Smithfield and Union Quarter","city_fetched":"Antrim","country":"United Kingdom","canonicalUrl":"https://foursquare.com/v/the-sunflower/50ca5592e4b0cc5bad7c6449","category":"Bar","checkinsCount":468,"usersCount":277,"tipCount":11,"visitsCount":663,"url":"http://sunflowerbelfast.com","tier":"","message":"","currency":"","rating":8.9},{"name":"Ramore Wine Bar","phone":"+442870824313","address":"Harbour Road","lat":55.20770638733975,"lng":-6.657839296649185,"city_fetched":"Antrim","country":"United Kingdom","canonicalUrl":"https://foursquare.com/v/ramore-wine-bar/4bc36ca8b492d13a03bba860","category":"Wine Bar","checkinsCount":654,"usersCount":461,"tipCount":13,"visitsCount":845,"tier":"","message":"","currency":"","rating":8.8},{"name":"The Merchant Hotel Cocktail Bar","phone":"+442890234888","twitter":"merchanthotel","address":"16 Skipper St","lat":54.60114504846548,"lng":-5.925922393798828,"neighborhood":"Cathedral Quarter","city_fetched":"Antrim","country":"United Kingdom","canonicalUrl":"https://foursquare.com/v/the-merchant-hotel-cocktail-bar/4ee29cdbaa1f1c23b79f7916","category":"Cocktail Bar","checkinsCount":435,"usersCount":277,"tipCount":8,"visitsCount":446,"url":"https://www.themerchanthotel.com","tier":"","message":"","currency":"","rating":8.7},{"name":"Old Bushmills Distillery","phone":"+442820733218","address":"2 Distillery Road","lat":55.20169231907637,"lng":-6.520661012070728,"city_fetched":"Antrim","country":"United Kingdom","canonicalUrl":"https://foursquare.com/v/old-bushmills-distillery/4c139936a5eb76b0f823c0b7","category":"Distillery","checkinsCount":1995,"usersCount":2186,"tipCount":24,"visitsCount":2335,"tier":"","message":"","currency":"","rating":8.6},{"name":"The Bushmills Inn","phone":"+442820733000","twitter":"bushmillsinn","address":"9 Dunluce Rd","lat":55.207156715868834,"lng":-6.524329444557517,"city_fetched":"Antrim","country":"United Kingdom","canonicalUrl":"https://foursquare.com/v/the-bushmills-inn/4bdecf0cfe0e62b52ef70506","category":"Hotel","checkinsCount":471,"usersCount":445,"tipCount":8,"visitsCount":580,"url":"http://www.bushmillsinn.com","tier":"","message":"","currency":"","rating":8.5},{"name":"The Crown Liquor Saloon","phone":"+442890243187","address":"46 Great Victoria St","lat":54.59469042770255,"lng":-5.934231877326965,"city_fetched":"Antrim","country":"United Kingdom","canonicalUrl":"https://foursquare.com/v/the-crown-liquor-saloon/4c4647bd342c1b8d3040b689","category":"Pub","checkinsCount":2605,"usersCount":2250,"tipCount":49,"visitsCount":2836,"url":"http://www.crownbar.com/‎","tier":2,"message":"Moderate","currency":"£","rating":8.4},{"name":"The Garrick","phone":"+442890321984","twitter":"thegarrickbar","address":"29 Chichester Street","lat":54.597291666606566,"lng":-5.926609039306641,"city_fetched":"Antrim","country":"United Kingdom","canonicalUrl":"https://foursquare.com/v/the-garrick/4bb3c394715eef3b6bce86bb","category":"Bar","checkinsCount":1568,"usersCount":616,"tipCount":16,"visitsCount":1631,"url":"http://www.thegarrickbar.com","tier":2,"message":"Moderate","currency":"£","rating":8.4},{"name":"White's Tavern","address":"2-4 Winecellar Entry","lat":54.599991,"lng":-5.928393,"city_fetched":"Antrim","state":"Belfast","country":"United Kingdom","canonicalUrl":"https://foursquare.com/v/whites-tavern/4bd352d741b9ef3b0fe3ffe5","category":"Bar","checkinsCount":389,"usersCount":333,"tipCount":4,"visitsCount":431,"tier":"","message":"","currency":"","rating":8.4},{"name":"The Dirty Onion","phone":"+442890243712","address":"3 Hill Street","lat":54.6014726813104,"lng":-5.926473365218897,"neighborhood":"Cathedral Quarter","city_fetched":"Antrim","state":"Belfast","country":"United Kingdom","canonicalUrl":"https://foursquare.com/v/the-dirty-onion/52988e8511d22448bd236206","category":"Bar","checkinsCount":834,"usersCount":632,"tipCount":12,"visitsCount":1035,"url":"http://www.thedirtyonion.com","tier":2,"message":"Moderate","currency":"£","rating":8.3},{"name":"Kelly's Cellars","phone":"+442890246058","address":"30-32 Bank St","lat":54.599678320291005,"lng":-5.932145118713379,"city_fetched":"Antrim","country":"United Kingdom","canonicalUrl":"https://foursquare.com/v/kellys-cellars/4b64a08bf964a52082c32ae3","category":"Bar","checkinsCount":749,"usersCount":549,"tipCount":18,"visitsCount":852,"tier":"","message":"","currency":"","rating":8.3},{"name":"Katy's Bar","phone":"+442890325968","address":"17 Ormeau Ave","lat":54.59276808539911,"lng":-5.928924160916588,"city_fetched":"Antrim","country":"United Kingdom","canonicalUrl":"https://foursquare.com/v/katys-bar/4b881043f964a520dfdc31e3","category":"Pub","checkinsCount":655,"usersCount":284,"tipCount":8,"visitsCount":668,"tier":"","message":"","currency":"","rating":8.2},{"name":"McHugh's Bar & Restaurant","phone":"+442890509999","twitter":"mchughsbar1711","address":"29-31 Queen's Square","lat":54.60095860289998,"lng":-5.923304557800293,"city_fetched":"Antrim","country":"United Kingdom","canonicalUrl":"https://foursquare.com/v/mchughs-bar--restaurant/4ba161dcf964a52014b237e3","category":"Pub","checkinsCount":1487,"usersCount":900,"tipCount":19,"visitsCount":1654,"url":"http://mchughsbar.com","tier":"","message":"","currency":"","rating":8.2},{"name":"The rabbit rooms","address":"30-32 Quay St","lat":54.66409412301998,"lng":-5.667624837187147,"city_fetched":"Antrim","country":"United Kingdom","canonicalUrl":"https://foursquare.com/v/the-rabbit-rooms/4c877cafe602b1f7f1fac77a","category":"Bar","checkinsCount":333,"usersCount":138,"tipCount":15,"visitsCount":350,"tier":"","message":"","currency":"","rating":8.2},{"name":"The Black Box","phone":"+442890244400","twitter":"blackboxbelfast","address":"18-22 Hill St","lat":54.60167952102156,"lng":-5.926995277404785,"neighborhood":"Cathedral Quarter","city_fetched":"Antrim","country":"United Kingdom","canonicalUrl":"https://foursquare.com/v/the-black-box/4b06f46df964a5201af422e3","category":"Performing Arts Venue","checkinsCount":1710,"usersCount":554,"tipCount":22,"visitsCount":1784,"url":"http://www.blackboxbelfast.com","tier":"","message":"","currency":"","rating":8.2},{"name":"The Limelight","phone":"+442890325968","address":"17 Ormeau Ave","lat":54.592803881688155,"lng":-5.928990840911865,"city_fetched":"Antrim","country":"United Kingdom","canonicalUrl":"https://foursquare.com/v/the-limelight/4b65d319f964a5203a022be3","category":"Nightclub","checkinsCount":1178,"usersCount":602,"tipCount":3,"visitsCount":1393,"url":"http://www.limelightbelfast.com","tier":"","message":"","currency":"","rating":8.2},{"name":"The John Hewitt","phone":"+442890233768","address":"51 Donegall St","lat":54.6019529693837,"lng":-5.928604602813721,"neighborhood":"Cathedral Quarter","city_fetched":"Antrim","country":"United Kingdom","canonicalUrl":"https://foursquare.com/v/the-john-hewitt/4c1669aea5eb76b040ccc4b7","category":"Pub","checkinsCount":1172,"usersCount":621,"tipCount":18,"visitsCount":1313,"url":"http://www.thejohnhewitt.com","tier":"","message":"","currency":"","rating":8.1},{"name":"Balloo House","phone":"+442897541210","address":"1 Comber Road","lat":54.472493,"lng":-5.69034033,"city_fetched":"Antrim","country":"United Kingdom","canonicalUrl":"https://foursquare.com/v/balloo-house/4c266400c11dc9b6f6e72824","category":"Restaurant","checkinsCount":121,"usersCount":110,"tipCount":6,"visitsCount":148,"url":"http://www.ballooinns.com/balloo-house/","tier":2,"message":"Moderate","currency":"£","rating":8.1},{"name":"The Spaniard","phone":"+442890232448","address":"3 Skipper St","lat":54.601070470341746,"lng":-5.926179885864258,"neighborhood":"Cathedral Quarter","city_fetched":"Antrim","country":"United Kingdom","canonicalUrl":"https://foursquare.com/v/the-spaniard/4bb897143db7b7135e65219a","category":"Pub","checkinsCount":919,"usersCount":434,"tipCount":15,"visitsCount":931,"url":"http://www.thespaniardbar.com","tier":"","message":"","currency":"","rating":8},{"name":"The King's Head","phone":"+442890509950","address":"829 Lisburn Road","lat":54.56818219741436,"lng":-5.969049632549286,"neighborhood":"Musgrave","city_fetched":"Antrim","country":"United Kingdom","canonicalUrl":"https://foursquare.com/v/the-kings-head/4be44d43cf200f476cc1113c","category":"Pub","checkinsCount":378,"usersCount":208,"tipCount":4,"visitsCount":412,"tier":"","message":"","currency":"","rating":8},{"name":"Café Vaudeville","phone":"+442890439160","address":"25-39 Arthur St","lat":54.59788834314183,"lng":-5.928025245666504,"city_fetched":"Antrim","country":"United Kingdom","canonicalUrl":"https://foursquare.com/v/caf%C3%A9-vaudeville/4b76ef7ff964a5202c6c2ee3","category":"Restaurant","checkinsCount":538,"usersCount":418,"tipCount":17,"visitsCount":577,"url":"http://www.cafevaudeville.com","tier":"","message":"","currency":"","rating":8},{"name":"The Fitzwilliam Hotel Belfast","phone":"+442890442080","twitter":"fitzwilliambel","address":"Great Victoria St","lat":54.5930099,"lng":-5.9342299,"city_fetched":"Antrim","state":"Belfast","country":"United Kingdom","canonicalUrl":"https://foursquare.com/v/the-fitzwilliam-hotel-belfast/4b587d9ff964a5204d5a28e3","category":"Hotel","checkinsCount":1189,"usersCount":671,"tipCount":26,"visitsCount":1284,"url":"http://www.fitzwilliamhotelbelfast.com","tier":"","message":"","currency":"","rating":7.9},{"name":"Fibber Magees","phone":"+442890247447","address":"38-42 Great Victoria St","lat":54.59485514668248,"lng":-5.93386173248291,"city_fetched":"Antrim","country":"United Kingdom","canonicalUrl":"https://foursquare.com/v/fibber-magees/4b50a28ff964a520762a27e3","category":"Bar","checkinsCount":277,"usersCount":230,"tipCount":4,"visitsCount":278,"url":"http://www.robinsonsbar.co.uk","tier":"","message":"","currency":"","rating":7.9},{"name":"Lavery's","phone":"+442890871106","twitter":"laverysbelfast","address":"12-18 Bradbury Pl","lat":54.58906425477886,"lng":-5.934357409426246,"city_fetched":"Antrim","country":"United Kingdom","canonicalUrl":"https://foursquare.com/v/laverys/4b71e344f964a5204c622de3","category":"Bar","checkinsCount":3487,"usersCount":1336,"tipCount":33,"visitsCount":3997,"url":"http://www.laverysbelfast.com","tier":2,"message":"Moderate","currency":"£","rating":7.9},{"name":"The Harbour Bar","phone":"+442870822430","address":"6 Harbour Road","lat":55.207513,"lng":-6.658095,"city_fetched":"Antrim","state":"Coleraine","country":"United Kingdom","canonicalUrl":"https://foursquare.com/v/the-harbour-bar/4c5ea74c9b28d13a2cdb5c70","category":"Bar","checkinsCount":269,"usersCount":182,"tipCount":4,"visitsCount":273,"tier":"","message":"","currency":"","rating":7.9},{"name":"Bert's Jazz Bar","address":"16 Skipper St","lat":54.600553808139395,"lng":-5.925561417087803,"neighborhood":"Cathedral Quarter","city_fetched":"Antrim","country":"United Kingdom","canonicalUrl":"https://foursquare.com/v/berts-jazz-bar/4c6fcdd4d274b60cca8cd70d","category":"Lounge","checkinsCount":408,"usersCount":253,"tipCount":12,"visitsCount":441,"tier":"","message":"","currency":"","rating":7.9},{"name":"Solo Kitchen + Bar","phone":"+442890311101","address":"Wellington Place","lat":54.59715598350488,"lng":-5.932426402428747,"city_fetched":"Antrim","state":"Belfast","country":"United Kingdom","canonicalUrl":"https://foursquare.com/v/solo-kitchen--bar/5380d1d9498eefac45627a67","category":"Bistro","checkinsCount":51,"usersCount":48,"tipCount":8,"visitsCount":52,"url":"http://solobelfast.com","tier":2,"message":"Moderate","currency":"£","rating":7.9},{"name":"Executive Lounge","phone":"+442890277000","twitter":"hiltonhotels","address":"Hilton Belfast Hotel, 4 Lanyon Pl","lat":54.597018186939344,"lng":-5.9189754724502555,"city_fetched":"Antrim","state":"Belfast","country":"United Kingdom","canonicalUrl":"https://foursquare.com/v/executive-lounge/4daf1b4f43a1f97d919ace07","category":"Hotel Bar","checkinsCount":178,"usersCount":95,"tipCount":3,"visitsCount":181,"tier":"","message":"","currency":"","rating":7.8},{"name":"Bittles","phone":"+442890311088","address":"70 Upper Church Lane","lat":54.598607450446494,"lng":-5.924098822454628,"neighborhood":"Victoria Square","city_fetched":"Antrim","country":"United Kingdom","canonicalUrl":"https://foursquare.com/v/bittles/4c62a3f94be3b713650ddee8","category":"Pub","checkinsCount":300,"usersCount":215,"tipCount":12,"visitsCount":301,"tier":"","message":"","currency":"","rating":7.8},{"name":"Gillies","lat":54.87739750246526,"lng":-6.347423748931984,"city_fetched":"Antrim","country":"United Kingdom","canonicalUrl":"https://foursquare.com/v/gillies/4d1f9d0cd7b0b1f709160e9f","category":"Bar","checkinsCount":168,"usersCount":105,"tipCount":5,"visitsCount":185,"tier":"","message":"","currency":"","rating":7.8},{"name":"Molly's Yard","phone":"+442890322600","address":"1 College Green Mews","lat":54.585726857185364,"lng":-5.9318608045578,"neighborhood":"Queen's Quarter","city_fetched":"Antrim","state":"Belfast","country":"United Kingdom","canonicalUrl":"https://foursquare.com/v/mollys-yard/4c45f53af5aee21ee0f31658","category":"Gastropub","checkinsCount":138,"usersCount":125,"tipCount":7,"visitsCount":142,"tier":1,"message":"Cheap","currency":"£","rating":7.7},{"name":"The Ivory","phone":"+442890324577","twitter":"theivorybelfast","address":"House of Fraser","lat":54.59764659272035,"lng":-5.924265484107653,"neighborhood":"Victoria Square","city_fetched":"Antrim","country":"United Kingdom","canonicalUrl":"https://foursquare.com/v/the-ivory/4bceaecdfb84c9b64d36243e","category":"Restaurant","checkinsCount":193,"usersCount":158,"tipCount":2,"visitsCount":193,"url":"http://www.theivorybelfast.com","tier":"","message":"","currency":"","rating":7.6},{"name":"Jamaica Inn","address":"188-194 Seacliff Rd","lat":54.669588804244995,"lng":-5.657828,"city_fetched":"Antrim","state":"N Down","country":"United Kingdom","canonicalUrl":"https://foursquare.com/v/jamaica-inn/4c0acbb6009a0f47c314eabf","category":"Bar","checkinsCount":151,"usersCount":123,"tipCount":4,"visitsCount":223,"tier":"","message":"","currency":"","rating":7.6},{"name":"The Smugglers Inn","phone":"+442820731577","address":"306 Whitepark Rd.","lat":55.219894014263836,"lng":-6.511792377204532,"city_fetched":"Antrim","country":"United Kingdom","canonicalUrl":"https://foursquare.com/v/the-smugglers-inn/4be1f9d28dd062b505c23e3c","category":"Gastropub","checkinsCount":94,"usersCount":112,"tipCount":0,"visitsCount":126,"url":"http://www.smugglers-inn.co.uk","tier":"","message":"","currency":"","rating":7.6},{"name":"The Woodworkers","phone":"+442890871106","twitter":"the_woodworkers","address":"20 Bradbury Pl","lat":54.588937460853,"lng":-5.934406766051416,"city_fetched":"Antrim","state":"Belfast","country":"United Kingdom","canonicalUrl":"https://foursquare.com/the_woodworkers","category":"Dive Bar","checkinsCount":377,"usersCount":138,"tipCount":4,"visitsCount":413,"tier":"","message":"","currency":"","rating":7.6},{"name":"Speakeasy","phone":"+442890973726","twitter":"mandellahall","address":"Queen's University Students' Union","lat":54.58468483152977,"lng":-5.936930179595947,"neighborhood":"Queen's Quarter","city_fetched":"Antrim","country":"United Kingdom","canonicalUrl":"https://foursquare.com/v/speakeasy/4cb1af00cbab236ab5afaa73","category":"Bar","checkinsCount":298,"usersCount":105,"tipCount":0,"visitsCount":303,"url":"http://www.mandelahall.com","tier":"","message":"","currency":"","rating":7.6},{"name":"The Morning Star","phone":"+442890235986","address":"17-19 Pottingers Entry","lat":54.59954517533657,"lng":-5.926263920159073,"city_fetched":"Antrim","state":"Belfast","country":"United Kingdom","canonicalUrl":"https://foursquare.com/v/the-morning-star/4be9c51161aca593fbf58200","category":"Bar","checkinsCount":337,"usersCount":232,"tipCount":11,"visitsCount":340,"tier":"","message":"","currency":"","rating":7.5},{"name":"Maverick","phone":"+442890246925","twitter":"maverick_ni","address":"1 Union St","lat":54.60405928573517,"lng":-5.93086921787334,"neighborhood":"Smithfield and Union Quarter","city_fetched":"Antrim","state":"Belfast","country":"United Kingdom","canonicalUrl":"https://foursquare.com/v/maverick/52c89bda498ebff3a28bb97b","category":"Gay Bar","checkinsCount":164,"usersCount":74,"tipCount":1,"visitsCount":180,"url":"http://www.maverickbelfast.com","tier":"","message":"","currency":"","rating":7.5},{"name":"Union Street Bar","address":"Union Street","lat":54.60384,"lng":-5.931717,"neighborhood":"Smithfield and Union Quarter","city_fetched":"Antrim","state":"Belfast","country":"United Kingdom","canonicalUrl":"https://foursquare.com/v/union-street-bar/4bf025d33a002d7f0dba85a4","category":"Gay Bar","checkinsCount":605,"usersCount":274,"tipCount":2,"visitsCount":693,"tier":"","message":"","currency":"","rating":7.5},{"name":"Daft Eddy's","address":"1-7 Sketrick Island","lat":54.48771357536316,"lng":-5.647380352020264,"city_fetched":"Antrim","state":"Ards District","country":"United Kingdom","canonicalUrl":"https://foursquare.com/v/daft-eddys/4c6823bc1c91a5937941ef07","category":"Pub","checkinsCount":88,"usersCount":92,"tipCount":2,"visitsCount":132,"tier":"","message":"","currency":"","rating":7.4},{"name":"The Cardan Bar & Grill","phone":"+442892678065","address":"41 Railway street","lat":54.51349093333334,"lng":-6.044856,"city_fetched":"Antrim","state":"Lisburn","country":"United Kingdom","canonicalUrl":"https://foursquare.com/v/the-cardan-bar--grill/4c6a8369897b1b8df8e2b117","category":"Pub","checkinsCount":141,"usersCount":58,"tipCount":7,"visitsCount":145,"tier":"","message":"","currency":"","rating":7.4},{"name":"Cuckoo","phone":"+442890667776","twitter":"cuckoobelfast1","address":"149 Lisburn Rd","lat":54.58332942665194,"lng":-5.944998264312744,"neighborhood":"Windsor","city_fetched":"Antrim","country":"United Kingdom","canonicalUrl":"https://foursquare.com/v/cuckoo/4fcd00d0e4b0ff719ba0be0c","category":"Bar","checkinsCount":767,"usersCount":349,"tipCount":12,"visitsCount":886,"tier":"","message":"","currency":"","rating":7.4},{"name":"Maddens Bar","address":"Berry street","lat":54.59996949293807,"lng":-5.934290471520329,"city_fetched":"Antrim","state":"Belfast","country":"United Kingdom","canonicalUrl":"https://foursquare.com/v/maddens-bar/4c7594d3604a3704191e8349","category":"Bar","checkinsCount":147,"usersCount":114,"tipCount":3,"visitsCount":169,"tier":"","message":"","currency":"","rating":7.4},{"name":"The Harp Bar","phone":"+442890329923","address":"35-39 Hill St","lat":54.601968943744104,"lng":-5.927166368628105,"neighborhood":"Cathedral Quarter","city_fetched":"Antrim","country":"United Kingdom","canonicalUrl":"https://foursquare.com/v/the-harp-bar/5261399911d21bb2c1ae1f8c","category":"Bar","checkinsCount":381,"usersCount":270,"tipCount":7,"visitsCount":399,"url":"http://www.harpbarbelfast.com","tier":"","message":"","currency":"","rating":7.4},{"name":"Steamboat Oriental Barbeque","address":"15 Donegall Pass","lat":54.5895365298752,"lng":-5.933302673057088,"city_fetched":"Antrim","country":"United Kingdom","canonicalUrl":"https://foursquare.com/v/steamboat-oriental-barbeque/504b9545e4b0b18004d43314","category":"Asian Restaurant","checkinsCount":271,"usersCount":70,"tipCount":2,"visitsCount":277,"tier":"","message":"","currency":"","rating":7.4},{"name":"Central Bar","phone":"+442820763877","address":"12 Ann St","lat":55.20145019420434,"lng":-6.250061884619139,"city_fetched":"Antrim","state":"Antrim","country":"United Kingdom","canonicalUrl":"https://foursquare.com/v/central-bar/4d17bb50bb64224bc86cc265","category":"Bar","checkinsCount":255,"usersCount":125,"tipCount":7,"visitsCount":266,"url":"http://www.centralwinebar.com","tier":"","message":"","currency":"","rating":7.3},{"name":"RBG Bar & Grill","phone":"+442890677707","twitter":"rbg_belfast","address":"4 Clarence St W","lat":54.593949,"lng":-5.932037,"neighborhood":"Belfast City Centre","city_fetched":"Antrim","country":"United Kingdom","canonicalUrl":"https://foursquare.com/v/rbg-bar--grill/4b59f25ff964a520efa228e3","category":"BBQ Joint","checkinsCount":379,"usersCount":220,"tipCount":8,"visitsCount":386,"url":"http://www.rbggrill.com/restaurantbelfast","tier":"","message":"","currency":"","rating":7.3},{"name":"The Old Inn","phone":"+442891851355","twitter":"oldinn1614","address":"15-25 Main St.","lat":54.65876984973719,"lng":-5.728761064169542,"city_fetched":"Antrim","country":"United Kingdom","canonicalUrl":"https://foursquare.com/v/the-old-inn/4bd730e0304fce72253233ab","category":"Hotel Bar","checkinsCount":267,"usersCount":216,"tipCount":3,"visitsCount":341,"tier":2,"message":"Moderate","currency":"£","rating":7.3},{"name":"Aether & Echo","phone":"+442890239163","twitter":"aetherandecho","address":"11 Lower Garfield St","lat":54.60150244189067,"lng":-5.930239974538252,"city_fetched":"Antrim","country":"United Kingdom","canonicalUrl":"https://foursquare.com/v/aether--echo/523caad611d2076f0f6e025c","category":"Bar","checkinsCount":459,"usersCount":323,"tipCount":1,"visitsCount":626,"url":"http://aetherandecho.com","tier":"","message":"","currency":"","rating":7.3},{"name":"The Cloth Ear","phone":"+442890262719","twitter":"theclothear","address":"35-39 Waring St","lat":54.60118233747612,"lng":-5.926201343536377,"neighborhood":"Cathedral Quarter","city_fetched":"Antrim","country":"United Kingdom","canonicalUrl":"https://foursquare.com/v/the-cloth-ear/4ba54eeef964a520ecf838e3","category":"Restaurant","checkinsCount":563,"usersCount":377,"tipCount":6,"visitsCount":569,"url":"http://www.themerchanthotel.com","tier":2,"message":"Moderate","currency":"£","rating":7.2},{"name":"The Poet Bar and Grill","phone":"+442890401248","address":"Kings Square, Kings Road","lat":54.58932,"lng":-5.845554,"neighborhood":"Gilnahirk","city_fetched":"Antrim","state":"Belfast","country":"United Kingdom","canonicalUrl":"https://foursquare.com/v/the-poet-bar-and-grill/4be68f942468c928347f0143","category":"Gastropub","checkinsCount":220,"usersCount":88,"tipCount":5,"visitsCount":241,"url":"http://www.lonelypoetbelfast.com","tier":1,"message":"Cheap","currency":"£","rating":7.2},{"name":"The Windrose","phone":"+442893351164","address":"Rogers Quay","lat":54.711352438069156,"lng":-5.81402063369751,"city_fetched":"Antrim","country":"United Kingdom","canonicalUrl":"https://foursquare.com/v/the-windrose/4c03ef076c349c74e56e750c","category":"Bar","checkinsCount":132,"usersCount":112,"tipCount":6,"visitsCount":190,"tier":"","message":"","currency":"","rating":7.1},{"name":"Filthy McNasty's","phone":"+442890246823","twitter":"filthymcnasties","address":"45 Dublin Rd","lat":54.591921184351975,"lng":-5.932681560516357,"city_fetched":"Antrim","country":"United Kingdom","canonicalUrl":"https://foursquare.com/v/filthy-mcnastys/4c90fd172626a1cdf7662e6b","category":"Pub","checkinsCount":1721,"usersCount":1037,"tipCount":26,"visitsCount":2054,"url":"http://www.thefilthyquarter.com/filthymcnastys/","tier":"","message":"","currency":"","rating":7.1},{"name":"Bootleggers","phone":"+442890233282","address":"46 Church Lane","lat":54.59941044258036,"lng":-5.924788138200649,"city_fetched":"Antrim","country":"United Kingdom","canonicalUrl":"https://foursquare.com/v/bootleggers/55a9519d498ee90cd8e10fb1","category":"Bar","checkinsCount":280,"usersCount":144,"tipCount":4,"visitsCount":344,"url":"http://bootleggersbelfast.com","tier":"","message":"","currency":"","rating":7.1},{"name":"Horatio Todd's","phone":"+442890653090","address":"406 Upper Newtownards Rd","lat":54.595082641694404,"lng":-5.865413616466098,"neighborhood":"Ballyhackamore","city_fetched":"Antrim","state":"Belfast","country":"United Kingdom","canonicalUrl":"https://foursquare.com/v/horatio-todds/4bf859a6b182c9b6ca5b775a","category":"Bar","checkinsCount":512,"usersCount":273,"tipCount":11,"visitsCount":531,"tier":"","message":"","currency":"","rating":7.1},{"name":"The Parlour Bar","phone":"+442890686970","twitter":"parlourbelfast","address":"2-4 Elmwood Avenue","lat":54.584536,"lng":-5.937522,"neighborhood":"Queen's Quarter","city_fetched":"Antrim","country":"United Kingdom","canonicalUrl":"https://foursquare.com/v/the-parlour-bar/4b92b920f964a5204d1534e3","category":"Pub","checkinsCount":571,"usersCount":246,"tipCount":9,"visitsCount":592,"url":"http://www.parlourbar.co.uk","tier":"","message":"","currency":"","rating":7},{"name":"Birdcage","phone":"+442890663101","twitter":"birdcagebelfast","address":"92 Stranmillis Rd","lat":54.57865355550897,"lng":-5.933990478515625,"neighborhood":"Stranmillis Village","city_fetched":"Antrim","country":"United Kingdom","canonicalUrl":"https://foursquare.com/v/birdcage/4f8db803e4b0ca2accec9879","category":"Cocktail Bar","checkinsCount":277,"usersCount":196,"tipCount":10,"visitsCount":327,"url":"http://www.birdcagebelfast.com","tier":"","message":"","currency":"","rating":7},{"name":"Kremlin","phone":"+442890316061","address":"96 Donegall St","lat":54.604028631160475,"lng":-5.931200981140137,"neighborhood":"Smithfield and Union Quarter","city_fetched":"Antrim","state":"Belfast","country":"United Kingdom","canonicalUrl":"https://foursquare.com/v/kremlin/4bef2c5a2ff520a17c3be8a2","category":"Gay Bar","checkinsCount":609,"usersCount":273,"tipCount":6,"visitsCount":663,"url":"http://www.kremlin-belfast.com","tier":"","message":"","currency":"","rating":7},{"name":"The National","phone":"+442890311130","twitter":"nationalbelfast","address":"62-68 High St","lat":54.60064544662235,"lng":-5.9261971378292655,"neighborhood":"Cathedral Quarter","city_fetched":"Antrim","country":"United Kingdom","canonicalUrl":"https://foursquare.com/v/the-national/5230768211d2fff2c199c67d","category":"Bar","checkinsCount":874,"usersCount":529,"tipCount":16,"visitsCount":1049,"url":"http://thenationalbelfast.com","tier":2,"message":"Moderate","currency":"£","rating":7},{"name":"The Spinning Mill (Wetherspoon)","phone":"+442825638985","address":"17-21 Broughshane St.","lat":54.86702776739472,"lng":-6.273133900294229,"city_fetched":"Antrim","country":"United Kingdom","canonicalUrl":"https://foursquare.com/v/the-spinning-mill-wetherspoon/4c87aa3c821e9eb041cc8d89","category":"Pub","checkinsCount":457,"usersCount":122,"tipCount":6,"visitsCount":521,"url":"http://www.jdwetherspoon.co.uk","tier":"","message":"","currency":"","rating":7},{"name":"The Malmaison Hotel","phone":"+442890220200","twitter":"thebelfastmal","address":"34-38 Victoria St","lat":54.59997664216605,"lng":-5.924227237701416,"city_fetched":"Antrim","country":"United Kingdom","canonicalUrl":"https://foursquare.com/v/the-malmaison-hotel/4be9d0356295c9b6f3af8508","category":"Hotel","checkinsCount":1608,"usersCount":633,"tipCount":21,"visitsCount":1707,"url":"http://www.malmaison.com/‎","tier":"","message":"","currency":"","rating":7},{"name":"Cutters Wharf","phone":"+442890805100","twitter":"cutterswharfbar","address":"Lockview Rd","lat":54.572493153405844,"lng":-5.929253333926478,"neighborhood":"Stranmillis","city_fetched":"Antrim","state":"Belfast","country":"United Kingdom","canonicalUrl":"https://foursquare.com/v/cutters-wharf/4bacc10ef964a52087093be3","category":"Gastropub","checkinsCount":636,"usersCount":289,"tipCount":9,"visitsCount":730,"url":"http://www.cutterswharf.co.uk","tier":2,"message":"Moderate","currency":"£","rating":7},{"name":"Boombox Belfast","phone":"+442890332130","address":"108 Donegall St","lat":54.60419349810812,"lng":-5.931020497584191,"neighborhood":"Smithfield and Union Quarter","city_fetched":"Antrim","state":"Belfast","country":"United Kingdom","canonicalUrl":"https://foursquare.com/v/boombox-belfast/53f1268c498e0e419051fab7","category":"Gay Bar","checkinsCount":139,"usersCount":40,"tipCount":0,"visitsCount":158,"url":"http://www.boomboxbelfast.com","tier":"","message":"","currency":"","rating":7},{"name":"Brewer's Fayre","phone":"02894429954","address":"Junction One International Outlet Centre","lat":54.72867141663856,"lng":-6.2264925541947935,"city_fetched":"Antrim","country":"Ireland","canonicalUrl":"https://foursquare.com/v/brewers-fayre/4c7d0fd509b29c748396e63c","category":"Gastropub","checkinsCount":117,"usersCount":75,"tipCount":3,"visitsCount":131,"tier":"","message":"","currency":"","rating":6.9},{"name":"The Albany","phone":"+442890664442","twitter":"albanybelfast","address":"701-703 Lisburn Road","lat":54.57252111491263,"lng":-5.960181916412153,"neighborhood":"Malone","city_fetched":"Antrim","state":"Belfast","country":"United Kingdom","canonicalUrl":"https://foursquare.com/v/the-albany/52457d76498ea86d1e88f801","category":"Bar","checkinsCount":278,"usersCount":112,"tipCount":11,"visitsCount":333,"url":"http://www.thealbanybelfast.com","tier":"","message":"","currency":"","rating":6.9},{"name":"The Errigle Inn","phone":"+442890641410","twitter":"errigleinn","address":"312-320 Ormeau Rd","lat":54.575912,"lng":-5.917204,"neighborhood":"Ballynafeigh","city_fetched":"Antrim","country":"United Kingdom","canonicalUrl":"https://foursquare.com/v/the-errigle-inn/4c06ca359e1ab7134be25243","category":"Pub","checkinsCount":854,"usersCount":430,"tipCount":5,"visitsCount":1126,"url":"http://www.errigle.com","tier":"","message":"","currency":"","rating":6.9},{"name":"The House Bar","phone":"+442890682266","address":"12 Stranmillis Road","lat":54.58109592733615,"lng":-5.9354599203799365,"neighborhood":"Botanic","city_fetched":"Antrim","country":"United Kingdom","canonicalUrl":"https://foursquare.com/v/the-house-bar/4c71421bd97fa1434843f8ca","category":"Pub","checkinsCount":344,"usersCount":160,"tipCount":3,"visitsCount":373,"tier":"","message":"","currency":"","rating":6.6}]