[{"name":"Beefeater","phone":"+441903882655","address":"Crossbush Lane","lat":50.845607938917716,"lng":-0.5402505312630979,"city_fetched":"Arundel","state":"West Sussex","country":"United Kingdom","canonicalUrl":"https://foursquare.com/v/beefeater/4eef39239911d70cb9c25a67","category":"Gastropub","checkinsCount":72,"usersCount":66,"tipCount":6,"visitsCount":86,"tier":"","message":"","currency":"","rating":7.8},{"name":"The Black Rabbit","address":"Mill Rd","lat":50.86671479538297,"lng":-0.5435405035844941,"city_fetched":"Arundel","state":"West Sussex","country":"United Kingdom","canonicalUrl":"https://foursquare.com/v/the-black-rabbit/4bb24291eb3e9521b8c8c90a","category":"Pub","checkinsCount":491,"usersCount":528,"tipCount":13,"visitsCount":672,"url":"http://www.theblackrabbitarundel.co.uk","tier":"","message":"","currency":"","rating":7.3},{"name":"The Red Lion","address":"High Street","lat":50.85421,"lng":-0.55405,"city_fetched":"Arundel","state":"West Sussex","country":"United Kingdom","canonicalUrl":"https://foursquare.com/v/the-red-lion/4bc75d670050b7137b8db83b","category":"Pub","checkinsCount":230,"usersCount":186,"tipCount":2,"visitsCount":230,"tier":"","message":"","currency":"","rating":7},{"name":"Pappardelle Osteria & Ristorante","address":"41 High Street","lat":50.854278,"lng":-0.553837,"city_fetched":"Arundel","state":"West Sussex","country":"United Kingdom","canonicalUrl":"https://foursquare.com/v/pappardelle-osteria--ristorante/4c5315faf5f3d13a483feaf7","category":"Wine Bar","checkinsCount":113,"usersCount":46,"tipCount":4,"visitsCount":113,"tier":"","message":"","currency":"","rating":6.9},{"name":"The White Swan Hotel Arundel","phone":"+441903882677","twitter":"the_white_swan","address":"16 Chichester Road","lat":50.856313,"lng":-0.578446,"city_fetched":"Arundel","state":"West Sussex","country":"United Kingdom","canonicalUrl":"https://foursquare.com/the_white_swan","category":"Pub","checkinsCount":156,"usersCount":169,"tipCount":3,"visitsCount":223,"url":"http://white-swan-arundel.co.uk","tier":"","message":"","currency":"","rating":6.5},{"name":"Crossbush (Beefeater)","phone":"+441903882655","twitter":"beefeatergrill","address":"Crossbush Ln","lat":50.84548,"lng":-0.540522,"city_fetched":"Arundel","state":"West Sussex","country":"United Kingdom","canonicalUrl":"https://foursquare.com/v/crossbush-beefeater/4c2ca947d1a10f47f9c3f964","category":"Pub","checkinsCount":111,"usersCount":60,"tipCount":0,"visitsCount":112,"url":"http://www.beefeater.co.uk/steak-restaurant/Sussex/Crossbush-Arundel.html","tier":"","message":"","currency":"","rating":6}]