[{"name":"Stag & Hounds","phone":"+441344483553","address":"Forest Rd","lat":51.433277409656654,"lng":-0.777317388921454,"city_fetched":"Ascot,UK","state":"Bracknell Forest","country":"United Kingdom","canonicalUrl":"https://foursquare.com/v/stag--hounds/4b9bb796f964a520531d36e3","categoryId":"4bf58dd8d48988d11b941735","category":"Pub","checkinsCount":553,"usersCount":277,"tipCount":8,"visitsCount":746,"url":"http://www.thestagandhounds.com","tier":"","message":"","currency":"","rating":8.9},{"name":"The Cricketers","phone":"+441483762363","twitter":"crickshorsell","address":"Horsell Birch","lat":51.326321100037546,"lng":-0.5827957391738892,"city_fetched":"Ascot,UK","state":"Surrey","country":"United Kingdom","canonicalUrl":"https://foursquare.com/v/the-cricketers/4b511989f964a5205a4227e3","categoryId":"4bf58dd8d48988d11b941735","category":"Pub","checkinsCount":465,"usersCount":285,"tipCount":14,"visitsCount":654,"url":"http://www.baronspubs.com/cricketers","tier":"","message":"","currency":"","rating":8.7},{"name":"The Red Lion","phone":"+441483768497","address":"123 High St","lat":51.323533595038704,"lng":-0.5714823278330757,"city_fetched":"Ascot,UK","state":"Surrey","country":"United Kingdom","canonicalUrl":"https://foursquare.com/v/the-red-lion/4b2c3421f964a520b4c324e3","categoryId":"4bf58dd8d48988d11b941735","category":"Pub","checkinsCount":1241,"usersCount":429,"tipCount":14,"visitsCount":1580,"url":"http://www.redlionhorsell.co.uk","tier":2,"message":"Moderate","currency":"£","rating":8.7},{"name":"The Crown at Bray","phone":"+441628621936","twitter":"thecrownatbray","address":"High Street","lat":51.50675583656452,"lng":-0.7012796401977539,"city_fetched":"Ascot,UK","country":"United Kingdom","canonicalUrl":"https://foursquare.com/thecrownatbray","categoryId":"4bf58dd8d48988d11b941735","category":"Pub","checkinsCount":517,"usersCount":478,"tipCount":16,"visitsCount":733,"url":"http://www.thecrownatbray.com","tier":"","message":"","currency":"","rating":8.5},{"name":"The Cricketers","phone":"+441344882910","twitter":"atcricketers","address":"Cricketers Ln","lat":51.43383085727692,"lng":-0.719831,"city_fetched":"Ascot,UK","state":"Bracknell Forest","country":"United Kingdom","canonicalUrl":"https://foursquare.com/v/the-cricketers/4b61f1c5f964a5209d2c2ae3","categoryId":"4bf58dd8d48988d11b941735","category":"Pub","checkinsCount":267,"usersCount":173,"tipCount":8,"visitsCount":401,"url":"http://www.cricketerswarfield.co.uk","tier":"","message":"","currency":"","rating":8.3},{"name":"The Rose and Crown","phone":"+441344845154","twitter":"rosepubthorpe","address":"Green Rd","lat":51.401503266320326,"lng":-0.5490361809107687,"city_fetched":"Ascot,UK","state":"Surrey","country":"United Kingdom","canonicalUrl":"https://foursquare.com/v/the-rose-and-crown/4b5c4540f964a520372929e3","categoryId":"4bf58dd8d48988d11b941735","category":"Pub","checkinsCount":354,"usersCount":292,"tipCount":9,"visitsCount":488,"url":"http://www.baronspubs.com/roseandcrown/","tier":"","message":"","currency":"","rating":8.3},{"name":"The Brickmakers","phone":"+441276472267","address":"Chertsey Rd","lat":51.371999,"lng":-0.6380116939544678,"city_fetched":"Ascot,UK","state":"Surrey","country":"United Kingdom","canonicalUrl":"https://foursquare.com/v/the-brickmakers/4b7fd7c2f964a5205b4030e3","categoryId":"4bf58dd8d48988d11b941735","category":"Pub","checkinsCount":220,"usersCount":208,"tipCount":7,"visitsCount":376,"url":"http://www.thebrickmakerswindlesham.co.uk","tier":"","message":"","currency":"","rating":8.1},{"name":"The Horse and Groom","phone":"+441753830172","twitter":"horsengroom","address":"4 Castle Hill","lat":51.48265060822411,"lng":-0.6072895622201951,"city_fetched":"Ascot,UK","country":"United Kingdom","canonicalUrl":"https://foursquare.com/v/the-horse-and-groom/4bad13aaf964a520252b3be3","categoryId":"4bf58dd8d48988d11b941735","category":"Pub","checkinsCount":708,"usersCount":548,"tipCount":19,"visitsCount":734,"tier":"","message":"","currency":"","rating":8.1},{"name":"Victoria Arms","phone":"+441344483856","twitter":"thevicbinfield","address":"Terrace Rd N","lat":51.434860825538635,"lng":-0.7893045,"city_fetched":"Ascot,UK","state":"Bracknell Forest","country":"United Kingdom","canonicalUrl":"https://foursquare.com/v/victoria-arms/4bf58e4994b2a5932fd0abee","categoryId":"4bf58dd8d48988d11b941735","category":"Pub","checkinsCount":366,"usersCount":144,"tipCount":10,"visitsCount":477,"url":"http://www.victoriaarmsbinfield.co.uk","tier":"","message":"","currency":"","rating":7.9},{"name":"The Beehive","phone":"+441628822877","twitter":"thebeehivetweet","address":"Waltham Rd","lat":51.487130367730494,"lng":-0.7781705260276794,"city_fetched":"Ascot,UK","country":"United Kingdom","canonicalUrl":"https://foursquare.com/v/the-beehive/4b50e773f964a520f13727e3","categoryId":"4bf58dd8d48988d11b941735","category":"Pub","checkinsCount":230,"usersCount":171,"tipCount":8,"visitsCount":337,"url":"http://www.thebeehivewhitewaltham.com","tier":"","message":"","currency":"","rating":7.8},{"name":"The Thatched Tavern","phone":"+441344620874","address":"Cheapside Rd","lat":51.41684483730013,"lng":-0.6437448181394232,"city_fetched":"Ascot,UK","state":"Berkshire","country":"United Kingdom","canonicalUrl":"https://foursquare.com/v/the-thatched-tavern/4bc75a4114d79521793767e9","categoryId":"4bf58dd8d48988d11b941735","category":"Pub","checkinsCount":361,"usersCount":171,"tipCount":12,"visitsCount":457,"url":"http://www.thethatchedtavern.co.uk","tier":"","message":"","currency":"","rating":7.7},{"name":"The Two Brewers","address":"Park St","lat":51.480438517453926,"lng":-0.6042247908352796,"city_fetched":"Ascot,UK","country":"United Kingdom","canonicalUrl":"https://foursquare.com/v/the-two-brewers/4bec6ed9fd60a593d3fd3af1","categoryId":"4bf58dd8d48988d11b941735","category":"Pub","checkinsCount":713,"usersCount":817,"tipCount":16,"visitsCount":1182,"tier":"","message":"","currency":"","rating":7.7},{"name":"The Windsor Castle Public House","phone":"+441753830766","address":"98 Kings Road","lat":51.474172138180876,"lng":-0.6056075789095697,"city_fetched":"Ascot,UK","country":"United Kingdom","canonicalUrl":"https://foursquare.com/v/the-windsor-castle-public-house/4e358fb0aeb7f67fbd3244fa","categoryId":"4bf58dd8d48988d116941735","category":"Bar","checkinsCount":280,"usersCount":208,"tipCount":4,"visitsCount":346,"tier":"","message":"","currency":"","rating":7.7},{"name":"The Old Hatchet","phone":"+441344899911","address":"Hatchet Ln","lat":51.43282203009056,"lng":-0.6751871109008789,"city_fetched":"Ascot,UK","state":"Bracknell Forest","country":"United Kingdom","canonicalUrl":"https://foursquare.com/v/the-old-hatchet/4b8a6d91f964a5206c6c32e3","categoryId":"4bf58dd8d48988d11b941735","category":"Pub","checkinsCount":111,"usersCount":93,"tipCount":4,"visitsCount":187,"url":"http://www.oldhatchet.co.uk","tier":"","message":"","currency":"","rating":7.7},{"name":"The George Inn","phone":"+441784482000","twitter":"georgewraysbury","address":"29 Windsor Rd","lat":51.457149031772474,"lng":-0.5593156814575195,"city_fetched":"Ascot,UK","country":"United Kingdom","canonicalUrl":"https://foursquare.com/v/the-george-inn/4bf943045efe2d7f04e66b34","categoryId":"4bf58dd8d48988d11b941735","category":"Pub","checkinsCount":106,"usersCount":165,"tipCount":3,"visitsCount":252,"url":"http://www.thegeorgewraysbury.co.uk","tier":"","message":"","currency":"","rating":7.7},{"name":"The Alma","phone":"+441753840515","twitter":"innthealma","address":"61 Springfield Rd.","lat":51.47494748953222,"lng":-0.6194865657597126,"city_fetched":"Ascot,UK","country":"United Kingdom","canonicalUrl":"https://foursquare.com/v/the-alma/4b5c652ff964a520e52d29e3","categoryId":"4bf58dd8d48988d11b941735","category":"Pub","checkinsCount":293,"usersCount":147,"tipCount":12,"visitsCount":382,"url":"http://www.innthealma.co.uk","tier":"","message":"","currency":"","rating":7.6},{"name":"Windsor and Eton Brewery","phone":"+441753854075","twitter":"windsoretonbrew","address":"Duke St","lat":51.48432145463153,"lng":-0.6179438131045896,"city_fetched":"Ascot,UK","country":"United Kingdom","canonicalUrl":"https://foursquare.com/v/windsor-and-eton-brewery/4d51b4a7bd6ff04d2967f40c","categoryId":"50327c8591d4c4b30a586d5d","category":"Brewery","checkinsCount":791,"usersCount":222,"tipCount":8,"visitsCount":897,"url":"http://www.webrew.co.uk","tier":"","message":"","currency":"","rating":7.6},{"name":"The Belgian Arms","phone":"+441628634468","twitter":"thebelgianarms","address":"Holyport St","lat":51.492304,"lng":-0.7152003049850464,"city_fetched":"Ascot,UK","state":"Berkshire","country":"United Kingdom","canonicalUrl":"https://foursquare.com/v/the-belgian-arms/4af1801ff964a52026e121e3","categoryId":"4bf58dd8d48988d11b941735","category":"Pub","checkinsCount":367,"usersCount":207,"tipCount":5,"visitsCount":432,"url":"http://www.thebelgianarms.com","tier":"","message":"","currency":"","rating":7.6},{"name":"The George Inn","phone":"+441753850478","twitter":"georgeinn_eton","address":"77 High St","lat":51.486354681945926,"lng":-0.6090371145783838,"city_fetched":"Ascot,UK","state":"West Berkshire","country":"United Kingdom","canonicalUrl":"https://foursquare.com/v/the-george-inn/4b2d2160f964a5200bcf24e3","categoryId":"4bf58dd8d48988d11b941735","category":"Pub","checkinsCount":374,"usersCount":286,"tipCount":9,"visitsCount":396,"url":"http://www.georgeinn-eton.co.uk","tier":"","message":"","currency":"","rating":7.6},{"name":"The Pineapple","phone":"+441628662353","twitter":"pineappledorney","address":"Lake End Rd","lat":51.50885597745781,"lng":-0.6634551286697388,"city_fetched":"Ascot,UK","state":"Buckinghamshire","country":"United Kingdom","canonicalUrl":"https://foursquare.com/v/the-pineapple/4b4dd46ff964a520c8d826e3","categoryId":"4bf58dd8d48988d11b941735","category":"Pub","checkinsCount":382,"usersCount":292,"tipCount":19,"visitsCount":449,"url":"http://www.pineappledorney.co.uk","tier":"","message":"","currency":"","rating":7.6},{"name":"Peacock Farm","phone":"+441344423481","address":"Peacock Ln","lat":51.409882597763534,"lng":-0.7824172553591893,"city_fetched":"Ascot,UK","country":"United Kingdom","canonicalUrl":"https://foursquare.com/v/peacock-farm/4bad1a75f964a520d62d3be3","categoryId":"4bf58dd8d48988d11b941735","category":"Pub","checkinsCount":1222,"usersCount":661,"tipCount":20,"visitsCount":1803,"url":"http://www.peacockfarm.co.uk","tier":"","message":"","currency":"","rating":7.5},{"name":"The Two Poplars","lat":51.401942425667315,"lng":-0.8404975822982076,"city_fetched":"Ascot,UK","country":"United Kingdom","canonicalUrl":"https://foursquare.com/v/the-two-poplars/4bfd742f4cf820a19e7eecf4","categoryId":"4bf58dd8d48988d11b941735","category":"Pub","checkinsCount":248,"usersCount":136,"tipCount":7,"visitsCount":376,"tier":"","message":"","currency":"","rating":7.3},{"name":"Rose and Crown","phone":"+441753521114","twitter":"theroseslough","address":"312 High St","lat":51.507006255903605,"lng":-0.5849790573120117,"city_fetched":"Ascot,UK","state":"Berkshire","country":"United Kingdom","canonicalUrl":"https://foursquare.com/v/rose-and-crown/4beae635a9900f4761171740","categoryId":"4bf58dd8d48988d11b941735","category":"Pub","checkinsCount":209,"usersCount":57,"tipCount":3,"visitsCount":286,"url":"http://www.roseandcrownslough.co.uk","tier":"","message":"","currency":"","rating":7.3},{"name":"The Duchess of Cambridge","phone":"+441753864405","twitter":"theduchesspub","address":"3-4 Thames St.","lat":51.483049,"lng":-0.608575,"city_fetched":"Ascot,UK","country":"United Kingdom","canonicalUrl":"https://foursquare.com/v/the-duchess-of-cambridge/4e18a0481f6eb955987c0ff0","categoryId":"4bf58dd8d48988d11b941735","category":"Pub","checkinsCount":896,"usersCount":711,"tipCount":23,"visitsCount":947,"url":"http://www.theduchessofcambridgepub.co.uk","tier":"","message":"","currency":"","rating":7.3},{"name":"The Belvedere Arms","phone":"+441344870931","address":"London Rd","lat":51.409307581137966,"lng":-0.6241947177541585,"city_fetched":"Ascot,UK","country":"United Kingdom","canonicalUrl":"https://foursquare.com/v/the-belvedere-arms/4c72b686376da093fe1fa7c6","categoryId":"4bf58dd8d48988d11b941735","category":"Pub","checkinsCount":453,"usersCount":404,"tipCount":13,"visitsCount":632,"url":"http://www.thebelvederearms.co.uk","tier":"","message":"","currency":"","rating":7.2},{"name":"The Crooked Billet","address":"Honey Hill","lat":51.39339804307388,"lng":-0.8138517928315385,"city_fetched":"Ascot,UK","country":"United Kingdom","canonicalUrl":"https://foursquare.com/v/the-crooked-billet/4c80206c2f1c236a62e02343","categoryId":"4bf58dd8d48988d11b941735","category":"Pub","checkinsCount":655,"usersCount":128,"tipCount":5,"visitsCount":839,"tier":"","message":"","currency":"","rating":7.2},{"name":"Four Horseshoes","phone":"+441276856257","twitter":"the4horseshoes","address":"13-15 Burrow Hill Green","lat":51.357237,"lng":-0.608102,"city_fetched":"Ascot,UK","state":"Surrey","country":"United Kingdom","canonicalUrl":"https://foursquare.com/v/four-horseshoes/4e062b4ed1640223a494b9db","categoryId":"4bf58dd8d48988d11b941735","category":"Pub","checkinsCount":93,"usersCount":138,"tipCount":3,"visitsCount":195,"url":"http://www.fourhorseshoeschobham.co.uk","tier":"","message":"","currency":"","rating":7.2},{"name":"Dog & Partridge","phone":"+441344623204","address":"92 Upper Village Rd.","lat":51.40217608992935,"lng":-0.6599534473812118,"city_fetched":"Ascot,UK","country":"United Kingdom","canonicalUrl":"https://foursquare.com/v/dog--partridge/4d0cb2f17d28721e7e41f420","categoryId":"4bf58dd8d48988d11b941735","category":"Pub","checkinsCount":108,"usersCount":82,"tipCount":6,"visitsCount":143,"url":"http://www.oxandfire.co.uk","tier":"","message":"","currency":"","rating":7.2},{"name":"The Carpenters Arms","phone":"+441753863739","twitter":"carpenters1518","address":"4 Market Street","lat":51.482349,"lng":-0.6071019172668457,"city_fetched":"Ascot,UK","country":"United Kingdom","canonicalUrl":"https://foursquare.com/v/the-carpenters-arms/4bf58408004ed13a80b640a0","categoryId":"4bf58dd8d48988d11b941735","category":"Pub","checkinsCount":681,"usersCount":464,"tipCount":14,"visitsCount":709,"url":"http://www.nicholsonspubs.co.uk/thecarpentersarmswindsor/","tier":"","message":"","currency":"","rating":7.2},{"name":"The Vansittart Arms","phone":"+441753865988","address":"105 Vansittart Rd","lat":51.481538968114776,"lng":-0.6196386163673561,"city_fetched":"Ascot,UK","state":"Berkshire","country":"United Kingdom","canonicalUrl":"https://foursquare.com/v/the-vansittart-arms/4bd9c7fbe914a59353e157fa","categoryId":"4bf58dd8d48988d11b941735","category":"Pub","checkinsCount":534,"usersCount":185,"tipCount":9,"visitsCount":691,"url":"http://vansittartarmswindsor.co.uk","tier":"","message":"","currency":"","rating":7},{"name":"The Royal Stag","phone":"+441753584231","twitter":"windsorpubco","address":"The Green","lat":51.484095539091534,"lng":-0.5786705017089844,"city_fetched":"Ascot,UK","country":"United Kingdom","canonicalUrl":"https://foursquare.com/v/the-royal-stag/4bb1bb3ff964a520c0a03ce3","categoryId":"4bf58dd8d48988d11b941735","category":"Pub","checkinsCount":485,"usersCount":248,"tipCount":8,"visitsCount":595,"url":"http://www.royalstagdatchet.co.uk","tier":"","message":"","currency":"","rating":7},{"name":"Firestation Centre for Arts & Culture","phone":"+441753866865","twitter":"tweetsfrombeat","address":"The Old Court - St Leonards Road","lat":51.477368,"lng":-0.613104,"city_fetched":"Ascot,UK","country":"United Kingdom","canonicalUrl":"https://foursquare.com/v/firestation-centre-for-arts--culture/4b670719f964a520c0352be3","categoryId":"4bf58dd8d48988d116941735","category":"Bar","checkinsCount":684,"usersCount":321,"tipCount":13,"visitsCount":879,"tier":"","message":"","currency":"","rating":7},{"name":"The Bells","phone":"+441784454240","address":"124 Church St","lat":51.436037,"lng":-0.518152,"city_fetched":"Ascot,UK","country":"United Kingdom","canonicalUrl":"https://foursquare.com/v/the-bells/4bb4827b0cbcef3bf004592a","categoryId":"4bf58dd8d48988d11b941735","category":"Pub","checkinsCount":312,"usersCount":117,"tipCount":3,"visitsCount":371,"url":"http://www.thebellspub.co.uk","tier":"","message":"","currency":"","rating":6.9},{"name":"The Ship Inn","phone":"+441189780389","twitter":"theship_inn","address":"104 Peach St","lat":51.41191192635142,"lng":-0.8295078526941518,"city_fetched":"Ascot,UK","state":"Berkshire","country":"United Kingdom","canonicalUrl":"https://foursquare.com/v/the-ship-inn/4ee61a462da504839760f90b","categoryId":"4bf58dd8d48988d11b941735","category":"Pub","checkinsCount":416,"usersCount":291,"tipCount":5,"visitsCount":557,"url":"http://www.shipwokingham.co.uk","tier":"","message":"","currency":"","rating":6.9},{"name":"The Old Wheatsheaf","phone":"+441252835074","address":"205 Frimley Green Rd","lat":51.30537718089199,"lng":-0.7293596863746643,"city_fetched":"Ascot,UK","state":"Surrey","country":"United Kingdom","canonicalUrl":"https://foursquare.com/v/the-old-wheatsheaf/4b48d1d2f964a520925826e3","categoryId":"4bf58dd8d48988d11b941735","category":"Pub","checkinsCount":219,"usersCount":77,"tipCount":5,"visitsCount":252,"tier":"","message":"","currency":"","rating":6.9},{"name":"The Nags Head","phone":"+441344622725","twitter":"nagsheadharveys","address":"28 High St","lat":51.39977911900513,"lng":-0.6310802388128597,"city_fetched":"Ascot,UK","state":"Berkshire","country":"United Kingdom","canonicalUrl":"https://foursquare.com/v/the-nags-head/4df51a69c65bf55ee5316a16","categoryId":"4bf58dd8d48988d11b941735","category":"Pub","checkinsCount":406,"usersCount":48,"tipCount":7,"visitsCount":598,"url":"http://www.nagsheadsunningdale.co.uk","tier":"","message":"","currency":"","rating":6.8},{"name":"Jack O’ Newbury","phone":"+441344454881","address":"Terrace Rd. N","lat":51.43922209739685,"lng":-0.7856512069702148,"city_fetched":"Ascot,UK","country":"United Kingdom","canonicalUrl":"https://foursquare.com/v/jack-o-newbury/4c812bda2f1c236ab2272d43","categoryId":"4bf58dd8d48988d11b941735","category":"Pub","checkinsCount":59,"usersCount":40,"tipCount":3,"visitsCount":92,"tier":"","message":"","currency":"","rating":6.8},{"name":"The Fox and Castle","phone":"+441753832408","address":"21 Burfield Rd.","lat":51.45786353575549,"lng":-0.5857296702829302,"city_fetched":"Ascot,UK","country":"United Kingdom","canonicalUrl":"https://foursquare.com/v/the-fox-and-castle/4b9d5317f964a520b0a336e3","categoryId":"4bf58dd8d48988d11b941735","category":"Pub","checkinsCount":287,"usersCount":109,"tipCount":7,"visitsCount":393,"tier":"","message":"","currency":"","rating":6.7},{"name":"Broad Street Tavern","phone":"+441189773706","twitter":"broadsttav","address":"29 Broad St","lat":51.411352704437526,"lng":-0.8351216550536977,"city_fetched":"Ascot,UK","country":"United Kingdom","canonicalUrl":"https://foursquare.com/v/broad-street-tavern/4bce00b968f976b0c53f6583","categoryId":"4bf58dd8d48988d11b941735","category":"Pub","checkinsCount":755,"usersCount":273,"tipCount":10,"visitsCount":795,"tier":"","message":"","currency":"","rating":6.7},{"name":"The King and Castle (Wetherspoon)","phone":"+441753625120","address":"15-16 Thames St","lat":51.48371194976347,"lng":-0.6087739591186546,"city_fetched":"Ascot,UK","state":"Berkshire","country":"United Kingdom","canonicalUrl":"https://foursquare.com/v/the-king-and-castle-wetherspoon/4baf44b0f964a5208bf43be3","categoryId":"4bf58dd8d48988d11b941735","category":"Pub","checkinsCount":2014,"usersCount":1313,"tipCount":25,"visitsCount":2095,"url":"http://www.jdwetherspoon.co.uk","tier":"","message":"","currency":"","rating":6.7},{"name":"The Queen's Head","phone":"+441189781221","address":"23 The Terrace","lat":51.41214111328491,"lng":-0.8384585899819041,"city_fetched":"Ascot,UK","state":"Berkshire","country":"United Kingdom","canonicalUrl":"https://foursquare.com/v/the-queens-head/4bfc1080a118a593d3e76db6","categoryId":"4bf58dd8d48988d11b941735","category":"Pub","checkinsCount":290,"usersCount":145,"tipCount":5,"visitsCount":406,"tier":"","message":"","currency":"","rating":6.7},{"name":"The Perseverance","phone":"+441784482375","address":"2 High St","lat":51.457479627922076,"lng":-0.5536625936685352,"city_fetched":"Ascot,UK","state":"Berkshire","country":"United Kingdom","canonicalUrl":"https://foursquare.com/v/the-perseverance/4db2c8ac81543d71da20fe67","categoryId":"4bf58dd8d48988d11b941735","category":"Pub","checkinsCount":69,"usersCount":55,"tipCount":2,"visitsCount":110,"url":"http://www.thepercy.co.uk","tier":"","message":"","currency":"","rating":6.7},{"name":"The Royal Oak","phone":"+441753865179","twitter":"windsorpubco","address":"Datchet Rd.","lat":51.48535248199964,"lng":-0.6064711995673754,"city_fetched":"Ascot,UK","country":"United Kingdom","canonicalUrl":"https://foursquare.com/v/the-royal-oak/4ba299eff964a520220838e3","categoryId":"4bf58dd8d48988d11b941735","category":"Pub","checkinsCount":773,"usersCount":603,"tipCount":12,"visitsCount":792,"url":"http://www.windsorpubco.co.uk/royal-oak.html","tier":"","message":"","currency":"","rating":6.6},{"name":"The Crown","phone":"+441784432608","address":"38 High St","lat":51.431458,"lng":-0.549899,"city_fetched":"Ascot,UK","state":"Surrey","country":"United Kingdom","canonicalUrl":"https://foursquare.com/v/the-crown/4ba9064ef964a520a1043ae3","categoryId":"4bf58dd8d48988d11b941735","category":"Pub","checkinsCount":626,"usersCount":403,"tipCount":8,"visitsCount":876,"url":"http://www.crownegham.co.uk","tier":"","message":"","currency":"","rating":6.6},{"name":"The Gig House (Wetherspoon)","phone":"+441189123130","address":"2 The Plaza","lat":51.409338668818144,"lng":-0.8360123634338379,"city_fetched":"Ascot,UK","country":"United Kingdom","canonicalUrl":"https://foursquare.com/v/the-gig-house-wetherspoon/4c87ac61821e9eb024ce8d89","categoryId":"4bf58dd8d48988d11b941735","category":"Pub","checkinsCount":716,"usersCount":240,"tipCount":5,"visitsCount":744,"url":"http://www.jdwetherspoon.co.uk","tier":"","message":"","currency":"","rating":6.6},{"name":"Archees Bar","phone":"+441483888533","address":"69-71 Goldsworth Rd","lat":51.31736330893719,"lng":-0.5647552013397217,"city_fetched":"Ascot,UK","state":"Surrey","country":"United Kingdom","canonicalUrl":"https://foursquare.com/v/archees-bar/4cdc6241d4ecb1f7cd157f48","categoryId":"4bf58dd8d48988d116941735","category":"Bar","checkinsCount":99,"usersCount":46,"tipCount":7,"visitsCount":99,"url":"http://www.archeesbar.co.uk","tier":"","message":"","currency":"","rating":6.6},{"name":"Redan","phone":"+441189891177","address":"24 Peach St","lat":51.410758,"lng":-0.831935,"city_fetched":"Ascot,UK","country":"United Kingdom","canonicalUrl":"https://foursquare.com/v/redan/4babeacef964a52031d53ae3","categoryId":"4bf58dd8d48988d116941735","category":"Bar","checkinsCount":242,"usersCount":130,"tipCount":5,"visitsCount":255,"tier":"","message":"","currency":"","rating":6.6},{"name":"The Old Manor (Wetherspoon)","phone":"+441344304490","address":"Church Rd.","lat":51.41626084141454,"lng":-0.7457664680410524,"city_fetched":"Ascot,UK","country":"United Kingdom","canonicalUrl":"https://foursquare.com/v/the-old-manor-wetherspoon/4c87aa72821e9eb06fcc8d89","categoryId":"4bf58dd8d48988d11b941735","category":"Pub","checkinsCount":1294,"usersCount":370,"tipCount":14,"visitsCount":1471,"url":"http://www.jdwetherspoon.co.uk","tier":"","message":"","currency":"","rating":6.6},{"name":"Golden Grove","phone":"+441932562132","twitter":"goldengrovepub","address":"Ruxbury Road","lat":51.3931123035438,"lng":-0.519040971651546,"city_fetched":"Ascot,UK","state":"Surrey","country":"United Kingdom","canonicalUrl":"https://foursquare.com/v/golden-grove/4da1b49b7ccc816e9b13587b","categoryId":"4bf58dd8d48988d11b941735","category":"Pub","checkinsCount":119,"usersCount":71,"tipCount":4,"visitsCount":152,"url":"http://www.thegoldengrovepub.co.uk","tier":"","message":"","currency":"","rating":6.5},{"name":"The Molly Millar","address":"59 Station Rd.","lat":51.41119723398277,"lng":-0.841544302657752,"city_fetched":"Ascot,UK","country":"United Kingdom","canonicalUrl":"https://foursquare.com/v/the-molly-millar/4b7a943af964a5200d322fe3","categoryId":"4bf58dd8d48988d11b941735","category":"Pub","checkinsCount":357,"usersCount":150,"tipCount":5,"visitsCount":362,"tier":"","message":"","currency":"","rating":6.5},{"name":"The Windsor Trooper","phone":"+441753670123","address":"97 St Leonard's Rd","lat":51.476665452849105,"lng":-0.6128954887390137,"city_fetched":"Ascot,UK","country":"United Kingdom","canonicalUrl":"https://foursquare.com/v/the-windsor-trooper/4bec44c6c43f2d7f41a5dbd9","categoryId":"4bf58dd8d48988d116941735","category":"Bar","checkinsCount":186,"usersCount":89,"tipCount":6,"visitsCount":196,"tier":"","message":"","currency":"","rating":6.5},{"name":"The Sun Inn","phone":"+441276859190","twitter":"si_chobham","address":"High St","lat":51.346429880043125,"lng":-0.6036630372627493,"city_fetched":"Ascot,UK","state":"Surrey","country":"United Kingdom","canonicalUrl":"https://foursquare.com/v/the-sun-inn/504b90abe4b09ab3b37dc34f","categoryId":"4bf58dd8d48988d11b941735","category":"Pub","checkinsCount":61,"usersCount":80,"tipCount":3,"visitsCount":151,"url":"http://www.suninnchobham.com","tier":"","message":"","currency":"","rating":6.4},{"name":"Sunningdale Lounge","phone":"+441344876887","address":"12 London Rd","lat":51.39257355755749,"lng":-0.6294171830273698,"city_fetched":"Ascot,UK","state":"Berkshire","country":"United Kingdom","canonicalUrl":"https://foursquare.com/v/sunningdale-lounge/4bcf515977b29c7470db8882","categoryId":"4bf58dd8d48988d121941735","category":"Lounge","checkinsCount":230,"usersCount":120,"tipCount":5,"visitsCount":233,"url":"http://www.sunningdalelounge.co.uk","tier":"","message":"","currency":"","rating":6.4},{"name":"The Watermans Arms","phone":"+441753861001","twitter":"watermanseton","address":"Brocas St","lat":51.48640717153224,"lng":-0.6096768379211426,"city_fetched":"Ascot,UK","state":"West Berkshire","country":"United Kingdom","canonicalUrl":"https://foursquare.com/v/the-watermans-arms/4bf6e540b182c9b65bb6745a","categoryId":"4bf58dd8d48988d11b941735","category":"Pub","checkinsCount":171,"usersCount":134,"tipCount":4,"visitsCount":187,"url":"http://www.watermans-eton.com","tier":"","message":"","currency":"","rating":6.3},{"name":"The Prince Albert Pub","phone":"+441753864788","address":"2 Clewer Hill Rd.","lat":51.470987,"lng":-0.62979182,"city_fetched":"Ascot,UK","country":"United Kingdom","canonicalUrl":"https://foursquare.com/v/the-prince-albert-pub/4bdecd29fe0e62b5ddf50506","categoryId":"4bf58dd8d48988d11b941735","category":"Pub","checkinsCount":125,"usersCount":68,"tipCount":2,"visitsCount":144,"url":"http://www.theprincealbertpub.com","tier":"","message":"","currency":"","rating":6.3},{"name":"Palmer Arms","address":"Village Rd","lat":51.503533651621794,"lng":-0.6613683700561523,"city_fetched":"Ascot,UK","state":"Buckinghamshire","country":"United Kingdom","canonicalUrl":"https://foursquare.com/v/palmer-arms/4aeb6322f964a5209fc121e3","categoryId":"4bf58dd8d48988d11b941735","category":"Pub","checkinsCount":210,"usersCount":204,"tipCount":15,"visitsCount":284,"tier":"","message":"","currency":"","rating":6.1},{"name":"All Bar One","phone":"+441753857570","twitter":"yourallbarone","address":"40 Windsor Royal Shopping","lat":51.482954,"lng":-0.610318,"city_fetched":"Ascot,UK","state":"Berkshire","country":"United Kingdom","canonicalUrl":"https://foursquare.com/v/all-bar-one/4d80b4f4208a548120437967","categoryId":"4bf58dd8d48988d116941735","category":"Bar","checkinsCount":1079,"usersCount":670,"tipCount":20,"visitsCount":1098,"url":"http://www.allbarone.co.uk","tier":"","message":"","currency":"","rating":6.1},{"name":"Bridge Barn (Beefeater)","phone":"+441483763642","twitter":"beefeater","address":"Bridge Barn Ln","lat":51.317298436348175,"lng":-0.5746791743398791,"city_fetched":"Ascot,UK","state":"Surrey","country":"United Kingdom","canonicalUrl":"https://foursquare.com/v/bridge-barn-beefeater/4ba4f106f964a52013c638e3","categoryId":"4bf58dd8d48988d11b941735","category":"Pub","checkinsCount":810,"usersCount":334,"tipCount":4,"visitsCount":980,"url":"http://www.beefeater.co.uk/steak-restaurant/Surrey/Bridge-Barn-Woking.html","tier":"","message":"","currency":"","rating":6.1},{"name":"Rackstraws Farm (Beefeater)","phone":"+441252878181","twitter":"beefeater","address":"221 Yorktown Rd","lat":51.345443831676256,"lng":-0.7860072790156986,"city_fetched":"Ascot,UK","state":"Bracknell Forest","country":"United Kingdom","canonicalUrl":"https://foursquare.com/v/rackstraws-farm-beefeater/4bf58e0c5e800f475db4e5d4","categoryId":"4bf58dd8d48988d11b941735","category":"Pub","checkinsCount":307,"usersCount":177,"tipCount":8,"visitsCount":359,"url":"http://www.beefeater.co.uk/steak-restaurant/Berkshire/Rackstraws-Farm-Sandhurst.html","tier":"","message":"","currency":"","rating":6},{"name":"The Crispin","phone":"+441189780309","address":"Denmark St.","lat":51.40869049505174,"lng":-0.8357033649367054,"city_fetched":"Ascot,UK","country":"United Kingdom","canonicalUrl":"https://foursquare.com/v/the-crispin/4bb09654f964a520b74d3ce3","categoryId":"4bf58dd8d48988d11b941735","category":"Pub","checkinsCount":106,"usersCount":54,"tipCount":4,"visitsCount":113,"tier":"","message":"","currency":"","rating":6},{"name":"Three Frogs Pub","phone":"+441189785925","address":"London Road","lat":51.4107707633191,"lng":-0.8166790008544922,"city_fetched":"Ascot,UK","state":"Berkshire","country":"United Kingdom","canonicalUrl":"https://foursquare.com/v/three-frogs-pub/4b605574f964a5202de029e3","categoryId":"4bf58dd8d48988d11b941735","category":"Pub","checkinsCount":403,"usersCount":239,"tipCount":4,"visitsCount":502,"tier":"","message":"","currency":"","rating":6},{"name":"Downshire Arms (Beefeater)","phone":"+441344423585","twitter":"beefeatergrill","address":"Downshire Way","lat":51.412234229047286,"lng":-0.7588813023677314,"city_fetched":"Ascot,UK","state":"Bracknell Forest","country":"United Kingdom","canonicalUrl":"https://foursquare.com/v/downshire-arms-beefeater/4bc31481abf49521a837c393","categoryId":"4bf58dd8d48988d11b941735","category":"Pub","checkinsCount":248,"usersCount":132,"tipCount":6,"visitsCount":277,"url":"http://www.beefeater.co.uk","tier":"","message":"","currency":"","rating":5.9},{"name":"The Stag","address":"63 High St","lat":51.41057059999999,"lng":-0.671994,"city_fetched":"Ascot,UK","state":"Berkshire","country":"United Kingdom","canonicalUrl":"https://foursquare.com/v/the-stag/4bdd57846c1b95219136ad0f","categoryId":"4bf58dd8d48988d11b941735","category":"Pub","checkinsCount":320,"usersCount":180,"tipCount":8,"visitsCount":346,"tier":"","message":"","currency":"","rating":5.9},{"name":"Three Tuns","phone":"+441753521911","address":"124 Bath Rd","lat":51.512716121061686,"lng":-0.6126330387511385,"city_fetched":"Ascot,UK","country":"United Kingdom","canonicalUrl":"https://foursquare.com/v/three-tuns/4c877b36b504a143b78fb61c","categoryId":"4bf58dd8d48988d11b941735","category":"Pub","checkinsCount":742,"usersCount":140,"tipCount":5,"visitsCount":768,"url":"http://www.threetunsslough.co.uk","tier":"","message":"","currency":"","rating":5.9},{"name":"The Monkey's Forehead","phone":"+441784432164","address":"Egham Hill","lat":51.42791926860809,"lng":-0.563665,"city_fetched":"Ascot,UK","state":"Surrey","country":"United Kingdom","canonicalUrl":"https://foursquare.com/v/the-monkeys-forehead/4b12fb09f964a5200e9223e3","categoryId":"4bf58dd8d48988d11b941735","category":"Pub","checkinsCount":764,"usersCount":304,"tipCount":10,"visitsCount":878,"url":"http://www.monkeysforehead.co.uk","tier":"","message":"","currency":"","rating":5.8},{"name":"The Goose","phone":"+441344311629","address":"Station Rd","lat":51.413527951661386,"lng":-0.7514693217241457,"city_fetched":"Ascot,UK","state":"Bracknell Forest","country":"United Kingdom","canonicalUrl":"https://foursquare.com/v/the-goose/4c829fc047cc224b53d5879f","categoryId":"4bf58dd8d48988d11b941735","category":"Pub","checkinsCount":471,"usersCount":130,"tipCount":4,"visitsCount":473,"url":"http://www.gooseatbracknell.co.uk","tier":"","message":"","currency":"","rating":5.6},{"name":"Bar1 & Club1","address":"1 High St","lat":51.41098263893022,"lng":-0.6756498161523367,"city_fetched":"Ascot,UK","country":"United Kingdom","canonicalUrl":"https://foursquare.com/v/bar1--club1/4bdd59096c1b9521b836ad0f","categoryId":"4bf58dd8d48988d116941735","category":"Bar","checkinsCount":340,"usersCount":234,"tipCount":2,"visitsCount":408,"url":"http://www.baroneascot.com","tier":"","message":"","currency":"","rating":5.5},{"name":"Medicine","address":"Royal Holloway","lat":51.42439257434776,"lng":-0.562073048279474,"city_fetched":"Ascot,UK","state":"Surrey","country":"United Kingdom","canonicalUrl":"https://foursquare.com/v/medicine/4cae4ec91463a1431cb68ba9","categoryId":"4bf58dd8d48988d116941735","category":"Bar","checkinsCount":472,"usersCount":161,"tipCount":4,"visitsCount":509,"tier":"","message":"","currency":"","rating":5.4},{"name":"Ye Olde White Hart","phone":"+44127622816","address":"Frimley High St","lat":51.31457369943049,"lng":-0.7434225082397461,"city_fetched":"Ascot,UK","state":"Surrey","country":"United Kingdom","canonicalUrl":"https://foursquare.com/v/ye-olde-white-hart/4b82d3e5f964a5209be730e3","categoryId":"4bf58dd8d48988d11b941735","category":"Pub","checkinsCount":322,"usersCount":127,"tipCount":12,"visitsCount":389,"tier":"","message":"","currency":"","rating":5.3},{"name":"Jagz","phone":"+441344878100","twitter":"jagzascot","address":"Station Hill","lat":51.40664785331615,"lng":-0.6758366462827082,"city_fetched":"Ascot,UK","country":"United Kingdom","canonicalUrl":"https://foursquare.com/v/jagz/4bed863191380f476906a018","categoryId":"4bf58dd8d48988d11b941735","category":"Pub","checkinsCount":450,"usersCount":282,"tipCount":8,"visitsCount":453,"url":"http://www.jagz.co.uk","tier":"","message":"","currency":"","rating":5.3}]