[{"name":"The Coopers Arms","phone":"+441332690002","address":"Weston Hall, The Green","lat":52.85103079125737,"lng":-1.4028253102822732,"city_fetched":"Ashby-de-la-Zouch,UK","state":"Derbyshire","country":"United Kingdom","canonicalUrl":"https://foursquare.com/v/the-coopers-arms/4c1cdf55b306c928158164b7","categoryId":"4bf58dd8d48988d11b941735","category":"Pub","checkinsCount":138,"usersCount":113,"tipCount":2,"visitsCount":200,"url":"http://www.thecoopers-arms.co.uk","tier":"","message":"","currency":"","rating":7.8},{"name":"The Greyhound","phone":"+441283222100","address":"149 Ashby Rd.","lat":52.767436,"lng":-1.5129491966217756,"city_fetched":"Ashby-de-la-Zouch,UK","state":"Derbyshire","country":"United Kingdom","canonicalUrl":"https://foursquare.com/v/the-greyhound/4cc71f763d7fa1cdde57bb5f","categoryId":"4bf58dd8d48988d11b941735","category":"Pub","checkinsCount":191,"usersCount":108,"tipCount":3,"visitsCount":262,"tier":"","message":"","currency":"","rating":7.1},{"name":"The John Thompson Inn & Brewery","phone":"+441332862469","lat":52.8383951413474,"lng":-1.4776235818862915,"city_fetched":"Ashby-de-la-Zouch,UK","state":"Derbyshire","country":"United Kingdom","canonicalUrl":"https://foursquare.com/v/the-john-thompson-inn--brewery/4c647725d02b20a118f09a90","categoryId":"4bf58dd8d48988d11b941735","category":"Pub","checkinsCount":60,"usersCount":50,"tipCount":3,"visitsCount":83,"tier":"","message":"","currency":"","rating":7},{"name":"The Shoulder Of Mutton (Wetherspoon)","phone":"+441530567480","address":"1 Market St","lat":52.746781664491785,"lng":-1.473562717437744,"city_fetched":"Ashby-de-la-Zouch,UK","state":"Leicestershire","country":"United Kingdom","canonicalUrl":"https://foursquare.com/v/the-shoulder-of-mutton-wetherspoon/5267e39e11d2f4ef42af6c5e","categoryId":"4bf58dd8d48988d11b941735","category":"Pub","checkinsCount":143,"usersCount":85,"tipCount":3,"visitsCount":283,"url":"http://www.jdwetherspoon.co.uk","tier":"","message":"","currency":"","rating":6.3},{"name":"Brewers Fayre","phone":"+448701977281","address":"Flagstaff Park","lat":52.75123884929369,"lng":-1.4460630302622237,"city_fetched":"Ashby-de-la-Zouch,UK","state":"Leicestershire","country":"United Kingdom","canonicalUrl":"https://foursquare.com/v/brewers-fayre/4c4f080b960e76b08a4727e7","categoryId":"4bf58dd8d48988d11b941735","category":"Pub","checkinsCount":103,"usersCount":55,"tipCount":1,"visitsCount":103,"tier":"","message":"","currency":"","rating":5.9},{"name":"The Chesterfield Arms","phone":"+441283211606","address":"Ashby Rd E","lat":52.79121438811634,"lng":-1.5679308772087097,"city_fetched":"Ashby-de-la-Zouch,UK","state":"Derbyshire","country":"United Kingdom","canonicalUrl":"https://foursquare.com/v/the-chesterfield-arms/4c34a6463896e21ea5deeb90","categoryId":"4bf58dd8d48988d11b941735","category":"Pub","checkinsCount":127,"usersCount":78,"tipCount":6,"visitsCount":154,"tier":"","message":"","currency":"","rating":5.8},{"name":"The Monkey Walk (Wetherspoon)","phone":"+441530278950","address":"1 Marlborough Sq.","lat":52.72107455312028,"lng":-1.3745549681807143,"city_fetched":"Ashby-de-la-Zouch,UK","state":"Leicestershire","country":"United Kingdom","canonicalUrl":"https://foursquare.com/v/the-monkey-walk-wetherspoon/4c12b18fa5eb76b043a7beb7","categoryId":"4bf58dd8d48988d11b941735","category":"Pub","checkinsCount":525,"usersCount":103,"tipCount":3,"visitsCount":529,"url":"http://www.jdwetherspoon.co.uk","tier":"","message":"","currency":"","rating":5.7},{"name":"The Bonnie Prince","phone":"+441332702275","address":"166 Swarkestone Road","lat":52.86211852979766,"lng":-1.4386461098737908,"neighborhood":"Chellaston","city_fetched":"Ashby-de-la-Zouch,UK","state":"Derby","country":"United Kingdom","canonicalUrl":"https://foursquare.com/v/the-bonnie-prince/4c44977ef05e95211220e4b3","categoryId":"4bf58dd8d48988d11b941735","category":"Pub","checkinsCount":490,"usersCount":127,"tipCount":5,"visitsCount":569,"tier":"","message":"","currency":"","rating":5.7},{"name":"Appleby Inn","address":"Atherstone Rd.","lat":52.677409869438755,"lng":-1.5455424785614014,"city_fetched":"Ashby-de-la-Zouch,UK","state":"Derbyshire","country":"United Kingdom","canonicalUrl":"https://foursquare.com/v/appleby-inn/4d611152b6b9a1cdc30c8351","categoryId":"4bf58dd8d48988d11b941735","category":"Pub","checkinsCount":86,"usersCount":79,"tipCount":2,"visitsCount":116,"tier":"","message":"","currency":"","rating":5.6},{"name":"Stanhope Arms","phone":"+441283217954","address":"82 Ashby Rd. East","lat":52.79489386665588,"lng":-1.5790941974393398,"city_fetched":"Ashby-de-la-Zouch,UK","state":"Staffordshire","country":"United Kingdom","canonicalUrl":"https://foursquare.com/v/stanhope-arms/4c7d053009b29c745f3be63c","categoryId":"4bf58dd8d48988d116941735","category":"Bar","checkinsCount":156,"usersCount":79,"tipCount":3,"visitsCount":182,"tier":"","message":"","currency":"","rating":5.5},{"name":"Crewe and Harpur","phone":"+441332700641","address":"Woodshop Lane, Swarkestone","lat":52.85375,"lng":-1.453699,"city_fetched":"Ashby-de-la-Zouch,UK","state":"Derby","country":"United Kingdom","canonicalUrl":"https://foursquare.com/v/crewe-and-harpur/4bbb0bc3cf2fc9b6ce1da202","categoryId":"4bf58dd8d48988d11b941735","category":"Pub","checkinsCount":504,"usersCount":194,"tipCount":12,"visitsCount":611,"tier":"","message":"","currency":"","rating":5.4},{"name":"Sir Nigel Gresley (Wetherspoon)","phone":"+441283227560","address":"Civic Way","lat":52.773608550134206,"lng":-1.5577876214260815,"city_fetched":"Ashby-de-la-Zouch,UK","state":"Derbyshire","country":"United Kingdom","canonicalUrl":"https://foursquare.com/v/sir-nigel-gresley-wetherspoon/4c4f3e35a7351b8dd444ca92","categoryId":"4bf58dd8d48988d11b941735","category":"Pub","checkinsCount":243,"usersCount":67,"tipCount":6,"visitsCount":249,"url":"http://www.jdwetherspoon.co.uk","tier":1,"message":"Cheap","currency":"Â£","rating":5.3},{"name":"Charnwood Arms","address":"Beveridge Ln","lat":52.702497088496585,"lng":-1.3264564383268445,"city_fetched":"Ashby-de-la-Zouch,UK","state":"Leicestershire","country":"United Kingdom","canonicalUrl":"https://foursquare.com/v/charnwood-arms/4bdc5097afe8c9b6e1d54e85","categoryId":"4bf58dd8d48988d11b941735","category":"Pub","checkinsCount":143,"usersCount":97,"tipCount":2,"visitsCount":158,"tier":"","message":"","currency":"","rating":4.9}]