[{"name":"Westow House","phone":"+442086700654","twitter":"westow_house","address":"79 Westow Hill","lat":51.419997997420495,"lng":-0.07884621620178223,"neighborhood":"West Norwood","city_fetched":"Ashburton,UK","state":"Greater London","country":"United Kingdom","canonicalUrl":"https://foursquare.com/v/westow-house/4b4780adf964a520283426e3","categoryId":"4bf58dd8d48988d11b941735","category":"Pub","checkinsCount":2286,"usersCount":1270,"tipCount":37,"visitsCount":2921,"url":"http://www.westowhouse.com","tier":2,"message":"Moderate","currency":"Â£","rating":8},{"name":"Dog & Bull","phone":"+442086679718","twitter":"dogandbullcr0","address":"24 Surrey St","lat":51.373009,"lng":-0.101746,"neighborhood":"Croydon","city_fetched":"Ashburton,UK","state":"Greater London","country":"United Kingdom","canonicalUrl":"https://foursquare.com/v/dog--bull/4bcb20e4937ca59363e1a892","categoryId":"4bf58dd8d48988d11b941735","category":"Pub","checkinsCount":312,"usersCount":165,"tipCount":15,"visitsCount":336,"url":"http://www.rampubcompany.co.uk/visit-pubs/dog-and-bull","tier":"","message":"","currency":"","rating":7.7},{"name":"The Oval Tavern","address":"Oval Road","lat":51.37823402881622,"lng":-0.08769750595092773,"neighborhood":"Croydon","city_fetched":"Ashburton,UK","state":"Greater London","country":"United Kingdom","canonicalUrl":"https://foursquare.com/v/the-oval-tavern/4bcb51523740b713013a6265","categoryId":"4bf58dd8d48988d11b941735","category":"Pub","checkinsCount":161,"usersCount":129,"tipCount":4,"visitsCount":231,"tier":"","message":"","currency":"","rating":7.6},{"name":"Kelsey House Bar & Kitchen","phone":"+442086588844","twitter":"kelseyhousebr3","address":"75 High St","lat":51.40766631006166,"lng":-0.025987450993895385,"neighborhood":"Eden Park","city_fetched":"Ashburton,UK","state":"Greater London","country":"United Kingdom","canonicalUrl":"https://foursquare.com/v/kelsey-house-bar--kitchen/5528e930498eabb76691785d","categoryId":"4bf58dd8d48988d11e941735","category":"Cocktail Bar","checkinsCount":107,"usersCount":117,"tipCount":6,"visitsCount":191,"url":"http://kelseyhousebr3.co.uk","tier":"","message":"","currency":"","rating":7.5},{"name":"The Grape & Grain","phone":"+442087789688","twitter":"thgrapeandgrain","address":"Anerley Hill","lat":51.419718665062746,"lng":-0.07813006639480591,"neighborhood":"Anerley","city_fetched":"Ashburton,UK","state":"Greater London","country":"United Kingdom","canonicalUrl":"https://foursquare.com/v/the-grape--grain/4b891cdcf964a520701d32e3","categoryId":"4bf58dd8d48988d11b941735","category":"Pub","checkinsCount":885,"usersCount":369,"tipCount":12,"visitsCount":927,"url":"http://www.thegrapeandgrainse19.com","tier":"","message":"","currency":"","rating":7.4},{"name":"The White Hart","phone":"+442087719389","twitter":"whitehartse19","address":"96 Church Rd","lat":51.41708137818829,"lng":-0.08176987478813061,"neighborhood":"Upper Norwood","city_fetched":"Ashburton,UK","state":"Greater London","country":"United Kingdom","canonicalUrl":"https://foursquare.com/v/the-white-hart/4b4771faf964a520563226e3","categoryId":"4bf58dd8d48988d11b941735","category":"Pub","checkinsCount":1213,"usersCount":703,"tipCount":17,"visitsCount":1597,"url":"http://www.thewhitehartse19.co.uk","tier":"","message":"","currency":"","rating":7.2},{"name":"The Bridge House","phone":"+442087782100","address":"2 High St","lat":51.41808342720581,"lng":-0.0606574720256922,"city_fetched":"Ashburton,UK","state":"Greater London","country":"United Kingdom","canonicalUrl":"https://foursquare.com/v/the-bridge-house/4be1ecfdedbb0f473027a715","categoryId":"4bf58dd8d48988d11b941735","category":"Pub","checkinsCount":528,"usersCount":341,"tipCount":10,"visitsCount":644,"tier":"","message":"","currency":"","rating":7.1},{"name":"The Crown & Pepper","phone":"+442086887507","address":"242 High Street","lat":51.36909899313359,"lng":-0.09958945181730391,"neighborhood":"Croydon","city_fetched":"Ashburton,UK","state":"Greater London","country":"United Kingdom","canonicalUrl":"https://foursquare.com/v/the-crown--pepper/4bb501410ef1c9b607bef412","categoryId":"4bf58dd8d48988d11b941735","category":"Pub","checkinsCount":326,"usersCount":188,"tipCount":13,"visitsCount":387,"tier":"","message":"","currency":"","rating":7},{"name":"Exhibition Rooms","address":"69-71 Westow Hill","lat":51.419775,"lng":-0.079528,"neighborhood":"West Norwood","city_fetched":"Ashburton,UK","state":"Greater London","country":"United Kingdom","canonicalUrl":"https://foursquare.com/v/exhibition-rooms/4b50ec91f964a520e43827e3","categoryId":"4bf58dd8d48988d11e941735","category":"Cocktail Bar","checkinsCount":279,"usersCount":206,"tipCount":11,"visitsCount":281,"url":"http://www.theexhibitionrooms.com/home.php","tier":"","message":"","currency":"","rating":6.8},{"name":"Bad Apple","phone":"+442086816253","twitter":"badapplecroydon","address":"3-5 Park St.","lat":51.37336566926166,"lng":-0.09933030221660369,"neighborhood":"Croydon","city_fetched":"Ashburton,UK","state":"Greater London","country":"United Kingdom","canonicalUrl":"https://foursquare.com/v/bad-apple/4f2283dce4b063d4fe76b796","categoryId":"4bf58dd8d48988d11f941735","category":"Nightclub","checkinsCount":140,"usersCount":75,"tipCount":3,"visitsCount":143,"url":"http://www.badapple.co","tier":"","message":"","currency":"","rating":6.8},{"name":"The Spreadeagle","phone":"+442087811134","twitter":"spreadeaglecroy","address":"39-41 Katharine St","lat":51.372376,"lng":-0.099878,"neighborhood":"Croydon","city_fetched":"Ashburton,UK","state":"Greater London","country":"United Kingdom","canonicalUrl":"https://foursquare.com/v/the-spreadeagle/4b61e032f964a5208b282ae3","categoryId":"4bf58dd8d48988d11b941735","category":"Pub","checkinsCount":642,"usersCount":339,"tipCount":15,"visitsCount":684,"url":"http://www.spreadeaglecroydon.co.uk","tier":"","message":"","currency":"","rating":6.7},{"name":"The Builders Arms","phone":"+442086541803","twitter":"builders_arms","address":"65 Leslie Park Rd","lat":51.379619,"lng":-0.086055,"neighborhood":"Croydon","city_fetched":"Ashburton,UK","state":"Greater London","country":"United Kingdom","canonicalUrl":"https://foursquare.com/v/the-builders-arms/4bc9f93d511f952117acaec7","categoryId":"4bf58dd8d48988d11b941735","category":"Pub","checkinsCount":203,"usersCount":104,"tipCount":6,"visitsCount":232,"url":"http://buildersarmscroydon.co.uk","tier":"","message":"","currency":"","rating":6.7},{"name":"Ye George Inn","phone":"+442086633468","address":"111 High St.","lat":51.407255822170704,"lng":-0.02768835446004815,"neighborhood":"Eden Park","city_fetched":"Ashburton,UK","state":"Greater London","country":"United Kingdom","canonicalUrl":"https://foursquare.com/v/ye-george-inn/4b803c04f964a520425f30e3","categoryId":"4bf58dd8d48988d11b941735","category":"Pub","checkinsCount":363,"usersCount":162,"tipCount":4,"visitsCount":374,"url":"https://www.thegeorgeinnbeckenham.co.uk","tier":"","message":"","currency":"","rating":6.6},{"name":"The White Horse","phone":"+442086390001","address":"205-213 High St","lat":51.406701526746374,"lng":-0.03104450233408681,"neighborhood":"Eden Park","city_fetched":"Ashburton,UK","state":"Greater London","country":"United Kingdom","canonicalUrl":"https://foursquare.com/v/the-white-horse/4fcba0ece4b092ee234a73b1","categoryId":"4bf58dd8d48988d116941735","category":"Bar","checkinsCount":499,"usersCount":228,"tipCount":4,"visitsCount":533,"tier":"","message":"","currency":"","rating":6.5},{"name":"The Postal Order (Wetherspoon)","phone":"+442087713003","address":"32-33 Westow St.","lat":51.418541707578626,"lng":-0.08254648014621456,"neighborhood":"Upper Norwood","city_fetched":"Ashburton,UK","state":"Greater London","country":"United Kingdom","canonicalUrl":"https://foursquare.com/v/the-postal-order-wetherspoon/4c043a65f423a5939c59d116","categoryId":"4bf58dd8d48988d11b941735","category":"Pub","checkinsCount":1084,"usersCount":235,"tipCount":9,"visitsCount":1142,"url":"http://www.jdwetherspoon.co.uk","tier":"","message":"","currency":"","rating":6.3},{"name":"The Swan","phone":"+442087778346","twitter":"theswanpub11","address":"2-4 High St","lat":51.376039870973194,"lng":-0.015020370483398438,"neighborhood":"West Wickham","city_fetched":"Ashburton,UK","state":"Greater London","country":"United Kingdom","canonicalUrl":"https://foursquare.com/v/the-swan/4c09f1eced259521ad0c1356","categoryId":"4bf58dd8d48988d11b941735","category":"Pub","checkinsCount":183,"usersCount":80,"tipCount":1,"visitsCount":186,"tier":"","message":"","currency":"","rating":6.2},{"name":"The George (Wetherspoon)","phone":"+442086499077","address":"17-21 George St.","lat":51.374199,"lng":-0.098283,"neighborhood":"Croydon","city_fetched":"Ashburton,UK","state":"Greater London","country":"United Kingdom","canonicalUrl":"https://foursquare.com/v/the-george-wetherspoon/4bb5c3a6ef159c74740675f7","categoryId":"4bf58dd8d48988d11b941735","category":"Pub","checkinsCount":1079,"usersCount":562,"tipCount":8,"visitsCount":1217,"url":"http://www.jdwetherspoon.co.uk","tier":"","message":"","currency":"","rating":6.2},{"name":"Coombe Lodge (Beefeater)","phone":"+442086862030","twitter":"beefeatergrill","address":"104 Coombe Rd","lat":51.36257397063026,"lng":-0.07162059884992038,"neighborhood":"Croham","city_fetched":"Ashburton,UK","state":"Greater London","country":"United Kingdom","canonicalUrl":"https://foursquare.com/v/coombe-lodge-beefeater/4c4d6d6614b7b713c5cb5878","categoryId":"4bf58dd8d48988d11b941735","category":"Pub","checkinsCount":299,"usersCount":252,"tipCount":11,"visitsCount":398,"url":"http://www.beefeater.co.uk","tier":"","message":"","currency":"","rating":6.1},{"name":"The Milan Bar (Lloyds No.1 Bar)","phone":"+442086030870","address":"Grants Entertainment Centre","lat":51.37309962005605,"lng":-0.10011653283009873,"neighborhood":"Croydon","city_fetched":"Ashburton,UK","state":"Greater London","country":"United Kingdom","canonicalUrl":"https://foursquare.com/v/the-milan-bar-lloyds-no1-bar/4c20e786d4dec92857201c3e","categoryId":"4bf58dd8d48988d11b941735","category":"Pub","checkinsCount":504,"usersCount":284,"tipCount":11,"visitsCount":509,"url":"http://www.jdwetherspoon.co.uk","tier":"","message":"","currency":"","rating":6.1},{"name":"The Glamorgan","address":"81 Cherry Orchard Rd","lat":51.378512,"lng":-0.090242,"neighborhood":"Croydon","city_fetched":"Ashburton,UK","state":"Greater London","country":"United Kingdom","canonicalUrl":"https://foursquare.com/v/the-glamorgan/4bc9e4fd3740b71397785f65","categoryId":"4bf58dd8d48988d11b941735","category":"Pub","checkinsCount":350,"usersCount":138,"tipCount":11,"visitsCount":362,"tier":"","message":"","currency":"","rating":6},{"name":"The Moon & Stars (Wetherspoon)","phone":"+442087765680","address":"164-166 High St","lat":51.412798476154464,"lng":-0.05094481817416018,"neighborhood":"Penge and Cator","city_fetched":"Ashburton,UK","state":"Greater London","country":"United Kingdom","canonicalUrl":"https://foursquare.com/v/the-moon--stars-wetherspoon/4b7d9da2f964a52007ca2fe3","categoryId":"4bf58dd8d48988d11b941735","category":"Pub","checkinsCount":797,"usersCount":220,"tipCount":17,"visitsCount":865,"url":"http://www.jdwetherspoon.co.uk","tier":"","message":"","currency":"","rating":6},{"name":"The Crown","address":"28 Wickham Rd.","lat":51.373655674143585,"lng":-0.05416452884674072,"neighborhood":"Croydon","city_fetched":"Ashburton,UK","state":"Greater London","country":"United Kingdom","canonicalUrl":"https://foursquare.com/v/the-crown/4b8fc603f964a520736133e3","categoryId":"4bf58dd8d48988d11b941735","category":"Pub","checkinsCount":322,"usersCount":118,"tipCount":6,"visitsCount":340,"tier":"","message":"","currency":"","rating":6},{"name":"Two Brewers","phone":"+442086843544","address":"221 Gloucester Rd","lat":51.388556,"lng":-0.089886,"neighborhood":"Selhurst","city_fetched":"Ashburton,UK","state":"Greater London","country":"United Kingdom","canonicalUrl":"https://foursquare.com/v/two-brewers/4b969756f964a52001d734e3","categoryId":"4bf58dd8d48988d11b941735","category":"Pub","checkinsCount":83,"usersCount":60,"tipCount":3,"visitsCount":110,"url":"http://www.shepherdneame.co.uk","tier":"","message":"","currency":"","rating":6},{"name":"The Ship","phone":"+442086882810","address":"47 High St","lat":51.37186422619648,"lng":-0.10040353248993772,"neighborhood":"Croydon","city_fetched":"Ashburton,UK","state":"Surrey","country":"United Kingdom","canonicalUrl":"https://foursquare.com/v/the-ship/4b4f521af964a5202f0127e3","categoryId":"4bf58dd8d48988d11b941735","category":"Pub","checkinsCount":188,"usersCount":106,"tipCount":1,"visitsCount":190,"tier":"","message":"","currency":"","rating":5.9},{"name":"The Green Dragon","phone":"+442086670684","address":"58-60 High St","lat":51.371669684974485,"lng":-0.10028862950444598,"neighborhood":"Croydon","city_fetched":"Ashburton,UK","state":"Greater London","country":"United Kingdom","canonicalUrl":"https://foursquare.com/v/the-green-dragon/4ba52e5ff964a5209ee838e3","categoryId":"4bf58dd8d48988d11b941735","category":"Pub","checkinsCount":995,"usersCount":415,"tipCount":15,"visitsCount":1115,"tier":"","message":"","currency":"","rating":5.9},{"name":"Slug & Lettuce","phone":"+442086861033","twitter":"sluglettuce","address":"10 Park Ln","lat":51.373500950514185,"lng":-0.09711422067047733,"neighborhood":"Croydon","city_fetched":"Ashburton,UK","state":"Greater London","country":"United Kingdom","canonicalUrl":"https://foursquare.com/v/slug--lettuce/5252afbb11d280ded54124e1","categoryId":"4bf58dd8d48988d116941735","category":"Bar","checkinsCount":151,"usersCount":96,"tipCount":5,"visitsCount":152,"url":"http://www.slugandlettuce.co.uk/slug-croydon/","tier":"","message":"","currency":"","rating":5.8},{"name":"The Flora Sandes  (Wetherspoon)","phone":"+442086896277","address":"2-4 Ambassador House","lat":51.398514899999995,"lng":-0.0996161,"neighborhood":"Thornton Heath","city_fetched":"Ashburton,UK","state":"Surrey","country":"United Kingdom","canonicalUrl":"https://foursquare.com/v/the-flora-sandes--wetherspoon/4c87ac30821e9eb0fbcd8d89","categoryId":"4bf58dd8d48988d11b941735","category":"Pub","checkinsCount":237,"usersCount":99,"tipCount":1,"visitsCount":241,"url":"http://www.jdwetherspoon.co.uk","tier":"","message":"","currency":"","rating":5.8},{"name":"Porter and Sorter","phone":"+442086884296","address":"Station Road East","lat":51.3759483368504,"lng":-0.09216107199688386,"neighborhood":"Croydon","city_fetched":"Ashburton,UK","state":"Surrey","country":"United Kingdom","canonicalUrl":"https://foursquare.com/v/porter-and-sorter/4baa4f83f964a520ab5d3ae3","categoryId":"4bf58dd8d48988d11b941735","category":"Pub","checkinsCount":607,"usersCount":261,"tipCount":9,"visitsCount":612,"url":"http://www.porterandsorterpub.co.uk","tier":"","message":"","currency":"","rating":5.7},{"name":"Bedford Tavern","address":"Sydenham Rd.","lat":51.378745382135946,"lng":-0.09518623352050781,"neighborhood":"Croydon","city_fetched":"Ashburton,UK","state":"Greater London","country":"United Kingdom","canonicalUrl":"https://foursquare.com/v/bedford-tavern/4c2343c613c00f4766b288de","categoryId":"4bf58dd8d48988d11b941735","category":"Pub","checkinsCount":138,"usersCount":112,"tipCount":2,"visitsCount":252,"tier":"","message":"","currency":"","rating":5.6},{"name":"The Railway Hotel - Ember Inns","phone":"+442087760043","twitter":"emberinns","address":"Red Lodge Rd","lat":51.380432897228786,"lng":-0.013346672058105469,"neighborhood":"West Wickham","city_fetched":"Ashburton,UK","state":"Greater London","country":"United Kingdom","canonicalUrl":"https://foursquare.com/v/the-railway-hotel--ember-inns/4c0e9c13c6cf76b085038151","categoryId":"4bf58dd8d48988d11b941735","category":"Pub","checkinsCount":197,"usersCount":140,"tipCount":3,"visitsCount":270,"url":"http://www.emberinns.co.uk/the-railway-hotel-west-wickham/","tier":"","message":"","currency":"","rating":5.6},{"name":"Goose on the Market","phone":"+448721077077","address":"Surrey House, 1-4 Surrey St.","lat":51.37194,"lng":-0.100526,"neighborhood":"Croydon","city_fetched":"Ashburton,UK","state":"Greater London","country":"United Kingdom","canonicalUrl":"https://foursquare.com/v/goose-on-the-market/4b0443d0f964a520b25222e3","categoryId":"4bf58dd8d48988d11b941735","category":"Pub","checkinsCount":183,"usersCount":89,"tipCount":4,"visitsCount":183,"tier":"","message":"","currency":"","rating":5.5},{"name":"Yates's","phone":"+442086818219","twitter":"yates_croydon","address":"3-11 High St","lat":51.3733549489274,"lng":-0.0998491133401588,"neighborhood":"Croydon","city_fetched":"Ashburton,UK","state":"Greater London","country":"United Kingdom","canonicalUrl":"https://foursquare.com/v/yatess/4ba129edf964a520e89d37e3","categoryId":"4bf58dd8d48988d11b941735","category":"Pub","checkinsCount":312,"usersCount":194,"tipCount":3,"visitsCount":314,"url":"http://www.weareyates.co.uk/croydon/","tier":"","message":"","currency":"","rating":5.3},{"name":"The Wheatsheaf","phone":"+442087775500","address":"135 High St.","lat":51.376874058048266,"lng":-0.02069023489550099,"neighborhood":"West Wickham","city_fetched":"Ashburton,UK","state":"Greater London","country":"United Kingdom","canonicalUrl":"https://foursquare.com/v/the-wheatsheaf/4c09f1aded259521a70c1356","categoryId":"4bf58dd8d48988d11b941735","category":"Pub","checkinsCount":96,"usersCount":50,"tipCount":3,"visitsCount":97,"tier":"","message":"","currency":"","rating":4.8}]