[{"name":"The Dolphin","phone":"+441227455963","address":"17 St Radigunds St","lat":51.28265547451978,"lng":1.0814881324768066,"city_fetched":"Ashford,UK","state":"Kent","country":"United Kingdom","canonicalUrl":"https://foursquare.com/v/the-dolphin/4be16e695541d13a80a28266","categoryId":"4bf58dd8d48988d11b941735","category":"Pub","checkinsCount":542,"usersCount":360,"tipCount":13,"visitsCount":679,"tier":"","message":"","currency":"","rating":8.7},{"name":"The Ship Inn","phone":"+441787222233","address":"The Strand","lat":50.949314,"lng":0.730773,"city_fetched":"Ashford,UK","state":"East Sussex","country":"United Kingdom","canonicalUrl":"https://foursquare.com/v/the-ship-inn/4af58927f964a520adf921e3","categoryId":"4bf58dd8d48988d11b941735","category":"Pub","checkinsCount":382,"usersCount":347,"tipCount":14,"visitsCount":452,"tier":"","message":"","currency":"","rating":8.5},{"name":"Five Bells","phone":"+441303813334","address":"Five Bells","lat":51.13824354511223,"lng":1.0007435336831239,"city_fetched":"Ashford,UK","country":"United Kingdom","canonicalUrl":"https://foursquare.com/v/five-bells/4cd5bb5ba5b3468805d88f50","categoryId":"4bf58dd8d48988d11b941735","category":"Pub","checkinsCount":140,"usersCount":111,"tipCount":5,"visitsCount":230,"tier":"","message":"","currency":"","rating":8.1},{"name":"The Ship Inn","address":"Winchelsea Beach","lat":50.9183893820157,"lng":0.7244366333306813,"city_fetched":"Ashford,UK","state":"East Sussex","country":"United Kingdom","canonicalUrl":"https://foursquare.com/v/the-ship-inn/4c41e9f7af052d7fd1117e79","categoryId":"4bf58dd8d48988d11b941735","category":"Pub","checkinsCount":40,"usersCount":48,"tipCount":4,"visitsCount":84,"tier":"","message":"","currency":"","rating":7.9},{"name":"The Foundry","phone":"+441227455899","twitter":"foundrybrewpub","address":"White Horse Ln","lat":51.279051636731865,"lng":1.0788216536547457,"city_fetched":"Ashford,UK","state":"Kent","country":"United Kingdom","canonicalUrl":"https://foursquare.com/v/the-foundry/4e0609a362e100e58166b09d","categoryId":"50327c8591d4c4b30a586d5d","category":"Brewery","checkinsCount":389,"usersCount":246,"tipCount":14,"visitsCount":406,"url":"http://www.thefoundrycanterbury.co.uk","tier":"","message":"","currency":"","rating":7.9},{"name":"Beefeater","phone":"+441233739282","twitter":"beefeater","address":"Eureka Leisure Park","lat":51.1629292436511,"lng":0.8706772327423096,"city_fetched":"Ashford,UK","state":"Kent","country":"United Kingdom","canonicalUrl":"https://foursquare.com/v/beefeater/4bdd6ad8645e0f4743716b19","categoryId":"4bf58dd8d48988d11b941735","category":"Pub","checkinsCount":316,"usersCount":170,"tipCount":9,"visitsCount":324,"url":"http://www.beefeater.co.uk/steak-restaurant/Kent/Eureka-Park-Ashford.html","tier":"","message":"","currency":"","rating":7.8},{"name":"The King's Head","phone":"+441233812418","address":"Church Street","lat":51.18333789793436,"lng":0.9370699524879456,"city_fetched":"Ashford,UK","state":"Kent","country":"United Kingdom","canonicalUrl":"https://foursquare.com/v/the-kings-head/4b7c6a57f964a520e3912fe3","categoryId":"4bf58dd8d48988d11b941735","category":"Pub","checkinsCount":76,"usersCount":57,"tipCount":2,"visitsCount":98,"url":"http://www.shepherdneame.co.uk","tier":"","message":"","currency":"","rating":7.7},{"name":"Unicorn St Dunstans","phone":"+441227463187","twitter":"unicorninn","address":"61 St. Dunstans St","lat":51.28283042214978,"lng":1.0729780691254236,"city_fetched":"Ashford,UK","state":"Kent","country":"United Kingdom","canonicalUrl":"https://foursquare.com/v/unicorn-st-dunstans/4c6e7b1d06ed6dcb8fb8a622","categoryId":"4bf58dd8d48988d11b941735","category":"Pub","checkinsCount":363,"usersCount":162,"tipCount":5,"visitsCount":435,"url":"http://www.unicorninn.com","tier":"","message":"","currency":"","rating":7.6},{"name":"Star And Eagle","address":"High St","lat":51.113563,"lng":0.4607041,"city_fetched":"Ashford,UK","state":"Kent","country":"United Kingdom","canonicalUrl":"https://foursquare.com/v/star-and-eagle/4c713ca1b5a5236ac5675252","categoryId":"4bf58dd8d48988d1d5941735","category":"Hotel Bar","checkinsCount":101,"usersCount":105,"tipCount":3,"visitsCount":140,"url":"http://starandeagle.com","tier":"","message":"","currency":"","rating":7.6},{"name":"The Sun Inn - Shepherd Neame","phone":"+441795535098","address":"10 West Street","lat":51.31595176090408,"lng":0.8899006247520447,"city_fetched":"Ashford,UK","state":"Kent","country":"United Kingdom","canonicalUrl":"https://foursquare.com/v/the-sun-inn--shepherd-neame/4c55aaefb3b09c74719b4fb4","categoryId":"4bf58dd8d48988d11b941735","category":"Pub","checkinsCount":563,"usersCount":201,"tipCount":5,"visitsCount":647,"url":"http://www.shepherdneame.co.uk","tier":"","message":"","currency":"","rating":7.6},{"name":"The Cuban (Havana Club)","address":"41 High St","lat":51.27895952772972,"lng":1.0795688981995029,"city_fetched":"Ashford,UK","state":"Kent","country":"United Kingdom","canonicalUrl":"https://foursquare.com/v/the-cuban-havana-club/4d2399e38882a35de15d0d38","categoryId":"4bf58dd8d48988d11e941735","category":"Cocktail Bar","checkinsCount":1083,"usersCount":504,"tipCount":8,"visitsCount":1171,"url":"http://www.thecubancanterbury.com","tier":"","message":"","currency":"","rating":7.6},{"name":"The Chambers","address":"Cheriton Place","lat":51.078203,"lng":1.176426,"city_fetched":"Ashford,UK","state":"Kent","country":"United Kingdom","canonicalUrl":"https://foursquare.com/v/the-chambers/4c0a9a41ed259521cf2a1356","categoryId":"4bf58dd8d48988d116941735","category":"Bar","checkinsCount":334,"usersCount":103,"tipCount":10,"visitsCount":345,"tier":"","message":"","currency":"","rating":7.5},{"name":"Shepherd Neame","phone":"+441795532206","address":"17 Court Street","lat":51.31667158880029,"lng":0.8915719125350232,"city_fetched":"Ashford,UK","state":"Kent","country":"United Kingdom","canonicalUrl":"https://foursquare.com/v/shepherd-neame/4c4fd5421886c9b64f32af27","categoryId":"50327c8591d4c4b30a586d5d","category":"Brewery","checkinsCount":253,"usersCount":187,"tipCount":7,"visitsCount":278,"url":"http://www.shepherdneame.co.uk","tier":"","message":"","currency":"","rating":7.5},{"name":"Best Western the Russell Hotel","phone":"+441622692221","twitter":"russellhotel","address":"136 Boxley Road","lat":51.285101508059974,"lng":0.5318376641113273,"city_fetched":"Ashford,UK","state":"Kent","country":"United Kingdom","canonicalUrl":"https://foursquare.com/russellhotel","categoryId":"4bf58dd8d48988d1d5941735","category":"Hotel Bar","checkinsCount":173,"usersCount":85,"tipCount":3,"visitsCount":173,"url":"http://www.therussellhotel.com","tier":"","message":"","currency":"","rating":7.5},{"name":"Hotel Continental","phone":"+441227280280","address":"29 Beach Walk","lat":51.3644541060922,"lng":1.0322157747373404,"city_fetched":"Ashford,UK","state":"Kent","country":"United Kingdom","canonicalUrl":"https://foursquare.com/v/hotel-continental/4bd8a2ad11dcc9286d22f733","categoryId":"4bf58dd8d48988d1d5941735","category":"Hotel Bar","checkinsCount":269,"usersCount":165,"tipCount":3,"visitsCount":305,"tier":"","message":"","currency":"","rating":7.4},{"name":"The Penny Theatre","phone":"+441227812850","address":"30-31 Northgate","lat":51.28368890458758,"lng":1.085972785949707,"city_fetched":"Ashford,UK","state":"Kent","country":"United Kingdom","canonicalUrl":"https://foursquare.com/v/the-penny-theatre/4b5b5185f964a52030f428e3","categoryId":"4bf58dd8d48988d11b941735","category":"Pub","checkinsCount":688,"usersCount":317,"tipCount":14,"visitsCount":775,"tier":"","message":"","currency":"","rating":7.4},{"name":"Pearson's Arms","twitter":"pearsonsarms","address":"Horsebridge Rd","lat":51.360679,"lng":1.023405,"city_fetched":"Ashford,UK","state":"Kent","country":"United Kingdom","canonicalUrl":"https://foursquare.com/v/pearsons-arms/4b9aa992f964a520dcca35e3","categoryId":"4bf58dd8d48988d11b941735","category":"Pub","checkinsCount":390,"usersCount":288,"tipCount":14,"visitsCount":392,"url":"http://www.pearsonsarmsbyrichardphillips.co.uk","tier":"","message":"","currency":"","rating":7.2},{"name":"Farriers Arms","lat":51.11477180545754,"lng":0.9260468662185507,"city_fetched":"Ashford,UK","country":"United Kingdom","canonicalUrl":"https://foursquare.com/v/farriers-arms/4c812678d4e23704fde05a88","categoryId":"4bf58dd8d48988d11b941735","category":"Pub","checkinsCount":101,"usersCount":91,"tipCount":1,"visitsCount":169,"tier":"","message":"","currency":"","rating":7.1},{"name":"Parrot - Shepherd Neame","phone":"+441227762355","address":"1-9 Church Lane","lat":51.28237027056945,"lng":1.0825663805007935,"city_fetched":"Ashford,UK","state":"Kent","country":"United Kingdom","canonicalUrl":"https://foursquare.com/v/parrot--shepherd-neame/4be16dab5541d13a59a28266","categoryId":"4bf58dd8d48988d11b941735","category":"Pub","checkinsCount":318,"usersCount":216,"tipCount":6,"visitsCount":321,"url":"http://www.shepherdneame.co.uk","tier":"","message":"","currency":"","rating":7.1},{"name":"The Source Bar","phone":"+441622678174","twitter":"sourcemaidstone","address":"4-6 Rose Yard","lat":51.27409358041185,"lng":0.5221435678106214,"city_fetched":"Ashford,UK","state":"Kent","country":"United Kingdom","canonicalUrl":"https://foursquare.com/v/the-source-bar/4d01546df94a6dcbf206f943","categoryId":"4bf58dd8d48988d11f941735","category":"Nightclub","checkinsCount":132,"usersCount":69,"tipCount":6,"visitsCount":132,"url":"http://www.thesourcebar.co.uk","tier":2,"message":"Moderate","currency":"Â£","rating":7},{"name":"Club Chemistry","phone":"+441227462520","twitter":"clubchem","address":"15 Station Rd E","lat":51.27440518,"lng":1.0768854,"city_fetched":"Ashford,UK","state":"Kent","country":"United Kingdom","canonicalUrl":"https://foursquare.com/v/club-chemistry/4b7d059bf964a52043ac2fe3","categoryId":"4bf58dd8d48988d11f941735","category":"Nightclub","checkinsCount":668,"usersCount":315,"tipCount":11,"visitsCount":751,"url":"http://www.clubchemistry.co.uk","tier":"","message":"","currency":"","rating":7},{"name":"The Woolpack (Beefeater)","phone":"+441233713000","twitter":"beefeatergrill","address":"Maidstone Rd","lat":51.18484208540392,"lng":0.8174404829534311,"city_fetched":"Ashford,UK","state":"Kent","country":"United Kingdom","canonicalUrl":"https://foursquare.com/v/the-woolpack-beefeater/4c4db6d3fa9d95216d251d0a","categoryId":"4bf58dd8d48988d11b941735","category":"Pub","checkinsCount":128,"usersCount":89,"tipCount":0,"visitsCount":162,"url":"http://www.beefeater.co.uk","tier":"","message":"","currency":"","rating":7},{"name":"Prince Albert","phone":"+441304204272","address":"83 Biggin St.","lat":51.127601922920284,"lng":1.3092218734503431,"city_fetched":"Ashford,UK","state":"Kent","country":"United Kingdom","canonicalUrl":"https://foursquare.com/v/prince-albert/4c618106de6920a18f7a9864","categoryId":"4bf58dd8d48988d11b941735","category":"Pub","checkinsCount":357,"usersCount":93,"tipCount":11,"visitsCount":361,"tier":"","message":"","currency":"","rating":6.9},{"name":"The Samuel Peto (Wetherspoon)","phone":"+441303251154","address":"23 Rendezvous St.","lat":51.08063736971201,"lng":1.1812908308431966,"city_fetched":"Ashford,UK","state":"Kent","country":"United Kingdom","canonicalUrl":"https://foursquare.com/v/the-samuel-peto-wetherspoon/4ba530a1f964a520b4e938e3","categoryId":"4bf58dd8d48988d11b941735","category":"Pub","checkinsCount":464,"usersCount":254,"tipCount":3,"visitsCount":527,"url":"http://www.jdwetherspoon.co.uk","tier":"","message":"","currency":"","rating":6.9},{"name":"The Kings Head - Shepherd Neame","phone":"+441303266283","address":"117 High Street","lat":51.071972856274236,"lng":1.0870537161827087,"city_fetched":"Ashford,UK","state":"Kent","country":"United Kingdom","canonicalUrl":"https://foursquare.com/v/the-kings-head--shepherd-neame/4c8fd9765fdf6dcb3fca2b91","categoryId":"4bf58dd8d48988d11b941735","category":"Pub","checkinsCount":44,"usersCount":40,"tipCount":2,"visitsCount":51,"url":"http://www.shepherdneame.co.uk","tier":"","message":"","currency":"","rating":6.8},{"name":"The Old Brewery Tavern","twitter":"oldbrewerycant","address":"Stour St.","lat":51.27896908492354,"lng":1.0781457621059822,"city_fetched":"Ashford,UK","state":"Kent","country":"United Kingdom","canonicalUrl":"https://foursquare.com/v/the-old-brewery-tavern/4b3de126f964a520369725e3","categoryId":"4bf58dd8d48988d11f941735","category":"Nightclub","checkinsCount":435,"usersCount":363,"tipCount":11,"visitsCount":515,"url":"http://www.michaelcaines.com/taverns/canterbury","tier":"","message":"","currency":"","rating":6.8},{"name":"Halfway House","phone":"+441233740258","address":"Canterbury Rd","lat":51.22115055993348,"lng":0.8792675962021653,"city_fetched":"Ashford,UK","state":"Kent","country":"United Kingdom","canonicalUrl":"https://foursquare.com/v/halfway-house/4c43478ecc410f47d1faad61","categoryId":"50327c8591d4c4b30a586d5d","category":"Brewery","checkinsCount":67,"usersCount":91,"tipCount":3,"visitsCount":127,"tier":"","message":"","currency":"","rating":6.7},{"name":"The Monument - Shepherd Neame","phone":"+441227464963","address":"37 St Dunstans Street","lat":51.2839875212834,"lng":1.070941686630249,"city_fetched":"Ashford,UK","state":"Kent","country":"United Kingdom","canonicalUrl":"https://foursquare.com/v/the-monument--shepherd-neame/4c9cf4b87c096dcb477ac6d1","categoryId":"4bf58dd8d48988d11b941735","category":"Pub","checkinsCount":165,"usersCount":57,"tipCount":2,"visitsCount":166,"url":"http://www.shepherdneame.co.uk","tier":"","message":"","currency":"","rating":6.7},{"name":"Singleton Barn - Shepherd Neame","phone":"+441233629379","address":"Hoxton Close","lat":51.13962045115649,"lng":0.8408671617507935,"city_fetched":"Ashford,UK","state":"Kent","country":"United Kingdom","canonicalUrl":"https://foursquare.com/v/singleton-barn--shepherd-neame/4c14be5177cea593570fd160","categoryId":"4bf58dd8d48988d11b941735","category":"Pub","checkinsCount":82,"usersCount":52,"tipCount":1,"visitsCount":105,"url":"http://www.shepherdneame.co.uk","tier":"","message":"","currency":"","rating":6.7},{"name":"The Tiger Inn","phone":"+441303862130","address":"Scots Lane","lat":51.134147386990946,"lng":1.024373173713684,"city_fetched":"Ashford,UK","state":"Kent","country":"United Kingdom","canonicalUrl":"https://foursquare.com/v/the-tiger-inn/4b5c63fdf964a520b32d29e3","categoryId":"4bf58dd8d48988d11b941735","category":"Pub","checkinsCount":92,"usersCount":63,"tipCount":6,"visitsCount":94,"tier":"","message":"","currency":"","rating":6.7},{"name":"Woolpack Inn","phone":"+441797344321","address":"Brookland","lat":50.985773551077735,"lng":0.8175822266370486,"city_fetched":"Ashford,UK","state":"Kent","country":"United Kingdom","canonicalUrl":"https://foursquare.com/v/woolpack-inn/4ce67a0c678aa0939d64dcea","categoryId":"4bf58dd8d48988d11b941735","category":"Pub","checkinsCount":39,"usersCount":40,"tipCount":1,"visitsCount":43,"url":"http://www.shepherdneame.co.uk","tier":"","message":"","currency":"","rating":6.6},{"name":"The Stag Inn - Shepherd Neame","phone":"+441424425734","address":"14 All Saints Street","lat":50.858681,"lng":0.5953752994537354,"city_fetched":"Ashford,UK","country":"United Kingdom","canonicalUrl":"https://foursquare.com/v/the-stag-inn--shepherd-neame/4bf80ac34a67c928759b24cf","categoryId":"4bf58dd8d48988d11b941735","category":"Pub","checkinsCount":39,"usersCount":35,"tipCount":0,"visitsCount":44,"url":"http://www.shepherdneame.co.uk","tier":"","message":"","currency":"","rating":6.6},{"name":"The Walnut Tree","lat":51.091485,"lng":0.944218,"city_fetched":"Ashford,UK","country":"United Kingdom","canonicalUrl":"https://foursquare.com/v/the-walnut-tree/4d73a6e05838a093ceb81bdb","categoryId":"4bf58dd8d48988d11b941735","category":"Pub","checkinsCount":32,"usersCount":20,"tipCount":1,"visitsCount":34,"url":"http://www.shepherdneame.co.uk","tier":"","message":"","currency":"","rating":6.6},{"name":"New Flying Horse - Shepherd Neame","phone":"+441233812297","address":"Upper Bridge Street","lat":51.182801563236694,"lng":0.9397628903388977,"city_fetched":"Ashford,UK","state":"Kent","country":"United Kingdom","canonicalUrl":"https://foursquare.com/v/new-flying-horse--shepherd-neame/4b803572f964a520865c30e3","categoryId":"4bf58dd8d48988d11b941735","category":"Pub","checkinsCount":18,"usersCount":14,"tipCount":0,"visitsCount":18,"url":"http://www.shepherdneame.co.uk","tier":"","message":"","currency":"","rating":6.5},{"name":"Kings Head - Shepherd Neame","phone":"+441233732243","address":"Shadoxhurst","lat":51.10798485657512,"lng":0.8141469955444336,"city_fetched":"Ashford,UK","state":"Kent","country":"United Kingdom","canonicalUrl":"https://foursquare.com/v/kings-head--shepherd-neame/4e50d1e96284416669a224dc","categoryId":"4bf58dd8d48988d11b941735","category":"Pub","checkinsCount":22,"usersCount":24,"tipCount":1,"visitsCount":44,"url":"http://www.shepherdneame.co.uk","tier":"","message":"","currency":"","rating":6.5},{"name":"The Bull Inn - Shepherd Neame","phone":"+441233820534","address":"Bethersden","lat":51.12448210838558,"lng":0.7470917701721191,"city_fetched":"Ashford,UK","state":"Kent","country":"United Kingdom","canonicalUrl":"https://foursquare.com/v/the-bull-inn--shepherd-neame/4e144bb2b3ad51e832e9a231","categoryId":"4bf58dd8d48988d11b941735","category":"Pub","checkinsCount":10,"usersCount":10,"tipCount":0,"visitsCount":12,"url":"http://www.shepherdneame.co.uk","tier":"","message":"","currency":"","rating":6.5},{"name":"Royal Standard - Shepherd Neame","phone":"+441424420163","address":"East Beach Street","lat":50.85631910384281,"lng":0.5919662117958069,"city_fetched":"Ashford,UK","country":"United Kingdom","canonicalUrl":"https://foursquare.com/v/royal-standard--shepherd-neame/4c3490363896e21e5ab7eb90","categoryId":"4bf58dd8d48988d11b941735","category":"Pub","checkinsCount":65,"usersCount":42,"tipCount":4,"visitsCount":65,"url":"http://www.shepherdneame.co.uk","tier":"","message":"","currency":"","rating":6.5},{"name":"The Duke of Edinburgh - Shepherd Neame","phone":"+441622727122","address":"Heath Road","lat":51.26762281370907,"lng":0.48287004232406616,"city_fetched":"Ashford,UK","state":"Kent","country":"United Kingdom","canonicalUrl":"https://foursquare.com/v/the-duke-of-edinburgh--shepherd-neame/4bfeb847e584c92847206d25","categoryId":"4bf58dd8d48988d11b941735","category":"Pub","checkinsCount":59,"usersCount":18,"tipCount":1,"visitsCount":66,"url":"http://www.shepherdneame.co.uk","tier":"","message":"","currency":"","rating":6.5},{"name":"The Dragoon - Shepherd Neame","phone":"+441622752620","address":"40 Sandling Road","lat":51.28038050432386,"lng":0.5197691917419434,"city_fetched":"Ashford,UK","state":"Kent","country":"United Kingdom","canonicalUrl":"https://foursquare.com/v/the-dragoon--shepherd-neame/4d9762dcc19fb60ca4509565","categoryId":"4bf58dd8d48988d11b941735","category":"Pub","checkinsCount":30,"usersCount":14,"tipCount":0,"visitsCount":30,"url":"http://www.shepherdneame.co.uk","tier":"","message":"","currency":"","rating":6.5},{"name":"Fishermans Arms - Shepherd Neame","phone":"+441622755443","address":"40 Lower Stone Street","lat":51.271009324994814,"lng":0.5249914526939392,"city_fetched":"Ashford,UK","state":"Kent","country":"United Kingdom","canonicalUrl":"https://foursquare.com/v/fishermans-arms--shepherd-neame/4c0322809a7920a19491cf79","categoryId":"4bf58dd8d48988d11b941735","category":"Pub","checkinsCount":279,"usersCount":36,"tipCount":1,"visitsCount":290,"url":"http://www.shepherdneame.co.uk","tier":"","message":"","currency":"","rating":6.5},{"name":"The Four Horseshoes - Shepherd Neame","phone":"+441227273876","address":"Borstal Hill","lat":51.34763742631321,"lng":1.0212403535842896,"city_fetched":"Ashford,UK","state":"Kent","country":"United Kingdom","canonicalUrl":"https://foursquare.com/v/the-four-horseshoes--shepherd-neame/4c4ad947f7cc1b8ddabc023f","categoryId":"4bf58dd8d48988d11b941735","category":"Pub","checkinsCount":5,"usersCount":5,"tipCount":0,"visitsCount":5,"url":"http://www.shepherdneame.co.uk","tier":"","message":"","currency":"","rating":6.5},{"name":"The Wheel Inn","address":"Westwell Lane","lat":51.19158158222633,"lng":0.8459729573424435,"city_fetched":"Ashford,UK","state":"Kent","country":"United Kingdom","canonicalUrl":"https://foursquare.com/v/the-wheel-inn/4de0e33e7d8b84d5dc76db45","categoryId":"4bf58dd8d48988d11b941735","category":"Pub","checkinsCount":29,"usersCount":20,"tipCount":2,"visitsCount":30,"url":"http://www.shepherdneame.co.uk","tier":"","message":"","currency":"","rating":6.5},{"name":"Cinque Ports Arms - Shepherd Neame","phone":"+441797222319","address":"Cinque Ports St.","lat":50.95169872358393,"lng":0.7320123910903931,"city_fetched":"Ashford,UK","state":"East Sussex","country":"United Kingdom","canonicalUrl":"https://foursquare.com/v/cinque-ports-arms--shepherd-neame/4bcf14090ffdce72683ab2c0","categoryId":"4bf58dd8d48988d11b941735","category":"Pub","checkinsCount":88,"usersCount":54,"tipCount":1,"visitsCount":94,"url":"http://www.shepherdneame.co.uk","tier":"","message":"","currency":"","rating":6.5},{"name":"Pissarro's","phone":"+441424421363","address":"9-10 Cornwallis St","lat":50.85836025719132,"lng":0.5808602687542712,"city_fetched":"Ashford,UK","state":"East Sussex","country":"United Kingdom","canonicalUrl":"https://foursquare.com/v/pissarros/4bd9df0b2a3a0f4727a2a8b6","categoryId":"4bf58dd8d48988d116941735","category":"Bar","checkinsCount":152,"usersCount":82,"tipCount":1,"visitsCount":186,"url":"http://pissarros.com","tier":"","message":"","currency":"","rating":6.5},{"name":"The Royal Oak - Shepherd Neame","phone":"+441233502218","address":"The Street","lat":51.120916453148034,"lng":0.9317860007286072,"city_fetched":"Ashford,UK","state":"Kent","country":"United Kingdom","canonicalUrl":"https://foursquare.com/v/the-royal-oak--shepherd-neame/4dce381cb0fb25f6e33e59ab","categoryId":"4bf58dd8d48988d11b941735","category":"Pub","checkinsCount":6,"usersCount":5,"tipCount":0,"visitsCount":6,"url":"http://www.shepherdneame.co.uk","tier":"","message":"","currency":"","rating":6.4},{"name":"The British Queen - Shepherd Neame","phone":"+441622686699","address":"Square Hill","lat":51.273075007889545,"lng":0.5323487520217896,"city_fetched":"Ashford,UK","state":"Kent","country":"United Kingdom","canonicalUrl":"https://foursquare.com/v/the-british-queen--shepherd-neame/4d15e614cc216ea87b3a66d3","categoryId":"4bf58dd8d48988d11b941735","category":"Pub","checkinsCount":9,"usersCount":6,"tipCount":1,"visitsCount":9,"url":"http://www.shepherdneame.co.uk","tier":"","message":"","currency":"","rating":6.4},{"name":"The Beaver Inn - Shepherd Neame","phone":"+441233620264","address":"Beaver Road","lat":51.13638078519387,"lng":0.8644813299179077,"city_fetched":"Ashford,UK","state":"Kent","country":"United Kingdom","canonicalUrl":"https://foursquare.com/v/the-beaver-inn--shepherd-neame/4d5bd7cde7f7548191ae1397","categoryId":"4bf58dd8d48988d11b941735","category":"Pub","checkinsCount":28,"usersCount":12,"tipCount":1,"visitsCount":28,"url":"http://www.shepherdneame.co.uk","tier":"","message":"","currency":"","rating":6.4},{"name":"The British Volunteer - Shepherd Neame","phone":"+441233629932","address":"56/58 New Street","lat":51.15105423387651,"lng":0.8681318163871765,"city_fetched":"Ashford,UK","state":"Kent","country":"United Kingdom","canonicalUrl":"https://foursquare.com/v/the-british-volunteer--shepherd-neame/4d9b483078f46ea8fe1802fc","categoryId":"4bf58dd8d48988d11b941735","category":"Pub","checkinsCount":7,"usersCount":5,"tipCount":0,"visitsCount":7,"url":"http://www.shepherdneame.co.uk","tier":"","message":"","currency":"","rating":6.4},{"name":"The Brenchley","phone":"+441622755773","twitter":"thebrenchley","address":"91 High St","lat":51.27345539591324,"lng":0.522449708048457,"city_fetched":"Ashford,UK","state":"Kent","country":"United Kingdom","canonicalUrl":"https://foursquare.com/v/the-brenchley/529a4c2711d21f5474807d34","categoryId":"4bf58dd8d48988d11b941735","category":"Pub","checkinsCount":185,"usersCount":89,"tipCount":3,"visitsCount":196,"url":"http://www.thebrenchley.co.uk","tier":"","message":"","currency":"","rating":6.4},{"name":"The Smack - Shepherd Neame","phone":"+441227273056","address":"Middle Wall","lat":51.35931103854235,"lng":1.0234558582305908,"city_fetched":"Ashford,UK","state":"Kent","country":"United Kingdom","canonicalUrl":"https://foursquare.com/v/the-smack--shepherd-neame/4b93d61bf964a5204b5434e3","categoryId":"4bf58dd8d48988d11b941735","category":"Pub","checkinsCount":54,"usersCount":46,"tipCount":4,"visitsCount":63,"url":"http://www.shepherdneame.co.uk","tier":"","message":"","currency":"","rating":6.4},{"name":"The Compasses Inn - Shepherd Neame","phone":"+441227700300","address":"Sole Street","lat":51.204445024577026,"lng":1.0006436705589294,"city_fetched":"Ashford,UK","state":"Kent","country":"United Kingdom","canonicalUrl":"https://foursquare.com/v/the-compasses-inn--shepherd-neame/4ce939270f196dcb9d864aae","categoryId":"4bf58dd8d48988d11b941735","category":"Pub","checkinsCount":6,"usersCount":6,"tipCount":0,"visitsCount":6,"url":"http://www.shepherdneame.co.uk","tier":"","message":"","currency":"","rating":6.4},{"name":"The Red Lion - Shepherd Neame","phone":"+441233712418","address":"Charing Heath","lat":51.20960897369811,"lng":0.7597571611404419,"city_fetched":"Ashford,UK","state":"Kent","country":"United Kingdom","canonicalUrl":"https://foursquare.com/v/the-red-lion--shepherd-neame/4c934e00f600236ae324c432","categoryId":"4bf58dd8d48988d11b941735","category":"Pub","checkinsCount":22,"usersCount":10,"tipCount":0,"visitsCount":22,"url":"http://www.shepherdneame.co.uk","tier":"","message":"","currency":"","rating":6.4},{"name":"Park Tavern - Shepherd Neame","phone":"+441795555158","address":"Park Road","lat":51.33802862808113,"lng":0.7303065061569214,"city_fetched":"Ashford,UK","state":"Kent","country":"United Kingdom","canonicalUrl":"https://foursquare.com/v/park-tavern--shepherd-neame/4e6638a0091afcffda1a7175","categoryId":"4bf58dd8d48988d11b941735","category":"Pub","checkinsCount":6,"usersCount":5,"tipCount":0,"visitsCount":6,"url":"http://www.shepherdneame.co.uk","tier":"","message":"","currency":"","rating":6.4},{"name":"The Royal Oak - Shepherd Neame","phone":"+441424870492","address":"Whatlington","lat":50.94526380359445,"lng":0.5089706182479858,"city_fetched":"Ashford,UK","state":"East Sussex","country":"United Kingdom","canonicalUrl":"https://foursquare.com/v/the-royal-oak--shepherd-neame/4e67472f814db74217777c4d","categoryId":"4bf58dd8d48988d11b941735","category":"Pub","checkinsCount":12,"usersCount":11,"tipCount":0,"visitsCount":12,"url":"http://www.shepherdneame.co.uk","tier":"","message":"","currency":"","rating":6.4},{"name":"The Oranges - Shepherd Neame","phone":"+441233611950","address":"1 Apsley Street","lat":51.14817207707143,"lng":0.8682927489280701,"city_fetched":"Ashford,UK","state":"Kent","country":"United Kingdom","canonicalUrl":"https://foursquare.com/v/the-oranges--shepherd-neame/4cc20e9842d1b60c5bee0d13","categoryId":"4bf58dd8d48988d11b941735","category":"Pub","checkinsCount":16,"usersCount":11,"tipCount":1,"visitsCount":16,"url":"http://www.shepherdneame.co.uk","tier":"","message":"","currency":"","rating":6.4},{"name":"Divers Arms - Shepherd Neame","phone":"+441227367717","address":"66 Central Parade","lat":51.372888820402,"lng":1.1269193887710571,"city_fetched":"Ashford,UK","state":"Kent","country":"United Kingdom","canonicalUrl":"https://foursquare.com/v/divers-arms--shepherd-neame/4e300bdd922e47c929275b3d","categoryId":"4bf58dd8d48988d11b941735","category":"Pub","checkinsCount":27,"usersCount":20,"tipCount":2,"visitsCount":27,"url":"http://www.shepherdneame.co.uk","tier":"","message":"","currency":"","rating":6.4},{"name":"The Ringlestone Inn - Shepherd Neame","phone":"+441622859900","twitter":"shepherdneame","address":"Ringlestone Rd, Harrietsham","lat":51.2700813316127,"lng":0.6924068927764893,"city_fetched":"Ashford,UK","state":"Kent","country":"United Kingdom","canonicalUrl":"https://foursquare.com/v/the-ringlestone-inn--shepherd-neame/4e674471814db74217772bfa","categoryId":"4bf58dd8d48988d11b941735","category":"Pub","checkinsCount":5,"usersCount":5,"tipCount":0,"visitsCount":5,"url":"http://www.shepherdneame.co.uk","tier":"","message":"","currency":"","rating":6.4},{"name":"Royal Oak - Shepherd Neame","phone":"+441304822073","address":"Lower Road, River","lat":51.14421281401309,"lng":1.279585361480713,"city_fetched":"Ashford,UK","state":"Kent","country":"United Kingdom","canonicalUrl":"https://foursquare.com/v/royal-oak--shepherd-neame/4e674961814db7421777bcab","categoryId":"4bf58dd8d48988d11b941735","category":"Pub","checkinsCount":13,"usersCount":13,"tipCount":0,"visitsCount":16,"url":"http://www.shepherdneame.co.uk","tier":"","message":"","currency":"","rating":6.4},{"name":"The County Hotel (Wetherspoon)","phone":"+441233646891","address":"10 The High St.","lat":51.14917147119845,"lng":0.8753718973328193,"city_fetched":"Ashford,UK","state":"Kent","country":"United Kingdom","canonicalUrl":"https://foursquare.com/v/the-county-hotel-wetherspoon/4c87aa36821e9eb03bcc8d89","categoryId":"4bf58dd8d48988d11b941735","category":"Pub","checkinsCount":542,"usersCount":263,"tipCount":5,"visitsCount":652,"url":"http://www.jdwetherspoon.co.uk","tier":"","message":"","currency":"","rating":6.3},{"name":"Woolpack Inn - Shepherd Neame","phone":"+441227730351","address":"Chilham","lat":51.24375801514227,"lng":0.9651682711913305,"city_fetched":"Ashford,UK","state":"Kent","country":"United Kingdom","canonicalUrl":"https://foursquare.com/v/woolpack-inn--shepherd-neame/4bc8e88f762beee115ae3d38","categoryId":"4bf58dd8d48988d11b941735","category":"Pub","checkinsCount":145,"usersCount":91,"tipCount":3,"visitsCount":173,"url":"http://www.shepherdneame.co.uk","tier":"","message":"","currency":"","rating":6.3},{"name":"The Conningbrook Hotel","phone":"+441233636863","address":"Canterbury Rd","lat":51.164310769477225,"lng":0.8956316123536074,"city_fetched":"Ashford,UK","state":"Kent","country":"United Kingdom","canonicalUrl":"https://foursquare.com/v/the-conningbrook-hotel/4bd7b39a304fce7262eb33ab","categoryId":"4bf58dd8d48988d11b941735","category":"Pub","checkinsCount":956,"usersCount":161,"tipCount":2,"visitsCount":1028,"url":"http://www.shepherdneame.co.uk","tier":"","message":"","currency":"","rating":6.3},{"name":"Alberrys","address":"38 St. Margarets Street","lat":51.277768,"lng":1.078835,"city_fetched":"Ashford,UK","state":"Kent","country":"United Kingdom","canonicalUrl":"https://foursquare.com/v/alberrys/4b4281fcf964a52048d525e3","categoryId":"4bf58dd8d48988d121941735","category":"Lounge","checkinsCount":126,"usersCount":75,"tipCount":6,"visitsCount":126,"tier":"","message":"","currency":"","rating":6.3},{"name":"The Artichoke - Shepherd Neame","phone":"+441227738316","address":"Rattington Street","lat":51.254045734714296,"lng":1.020953357219696,"city_fetched":"Ashford,UK","state":"Kent","country":"United Kingdom","canonicalUrl":"https://foursquare.com/v/the-artichoke--shepherd-neame/4d45737514aa8cfab466723d","categoryId":"4bf58dd8d48988d11b941735","category":"Pub","checkinsCount":239,"usersCount":41,"tipCount":4,"visitsCount":246,"url":"http://www.shepherdneame.co.uk","tier":"","message":"","currency":"","rating":6.2},{"name":"White Rabbit","address":"Sandling Rd","lat":51.27992004818815,"lng":0.5192141509654449,"city_fetched":"Ashford,UK","state":"Kent","country":"United Kingdom","canonicalUrl":"https://foursquare.com/v/white-rabbit/4aec41a8f964a520b3c521e3","categoryId":"4bf58dd8d48988d11b941735","category":"Pub","checkinsCount":249,"usersCount":175,"tipCount":4,"visitsCount":302,"tier":"","message":"","currency":"","rating":6.1},{"name":"The Venue","phone":"+441227824236","twitter":"venuekent","address":"University of Kent","lat":51.29603861960447,"lng":1.0671604115484177,"city_fetched":"Ashford,UK","state":"Kent","country":"United Kingdom","canonicalUrl":"https://foursquare.com/v/the-venue/4ba1ff83f964a5209ad537e3","categoryId":"4bf58dd8d48988d11f941735","category":"Nightclub","checkinsCount":468,"usersCount":254,"tipCount":2,"visitsCount":567,"url":"http://www.kentunion.co.uk/thevenue/","tier":"","message":"","currency":"","rating":6},{"name":"Chill Nightclub","phone":"+441227761276","address":"11 St. Georges Place","lat":51.27634702062231,"lng":1.0847604274749756,"city_fetched":"Ashford,UK","state":"Kent","country":"United Kingdom","canonicalUrl":"https://foursquare.com/v/chill-nightclub/4ba97b1df964a520b8293ae3","categoryId":"4bf58dd8d48988d11f941735","category":"Nightclub","checkinsCount":362,"usersCount":193,"tipCount":4,"visitsCount":362,"url":"http://www.chill-nightclub.com","tier":"","message":"","currency":"","rating":5.7},{"name":"The Bishops Finger - Shepherd Neame","phone":"+441227768915","address":"13 St. Dunstans St","lat":51.28205654417864,"lng":1.0748416185379028,"city_fetched":"Ashford,UK","state":"Kent","country":"United Kingdom","canonicalUrl":"https://foursquare.com/v/the-bishops-finger--shepherd-neame/4b427edef964a5200dd525e3","categoryId":"4bf58dd8d48988d11b941735","category":"Pub","checkinsCount":296,"usersCount":198,"tipCount":5,"visitsCount":298,"url":"http://www.shepherdneame.co.uk","tier":"","message":"","currency":"","rating":5.6},{"name":"French Connection Table Table","phone":"+448701977305","address":"Hall Avenue","lat":51.12743902313262,"lng":0.8992596125415361,"city_fetched":"Ashford,UK","country":"United Kingdom","canonicalUrl":"https://foursquare.com/v/french-connection-table-table/4c242ab3c11dc9b66e242524","categoryId":"4bf58dd8d48988d11b941735","category":"Pub","checkinsCount":238,"usersCount":118,"tipCount":3,"visitsCount":263,"tier":"","message":"","currency":"","rating":5.5},{"name":"The Vineyard","phone":"+441795426969","address":"8-10 West St.","lat":51.34069668737744,"lng":0.7330428614929093,"city_fetched":"Ashford,UK","state":"Kent","country":"United Kingdom","canonicalUrl":"https://foursquare.com/v/the-vineyard/4df871322271607ac917ec7f","categoryId":"4bf58dd8d48988d11b941735","category":"Pub","checkinsCount":237,"usersCount":66,"tipCount":2,"visitsCount":247,"tier":"","message":"","currency":"","rating":5.4}]