[{"name":"Stalybridge Buffet Bar","phone":"+441613030007","address":"Rassbottom St","lat":53.48431314273991,"lng":-2.0637880354903584,"city_fetched":"Ashton","country":"United Kingdom","canonicalUrl":"https://foursquare.com/v/stalybridge-buffet-bar/4c94adf3f7cfa1cdbac5b515","category":"Pub","checkinsCount":814,"usersCount":337,"tipCount":12,"visitsCount":821,"url":"http://www.stalybridgebuffetbar.co.uk","tier":"","message":"","currency":"","rating":8.4},{"name":"The Fletcher's Arms","phone":"+441613365555","twitter":"fletchersarms","address":"445 Stockport Rd","lat":53.444366,"lng":-2.115369,"city_fetched":"Ashton","state":"Tameside","country":"United Kingdom","canonicalUrl":"https://foursquare.com/v/the-fletchers-arms/4c191bd7838020a11d37e561","category":"Pub","checkinsCount":173,"usersCount":97,"tipCount":3,"visitsCount":213,"url":"http://almond-pubs.co.uk/fletchers-arms","tier":"","message":"","currency":"","rating":8},{"name":"Wagon And Horses","address":"Mottram Road","lat":53.4665596834211,"lng":-2.0252964464542145,"city_fetched":"Ashton","state":"Tameside","country":"United Kingdom","canonicalUrl":"https://foursquare.com/v/wagon-and-horses/4c704514d274b60c3a34d90d","category":"Pub","checkinsCount":93,"usersCount":73,"tipCount":3,"visitsCount":123,"tier":"","message":"","currency":"","rating":6.6},{"name":"The Hartshead Inn","phone":"+441457835753","address":"Mossley Rd","lat":53.51260264705631,"lng":-2.0564329436550453,"city_fetched":"Ashton","state":"Tameside","country":"United Kingdom","canonicalUrl":"https://foursquare.com/v/the-hartshead-inn/4c82943274d7b60c83cc81d8","category":"Pub","checkinsCount":167,"usersCount":102,"tipCount":6,"visitsCount":205,"tier":"","message":"","currency":"","rating":6.5},{"name":"The Witchwood","address":"152 Old Street","lat":53.486398,"lng":-2.099346,"city_fetched":"Ashton","state":"Tameside","country":"United Kingdom","canonicalUrl":"https://foursquare.com/v/the-witchwood/4ade0df1f964a520ee6d21e3","category":"Bar","checkinsCount":325,"usersCount":118,"tipCount":5,"visitsCount":335,"tier":"","message":"","currency":"","rating":6.4},{"name":"The Cotton Bale (Wetherspoon)","phone":"+441613510380","address":"Market Pl.","lat":53.45164366069468,"lng":-2.077960968017578,"city_fetched":"Ashton","country":"United Kingdom","canonicalUrl":"https://foursquare.com/v/the-cotton-bale-wetherspoon/4b3132b5f964a520640225e3","category":"Pub","checkinsCount":243,"usersCount":64,"tipCount":1,"visitsCount":256,"url":"http://www.jdwetherspoon.co.uk","tier":"","message":"","currency":"","rating":6.1},{"name":"The Society Rooms (Wetherspoon)","phone":"+441613389740","address":"49-51 Grosvenor St.","lat":53.481288,"lng":-2.057159,"city_fetched":"Ashton","state":"Cheshire","country":"United Kingdom","canonicalUrl":"https://foursquare.com/v/the-society-rooms-wetherspoon/4c87ac0d821e9eb0e4cd8d89","category":"Pub","checkinsCount":541,"usersCount":138,"tipCount":5,"visitsCount":611,"url":"http://www.jdwetherspoon.co.uk","tier":"","message":"","currency":"","rating":5.7},{"name":"The Ash Tree (Wetherspoon)","phone":"+441613399670","address":"9-11 Wellington Rd.","lat":53.48980736077378,"lng":-2.092294692993164,"city_fetched":"Ashton","state":"Lancashire","country":"United Kingdom","canonicalUrl":"https://foursquare.com/v/the-ash-tree-wetherspoon/4bed427391380f47b4999f18","category":"Pub","checkinsCount":503,"usersCount":161,"tipCount":6,"visitsCount":549,"url":"http://www.jdwetherspoon.co.uk","tier":"","message":"","currency":"","rating":5.7},{"name":"Mottram Wood","phone":"+441613687164","lat":53.45374604900759,"lng":-2.025309879892431,"city_fetched":"Ashton","country":"United Kingdom","canonicalUrl":"https://foursquare.com/v/mottram-wood/4c6fd2b9d97fa143bb01f4ca","category":"Bar","checkinsCount":183,"usersCount":95,"tipCount":5,"visitsCount":198,"tier":"","message":"","currency":"","rating":5.1}]