[{"name":"White Swan","phone":"+441296423933","address":"3 Walton St","lat":51.81519565125878,"lng":-0.8120841735338907,"city_fetched":"Aylesbury","state":"Buckinghamshire","country":"United Kingdom","canonicalUrl":"https://foursquare.com/v/white-swan/4c30d5e5452620a191b61f0f","category":"Pub","checkinsCount":870,"usersCount":103,"tipCount":3,"visitsCount":933,"tier":2,"message":"Moderate","currency":"£","rating":8},{"name":"The Broad Leys","phone":"+441296399979","twitter":"thebroadleys","address":"8 Wendover Rd","lat":51.810112,"lng":-0.804012,"city_fetched":"Aylesbury","state":"Buckinghamshire","country":"United Kingdom","canonicalUrl":"https://foursquare.com/v/the-broad-leys/4c59c6d45c57c9b65da41b4a","category":"Gastropub","checkinsCount":414,"usersCount":217,"tipCount":15,"visitsCount":545,"url":"http://www.thebroadleys.co.uk","tier":2,"message":"Moderate","currency":"£","rating":7.3},{"name":"King's Head","phone":"+441296718812","twitter":"kings_head","address":"King's Head Passage","lat":51.81663041740563,"lng":-0.8132467751959045,"city_fetched":"Aylesbury","state":"Buckinghamshire","country":"United Kingdom","canonicalUrl":"https://foursquare.com/v/kings-head/4b59c471f964a520019728e3","category":"Pub","checkinsCount":693,"usersCount":122,"tipCount":7,"visitsCount":748,"tier":"","message":"","currency":"","rating":7.3},{"name":"The Harrow","phone":"+441296336243","address":"4 Cambridge St","lat":51.81722775960408,"lng":-0.812548507656832,"city_fetched":"Aylesbury","state":"Buckinghamshire","country":"United Kingdom","canonicalUrl":"https://foursquare.com/v/the-harrow/4cfacfeac6cca35d4aac8832","category":"Pub","checkinsCount":433,"usersCount":149,"tipCount":5,"visitsCount":462,"tier":"","message":"","currency":"","rating":7},{"name":"Bugle Horn","lat":51.80178638763879,"lng":-0.8480070421118079,"city_fetched":"Aylesbury","state":"Buckinghamshire","country":"United Kingdom","canonicalUrl":"https://foursquare.com/v/bugle-horn/4b815a9af964a52016a130e3","category":"Pub","checkinsCount":1213,"usersCount":186,"tipCount":11,"visitsCount":1378,"tier":"","message":"","currency":"","rating":6.7},{"name":"The Hop Pole","phone":"+441296482129","twitter":"thehoppoleayles","address":"83 Bicester Rd.","lat":51.82192022259862,"lng":-0.8208800741962246,"city_fetched":"Aylesbury","state":"Buckinghamshire","country":"United Kingdom","canonicalUrl":"https://foursquare.com/v/the-hop-pole/4cb9be984c60a093349941ca","category":"Pub","checkinsCount":314,"usersCount":92,"tipCount":5,"visitsCount":405,"url":"http://www.villagepubintown.com","tier":"","message":"","currency":"","rating":6.6},{"name":"The Rockwood","lat":51.81747503653198,"lng":-0.8140433919199901,"city_fetched":"Aylesbury","state":"Buckinghamshire","country":"United Kingdom","canonicalUrl":"https://foursquare.com/v/the-rockwood/4bd606156f649521e42670ec","category":"Pub","checkinsCount":112,"usersCount":52,"tipCount":4,"visitsCount":115,"tier":"","message":"","currency":"","rating":6.5},{"name":"The Honey Bee","phone":"+441296708363","address":"Trenchard St, Fairford Leys","lat":51.8184976347382,"lng":-0.8388447761535645,"city_fetched":"Aylesbury","state":"Buckinghamshire","country":"United Kingdom","canonicalUrl":"https://foursquare.com/v/the-honey-bee/4bc4c0c8f8219c74dbd5b710","category":"Pub","checkinsCount":357,"usersCount":166,"tipCount":5,"visitsCount":447,"tier":"","message":"","currency":"","rating":6.4},{"name":"The Charter","phone":"+441296336855","address":"2 Rimmington Way","lat":51.82321179921029,"lng":-0.8295969871497054,"city_fetched":"Aylesbury","state":"Buckinghamshire","country":"United Kingdom","canonicalUrl":"https://foursquare.com/v/the-charter/4c7d048309b29c74fd37e63c","category":"Pub","checkinsCount":283,"usersCount":158,"tipCount":4,"visitsCount":363,"tier":"","message":"","currency":"","rating":6.4},{"name":"The Bell (Wetherspoon)","phone":"+441296388080","address":"40 Market Sq.","lat":51.815566160049535,"lng":-0.8127307891845703,"city_fetched":"Aylesbury","state":"Buckinghamshire","country":"United Kingdom","canonicalUrl":"https://foursquare.com/v/the-bell-wetherspoon/4c87aa39821e9eb03fcc8d89","category":"Pub","checkinsCount":2669,"usersCount":262,"tipCount":9,"visitsCount":2802,"url":"http://www.jdwetherspoon.co.uk","tier":"","message":"","currency":"","rating":6.2},{"name":"The Slug & Lettuce","lat":51.815655,"lng":-0.811084,"city_fetched":"Aylesbury","state":"Buckinghamshire","country":"United Kingdom","canonicalUrl":"https://foursquare.com/v/the-slug--lettuce/4bf40eace5eba593382f1f90","category":"Pub","checkinsCount":298,"usersCount":102,"tipCount":6,"visitsCount":298,"tier":"","message":"","currency":"","rating":6},{"name":"The Kingsbury","address":"Kingsbury Square","lat":51.81745133053876,"lng":-0.8130798127449437,"city_fetched":"Aylesbury","state":"Buckinghamshire","country":"United Kingdom","canonicalUrl":"https://foursquare.com/v/the-kingsbury/4caf8294babebfb72f29a2ab","category":"Pub","checkinsCount":165,"usersCount":54,"tipCount":3,"visitsCount":176,"tier":"","message":"","currency":"","rating":5.9},{"name":"Horse and Jockey","lat":51.827823792413795,"lng":-0.8147905371846639,"city_fetched":"Aylesbury","state":"Buckinghamshire","country":"United Kingdom","canonicalUrl":"https://foursquare.com/v/horse-and-jockey/4c7170079c6d6dcb1b69d57a","category":"Pub","checkinsCount":420,"usersCount":103,"tipCount":3,"visitsCount":438,"tier":"","message":"","currency":"","rating":5.9},{"name":"Mendoza's","address":"43-77 High St","lat":51.8169534334147,"lng":-0.8103012105411103,"city_fetched":"Aylesbury","state":"Buckinghamshire","country":"United Kingdom","canonicalUrl":"https://foursquare.com/v/mendozas/4c391479dfb0e21eb1e2afa8","category":"Nightclub","checkinsCount":135,"usersCount":60,"tipCount":4,"visitsCount":138,"tier":"","message":"","currency":"","rating":5.8},{"name":"Mango","twitter":"mangoaylesbury","address":"1 Silver Street","lat":51.816180727935894,"lng":-0.8133723481367385,"city_fetched":"Aylesbury","state":"Buckinghamshire","country":"United Kingdom","canonicalUrl":"https://foursquare.com/v/mango/4bd0cca6caff9521f193cff0","category":"Gay Bar","checkinsCount":1021,"usersCount":57,"tipCount":3,"visitsCount":1077,"url":"http://www.mango-bar.co.uk","tier":"","message":"","currency":"","rating":5.8},{"name":"The White Hart (Wetherspoon)","phone":"+441296468440","address":"Unit 4 Exchange St.","lat":51.815513099926946,"lng":-0.8096837997436523,"city_fetched":"Aylesbury","state":"Buckinghamshire","country":"United Kingdom","canonicalUrl":"https://foursquare.com/v/the-white-hart-wetherspoon/4c87aa3a821e9eb040cc8d89","category":"Pub","checkinsCount":887,"usersCount":270,"tipCount":7,"visitsCount":966,"url":"http://www.jdwetherspoon.co.uk","tier":"","message":"","currency":"","rating":5.5}]