[{"name":"Irwell Works Brewery","phone":"+441706825019","twitter":"irwellworksale","address":"Irwell Street","lat":53.64701638440423,"lng":-2.3174071311950684,"city_fetched":"Bacup,UK","state":"Lancashire","country":"United Kingdom","canonicalUrl":"https://foursquare.com/v/irwell-works-brewery/4e3d8cfad22d102e85434451","categoryId":"50327c8591d4c4b30a586d5d","category":"Brewery","checkinsCount":444,"usersCount":159,"tipCount":12,"visitsCount":506,"url":"http://www.irwellworksbrewery.co.uk","tier":"","message":"","currency":"","rating":8.6},{"name":"The Baum","phone":"+441706352186","lat":53.61877848517174,"lng":-2.1593265323060504,"city_fetched":"Bacup,UK","country":"United Kingdom","canonicalUrl":"https://foursquare.com/v/the-baum/4bcb025bb6c49c74225a9191","categoryId":"4bf58dd8d48988d11b941735","category":"Pub","checkinsCount":445,"usersCount":194,"tipCount":19,"visitsCount":516,"tier":"","message":"","currency":"","rating":8.3},{"name":"Flying Horse Hotel","address":"South Parade","lat":53.61580237309578,"lng":-2.157884696342127,"city_fetched":"Bacup,UK","state":"Rochdale","country":"United Kingdom","canonicalUrl":"https://foursquare.com/v/flying-horse-hotel/4ba690e5f964a520e25e39e3","categoryId":"4bf58dd8d48988d11b941735","category":"Pub","checkinsCount":206,"usersCount":95,"tipCount":2,"visitsCount":239,"tier":"","message":"","currency":"","rating":7.8},{"name":"The Lounge","phone":"+441706828392","address":"21 Union St","lat":53.64769442,"lng":-2.3170596,"city_fetched":"Bacup,UK","state":"Borough of Bury","country":"United Kingdom","canonicalUrl":"https://foursquare.com/v/the-lounge/4d1476706d103704bd8221bd","categoryId":"4bf58dd8d48988d116941735","category":"Bar","checkinsCount":277,"usersCount":88,"tipCount":3,"visitsCount":332,"tier":"","message":"","currency":"","rating":7.7},{"name":"Sanctuary Burnley","phone":"+441282459595","address":"Cow lane","lat":53.78901555813945,"lng":-2.246532440185547,"city_fetched":"Bacup,UK","state":"Lancashire","country":"United Kingdom","canonicalUrl":"https://foursquare.com/v/sanctuary-burnley/4c5dc3947f661b8d96544c1c","categoryId":"4bf58dd8d48988d116941735","category":"Bar","checkinsCount":1800,"usersCount":83,"tipCount":14,"visitsCount":2026,"tier":"","message":"","currency":"","rating":7.6},{"name":"The Whitchaff","lat":53.691763655971194,"lng":-2.299716886019314,"city_fetched":"Bacup,UK","country":"United Kingdom","canonicalUrl":"https://foursquare.com/v/the-whitchaff/4ca35f841ee76dcb9299f8dd","categoryId":"4bf58dd8d48988d116941735","category":"Bar","checkinsCount":150,"usersCount":71,"tipCount":3,"visitsCount":186,"tier":"","message":"","currency":"","rating":7.5},{"name":"Top Brink Inn","lat":53.708149,"lng":-2.067247,"city_fetched":"Bacup,UK","state":"Calderdale","country":"United Kingdom","canonicalUrl":"https://foursquare.com/v/top-brink-inn/4bb9d20553649c74674348fb","categoryId":"4bf58dd8d48988d11b941735","category":"Pub","checkinsCount":107,"usersCount":79,"tipCount":7,"visitsCount":141,"tier":"","message":"","currency":"","rating":6.9},{"name":"Buffer Stops","address":"Rawtenstall Station","lat":53.69884340695756,"lng":-2.2907818098725867,"city_fetched":"Bacup,UK","country":"United Kingdom","canonicalUrl":"https://foursquare.com/v/buffer-stops/51bb4998498ec2da204d5f48","categoryId":"4bf58dd8d48988d11b941735","category":"Pub","checkinsCount":66,"usersCount":40,"tipCount":2,"visitsCount":71,"tier":"","message":"","currency":"","rating":6.9},{"name":"The Cobblers","lat":53.697142224551655,"lng":-2.2959107796194336,"city_fetched":"Bacup,UK","country":"United Kingdom","canonicalUrl":"https://foursquare.com/v/the-cobblers/4ca6054044a8224b8113ff3f","categoryId":"4bf58dd8d48988d11b941735","category":"Pub","checkinsCount":127,"usersCount":59,"tipCount":5,"visitsCount":131,"tier":"","message":"","currency":"","rating":6.5},{"name":"The White Hart (Wetherspoon)","phone":"+441706811760","twitter":"jdwtweet","address":"Station Approach","lat":53.714152103252914,"lng":-2.098085582256317,"city_fetched":"Bacup,UK","country":"United Kingdom","canonicalUrl":"https://foursquare.com/v/the-white-hart-wetherspoon/4e2598f5091a817e3dd6a590","categoryId":"4bf58dd8d48988d11b941735","category":"Pub","checkinsCount":193,"usersCount":116,"tipCount":3,"visitsCount":218,"url":"http://www.jdwetherspoon.co.uk","tier":"","message":"","currency":"","rating":6.4},{"name":"The Edwin Waugh (Wetherspoon)","phone":"+441706621480","address":"10-12 Market St.","lat":53.59366746469683,"lng":-2.221289033507539,"city_fetched":"Bacup,UK","country":"United Kingdom","canonicalUrl":"https://foursquare.com/v/the-edwin-waugh-wetherspoon/4c87ab2b821e9eb01ccd8d89","categoryId":"4bf58dd8d48988d11b941735","category":"Pub","checkinsCount":1480,"usersCount":79,"tipCount":8,"visitsCount":1587,"url":"http://www.jdwetherspoon.co.uk","tier":"","message":"","currency":"","rating":6.3},{"name":"The Regal Moon (Wetherspoon)","phone":"+441706657434","address":"The Butts","lat":53.617452018194086,"lng":-2.156735783063296,"city_fetched":"Bacup,UK","state":"Lancashire","country":"United Kingdom","canonicalUrl":"https://foursquare.com/v/the-regal-moon-wetherspoon/4c87abdb821e9eb0b9cd8d89","categoryId":"4bf58dd8d48988d11b941735","category":"Pub","checkinsCount":425,"usersCount":154,"tipCount":8,"visitsCount":428,"url":"http://www.jdwetherspoon.co.uk","tier":1,"message":"Cheap","currency":"Â£","rating":6.2},{"name":"The Brun Lea (Wetherspoon)","phone":"+441282463700","address":"31-39 Manchester Rd.","lat":53.78800323664691,"lng":-2.243784122507233,"city_fetched":"Bacup,UK","state":"Lancashire","country":"United Kingdom","canonicalUrl":"https://foursquare.com/v/the-brun-lea-wetherspoon/4bc0f97bb492d13aa34aa560","categoryId":"4bf58dd8d48988d11b941735","category":"Pub","checkinsCount":452,"usersCount":197,"tipCount":5,"visitsCount":494,"url":"http://www.jdwetherspoon.co.uk","tier":"","message":"","currency":"","rating":6.2},{"name":"Brewers Fayre","phone":"+448701977045","address":"Queen Victoria Road","lat":53.796611,"lng":-2.23345578,"city_fetched":"Bacup,UK","state":"Lancashire","country":"United Kingdom","canonicalUrl":"https://foursquare.com/v/brewers-fayre/4c4eeb2efa9d95213abb6c0a","categoryId":"4bf58dd8d48988d11b941735","category":"Pub","checkinsCount":156,"usersCount":70,"tipCount":7,"visitsCount":159,"tier":"","message":"","currency":"","rating":6},{"name":"Hollywood Star","phone":"+441282439521","twitter":"fayreandsquare","address":"Manchester Rd","lat":53.78548600335803,"lng":-2.247356140098902,"city_fetched":"Bacup,UK","state":"Lancashire","country":"United Kingdom","canonicalUrl":"https://foursquare.com/v/hollywood-star/4f75c7bee4b0488590811bf2","categoryId":"4bf58dd8d48988d11b941735","category":"Pub","checkinsCount":68,"usersCount":27,"tipCount":2,"visitsCount":68,"url":"http://www.fayreandsquare.com","tier":"","message":"","currency":"","rating":5.8},{"name":"The Boot Inn (Wetherspoon)","phone":"+441282463720","address":"18 St. James St","lat":53.788807514658814,"lng":-2.2407298819066312,"city_fetched":"Bacup,UK","state":"Lancashire","country":"United Kingdom","canonicalUrl":"https://foursquare.com/v/the-boot-inn-wetherspoon/4d4945ab5129a35d9eb137ac","categoryId":"4bf58dd8d48988d11b941735","category":"Pub","checkinsCount":411,"usersCount":150,"tipCount":13,"visitsCount":429,"url":"http://www.jdwetherspoon.co.uk","tier":"","message":"","currency":"","rating":5.4}]