[{"name":"Tap & Spile","phone":"+441248370835","address":"Garth Road","lat":53.236190129506355,"lng":-4.122464265198474,"city_fetched":"Bangor","state":"Gwynedd","country":"United Kingdom","canonicalUrl":"https://foursquare.com/v/tap--spile/4bc9c060b6c49c7457df8e91","category":"Pub","checkinsCount":222,"usersCount":98,"tipCount":6,"visitsCount":232,"tier":"","message":"","currency":"","rating":8.1},{"name":"Bar Uno","phone":"+441248388888","twitter":"barunobangor","address":"Ffriddoedd Site","lat":53.22635934418235,"lng":-4.13884162902832,"city_fetched":"Bangor","state":"Gwynedd","country":"United Kingdom","canonicalUrl":"https://foursquare.com/v/bar-uno/4b784859f964a52000c22ee3","category":"Bar","checkinsCount":2077,"usersCount":181,"tipCount":14,"visitsCount":2101,"tier":"","message":"","currency":"","rating":7.4},{"name":"Varsity","phone":"+441748372326","address":"146-156 High Street","lat":53.2251602778352,"lng":-4.127908742527339,"city_fetched":"Bangor","state":"Gwynedd","country":"United Kingdom","canonicalUrl":"https://foursquare.com/v/varsity/4b9140d6f964a5206dad33e3","category":"Burger Joint","checkinsCount":478,"usersCount":164,"tipCount":3,"visitsCount":485,"tier":"","message":"","currency":"","rating":7.1},{"name":"The Boatyard","lat":53.235108364578124,"lng":-4.121855574479744,"city_fetched":"Bangor","state":"Gwynedd","country":"United Kingdom","canonicalUrl":"https://foursquare.com/v/the-boatyard/4bdade852a3a0f47674facb6","category":"Pub","checkinsCount":220,"usersCount":79,"tipCount":5,"visitsCount":240,"tier":"","message":"","currency":"","rating":6.9},{"name":"The Black Bull Inn (Wetherspoon)","phone":"+441248387900","address":"107 High St","lat":53.22445813157333,"lng":-4.129271507263184,"city_fetched":"Bangor","state":"Gwynedd","country":"United Kingdom","canonicalUrl":"https://foursquare.com/v/the-black-bull-inn-wetherspoon/4c87aa3e821e9eb043cc8d89","category":"Pub","checkinsCount":1315,"usersCount":395,"tipCount":5,"visitsCount":1497,"url":"http://www.jdwetherspoon.co.uk","tier":"","message":"","currency":"","rating":6.2},{"name":"Rascals","address":"6 Holyhead Road","lat":53.22688117357756,"lng":-4.134234268000208,"city_fetched":"Bangor","state":"Gwynedd","country":"United Kingdom","canonicalUrl":"https://foursquare.com/v/rascals/4bd2050677b29c741ccd8d82","category":"Bar","checkinsCount":538,"usersCount":130,"tipCount":2,"visitsCount":538,"tier":"","message":"","currency":"","rating":5.9},{"name":"Belle Vue Hotel Pub","phone":"+441248364439","address":"Holyhead Road","lat":53.227766359677,"lng":-4.134064607385863,"city_fetched":"Bangor","state":"Gwynedd","country":"United Kingdom","canonicalUrl":"https://foursquare.com/v/belle-vue-hotel-pub/4b7590ddf964a52099142ee3","category":"Pub","checkinsCount":419,"usersCount":137,"tipCount":6,"visitsCount":452,"tier":"","message":"","currency":"","rating":5.7}]