[{"name":"Old No.7","phone":"+441226244735","twitter":"oldno7barnsley","address":"7 Market Hill","lat":53.55321008463604,"lng":-1.4815098662359285,"city_fetched":"Barnsley,UK","country":"United Kingdom","canonicalUrl":"https://foursquare.com/v/old-no7/4eaafb03b8f7a50de90bf3a1","categoryId":"4bf58dd8d48988d116941735","category":"Bar","checkinsCount":1107,"usersCount":183,"tipCount":16,"visitsCount":1230,"url":"http://www.oldno7barnsley.co.uk","tier":"","message":"","currency":"","rating":8.5},{"name":"The Hop","phone":"+441924367111","twitter":"thehopwakefield","address":"19 Bank St","lat":53.68146,"lng":-1.501267,"city_fetched":"Barnsley,UK","country":"United Kingdom","canonicalUrl":"https://foursquare.com/v/the-hop/4b4c661df964a5203fb226e3","categoryId":"4bf58dd8d48988d11b941735","category":"Pub","checkinsCount":742,"usersCount":305,"tipCount":10,"visitsCount":828,"url":"http://www.myspace.com/thehopwakefield","tier":"","message":"","currency":"","rating":8.5},{"name":"The Cricketers Arms","address":"22 Cluntergate","lat":53.65933729630816,"lng":-1.5520519606179326,"city_fetched":"Barnsley,UK","country":"United Kingdom","canonicalUrl":"https://foursquare.com/v/the-cricketers-arms/4d2d7b756cdea090291c5243","categoryId":"4bf58dd8d48988d11b941735","category":"Pub","checkinsCount":364,"usersCount":62,"tipCount":3,"visitsCount":378,"tier":"","message":"","currency":"","rating":8.2},{"name":"Harry's Bar","phone":"+448721077077","address":"107b Westgate","lat":53.681007486441544,"lng":-1.5033888816833496,"city_fetched":"Barnsley,UK","country":"United Kingdom","canonicalUrl":"https://foursquare.com/v/harrys-bar/4b80477af964a5208f6330e3","categoryId":"4bf58dd8d48988d11b941735","category":"Pub","checkinsCount":270,"usersCount":93,"tipCount":5,"visitsCount":281,"tier":"","message":"","currency":"","rating":7.8},{"name":"Cubley Hall","phone":"+441226766086","address":"Mortimer Rd.","lat":53.51468292571835,"lng":-1.6309238970279694,"city_fetched":"Barnsley,UK","country":"United Kingdom","canonicalUrl":"https://foursquare.com/v/cubley-hall/4ba771b9f964a520639439e3","categoryId":"4bf58dd8d48988d11b941735","category":"Pub","checkinsCount":150,"usersCount":94,"tipCount":4,"visitsCount":210,"tier":"","message":"","currency":"","rating":7.8},{"name":"Fernandes Brewery Tap and Bier Keller","phone":"+441924369547","address":"Avison Yard","lat":53.680325,"lng":-1.49297,"city_fetched":"Barnsley,UK","country":"United Kingdom","canonicalUrl":"https://foursquare.com/v/fernandes-brewery-tap-and-bier-keller/4b6c6601f964a520d0362ce3","categoryId":"50327c8591d4c4b30a586d5d","category":"Brewery","checkinsCount":311,"usersCount":144,"tipCount":4,"visitsCount":334,"tier":"","message":"","currency":"","rating":7.4},{"name":"Old Red Lion","phone":"+441142468307","twitter":"oldredgreno","address":"210 Main Street","lat":53.44381841400833,"lng":-1.503632003935083,"neighborhood":"Grenoside","city_fetched":"Barnsley,UK","state":"Sheffield","country":"United Kingdom","canonicalUrl":"https://foursquare.com/v/old-red-lion/4bc1c34fabf495213a6cc193","categoryId":"4bf58dd8d48988d11b941735","category":"Pub","checkinsCount":74,"usersCount":52,"tipCount":3,"visitsCount":211,"url":"http://www.redliongrenoside.co.uk","tier":"","message":"","currency":"","rating":7.2},{"name":"The Commercial","phone":"+441142469066","address":"107 Station Rd.","lat":53.46505338860069,"lng":-1.4647034014024694,"city_fetched":"Barnsley,UK","country":"United Kingdom","canonicalUrl":"https://foursquare.com/v/the-commercial/4c87b01147cc224b0e52b39f","categoryId":"4bf58dd8d48988d11b941735","category":"Pub","checkinsCount":495,"usersCount":87,"tipCount":13,"visitsCount":539,"tier":"","message":"","currency":"","rating":7.1},{"name":"The Glasshouse","address":"Gateway Plaza","lat":53.553313073952566,"lng":-1.4869576792328782,"city_fetched":"Barnsley,UK","country":"United Kingdom","canonicalUrl":"https://foursquare.com/v/the-glasshouse/4c40b2ed520fa5938678c8ac","categoryId":"4bf58dd8d48988d1d5941735","category":"Hotel Bar","checkinsCount":286,"usersCount":131,"tipCount":6,"visitsCount":299,"tier":"","message":"","currency":"","rating":7},{"name":"Rockingham Arms","phone":"+441226742075","twitter":"johnbarraspubs","address":"8 Main St","lat":53.478086,"lng":-1.416217,"city_fetched":"Barnsley,UK","state":"Rotherham","country":"United Kingdom","canonicalUrl":"https://foursquare.com/v/rockingham-arms/4bd6e7671728986e8a2bb735","categoryId":"4bf58dd8d48988d11b941735","category":"Pub","checkinsCount":178,"usersCount":111,"tipCount":5,"visitsCount":241,"url":"http://www.therockinghamarms.com","tier":"","message":"","currency":"","rating":7},{"name":"Silkwood Farm","phone":"+441924283517","twitter":"silkwoodfarmpub","address":"Mothers Way","lat":53.68341273511352,"lng":-1.5460014453571274,"city_fetched":"Barnsley,UK","country":"United Kingdom","canonicalUrl":"https://foursquare.com/v/silkwood-farm/4fa562efe4b0dd0f1297d165","categoryId":"4bf58dd8d48988d11b941735","category":"Pub","checkinsCount":286,"usersCount":173,"tipCount":5,"visitsCount":419,"url":"http://www.silkwoodfarmpub.co.uk","tier":"","message":"","currency":"","rating":6.8},{"name":"Henry Boons","phone":"+441924378126","address":"130 Westgate","lat":53.681272457754815,"lng":-1.5055250137846665,"city_fetched":"Barnsley,UK","state":"Wakefield","country":"United Kingdom","canonicalUrl":"https://foursquare.com/v/henry-boons/4b44d84bf964a520f5fd25e3","categoryId":"4bf58dd8d48988d116941735","category":"Bar","checkinsCount":302,"usersCount":128,"tipCount":5,"visitsCount":310,"tier":"","message":"","currency":"","rating":6.8},{"name":"The Bluebell Inn","phone":"+441709877664","address":"Manvers Way","lat":53.50879977868519,"lng":-1.3500738143920898,"city_fetched":"Barnsley,UK","state":"Rotherham","country":"United Kingdom","canonicalUrl":"https://foursquare.com/v/the-bluebell-inn/4c6d44277bfe199cd8dedace","categoryId":"4bf58dd8d48988d11b941735","category":"Pub","checkinsCount":339,"usersCount":145,"tipCount":5,"visitsCount":421,"tier":"","message":"","currency":"","rating":6.7},{"name":"The Silkstone Inn (Wetherspoon)","phone":"+441226320860","address":"64 Market Street","lat":53.55087617085716,"lng":-1.4807200008691142,"city_fetched":"Barnsley,UK","country":"United Kingdom","canonicalUrl":"https://foursquare.com/v/the-silkstone-inn-wetherspoon/4c87aa40821e9eb046cc8d89","categoryId":"4bf58dd8d48988d11b941735","category":"Pub","checkinsCount":401,"usersCount":115,"tipCount":4,"visitsCount":412,"url":"http://www.jdwetherspoon.co.uk","tier":"","message":"","currency":"","rating":6.7},{"name":"The Swan And Cygnet","phone":"+441924242499","address":"Denby Dale Rd.","lat":53.6587037194187,"lng":-1.5127229690551758,"city_fetched":"Barnsley,UK","country":"United Kingdom","canonicalUrl":"https://foursquare.com/v/the-swan-and-cygnet/4c28f0b49fb5d13a4c5f9a57","categoryId":"4bf58dd8d48988d116941735","category":"Bar","checkinsCount":338,"usersCount":144,"tipCount":1,"visitsCount":399,"tier":"","message":"","currency":"","rating":6.6},{"name":"George And Dragon","phone":"+441226742440","address":"85 Main Street","lat":53.47934919537868,"lng":-1.4210806134870961,"city_fetched":"Barnsley,UK","state":"Rotherham","country":"United Kingdom","canonicalUrl":"https://foursquare.com/v/george-and-dragon/4bf90c415efe2d7f02a56b34","categoryId":"4bf58dd8d48988d11b941735","category":"Pub","checkinsCount":174,"usersCount":107,"tipCount":4,"visitsCount":252,"url":"http://www.georgeanddragonwentworth.co.uk","tier":"","message":"","currency":"","rating":6.6},{"name":"The Joseph Bramah (Wetherspoon)","phone":"+441226320890","address":"15 Market Hill","lat":53.5528291684254,"lng":-1.4820684806710371,"city_fetched":"Barnsley,UK","country":"United Kingdom","canonicalUrl":"https://foursquare.com/v/the-joseph-bramah-wetherspoon/4c87aa40821e9eb045cc8d89","categoryId":"4bf58dd8d48988d11b941735","category":"Pub","checkinsCount":1084,"usersCount":298,"tipCount":14,"visitsCount":1149,"url":"http://www.jdwetherspoon.co.uk","tier":"","message":"","currency":"","rating":6.6},{"name":"The Church House (Wetherspoon)","phone":"+441709879518","address":"Montgomery Sq.","lat":53.5023037627437,"lng":-1.3453296204129945,"city_fetched":"Barnsley,UK","country":"United Kingdom","canonicalUrl":"https://foursquare.com/v/the-church-house-wetherspoon/4c87ac49821e9eb012ce8d89","categoryId":"4bf58dd8d48988d11b941735","category":"Pub","checkinsCount":606,"usersCount":105,"tipCount":1,"visitsCount":745,"url":"http://www.jdwetherspoon.co.uk","tier":"","message":"","currency":"","rating":6.5},{"name":"Barnsley Trades Council Club","lat":53.55123473196665,"lng":-1.4882966759804934,"city_fetched":"Barnsley,UK","country":"United Kingdom","canonicalUrl":"https://foursquare.com/v/barnsley-trades-council-club/4ce83ff2678aa0935079e7ea","categoryId":"4bf58dd8d48988d11a941735","category":"Other Nightlife","checkinsCount":375,"usersCount":31,"tipCount":2,"visitsCount":428,"tier":"","message":"","currency":"","rating":6.2},{"name":"The Ruddy Duck PH","address":"Bridge Street","lat":53.67442078462367,"lng":-1.4893790378521605,"city_fetched":"Barnsley,UK","state":"Wakefield","country":"United Kingdom","canonicalUrl":"https://foursquare.com/v/the-ruddy-duck-ph/50055d9be4b06a37b1d96410","categoryId":"4bf58dd8d48988d11b941735","category":"Pub","checkinsCount":192,"usersCount":129,"tipCount":5,"visitsCount":242,"tier":"","message":"","currency":"","rating":6.2},{"name":"Courthouse Public House","address":"eldon street","lat":53.554624952808915,"lng":-1.4787744442477926,"city_fetched":"Barnsley,UK","state":"Barnsley","country":"United Kingdom","canonicalUrl":"https://foursquare.com/v/courthouse-public-house/4c756765c219224b796da228","categoryId":"4bf58dd8d48988d116941735","category":"Bar","checkinsCount":311,"usersCount":52,"tipCount":5,"visitsCount":318,"tier":"","message":"","currency":"","rating":6},{"name":"The Red Kite","phone":"+441924251542","address":"Denby Dale Rd.","lat":53.65252344316531,"lng":-1.5225934982299805,"city_fetched":"Barnsley,UK","country":"United Kingdom","canonicalUrl":"https://foursquare.com/v/the-red-kite/4b4508acf964a520e80126e3","categoryId":"4bf58dd8d48988d11b941735","category":"Pub","checkinsCount":470,"usersCount":281,"tipCount":12,"visitsCount":580,"url":"http://www.vintageinn.co.uk/theredkitewakefield/","tier":"","message":"","currency":"","rating":6},{"name":"The Wagon and Horses (Wetherspoon)","phone":"+441142329980","twitter":"jwdtweet","address":"2 Market Place, Chapletown","lat":53.46166193652495,"lng":-1.4654044829138078,"city_fetched":"Barnsley,UK","country":"United Kingdom","canonicalUrl":"https://foursquare.com/v/the-wagon-and-horses-wetherspoon/52512b93498e9b7ef7b4c8f6","categoryId":"4bf58dd8d48988d11b941735","category":"Pub","checkinsCount":212,"usersCount":87,"tipCount":1,"visitsCount":316,"url":"http://www.jdwetherspoon.co.uk/home/pubs/the-wagon-and-horses","tier":"","message":"","currency":"","rating":5.8},{"name":"Eastfield Arms","lat":53.58270503120013,"lng":-1.487632146916623,"city_fetched":"Barnsley,UK","country":"United Kingdom","canonicalUrl":"https://foursquare.com/v/eastfield-arms/4c2f41c3213c2d7fed7b305d","categoryId":"4bf58dd8d48988d11b941735","category":"Pub","checkinsCount":104,"usersCount":79,"tipCount":3,"visitsCount":131,"tier":"","message":"","currency":"","rating":5.8},{"name":"White bear","address":"11 Church St","lat":53.55379323983683,"lng":-1.4820156838625989,"city_fetched":"Barnsley,UK","country":"United Kingdom","canonicalUrl":"https://foursquare.com/v/white-bear/4b6491d8f964a5208abe2ae3","categoryId":"4bf58dd8d48988d116941735","category":"Bar","checkinsCount":199,"usersCount":64,"tipCount":5,"visitsCount":199,"tier":"","message":"","currency":"","rating":5.8},{"name":"The Walnut Tree","address":"Barnsley Rd, Sandal","lat":53.650713740459,"lng":-1.4908054403714133,"city_fetched":"Barnsley,UK","state":"Wakefield","country":"United Kingdom","canonicalUrl":"https://foursquare.com/v/the-walnut-tree/4c28fbbefe6e2d7f721f543c","categoryId":"50327c8591d4c4b30a586d5d","category":"Brewery","checkinsCount":202,"usersCount":93,"tipCount":4,"visitsCount":221,"tier":"","message":"","currency":"","rating":5.7},{"name":"Funky Buddha","phone":"+441226734195","address":"1 Market Hill","lat":53.55357714897163,"lng":-1.4820460382096166,"city_fetched":"Barnsley,UK","state":"Barnsley","country":"United Kingdom","canonicalUrl":"https://foursquare.com/v/funky-buddha/4cd1bbdb5b5ca35d214283f0","categoryId":"4bf58dd8d48988d116941735","category":"Bar","checkinsCount":156,"usersCount":66,"tipCount":2,"visitsCount":156,"tier":"","message":"","currency":"","rating":5.7},{"name":"The Horseshoe (Wetherspoon)","phone":"+441226273820","address":"30 High St.","lat":53.522663530935816,"lng":-1.3984799337745,"city_fetched":"Barnsley,UK","country":"United Kingdom","canonicalUrl":"https://foursquare.com/v/the-horseshoe-wetherspoon/4c87ac62821e9eb025ce8d89","categoryId":"4bf58dd8d48988d11b941735","category":"Pub","checkinsCount":540,"usersCount":108,"tipCount":5,"visitsCount":698,"url":"http://www.jdwetherspoon.co.uk","tier":"","message":"","currency":"","rating":5.7}]