[{"name":"Red Sails","phone":"+441482218081","address":"2 Beacon Way","lat":53.72935581276336,"lng":-0.37428944364024863,"city_fetched":"Barrow upon Humber,UK","state":"Kingston upon Hull","country":"United Kingdom","canonicalUrl":"https://foursquare.com/v/red-sails/523745df498ea78a283908d0","categoryId":"4bf58dd8d48988d11b941735","category":"Pub","checkinsCount":125,"usersCount":67,"tipCount":9,"visitsCount":177,"url":"http://www.redsailspubhull.co.uk","tier":"","message":"","currency":"","rating":6.4},{"name":"The Country Park Inn","phone":"+441482640526","address":"Cliff Rd.","lat":53.71528864417676,"lng":-0.4541945457458496,"city_fetched":"Barrow upon Humber,UK","state":"East Yorkshire","country":"United Kingdom","canonicalUrl":"https://foursquare.com/v/the-country-park-inn/4bac0699f964a52001df3ae3","categoryId":"4bf58dd8d48988d11b941735","category":"Pub","checkinsCount":316,"usersCount":186,"tipCount":9,"visitsCount":343,"tier":"","message":"","currency":"","rating":6.2},{"name":"Darleys","phone":"+441482643121","address":"312 Boothferry Road","lat":53.732199791774875,"lng":-0.4369211196899414,"city_fetched":"Barrow upon Humber,UK","state":"East Yorkshire","country":"United Kingdom","canonicalUrl":"https://foursquare.com/v/darleys/4bac087af964a5208edf3ae3","categoryId":"4bf58dd8d48988d11b941735","category":"Pub","checkinsCount":201,"usersCount":121,"tipCount":4,"visitsCount":274,"tier":"","message":"","currency":"","rating":5.3}]