[{"name":"The Pilot","phone":"+442920710615","twitter":"thepilotpenarth","address":"67 Queens Rd","lat":51.44316399625226,"lng":-3.173328955103898,"city_fetched":"Barry,UK","state":"Vale of Glamorgan","country":"United Kingdom","canonicalUrl":"https://foursquare.com/v/the-pilot/4ba3dfeaf964a5200f6938e3","categoryId":"4bf58dd8d48988d11b941735","category":"Pub","checkinsCount":1570,"usersCount":120,"tipCount":12,"visitsCount":1692,"url":"http://knifeandforkfood.co.uk/pilot.htm","tier":"","message":"","currency":"","rating":8.5},{"name":"The Captain's Wife","phone":"+442920530066","address":"Beach Rd","lat":51.40033016758128,"lng":-3.1983089447021484,"city_fetched":"Barry,UK","state":"Vale of Glamorgan","country":"United Kingdom","canonicalUrl":"https://foursquare.com/v/the-captains-wife/4bcb1032937ca5931cc8a892","categoryId":"4bf58dd8d48988d11b941735","category":"Pub","checkinsCount":357,"usersCount":237,"tipCount":5,"visitsCount":429,"tier":"","message":"","currency":"","rating":7.9},{"name":"Ocho Lounge","phone":"+442920710045","twitter":"ocho_lounge","address":"17 Windsor Rd","lat":51.43913906814121,"lng":-3.1744909286499023,"city_fetched":"Barry,UK","country":"United Kingdom","canonicalUrl":"https://foursquare.com/v/ocho-lounge/4baf9f3ef964a520db103ce3","categoryId":"4bf58dd8d48988d121941735","category":"Lounge","checkinsCount":836,"usersCount":178,"tipCount":14,"visitsCount":868,"url":"http://thelounges.co.uk/lounges/ocho-lounge/","tier":2,"message":"Moderate","currency":"Â£","rating":7.8},{"name":"The Sir Samuel Romilly (Wetherspoon)","phone":"+441446724900","address":"Romilly Buildings","lat":51.39858983653759,"lng":-3.2843542098999023,"city_fetched":"Barry,UK","country":"United Kingdom","canonicalUrl":"https://foursquare.com/v/the-sir-samuel-romilly-wetherspoon/4b9bed09f964a520a43636e3","categoryId":"4bf58dd8d48988d11b941735","category":"Pub","checkinsCount":2334,"usersCount":236,"tipCount":8,"visitsCount":2433,"url":"http://www.jdwetherspoon.co.uk","tier":"","message":"","currency":"","rating":7.6},{"name":"The Cherry Orchard","address":"Barry Rd.","lat":51.40899816089312,"lng":-3.2783987656794613,"city_fetched":"Barry,UK","state":"Vale of Glamorgan","country":"United Kingdom","canonicalUrl":"https://foursquare.com/v/the-cherry-orchard/4d906acbc479a35dd1bf7097","categoryId":"4bf58dd8d48988d11b941735","category":"Pub","checkinsCount":121,"usersCount":45,"tipCount":5,"visitsCount":127,"tier":"","message":"","currency":"","rating":6.4},{"name":"The Railway Pub","phone":"+442920711824","address":"1 Plymouth Rd","lat":51.436268,"lng":-3.174294,"city_fetched":"Barry,UK","state":"Vale of Glamorgan","country":"United Kingdom","canonicalUrl":"https://foursquare.com/v/the-railway-pub/4bbb9fe1e436ef3b54945564","categoryId":"4bf58dd8d48988d116941735","category":"Bar","checkinsCount":315,"usersCount":115,"tipCount":4,"visitsCount":332,"url":"http://www.railwayhotelpenarth.co.uk","tier":"","message":"","currency":"","rating":6.2},{"name":"The Oystercatcher","address":"Terra Nova Way","lat":51.44636463487475,"lng":-3.185316324234009,"city_fetched":"Barry,UK","state":"Vale of Glamorgan","country":"United Kingdom","canonicalUrl":"https://foursquare.com/v/the-oystercatcher/4bd46979637ba5934793f470","categoryId":"4bf58dd8d48988d11b941735","category":"Pub","checkinsCount":585,"usersCount":244,"tipCount":10,"visitsCount":658,"tier":"","message":"","currency":"","rating":6.1},{"name":"Plymouth Arms","lat":51.48760378360748,"lng":-3.2676,"neighborhood":"West Cardiff","city_fetched":"Barry,UK","state":"Cardiff","country":"United Kingdom","canonicalUrl":"https://foursquare.com/v/plymouth-arms/4b8a6900f964a520b86b32e3","categoryId":"4bf58dd8d48988d11b941735","category":"Pub","checkinsCount":256,"usersCount":136,"tipCount":5,"visitsCount":267,"tier":"","message":"","currency":"","rating":6.1},{"name":"The Bears Head (Wetherspoon)","phone":"+442920706424","address":"37-39 Windsor Rd","lat":51.439358092170174,"lng":-3.1757837533950806,"city_fetched":"Barry,UK","state":"Vale of Glamorgan","country":"United Kingdom","canonicalUrl":"https://foursquare.com/v/the-bears-head-wetherspoon/4b878ea6f964a520d7c231e3","categoryId":"4bf58dd8d48988d11b941735","category":"Pub","checkinsCount":748,"usersCount":127,"tipCount":6,"visitsCount":750,"url":"http://www.jdwetherspoon.co.uk","tier":"","message":"","currency":"","rating":6},{"name":"The Star","address":"6-14 Station Rd","lat":51.433639,"lng":-3.219831,"city_fetched":"Barry,UK","country":"United Kingdom","canonicalUrl":"https://foursquare.com/v/the-star/4c07b0e6b4aa0f4744f56562","categoryId":"4bf58dd8d48988d11b941735","category":"Pub","checkinsCount":145,"usersCount":69,"tipCount":2,"visitsCount":169,"tier":"","message":"","currency":"","rating":6},{"name":"Walston Castle (Beefeater)","phone":"+442920593896","twitter":"beefeatergrill","address":"Port Rd","lat":51.453262,"lng":-3.265336,"city_fetched":"Barry,UK","state":"Vale of Glamorgan","country":"United Kingdom","canonicalUrl":"https://foursquare.com/v/walston-castle-beefeater/4c4db85efa9d9521849e1d0a","categoryId":"4bf58dd8d48988d11b941735","category":"Pub","checkinsCount":81,"usersCount":87,"tipCount":3,"visitsCount":120,"url":"http://www.beefeater.co.uk","tier":"","message":"","currency":"","rating":5.4}]