[{"name":"The Bell Inn","phone":"+441375642463","address":"High Rd","lat":51.52359051908362,"lng":0.406175400698439,"city_fetched":"Basildon,UK","state":"Essex","country":"United Kingdom","canonicalUrl":"https://foursquare.com/v/the-bell-inn/4be05f502aed2d7fd121c86f","categoryId":"4bf58dd8d48988d11b941735","category":"Pub","checkinsCount":196,"usersCount":180,"tipCount":3,"visitsCount":315,"tier":"","message":"","currency":"","rating":8.3},{"name":"The Dick Turpin P. H","phone":"+441268726205","address":"Arterial Road","lat":51.58995590425958,"lng":0.5357001034852368,"city_fetched":"Basildon,UK","state":"Essex","country":"United Kingdom","canonicalUrl":"https://foursquare.com/v/the-dick-turpin-p-h/4ca23924750ca093f88e0e67","categoryId":"4bf58dd8d48988d116941735","category":"Bar","checkinsCount":138,"usersCount":74,"tipCount":2,"visitsCount":165,"tier":"","message":"","currency":"","rating":8},{"name":"The Hoop","address":"Stock Rd","lat":51.66441427576199,"lng":0.445437169595154,"city_fetched":"Basildon,UK","state":"Essex","country":"United Kingdom","canonicalUrl":"https://foursquare.com/v/the-hoop/4c02b161413bb713975d9921","categoryId":"4bf58dd8d48988d11b941735","category":"Pub","checkinsCount":118,"usersCount":107,"tipCount":6,"visitsCount":166,"tier":"","message":"","currency":"","rating":7.8},{"name":"The Anchor Pub","phone":"+441702230205","address":"284 Ferry Rd.","lat":51.62951605466756,"lng":0.6141615813028759,"city_fetched":"Basildon,UK","state":"Essex","country":"United Kingdom","canonicalUrl":"https://foursquare.com/v/the-anchor-pub/4c056897191f20a1c50ce314","categoryId":"4bf58dd8d48988d11b941735","category":"Pub","checkinsCount":242,"usersCount":164,"tipCount":6,"visitsCount":329,"url":"http://www.theanchorhullbridge.co.uk","tier":"","message":"","currency":"","rating":7.7},{"name":"The Bell","phone":"+441277353314","twitter":"bellingatestone","address":"55 High St","lat":51.670154787226515,"lng":0.38431554881894703,"city_fetched":"Basildon,UK","state":"Essex","country":"United Kingdom","canonicalUrl":"https://foursquare.com/bellingatestone","categoryId":"4bf58dd8d48988d11b941735","category":"Pub","checkinsCount":77,"usersCount":29,"tipCount":2,"visitsCount":77,"url":"http://www.thebellingatestone.co.uk","tier":"","message":"","currency":"","rating":7.6},{"name":"The Olde Dog Inn","phone":"+441277810337","address":"Billericay Rd","lat":51.59367648652511,"lng":0.36837685014105825,"city_fetched":"Basildon,UK","state":"Essex","country":"United Kingdom","canonicalUrl":"https://foursquare.com/v/the-olde-dog-inn/4c764d231b30a0938d9bf109","categoryId":"4bf58dd8d48988d11b941735","category":"Pub","checkinsCount":118,"usersCount":89,"tipCount":2,"visitsCount":164,"tier":"","message":"","currency":"","rating":7.3},{"name":"White Horse","phone":"+441268711884","address":"Heath Road","lat":51.635885900058895,"lng":0.47372526488184447,"city_fetched":"Basildon,UK","state":"Essex","country":"United Kingdom","canonicalUrl":"https://foursquare.com/v/white-horse/4bbb84f3e5b0d13ab8256e7c","categoryId":"4bf58dd8d48988d116941735","category":"Bar","checkinsCount":99,"usersCount":83,"tipCount":3,"visitsCount":141,"tier":"","message":"","currency":"","rating":7},{"name":"The Dukes Head","phone":"+441277651333","address":"Laindon Common Road","lat":51.60847620878489,"lng":0.4135322570800781,"city_fetched":"Basildon,UK","state":"Essex","country":"United Kingdom","canonicalUrl":"https://foursquare.com/v/the-dukes-head/4bafce59f964a52041223ce3","categoryId":"4bf58dd8d48988d11b941735","category":"Pub","checkinsCount":70,"usersCount":81,"tipCount":2,"visitsCount":146,"tier":"","message":"","currency":"","rating":7},{"name":"Inn On The Green","phone":"+441277658998","address":"Mountnessing Rd.","lat":51.63175424710464,"lng":0.40919605204956677,"city_fetched":"Basildon,UK","state":"Essex","country":"United Kingdom","canonicalUrl":"https://foursquare.com/v/inn-on-the-green/4c84063fe602b1f73552ab7a","categoryId":"4bf58dd8d48988d11b941735","category":"Pub","checkinsCount":195,"usersCount":55,"tipCount":5,"visitsCount":224,"tier":"","message":"","currency":"","rating":6.8},{"name":"The Green Man - Shepherd Neame","phone":"+441277810292","address":"11 Cricketers Lane, Herongate","lat":51.5960614381727,"lng":0.3511977195739746,"city_fetched":"Basildon,UK","state":"Essex","country":"United Kingdom","canonicalUrl":"https://foursquare.com/v/the-green-man--shepherd-neame/4e65f055091afcffda120582","categoryId":"4bf58dd8d48988d11b941735","category":"Pub","checkinsCount":180,"usersCount":63,"tipCount":0,"visitsCount":218,"url":"http://www.shepherdneame.co.uk","tier":"","message":"","currency":"","rating":6.8},{"name":"The Haywain (Beefeater)","phone":"+441268554500","twitter":"beefeater","address":"High Road, Fobbing","lat":51.55066788196564,"lng":0.466706,"city_fetched":"Basildon,UK","state":"Essex","country":"United Kingdom","canonicalUrl":"https://foursquare.com/v/the-haywain-beefeater/4c9bce630313370426954fd5","categoryId":"4bf58dd8d48988d11b941735","category":"Pub","checkinsCount":460,"usersCount":189,"tipCount":3,"visitsCount":590,"url":"http://www.beefeater.co.uk/steak-restaurant/Essex/Haywain-Basildon.html","tier":"","message":"","currency":"","rating":6.7},{"name":"The Bell - Shepherd Neame","phone":"+441277353314","address":"55 High Street","lat":51.67024963813322,"lng":0.38442492485046387,"city_fetched":"Basildon,UK","state":"Essex","country":"United Kingdom","canonicalUrl":"https://foursquare.com/v/the-bell--shepherd-neame/4c7a9f5f81bca09357fd0015","categoryId":"4bf58dd8d48988d11b941735","category":"Pub","checkinsCount":12,"usersCount":9,"tipCount":0,"visitsCount":16,"url":"http://www.shepherdneame.co.uk","tier":"","message":"","currency":"","rating":6.6},{"name":"Kings Head","phone":"+441277637135","address":"Southend Rd","lat":51.609732,"lng":0.43853,"city_fetched":"Basildon,UK","state":"Essex","country":"United Kingdom","canonicalUrl":"https://foursquare.com/v/kings-head/4bc0614ff8219c74487bb110","categoryId":"4bf58dd8d48988d11b941735","category":"Pub","checkinsCount":135,"usersCount":103,"tipCount":5,"visitsCount":172,"tier":"","message":"","currency":"","rating":6.5},{"name":"The Curlew - Shepherd Neame","phone":"+441245321371","address":"80-88 Gandalf's Ride","lat":51.63875919922437,"lng":0.6075310707092285,"city_fetched":"Basildon,UK","state":"Essex","country":"United Kingdom","canonicalUrl":"https://foursquare.com/v/the-curlew--shepherd-neame/4c5d626394fd0f479728cb45","categoryId":"4bf58dd8d48988d11b941735","category":"Pub","checkinsCount":9,"usersCount":14,"tipCount":0,"visitsCount":20,"url":"http://www.shepherdneame.co.uk","tier":"","message":"","currency":"","rating":6.4},{"name":"The Quart Pot","lat":51.622466,"lng":0.53352,"city_fetched":"Basildon,UK","country":"United Kingdom","canonicalUrl":"https://foursquare.com/v/the-quart-pot/4c5883aab8b3c9b655f786b6","categoryId":"4bf58dd8d48988d11b941735","category":"Pub","checkinsCount":146,"usersCount":96,"tipCount":1,"visitsCount":208,"tier":"","message":"","currency":"","rating":6.4},{"name":"The Moon on the Square (Wetherspoon)","phone":"+441268520360","address":"1-15 Market Square","lat":51.569174463873736,"lng":0.45621156692504883,"city_fetched":"Basildon,UK","state":"Essex","country":"United Kingdom","canonicalUrl":"https://foursquare.com/v/the-moon-on-the-square-wetherspoon/4b7bb77af964a520c36b2fe3","categoryId":"4bf58dd8d48988d11b941735","category":"Pub","checkinsCount":250,"usersCount":110,"tipCount":5,"visitsCount":251,"url":"http://www.jdwetherspoon.co.uk","tier":"","message":"","currency":"","rating":6.4},{"name":"Red Lion","phone":"+441277844911","twitter":"_theredlion","address":"113 High St","lat":51.624256,"lng":0.416417,"city_fetched":"Basildon,UK","state":"Essex","country":"United Kingdom","canonicalUrl":"https://foursquare.com/v/red-lion/4bbf8746b492d13a6dcea260","categoryId":"4bf58dd8d48988d11b941735","category":"Pub","checkinsCount":232,"usersCount":84,"tipCount":2,"visitsCount":238,"url":"http://www.redlionpubbillericay.co.uk","tier":"","message":"","currency":"","rating":6.3},{"name":"The Hutton Junction","address":"15 Rayleigh Road","lat":51.6317182,"lng":0.333158,"city_fetched":"Basildon,UK","state":"Essex","country":"United Kingdom","canonicalUrl":"https://foursquare.com/v/the-hutton-junction/4b7449d7f964a520c5d22de3","categoryId":"4bf58dd8d48988d11b941735","category":"Pub","checkinsCount":370,"usersCount":105,"tipCount":4,"visitsCount":485,"tier":"","message":"","currency":"","rating":6.2},{"name":"Hoy & Helmet","address":"24 High Rd.","lat":51.545786168875864,"lng":0.5626352742609505,"city_fetched":"Basildon,UK","state":"Essex","country":"United Kingdom","canonicalUrl":"https://foursquare.com/v/hoy--helmet/4c4055ecd691c9b63afa8a0a","categoryId":"4bf58dd8d48988d11b941735","category":"Pub","checkinsCount":157,"usersCount":53,"tipCount":3,"visitsCount":159,"tier":"","message":"","currency":"","rating":6},{"name":"The Watermill (Beefeater)","phone":"+441268522227","twitter":"beefeatergrill","address":"Felmores","lat":51.58034985698183,"lng":0.4968416690826416,"city_fetched":"Basildon,UK","state":"Essex","country":"United Kingdom","canonicalUrl":"https://foursquare.com/v/the-watermill-beefeater/4bb48b5fc4d8b713761c2b81","categoryId":"4bf58dd8d48988d11b941735","category":"Pub","checkinsCount":224,"usersCount":110,"tipCount":4,"visitsCount":229,"url":"http://www.beefeater.co.uk","tier":"","message":"","currency":"","rating":5.9},{"name":"The Chequers","phone":"+441277650500","address":"44 High St","lat":51.626267,"lng":0.418419,"neighborhood":"CM12 9BQ","city_fetched":"Basildon,UK","state":"Essex","country":"United Kingdom","canonicalUrl":"https://foursquare.com/v/the-chequers/4bbf68e482a2ef3bbebc2cd2","categoryId":"4bf58dd8d48988d11b941735","category":"Pub","checkinsCount":216,"usersCount":84,"tipCount":4,"visitsCount":225,"url":"http://www.thechequersbillericay.co.uk","tier":"","message":"","currency":"","rating":5.8},{"name":"The Quays","address":"Festival Leisure Park","lat":51.58723970804559,"lng":0.4612979215331674,"city_fetched":"Basildon,UK","state":"Essex","country":"United Kingdom","canonicalUrl":"https://foursquare.com/v/the-quays/4c29d9a9ce3fc92848496f88","categoryId":"4bf58dd8d48988d11b941735","category":"Pub","checkinsCount":348,"usersCount":204,"tipCount":2,"visitsCount":440,"tier":"","message":"","currency":"","rating":5.7},{"name":"The Roebuck (Wetherspoon)","phone":"+441268748430","address":"138 High St.","lat":51.58488916356331,"lng":0.6035725216756127,"city_fetched":"Basildon,UK","state":"Essex","country":"United Kingdom","canonicalUrl":"https://foursquare.com/v/the-roebuck-wetherspoon/4c87abd0821e9eb0aecd8d89","categoryId":"4bf58dd8d48988d11b941735","category":"Pub","checkinsCount":603,"usersCount":227,"tipCount":6,"visitsCount":663,"url":"http://www.jdwetherspoon.co.uk","tier":"","message":"","currency":"","rating":5.7},{"name":"The Beehive","phone":"+441268273394","address":"Southernhay","lat":51.56882768935214,"lng":0.4564046859741211,"city_fetched":"Basildon,UK","state":"Essex","country":"United Kingdom","canonicalUrl":"https://foursquare.com/v/the-beehive/4ba7e81af964a5209dbd39e3","categoryId":"4bf58dd8d48988d11b941735","category":"Pub","checkinsCount":121,"usersCount":69,"tipCount":3,"visitsCount":122,"tier":"","message":"","currency":"","rating":5.6},{"name":"Reids","phone":"+441277632378","twitter":"reidsbillericay","address":"66-68 Laindon Rd.","lat":51.61883354187012,"lng":0.415983,"city_fetched":"Basildon,UK","state":"Essex","country":"United Kingdom","canonicalUrl":"https://foursquare.com/v/reids/4be495ed910020a185eed114","categoryId":"4bf58dd8d48988d11a941735","category":"Other Nightlife","checkinsCount":199,"usersCount":164,"tipCount":6,"visitsCount":295,"url":"http://www.reidsbillericay.com","tier":"","message":"","currency":"","rating":5.6},{"name":"The Blue Boar (Wetherspoon)","phone":"+441277655552","address":"39 High St.","lat":51.6269793726981,"lng":0.418385205187482,"city_fetched":"Basildon,UK","state":"Essex","country":"United Kingdom","canonicalUrl":"https://foursquare.com/v/the-blue-boar-wetherspoon/4c87aa53821e9eb054cc8d89","categoryId":"4bf58dd8d48988d11b941735","category":"Pub","checkinsCount":825,"usersCount":275,"tipCount":7,"visitsCount":966,"url":"http://www.jdwetherspoon.co.uk","tier":"","message":"","currency":"","rating":5.5},{"name":"Travellers Joy (Hungry Horse)","phone":"+441268784545","address":"Downhall Rd","lat":51.59227235800512,"lng":0.6029713153839111,"city_fetched":"Basildon,UK","state":"Essex","country":"United Kingdom","canonicalUrl":"https://foursquare.com/v/travellers-joy-hungry-horse/4be1e4b14283c9b6b9d654f8","categoryId":"4bf58dd8d48988d11b941735","category":"Pub","checkinsCount":223,"usersCount":108,"tipCount":2,"visitsCount":255,"tier":"","message":"","currency":"","rating":5.5},{"name":"Four Seasons (Hungry Horse)","phone":"+441268540051","twitter":"grandstandhh","address":"Victoria Rd.","lat":51.57542262075912,"lng":0.41077494621276855,"city_fetched":"Basildon,UK","state":"Essex","country":"United Kingdom","canonicalUrl":"https://foursquare.com/v/four-seasons-hungry-horse/4ba3e67af964a5209e6b38e3","categoryId":"4bf58dd8d48988d11b941735","category":"Pub","checkinsCount":675,"usersCount":130,"tipCount":6,"visitsCount":755,"tier":"","message":"","currency":"","rating":5.3}]