[{"name":"The Mill House","phone":"+441256702953","address":"Hook Rd.","lat":51.263698,"lng":-0.95295306,"city_fetched":"Basingstoke,UK","state":"Hampshire","country":"United Kingdom","canonicalUrl":"https://foursquare.com/v/the-mill-house/4b649bcef964a520cac12ae3","categoryId":"4bf58dd8d48988d11b941735","category":"Pub","checkinsCount":309,"usersCount":339,"tipCount":9,"visitsCount":460,"url":"http://www.brunningandprice.co.uk/millhouse","tier":"","message":"","currency":"","rating":8.3},{"name":"Fox and Goose","phone":"+441256702062","address":"The Street","lat":51.25694154066828,"lng":-0.9719914674623492,"city_fetched":"Basingstoke,UK","state":"Hampshire","country":"United Kingdom","canonicalUrl":"https://foursquare.com/v/fox-and-goose/4b228e98f964a520f04824e3","categoryId":"4bf58dd8d48988d11b941735","category":"Pub","checkinsCount":59,"usersCount":39,"tipCount":6,"visitsCount":71,"tier":"","message":"","currency":"","rating":8.1},{"name":"The Leather Bottle","phone":"+441189326371","address":"Reading Rd","lat":51.31202510904889,"lng":-0.9503933056471343,"city_fetched":"Basingstoke,UK","state":"Hampshire","country":"United Kingdom","canonicalUrl":"https://foursquare.com/v/the-leather-bottle/4b883121f964a52058e631e3","categoryId":"4bf58dd8d48988d11b941735","category":"Pub","checkinsCount":237,"usersCount":169,"tipCount":8,"visitsCount":312,"tier":"","message":"","currency":"","rating":7.8},{"name":"Bartons Mill","phone":"+441256466332","address":"Bartons Ln","lat":51.27303,"lng":-1.053355,"city_fetched":"Basingstoke,UK","state":"Hampshire","country":"United Kingdom","canonicalUrl":"https://foursquare.com/v/bartons-mill/4da352722939b1f7def81b57","categoryId":"4bf58dd8d48988d11b941735","category":"Pub","checkinsCount":169,"usersCount":141,"tipCount":7,"visitsCount":212,"tier":"","message":"","currency":"","rating":7.8},{"name":"The Calleva Arms","phone":"+441189700305","address":"The Common","lat":51.3541337423241,"lng":-1.1007919907569885,"city_fetched":"Basingstoke,UK","state":"Hampshire","country":"United Kingdom","canonicalUrl":"https://foursquare.com/v/the-calleva-arms/4b74166ef964a52046c72de3","categoryId":"4bf58dd8d48988d11b941735","category":"Pub","checkinsCount":221,"usersCount":82,"tipCount":4,"visitsCount":270,"url":"http://www.callevaarms.co.uk","tier":"","message":"","currency":"","rating":7.5},{"name":"Fur And Feathers","phone":"+441256384170","address":"Herriard Rd","lat":51.198289214767755,"lng":-1.0404110377581286,"city_fetched":"Basingstoke,UK","state":"Hampshire","country":"United Kingdom","canonicalUrl":"https://foursquare.com/v/fur-and-feathers/4e74fe0ffa76059700cf21b3","categoryId":"4bf58dd8d48988d11b941735","category":"Pub","checkinsCount":64,"usersCount":72,"tipCount":8,"visitsCount":96,"url":"http://www.franskitchen.co.uk","tier":"","message":"","currency":"","rating":7.4},{"name":"The Hoggett","address":"Hook Common","lat":51.27542103345989,"lng":-0.9778904047511474,"city_fetched":"Basingstoke,UK","state":"Hampshire","country":"United Kingdom","canonicalUrl":"https://foursquare.com/v/the-hoggett/4bb8990c1261d13aa4b9e898","categoryId":"4bf58dd8d48988d117941735","category":"Beer Garden","checkinsCount":279,"usersCount":205,"tipCount":2,"visitsCount":361,"tier":"","message":"","currency":"","rating":7.3},{"name":"Portsmouth Arms","address":"Cliddesden Lane","lat":51.234679846818736,"lng":-1.1175880777401306,"city_fetched":"Basingstoke,UK","state":"Hampshire","country":"United Kingdom","canonicalUrl":"https://foursquare.com/v/portsmouth-arms/4b47b429f964a520283b26e3","categoryId":"4bf58dd8d48988d11b941735","category":"Pub","checkinsCount":305,"usersCount":232,"tipCount":9,"visitsCount":409,"url":"http://www.portsmoutharmshatchwarren.co.uk","tier":"","message":"","currency":"","rating":7.2},{"name":"The Bolton Arms","phone":"+441256819555","twitter":"londonirishpubs","address":"91 The Street","lat":51.275038992180114,"lng":-1.0450910662619592,"city_fetched":"Basingstoke,UK","state":"Hampshire","country":"United Kingdom","canonicalUrl":"https://foursquare.com/v/the-bolton-arms/4ee61a462da504839760f8d9","categoryId":"4bf58dd8d48988d11b941735","category":"Pub","checkinsCount":65,"usersCount":59,"tipCount":4,"visitsCount":85,"url":"http://www.londonirishpubs.co.uk","tier":"","message":"","currency":"","rating":7.1},{"name":"The Old White Hart","lat":51.282216,"lng":-0.963863,"city_fetched":"Basingstoke,UK","country":"United Kingdom","canonicalUrl":"https://foursquare.com/v/the-old-white-hart/4bb1e9d7f964a52048aa3ce3","categoryId":"4bf58dd8d48988d11b941735","category":"Pub","checkinsCount":136,"usersCount":80,"tipCount":1,"visitsCount":157,"tier":"","message":"","currency":"","rating":7},{"name":"Coach & Horses","address":"The Street","lat":51.301305626974404,"lng":-0.977719362395412,"city_fetched":"Basingstoke,UK","state":"Hampshire","country":"United Kingdom","canonicalUrl":"https://foursquare.com/v/coach--horses/4bf01088d4f70f47356a390f","categoryId":"4bf58dd8d48988d11b941735","category":"Pub","checkinsCount":41,"usersCount":57,"tipCount":2,"visitsCount":105,"tier":"","message":"","currency":"","rating":6.9},{"name":"The Crown","address":"The Street","lat":51.27043944264583,"lng":-1.0508883473743245,"city_fetched":"Basingstoke,UK","state":"Hampshire","country":"United Kingdom","canonicalUrl":"https://foursquare.com/v/the-crown/4bca0088fb84c9b6b8201c3e","categoryId":"4bf58dd8d48988d11b941735","category":"Pub","checkinsCount":115,"usersCount":94,"tipCount":5,"visitsCount":164,"tier":"","message":"","currency":"","rating":6.9},{"name":"The Angel (Wetherspoon)","phone":"+441256854800","twitter":"jdwtweet","address":"Unit R6, Lower Ground","lat":51.26549892385147,"lng":-1.0837614472209658,"city_fetched":"Basingstoke,UK","state":"Hampshire","country":"United Kingdom","canonicalUrl":"https://foursquare.com/v/the-angel-wetherspoon/4c66722719f3c9b65bdf9fff","categoryId":"4bf58dd8d48988d11b941735","category":"Pub","checkinsCount":1465,"usersCount":465,"tipCount":12,"visitsCount":1506,"url":"http://www.jdwetherspoon.co.uk","tier":"","message":"","currency":"","rating":6.6},{"name":"Jekyl & Hyde Pub","lat":51.330513193005935,"lng":-1.0009812181576998,"city_fetched":"Basingstoke,UK","state":"Hampshire","country":"United Kingdom","canonicalUrl":"https://foursquare.com/v/jekyl--hyde-pub/4b804795f964a5209e6330e3","categoryId":"4bf58dd8d48988d11b941735","category":"Pub","checkinsCount":202,"usersCount":188,"tipCount":3,"visitsCount":272,"tier":"","message":"","currency":"","rating":6.6},{"name":"The Queens College Arms","phone":"+441256850071","address":"Aldermaston Road","lat":51.320803146710446,"lng":-1.1230462789535522,"city_fetched":"Basingstoke,UK","state":"Hampshire","country":"United Kingdom","canonicalUrl":"https://foursquare.com/v/the-queens-college-arms/4b7d845ef964a520d2c32fe3","categoryId":"4bf58dd8d48988d116941735","category":"Bar","checkinsCount":224,"usersCount":135,"tipCount":7,"visitsCount":263,"url":"http://queenscollegearms.co.uk","tier":"","message":"","currency":"","rating":6.6},{"name":"The Queen's Arms","phone":"+441256465488","address":"Bunnian Place","lat":51.268457,"lng":-1.0857689380645752,"city_fetched":"Basingstoke,UK","state":"Hampshire","country":"United Kingdom","canonicalUrl":"https://foursquare.com/v/the-queens-arms/4b546019f964a52017b927e3","categoryId":"4bf58dd8d48988d11b941735","category":"Pub","checkinsCount":539,"usersCount":128,"tipCount":8,"visitsCount":589,"tier":"","message":"","currency":"","rating":6.4},{"name":"The White Hart","address":"London Rd.","lat":51.28319181367421,"lng":-0.9616143353287738,"city_fetched":"Basingstoke,UK","state":"Hampshire","country":"United Kingdom","canonicalUrl":"https://foursquare.com/v/the-white-hart/4bd72d1632a2952124f7d5b8","categoryId":"4bf58dd8d48988d11b941735","category":"Pub","checkinsCount":227,"usersCount":84,"tipCount":5,"visitsCount":288,"tier":"","message":"","currency":"","rating":6.3},{"name":"The Great Western Hotel","phone":"+441256471004","twitter":"londonirishpubs","address":"Vyne Rd","lat":51.2688612464653,"lng":-1.0884480213338776,"city_fetched":"Basingstoke,UK","state":"Hampshire","country":"United Kingdom","canonicalUrl":"https://foursquare.com/v/the-great-western-hotel/4ee61a462da504839760f8ef","categoryId":"4bf58dd8d48988d11b941735","category":"Pub","checkinsCount":246,"usersCount":18,"tipCount":4,"visitsCount":246,"url":"http://www.londonirishpubs.co.uk","tier":"","message":"","currency":"","rating":6.3},{"name":"Pure Lounge Bar","phone":"+441256353001","address":"27 Wote St","lat":51.263576994865616,"lng":-1.0860581785686036,"city_fetched":"Basingstoke,UK","state":"Hampshire","country":"United Kingdom","canonicalUrl":"https://foursquare.com/v/pure-lounge-bar/4be409ac2457a5936ba5a915","categoryId":"4bf58dd8d48988d116941735","category":"Bar","checkinsCount":452,"usersCount":126,"tipCount":6,"visitsCount":454,"tier":"","message":"","currency":"","rating":6.3},{"name":"The Wellington Arms","phone":"+441256882214","address":"Basingstoke Rd","lat":51.337042572206556,"lng":-0.999566369049767,"city_fetched":"Basingstoke,UK","state":"Hampshire","country":"United Kingdom","canonicalUrl":"https://foursquare.com/v/the-wellington-arms/4bf2e74398ac0f47de4662a8","categoryId":"4bf58dd8d48988d11b941735","category":"Pub","checkinsCount":118,"usersCount":131,"tipCount":4,"visitsCount":195,"url":"http://wellingtonstratfieldturgis.co.uk","tier":"","message":"","currency":"","rating":6.1},{"name":"The Swan","lat":51.293508041103536,"lng":-1.1060912170399992,"city_fetched":"Basingstoke,UK","country":"United Kingdom","canonicalUrl":"https://foursquare.com/v/the-swan/4b91132bf964a52065a233e3","categoryId":"4bf58dd8d48988d11b941735","category":"Pub","checkinsCount":188,"usersCount":139,"tipCount":3,"visitsCount":242,"tier":"","message":"","currency":"","rating":6.1},{"name":"The Wheatsheaf","lat":51.205852,"lng":-1.1864725,"city_fetched":"Basingstoke,UK","country":"United Kingdom","canonicalUrl":"https://foursquare.com/v/the-wheatsheaf/4c628de0edd320a1ff19ad29","categoryId":"4bf58dd8d48988d11b941735","category":"Pub","checkinsCount":159,"usersCount":176,"tipCount":6,"visitsCount":269,"tier":"","message":"","currency":"","rating":6},{"name":"The Chineham Arms","phone":"+441256356404","twitter":"chinehamarms","address":"Ajax Cl","lat":51.297511656899346,"lng":-1.0565135101590941,"city_fetched":"Basingstoke,UK","state":"Hampshire","country":"United Kingdom","canonicalUrl":"https://foursquare.com/v/the-chineham-arms/4b5062acf964a520e22127e3","categoryId":"4bf58dd8d48988d11b941735","category":"Pub","checkinsCount":211,"usersCount":125,"tipCount":7,"visitsCount":278,"url":"http://www.chinehamarms.co.uk","tier":"","message":"","currency":"","rating":6},{"name":"The Maidenhead Inn (Wetherspoon)","phone":"+441256316030","address":"17 Winchester St","lat":51.262358,"lng":-1.087556,"city_fetched":"Basingstoke,UK","state":"Hampshire","country":"United Kingdom","canonicalUrl":"https://foursquare.com/v/the-maidenhead-inn-wetherspoon/4bd06baba8b3a593faca635f","categoryId":"4bf58dd8d48988d11b941735","category":"Pub","checkinsCount":1128,"usersCount":345,"tipCount":7,"visitsCount":1309,"url":"http://www.jdwetherspoon.co.uk","tier":"","message":"","currency":"","rating":5.8},{"name":"Spruce Goose (Beefeater)","phone":"+441256811477","twitter":"beefeater","address":"Basingstoke Leisure Park, Worthing Rd","lat":51.264642,"lng":-1.117179,"city_fetched":"Basingstoke,UK","state":"Hampshire","country":"United Kingdom","canonicalUrl":"https://foursquare.com/v/spruce-goose-beefeater/4b76d7d5f964a52066632ee3","categoryId":"4bf58dd8d48988d11b941735","category":"Pub","checkinsCount":464,"usersCount":277,"tipCount":7,"visitsCount":540,"url":"http://www.beefeater.co.uk/steak-restaurant/Hampshire/Spruce-Goose-Basingstoke.html","tier":"","message":"","currency":"","rating":5.7},{"name":"The Millstone","phone":"+441256331153","address":"Bartons Lane","lat":51.273184917740416,"lng":-1.0531090199947357,"city_fetched":"Basingstoke,UK","state":"Hampshire","country":"United Kingdom","canonicalUrl":"https://foursquare.com/v/the-millstone/4b59a309f964a520329028e3","categoryId":"4bf58dd8d48988d11b941735","category":"Pub","checkinsCount":346,"usersCount":137,"tipCount":5,"visitsCount":365,"url":"http://www.bartonsmillpubanddining.co.uk/home","tier":"","message":"","currency":"","rating":5.6},{"name":"The White Hart","lat":51.262527,"lng":-1.0820943117141724,"city_fetched":"Basingstoke,UK","country":"United Kingdom","canonicalUrl":"https://foursquare.com/v/the-white-hart/4bc0c8d62a89ef3bd623f188","categoryId":"4bf58dd8d48988d11b941735","category":"Pub","checkinsCount":355,"usersCount":92,"tipCount":6,"visitsCount":366,"tier":"","message":"","currency":"","rating":5.6},{"name":"The Raven","address":"Station Rd Hook Hampshire","lat":51.281011,"lng":-0.961981,"city_fetched":"Basingstoke,UK","state":"Hampshire","country":"United Kingdom","canonicalUrl":"https://foursquare.com/v/the-raven/4baa6737f964a520d6663ae3","categoryId":"4bf58dd8d48988d11b941735","category":"Pub","checkinsCount":397,"usersCount":170,"tipCount":10,"visitsCount":427,"tier":"","message":"","currency":"","rating":5.5},{"name":"Beach Arms Hotel","phone":"+441256780210","address":"Clerken Green","lat":51.254465,"lng":-1.192788,"city_fetched":"Basingstoke,UK","state":"Hampshire","country":"United Kingdom","canonicalUrl":"https://foursquare.com/v/beach-arms-hotel/4bb5f6532f70c9b617af8430","categoryId":"4bf58dd8d48988d11b941735","category":"Pub","checkinsCount":124,"usersCount":96,"tipCount":7,"visitsCount":160,"tier":"","message":"","currency":"","rating":5.5},{"name":"Bakers Arms","address":"15 Winchester St","lat":51.26212633383852,"lng":-1.0877591371536255,"city_fetched":"Basingstoke,UK","state":"Hampshire","country":"United Kingdom","canonicalUrl":"https://foursquare.com/v/bakers-arms/4bc8c2f2af07a593309a812d","categoryId":"4bf58dd8d48988d11b941735","category":"Pub","checkinsCount":213,"usersCount":109,"tipCount":2,"visitsCount":213,"tier":"","message":"","currency":"","rating":5.2}]