[{"name":"The Bell","phone":"+441225460426","twitter":"thebellinnbath","address":"103 Walcot St","lat":51.387479,"lng":-2.35934,"city_fetched":"Bath","state":"Bath and North East Somerset","country":"United Kingdom","canonicalUrl":"https://foursquare.com/v/the-bell/4ba3f201f964a520327038e3","category":"Pub","checkinsCount":601,"usersCount":446,"tipCount":8,"visitsCount":828,"url":"http://thebellinnbath.co.uk","tier":"","message":"","currency":"","rating":9.3},{"name":"The Raven","phone":"+441225425045","twitter":"theravenofbath","address":"7 Queen St","lat":51.383153200149536,"lng":-2.362056,"city_fetched":"Bath","state":"Bath and North East Somerset","country":"United Kingdom","canonicalUrl":"https://foursquare.com/v/the-raven/4b22b8c2f964a520734c24e3","category":"Pub","checkinsCount":2050,"usersCount":1233,"tipCount":71,"visitsCount":2240,"url":"http://www.theravenofbath.co.uk","tier":2,"message":"Moderate","currency":"£","rating":9},{"name":"Canary Gin And Wine Bar","phone":"+441225462457","twitter":"ginausten","address":"Queen St","lat":51.38280838164386,"lng":-2.3618780447801164,"city_fetched":"Bath","state":"Bath and North East Somerset","country":"United Kingdom","canonicalUrl":"https://foursquare.com/v/canary-gin-and-wine-bar/4f75f98ce4b04262b738ab1f","category":"Cocktail Bar","checkinsCount":353,"usersCount":289,"tipCount":15,"visitsCount":376,"url":"http://www.thebathgincompany.co.uk/the-canary-gin-bar/#bar1","tier":"","message":"","currency":"","rating":9},{"name":"The Salamander","phone":"+441225428889","address":"3 John St","lat":51.38335574238383,"lng":-2.362164039011684,"city_fetched":"Bath","state":"Bath and North East Somerset","country":"United Kingdom","canonicalUrl":"https://foursquare.com/v/the-salamander/4bab6930f964a52044a73ae3","category":"Pub","checkinsCount":1423,"usersCount":701,"tipCount":25,"visitsCount":1548,"url":"http://www.bathales.com/our-pubs/pid/the-salamander/","tier":"","message":"","currency":"","rating":9},{"name":"Hare & Hounds","phone":"+441225482682","twitter":"harehoundsbath","address":"Lansdown Rd","lat":51.40234172344208,"lng":-2.371099591255188,"neighborhood":"Lansdown","city_fetched":"Bath","state":"Bath and North East Somerset","country":"United Kingdom","canonicalUrl":"https://foursquare.com/v/hare--hounds/4c7fe12ad8086dcb5fb85e52","category":"Pub","checkinsCount":269,"usersCount":286,"tipCount":10,"visitsCount":420,"url":"http://www.hareandhoundsbath.com","tier":"","message":"","currency":"","rating":8.5},{"name":"The Boathouse","phone":"+441225482584","twitter":"boathousebath","address":"Newbridge Rd","lat":51.39095716662368,"lng":-2.408278887222951,"city_fetched":"Bath","state":"Bath and North East Somerset","country":"United Kingdom","canonicalUrl":"https://foursquare.com/v/the-boathouse/4bd435bccaff9521884fd6f0","category":"Pub","checkinsCount":271,"usersCount":235,"tipCount":2,"visitsCount":361,"url":"http://www.boathousebath.com","tier":"","message":"","currency":"","rating":8.5},{"name":"The Bath Brew House","phone":"+441225805609","twitter":"bathbrewhouse","address":"14 James St W","lat":51.381139298538535,"lng":-2.3654170538302495,"city_fetched":"Bath","state":"Bath and North East Somerset","country":"United Kingdom","canonicalUrl":"https://foursquare.com/v/the-bath-brew-house/52496d2d11d215edc61b55b3","category":"Pub","checkinsCount":1550,"usersCount":680,"tipCount":44,"visitsCount":1907,"url":"http://thebathbrewhouse.com","tier":2,"message":"Moderate","currency":"£","rating":8.4},{"name":"Pulteney Arms","phone":"+441225463293","address":"37 Daniel St","lat":51.385754,"lng":-2.352638,"city_fetched":"Bath","state":"Bath and North East Somerset","country":"United Kingdom","canonicalUrl":"https://foursquare.com/v/pulteney-arms/4b4e3877f964a520b9e526e3","category":"Bar","checkinsCount":486,"usersCount":202,"tipCount":10,"visitsCount":600,"url":"http://www.thepulteneyarms.co.uk/Share","tier":"","message":"","currency":"","rating":8.3},{"name":"Hunter & Sons","phone":"+447821975033","twitter":"colonna_hunter","address":"Milsom Place","lat":51.384066336729816,"lng":-2.3606892716688628,"city_fetched":"Bath","state":"Bath and North East Somerset","country":"United Kingdom","canonicalUrl":"https://foursquare.com/v/hunter--sons/544e24e3498e4a2ee5320c56","category":"Coffee Shop","checkinsCount":607,"usersCount":221,"tipCount":13,"visitsCount":761,"url":"http://colonnaandhunter.co.uk","tier":2,"message":"Moderate","currency":"£","rating":8.2},{"name":"Hall and Woodhouse","phone":"+441225469259","twitter":"hwbath","address":"1 Old King St","lat":51.383776,"lng":-2.362536,"city_fetched":"Bath","state":"Bath and North East Somerset","country":"United Kingdom","canonicalUrl":"https://foursquare.com/v/hall-and-woodhouse/4c237c64497cb71319276dd8","category":"Bar","checkinsCount":1582,"usersCount":1103,"tipCount":29,"visitsCount":1857,"url":"http://hall-woodhousebath.co.uk","tier":"","message":"","currency":"","rating":8.2},{"name":"Graze","phone":"+441225429392","twitter":"grazebath","address":"9 Brunel Sq","lat":51.377621539925585,"lng":-2.358035883609221,"city_fetched":"Bath","state":"Bath and North East Somerset","country":"United Kingdom","canonicalUrl":"https://foursquare.com/v/graze/50c242a1e4b09f38abc2a32f","category":"Restaurant","checkinsCount":1053,"usersCount":569,"tipCount":15,"visitsCount":1100,"url":"http://www.bathales.com/our-pubs/pid/graze-bath/","tier":"","message":"","currency":"","rating":8.1},{"name":"The White Hart","phone":"+441225313985","address":"Widcombe Parade","lat":51.376396,"lng":-2.354312,"city_fetched":"Bath","state":"Bath and North East Somerset","country":"United Kingdom","canonicalUrl":"https://foursquare.com/v/the-white-hart/4c0933d1009a0f470054e7bf","category":"Pub","checkinsCount":154,"usersCount":99,"tipCount":4,"visitsCount":154,"tier":"","message":"","currency":"","rating":8.1},{"name":"Crystal Palace","phone":"+441225482666","twitter":"cpalacebath","address":"10-11 Abbey Green","lat":51.380520565316246,"lng":-2.3591192810796255,"city_fetched":"Bath","state":"Bath and North East Somerset","country":"United Kingdom","canonicalUrl":"https://foursquare.com/v/crystal-palace/4bc8887f15a7ef3b9b3d7bda","category":"Pub","checkinsCount":791,"usersCount":538,"tipCount":9,"visitsCount":867,"url":"http://www.crystalpalacepub.co.uk","tier":"","message":"","currency":"","rating":7.8},{"name":"The Old Green Tree","address":"12 Green St.","lat":51.3835244859878,"lng":-2.360307265292875,"city_fetched":"Bath","country":"United Kingdom","canonicalUrl":"https://foursquare.com/v/the-old-green-tree/4bec8c2afd60a5939e313bf1","category":"Bar","checkinsCount":263,"usersCount":175,"tipCount":10,"visitsCount":266,"tier":"","message":"","currency":"","rating":7.8},{"name":"Coeur De Lion","phone":"+441225463568","address":"17 Northumberland Pl","lat":51.38232,"lng":-2.359659,"city_fetched":"Bath","state":"Bath and North East Somerset","country":"United Kingdom","canonicalUrl":"https://foursquare.com/v/coeur-de-lion/4bca256f511f95216628afc7","category":"Bar","checkinsCount":237,"usersCount":212,"tipCount":6,"visitsCount":237,"url":"http://www.coeur-de-lion.co.uk","tier":"","message":"","currency":"","rating":7.8},{"name":"Opium Bar","phone":"+441225332321","address":"Grove Street","lat":51.38356929517251,"lng":-2.357489972483529,"city_fetched":"Bath","state":"Bath and North East Somerset","country":"United Kingdom","canonicalUrl":"https://foursquare.com/v/opium-bar/4b899595f964a520e04332e3","category":"Bar","checkinsCount":93,"usersCount":69,"tipCount":8,"visitsCount":93,"url":"http://www.opiumbars.com","tier":"","message":"","currency":"","rating":7.8},{"name":"The Pig & Fiddle","phone":"+441225460868","twitter":"pigandfiddle","address":"2 Saracen St","lat":51.384382368508085,"lng":-2.359835233162724,"city_fetched":"Bath","state":"Bath and North East Somerset","country":"United Kingdom","canonicalUrl":"https://foursquare.com/v/the-pig--fiddle/4c0a6669ffb8c9b6996e6b61","category":"Pub","checkinsCount":1476,"usersCount":815,"tipCount":18,"visitsCount":1559,"url":"http://www.pigandfiddle.butcombe.com","tier":"","message":"","currency":"","rating":7.8},{"name":"The Chequers (1776)","phone":"+441225360017","address":"50 Rivers St.","lat":51.38756378691208,"lng":-2.364949949346449,"city_fetched":"Bath","state":"Bath and North East Somerset","country":"United Kingdom","canonicalUrl":"https://foursquare.com/v/the-chequers-1776/4b43c593f964a5204ae925e3","category":"Gastropub","checkinsCount":289,"usersCount":227,"tipCount":15,"visitsCount":340,"url":"http://www.thechequersbath.com","tier":2,"message":"Moderate","currency":"£","rating":7.7},{"name":"Bathampton Mill","address":"Mill Lane","lat":51.40070499944676,"lng":-2.3255181312561035,"city_fetched":"Bath","state":"Bath and North East Somerset","country":"United Kingdom","canonicalUrl":"https://foursquare.com/v/bathampton-mill/4b991f34f964a520c96235e3","category":"Gastropub","checkinsCount":413,"usersCount":414,"tipCount":19,"visitsCount":594,"tier":2,"message":"Moderate","currency":"£","rating":7.5},{"name":"The Griffin Inn","phone":"+441225420919","address":"Beauford Sq","lat":51.382066781130575,"lng":-2.3639917373657227,"city_fetched":"Bath","country":"United Kingdom","canonicalUrl":"https://foursquare.com/v/the-griffin-inn/4bb113dcf964a5206a783ce3","category":"Pub","checkinsCount":633,"usersCount":190,"tipCount":7,"visitsCount":662,"tier":"","message":"","currency":"","rating":7.5},{"name":"The Marlborough Tavern","phone":"+441225423731","address":"35 Marlborough Buildings","lat":51.38830523735353,"lng":-2.3696743242281557,"city_fetched":"Bath","state":"Bath and North East Somerset","country":"United Kingdom","canonicalUrl":"https://foursquare.com/v/the-marlborough-tavern/4b731c56f964a5200a9c2de3","category":"Gastropub","checkinsCount":827,"usersCount":404,"tipCount":15,"visitsCount":1073,"url":"http://www.marlborough-tavern.com","tier":3,"message":"Expensive","currency":"£","rating":7.4},{"name":"The Cork","address":"11-12 Westgate Buildings","lat":51.38035181024936,"lng":-2.362585079999804,"city_fetched":"Bath","state":"Bath and North East Somerset","country":"United Kingdom","canonicalUrl":"https://foursquare.com/v/the-cork/4b99787ff964a520af7c35e3","category":"Bar","checkinsCount":1587,"usersCount":630,"tipCount":14,"visitsCount":1736,"url":"http://www.thecork.co.uk","tier":"","message":"","currency":"","rating":7.3},{"name":"King William Pub & Dining Rooms","address":"37 Thomas St.","lat":51.39059462639045,"lng":-2.355716445643687,"city_fetched":"Bath","state":"Bath and North East Somerset","country":"United Kingdom","canonicalUrl":"https://foursquare.com/v/king-william-pub--dining-rooms/4b5cb738f964a520294029e3","category":"Pub","checkinsCount":252,"usersCount":181,"tipCount":11,"visitsCount":325,"tier":"","message":"","currency":"","rating":7.3},{"name":"The Huntsman","phone":"+441225482900","address":"1 Terrace Walk","lat":51.38083467736662,"lng":-2.357790470123291,"city_fetched":"Bath","country":"United Kingdom","canonicalUrl":"https://foursquare.com/v/the-huntsman/4bad374ff964a5203c3a3be3","category":"Pub","checkinsCount":697,"usersCount":550,"tipCount":14,"visitsCount":703,"url":"http://www.huntsmanbathpub.co.uk","tier":"","message":"","currency":"","rating":7.2},{"name":"Francis Hotel Bar & Lounge","phone":"+441225424105","address":"Queen Square","lat":51.383131789268255,"lng":-2.363382607892028,"city_fetched":"Bath","state":"Bath and North East Somerset","country":"United Kingdom","canonicalUrl":"https://foursquare.com/v/francis-hotel-bar--lounge/510d7f80e4b076918f1edd74","category":"Hotel Bar","checkinsCount":181,"usersCount":132,"tipCount":3,"visitsCount":185,"tier":"","message":"","currency":"","rating":7.2},{"name":"The Cosy Club","phone":"+441225464161","twitter":"theloungers","address":"Unit R4, SouthGate Pl","lat":51.378685,"lng":-2.358207,"city_fetched":"Bath","state":"Bath and North East Somerset","country":"United Kingdom","canonicalUrl":"https://foursquare.com/v/the-cosy-club/4dfa4f568877b30c39877414","category":"Bar","checkinsCount":989,"usersCount":568,"tipCount":12,"visitsCount":997,"url":"http://www.cosyclub.co.uk","tier":"","message":"","currency":"","rating":7.2},{"name":"The Boater","phone":"+441225464211","address":"9 Argyle St","lat":51.383123766666664,"lng":-2.356818,"city_fetched":"Bath","country":"United Kingdom","canonicalUrl":"https://foursquare.com/v/the-boater/4b671376f964a520cc382be3","category":"Pub","checkinsCount":573,"usersCount":372,"tipCount":10,"visitsCount":666,"tier":"","message":"","currency":"","rating":7.1},{"name":"The Stable","twitter":"_thestable","address":"16 George Street","lat":51.38487693264716,"lng":-2.362630434749803,"city_fetched":"Bath","state":"Bath and North East Somerset","country":"United Kingdom","canonicalUrl":"https://foursquare.com/v/the-stable/525d71a0498e95cd29a96bc4","category":"Pizza Place","checkinsCount":130,"usersCount":86,"tipCount":6,"visitsCount":131,"tier":"","message":"","currency":"","rating":7.1},{"name":"Frankie & Benny's","phone":"+441225465067","twitter":"frankienbennys","address":"5 Kingsmead Leisure Complex","lat":51.380720840019,"lng":-2.364978790283203,"neighborhood":"Kingsmead","city_fetched":"Bath","state":"Bath and North East Somerset","country":"United Kingdom","canonicalUrl":"https://foursquare.com/v/frankie--bennys/50bf4aa9e4b0c7d9647d2322","category":"Italian Restaurant","checkinsCount":160,"usersCount":106,"tipCount":1,"visitsCount":160,"url":"http://www.frankieandbennys.com/restaurant/frankie-bennys-bath","tier":"","message":"","currency":"","rating":7.1},{"name":"The Ale House","address":"Pierrepont St","lat":51.381015219097726,"lng":-2.357635012526571,"city_fetched":"Bath","state":"Bath and North East Somerset","country":"United Kingdom","canonicalUrl":"https://foursquare.com/v/the-ale-house/4c251711f1272d7ffa2d84c5","category":"Pub","checkinsCount":271,"usersCount":243,"tipCount":3,"visitsCount":273,"tier":"","message":"","currency":"","rating":7.1},{"name":"Door 34","lat":51.381932,"lng":-2.363718,"city_fetched":"Bath","state":"Bath and North East Somerset","country":"United Kingdom","canonicalUrl":"https://foursquare.com/v/door-34/4e3325a31838df3b5f6abd8f","category":"Cocktail Bar","checkinsCount":438,"usersCount":92,"tipCount":5,"visitsCount":438,"tier":"","message":"","currency":"","rating":7.1},{"name":"All Bar One","phone":"+441225334614","address":"High St","lat":51.38185564890774,"lng":-2.359014627457947,"city_fetched":"Bath","country":"United Kingdom","canonicalUrl":"https://foursquare.com/v/all-bar-one/4c5da1be94fd0f4723f4cb45","category":"Wine Bar","checkinsCount":657,"usersCount":359,"tipCount":5,"visitsCount":664,"tier":"","message":"","currency":"","rating":7},{"name":"The Royal Oak","phone":"+441225481409","address":"Lower Bristol Rd","lat":51.382027,"lng":-2.381512,"neighborhood":"Twerton, Bath and North East Somerset","city_fetched":"Bath","state":"Bath and North East Somerset","country":"United Kingdom","canonicalUrl":"https://foursquare.com/v/the-royal-oak/4b6cadebf964a520a44b2ce3","category":"Pub","checkinsCount":161,"usersCount":108,"tipCount":5,"visitsCount":185,"tier":"","message":"","currency":"","rating":7},{"name":"Sub13","phone":"+441225466667","twitter":"sub13bar","address":"4 Edgar Buildings","lat":51.38488762218173,"lng":-2.3620715256307103,"city_fetched":"Bath","country":"United Kingdom","canonicalUrl":"https://foursquare.com/v/sub13/4b882e10f964a52085e531e3","category":"Cocktail Bar","checkinsCount":374,"usersCount":223,"tipCount":13,"visitsCount":377,"url":"http://www.sub13.net","tier":"","message":"","currency":"","rating":7},{"name":"St James Wine Vaults","phone":"+441225310335","twitter":"stjamesvaults","address":"10 St James's St","lat":51.38828158378601,"lng":-2.3677468299865723,"city_fetched":"Bath","state":"Bath and North East Somerset","country":"United Kingdom","canonicalUrl":"https://foursquare.com/v/st-james-wine-vaults/4b48c099f964a520655526e3","category":"Pub","checkinsCount":369,"usersCount":92,"tipCount":12,"visitsCount":383,"url":"http://www.stjameswinevaults.co.uk","tier":"","message":"","currency":"","rating":7},{"name":"The Garricks Head","phone":"+441225318368","twitter":"garrickshead","address":"8 St. John's Rd","lat":51.38188,"lng":-2.362566,"city_fetched":"Bath","state":"Bath and North East Somerset","country":"United Kingdom","canonicalUrl":"https://foursquare.com/v/the-garricks-head/4bc9cf743740b71378455f65","category":"Bar","checkinsCount":616,"usersCount":429,"tipCount":15,"visitsCount":627,"tier":"","message":"","currency":"","rating":6.9},{"name":"The Porter","twitter":"porterbath","address":"George St","lat":51.3846970611886,"lng":-2.3627794313500545,"city_fetched":"Bath","state":"Bath and North East Somerset","country":"United Kingdom","canonicalUrl":"https://foursquare.com/v/the-porter/52186e1511d2336aa36e7c6f","category":"Gastropub","checkinsCount":202,"usersCount":130,"tipCount":10,"visitsCount":203,"tier":"","message":"","currency":"","rating":6.7},{"name":"The Hop Pole","phone":"+441225446327","address":"7 Albion Buildings, Upper Bristol Rd","lat":51.38505898140661,"lng":-2.3755930103100056,"city_fetched":"Bath","state":"Bath and North East Somerset","country":"United Kingdom","canonicalUrl":"https://foursquare.com/v/the-hop-pole/4bfd55b9e529c92820c2ba8c","category":"Pub","checkinsCount":401,"usersCount":227,"tipCount":12,"visitsCount":439,"tier":"","message":"","currency":"","rating":6.7}]