[{"name":"The Crazy Bear English Restaurant","address":"75 Wycombe End","lat":51.60192132406987,"lng":-0.638214016658031,"city_fetched":"Beaconsfield","state":"Buckinghamshire","country":"United Kingdom","canonicalUrl":"https://foursquare.com/v/the-crazy-bear-english-restaurant/4fa2d84be4b0083314c1027c","category":"English Restaurant","checkinsCount":114,"usersCount":81,"tipCount":1,"visitsCount":114,"tier":"","message":"","currency":"","rating":7.9},{"name":"The Swan","phone":"+441494673800","twitter":"swanbfield","address":"60 London End","lat":51.602117,"lng":-0.633192,"city_fetched":"Beaconsfield","state":"Buckinghamshire","country":"United Kingdom","canonicalUrl":"https://foursquare.com/swanbfield","category":"Pub","checkinsCount":614,"usersCount":274,"tipCount":14,"visitsCount":724,"url":"http://www.swanbeaconsfield.com","tier":"","message":"","currency":"","rating":7.5},{"name":"The Royal Saracens Head","phone":"+441494674119","address":"6-8 London End","lat":51.60140540720076,"lng":-0.6361570518790405,"city_fetched":"Beaconsfield","state":"Buckinghamshire","country":"United Kingdom","canonicalUrl":"https://foursquare.com/v/the-royal-saracens-head/4b4f695bf964a520610527e3","category":"Pub","checkinsCount":873,"usersCount":583,"tipCount":16,"visitsCount":1108,"tier":"","message":"","currency":"","rating":7.4},{"name":"Crazy Bear Hotel","phone":"+441494673086","twitter":"crazybeargroup","address":"73 Wycombe End","lat":51.60188418016505,"lng":-0.6379388000243893,"city_fetched":"Beaconsfield","state":"Buckinghamshire","country":"United Kingdom","canonicalUrl":"https://foursquare.com/v/crazy-bear-hotel/4be098924c55b651507aeab7","category":"Hotel","checkinsCount":1008,"usersCount":643,"tipCount":15,"visitsCount":1147,"url":"http://www.crazybeargroup.co.uk/beaconsfield","tier":"","message":"","currency":"","rating":7.2},{"name":"Red Lion Knotty Green","phone":"+441494680888","twitter":"beaconsfieldpub","address":"Penn Road Knotty Green","lat":51.622306383213534,"lng":-0.654759407043457,"city_fetched":"Beaconsfield","state":"Buckinghamshire","country":"United Kingdom","canonicalUrl":"https://foursquare.com/v/red-lion-knotty-green/4ccafb3754f0b1f7d5620cca","category":"Pub","checkinsCount":117,"usersCount":65,"tipCount":2,"visitsCount":216,"url":"http://www.myredlion.com","tier":"","message":"","currency":"","rating":7.1},{"name":"The Treehouse","phone":"+441494674104","twitter":"treehousebfield","address":"35 Aylesbury End","lat":51.602537,"lng":-0.637864,"city_fetched":"Beaconsfield","state":"Buckinghamshire","country":"United Kingdom","canonicalUrl":"https://foursquare.com/treehousebfield","category":"Cocktail Bar","checkinsCount":316,"usersCount":102,"tipCount":6,"visitsCount":321,"url":"http://www.treehousebeaconsfield.com","tier":"","message":"","currency":"","rating":7},{"name":"Revolution Bar","phone":"+441494677808","twitter":"revolutionbars","address":"Maxwell Rd","lat":51.610423,"lng":-0.643645,"city_fetched":"Beaconsfield","state":"Buckinghamshire","country":"United Kingdom","canonicalUrl":"https://foursquare.com/v/revolution-bar/4b9a8cc4f964a52031c035e3","category":"Cocktail Bar","checkinsCount":422,"usersCount":262,"tipCount":6,"visitsCount":482,"url":"http://www.revolution-bars.co.uk","tier":"","message":"","currency":"","rating":6.9},{"name":"Stix","address":"3 Warwick Rd. Buckinghamshire","lat":51.612859,"lng":-0.646555,"city_fetched":"Beaconsfield","state":"Buckinghamshire","country":"United Kingdom","canonicalUrl":"https://foursquare.com/v/stix/4be2c5c021d5a593ff3d1711","category":"Wine Bar","checkinsCount":134,"usersCount":62,"tipCount":4,"visitsCount":134,"url":"http://www.stixbar.co.uk","tier":"","message":"","currency":"","rating":6.5},{"name":"The Beech House","phone":"+441494842166","twitter":"the_beechhouse","address":"17 Penn Rd","lat":51.61298104358181,"lng":-0.6476908075549601,"city_fetched":"Beaconsfield","state":"Buckinghamshire","country":"United Kingdom","canonicalUrl":"https://foursquare.com/v/the-beech-house/517bd093e4b0a00472ab1050","category":"Gastropub","checkinsCount":219,"usersCount":104,"tipCount":5,"visitsCount":248,"url":"http://www.thebeechhouse.co.uk","tier":"","message":"","currency":"","rating":6},{"name":"The White Hart","phone":"+441494671211","twitter":"vintage_inns","address":"Aylesbury End","lat":51.60220459913491,"lng":-0.6371995862126428,"city_fetched":"Beaconsfield","state":"Buckinghamshire","country":"United Kingdom","canonicalUrl":"https://foursquare.com/v/the-white-hart/4be1955d8dd062b5b8623e3c","category":"Pub","checkinsCount":304,"usersCount":176,"tipCount":3,"visitsCount":305,"url":"http://www.vintageinn.co.uk/thewhitehartbeaconsfieldoldtown/","tier":"","message":"","currency":"","rating":5.7},{"name":"The Greyhound Enoteca","phone":"+441494671315","address":"Windsor End","lat":51.600401025883635,"lng":-0.6357830339138483,"city_fetched":"Beaconsfield","state":"Buckinghamshire","country":"United Kingdom","canonicalUrl":"https://foursquare.com/v/the-greyhound-enoteca/4b4f68c7f964a5204f0527e3","category":"Italian Restaurant","checkinsCount":101,"usersCount":62,"tipCount":6,"visitsCount":104,"tier":"","message":"","currency":"","rating":5.5}]