[{"name":"The Devonshire Arms","phone":"+441234359329","address":"32 Dudley Street","lat":52.13657,"lng":-0.450054,"city_fetched":"Bedford,UK","country":"United Kingdom","canonicalUrl":"https://foursquare.com/v/the-devonshire-arms/4cf9341a95153704a24b6189","categoryId":"4bf58dd8d48988d11b941735","category":"Pub","checkinsCount":622,"usersCount":68,"tipCount":8,"visitsCount":714,"tier":"","message":"","currency":"","rating":8.6},{"name":"The Anchor","phone":"+441234870364","address":"High St","lat":52.151627,"lng":-0.343493,"city_fetched":"Bedford,UK","country":"United Kingdom","canonicalUrl":"https://foursquare.com/v/the-anchor/4d9725f1daec224bf30b283e","categoryId":"4bf58dd8d48988d11b941735","category":"Pub","checkinsCount":61,"usersCount":42,"tipCount":5,"visitsCount":88,"tier":"","message":"","currency":"","rating":8.3},{"name":"The Wellington","address":"Wellington street","lat":52.141484,"lng":-0.4686574333333334,"city_fetched":"Bedford,UK","country":"United Kingdom","canonicalUrl":"https://foursquare.com/v/the-wellington/4c05545df56c2d7f3d7e1f66","categoryId":"4bf58dd8d48988d11b941735","category":"Pub","checkinsCount":239,"usersCount":110,"tipCount":6,"visitsCount":280,"tier":"","message":"","currency":"","rating":8},{"name":"The Chequers","lat":52.051190575,"lng":-0.498849,"city_fetched":"Bedford,UK","state":"Bedford","country":"United Kingdom","canonicalUrl":"https://foursquare.com/v/the-chequers/4c27455ec11dc9b64a4a2a24","categoryId":"4bf58dd8d48988d11b941735","category":"Pub","checkinsCount":115,"usersCount":99,"tipCount":6,"visitsCount":221,"tier":"","message":"","currency":"","rating":7.9},{"name":"The Standard","address":"High Street","lat":52.136073348414044,"lng":-0.46676312308395984,"city_fetched":"Bedford,UK","state":"Bedford","country":"United Kingdom","canonicalUrl":"https://foursquare.com/v/the-standard/524816b3498ee65813fd5bc2","categoryId":"4bf58dd8d48988d116941735","category":"Bar","checkinsCount":138,"usersCount":58,"tipCount":3,"visitsCount":140,"tier":"","message":"","currency":"","rating":7.4},{"name":"The Red Lion","phone":"+441234359687","address":"470 High St","lat":52.116639,"lng":-0.46837806701660156,"city_fetched":"Bedford,UK","country":"United Kingdom","canonicalUrl":"https://foursquare.com/v/the-red-lion/4c0eaa882466a5937a6e7921","categoryId":"4bf58dd8d48988d11b941735","category":"Pub","checkinsCount":294,"usersCount":95,"tipCount":0,"visitsCount":339,"tier":"","message":"","currency":"","rating":7.2},{"name":"White Hart Hotel","phone":"+441525406863","address":"125 Dunstable St.","lat":52.03187993874338,"lng":-0.4929557212414048,"city_fetched":"Bedford,UK","state":"Central Bedfordshire","country":"United Kingdom","canonicalUrl":"https://foursquare.com/v/white-hart-hotel/4b6defe7f964a520529d2ce3","categoryId":"4bf58dd8d48988d11b941735","category":"Pub","checkinsCount":120,"usersCount":91,"tipCount":1,"visitsCount":221,"tier":"","message":"","currency":"","rating":6.7},{"name":"The Pilgrim's Progress (Wetherspoon)","phone":"+441234363751","address":"42 Midland Rd.","lat":52.135920430871344,"lng":-0.4715534357358188,"city_fetched":"Bedford,UK","country":"United Kingdom","canonicalUrl":"https://foursquare.com/v/the-pilgrims-progress-wetherspoon/4b5219d8f964a520de6727e3","categoryId":"4bf58dd8d48988d11b941735","category":"Pub","checkinsCount":919,"usersCount":332,"tipCount":7,"visitsCount":1093,"url":"http://www.jdwetherspoon.co.uk","tier":"","message":"","currency":"","rating":6.6},{"name":"Three Cups","address":"Newnham Street","lat":52.1372581366755,"lng":-0.4604504642042085,"city_fetched":"Bedford,UK","country":"United Kingdom","canonicalUrl":"https://foursquare.com/v/three-cups/4c094e0ea1b32d7f207297f0","categoryId":"4bf58dd8d48988d11b941735","category":"Pub","checkinsCount":231,"usersCount":80,"tipCount":5,"visitsCount":264,"tier":"","message":"","currency":"","rating":6.6},{"name":"Bedford Arms","phone":"+441234214656","address":"2 Bromham Road","lat":52.138743,"lng":-0.471431,"city_fetched":"Bedford,UK","country":"United Kingdom","canonicalUrl":"https://foursquare.com/v/bedford-arms/4c94f98482b56dcb6e38d4aa","categoryId":"4bf58dd8d48988d11b941735","category":"Pub","checkinsCount":121,"usersCount":45,"tipCount":5,"visitsCount":123,"tier":"","message":"","currency":"","rating":6.5},{"name":"The Castle","phone":"+441234353295","address":"17 Newnham St.","lat":52.137144732530864,"lng":-0.46176864886632885,"city_fetched":"Bedford,UK","country":"United Kingdom","canonicalUrl":"https://foursquare.com/v/the-castle/4c095dde7e3fc9289ddaf182","categoryId":"4bf58dd8d48988d11b941735","category":"Pub","checkinsCount":108,"usersCount":56,"tipCount":3,"visitsCount":113,"tier":"","message":"","currency":"","rating":6.4},{"name":"The Ship","address":"7 St Cuthbert's St","lat":52.137434,"lng":-0.462675,"city_fetched":"Bedford,UK","country":"United Kingdom","canonicalUrl":"https://foursquare.com/v/the-ship/4c123ef87f7f2d7fa5e3dc68","categoryId":"4bf58dd8d48988d11b941735","category":"Pub","checkinsCount":255,"usersCount":117,"tipCount":2,"visitsCount":267,"tier":"","message":"","currency":"","rating":6.1},{"name":"Yates's","address":"High Street","lat":52.13626612432472,"lng":-0.46644423356082226,"city_fetched":"Bedford,UK","country":"United Kingdom","canonicalUrl":"https://foursquare.com/v/yatess/4fcc9713e4b093c38573a16e","categoryId":"4bf58dd8d48988d116941735","category":"Bar","checkinsCount":151,"usersCount":86,"tipCount":2,"visitsCount":154,"tier":"","message":"","currency":"","rating":6.1},{"name":"Brewhouse and Kitchen","phone":"+441234342931","address":"115-117 High St","lat":52.13833,"lng":-0.46669465,"city_fetched":"Bedford,UK","state":"Bedford","country":"United Kingdom","canonicalUrl":"https://foursquare.com/v/brewhouse-and-kitchen/576edf20498e954080189b8d","categoryId":"50327c8591d4c4b30a586d5d","category":"Brewery","checkinsCount":24,"usersCount":17,"tipCount":1,"visitsCount":25,"tier":"","message":"","currency":"","rating":5.9},{"name":"The Rose","address":"High Street","lat":52.13634610640064,"lng":-0.46651124954223633,"city_fetched":"Bedford,UK","country":"United Kingdom","canonicalUrl":"https://foursquare.com/v/the-rose/4bec759f49430f47dcbf07d2","categoryId":"4bf58dd8d48988d11b941735","category":"Pub","checkinsCount":607,"usersCount":240,"tipCount":4,"visitsCount":663,"tier":"","message":"","currency":"","rating":5.9},{"name":"Priory Marina (Beefeater)","phone":"+441234352883","twitter":"beefeater","address":"Priory Country Park, Barkers Lane","lat":52.132223584569104,"lng":-0.4371356964111328,"city_fetched":"Bedford,UK","state":"Bedford","country":"United Kingdom","canonicalUrl":"https://foursquare.com/v/priory-marina-beefeater/4bf67c925efe2d7f172f6734","categoryId":"4bf58dd8d48988d11b941735","category":"Pub","checkinsCount":313,"usersCount":190,"tipCount":7,"visitsCount":376,"url":"http://www.beefeater.co.uk/steak-restaurant/Bedfordshire/Priory-Marina-Bedford.html","tier":"","message":"","currency":"","rating":5.8},{"name":"The Swan","address":"Bridge End","lat":52.14480497976345,"lng":-0.5275250896286829,"city_fetched":"Bedford,UK","state":"Bedford","country":"United Kingdom","canonicalUrl":"https://foursquare.com/v/the-swan/4c0a3ac5a1b32d7fb5ef98f0","categoryId":"4bf58dd8d48988d11b941735","category":"Pub","checkinsCount":254,"usersCount":87,"tipCount":2,"visitsCount":312,"tier":"","message":"","currency":"","rating":5.8},{"name":"AUCTION ROOM","address":"Duke St","lat":52.13721,"lng":-0.464571,"city_fetched":"Bedford,UK","state":"Bedford","country":"United Kingdom","canonicalUrl":"https://foursquare.com/v/auction-room/5078a576e4b05ac93c97f8c4","categoryId":"4bf58dd8d48988d116941735","category":"Bar","checkinsCount":77,"usersCount":34,"tipCount":3,"visitsCount":79,"tier":"","message":"","currency":"","rating":5.7},{"name":"The Pheasant","phone":"+441234409301","address":"300 Kimbolton Road","lat":52.16182680620629,"lng":-0.4530036449432373,"city_fetched":"Bedford,UK","country":"United Kingdom","canonicalUrl":"https://foursquare.com/v/the-pheasant/4bc472fdb492d13ad801aa60","categoryId":"4bf58dd8d48988d11b941735","category":"Pub","checkinsCount":132,"usersCount":72,"tipCount":6,"visitsCount":186,"tier":"","message":"","currency":"","rating":5.5}]