[{"name":"The Three Horse Shoes","phone":"+441670822410","address":"Hathery Ln.","lat":55.10812604908579,"lng":-1.5663365319167029,"city_fetched":"Bedlington,UK","state":"Northumberland","country":"United Kingdom","canonicalUrl":"https://foursquare.com/v/the-three-horse-shoes/4c82382147cc224bd25c839f","categoryId":"4bf58dd8d48988d11b941735","category":"Pub","checkinsCount":198,"usersCount":78,"tipCount":2,"visitsCount":250,"url":"http://threehorseshoes-horton.co.uk","tier":"","message":"","currency":"","rating":8.2},{"name":"Snowy Owl","phone":"+441670736111","address":"Blagdon Lane","lat":55.08592459502092,"lng":-1.6279286718484884,"city_fetched":"Bedlington,UK","state":"Northumberland","country":"United Kingdom","canonicalUrl":"https://foursquare.com/v/snowy-owl/4ba64106f964a5206e3f39e3","categoryId":"4bf58dd8d48988d11b941735","category":"Pub","checkinsCount":301,"usersCount":183,"tipCount":15,"visitsCount":367,"url":"http://www.vintageinn.co.uk/thesnowyowlcramlington/","tier":"","message":"","currency":"","rating":7.2},{"name":"The Wallaw (Wetherspoon)","phone":"+441670356830","address":"14 Union St","lat":55.12651924864046,"lng":-1.5081608929015602,"city_fetched":"Bedlington,UK","state":"Northumberland","country":"United Kingdom","canonicalUrl":"https://foursquare.com/v/the-wallaw-wetherspoon/52a85ffc498e99d4ce6175fe","categoryId":"4bf58dd8d48988d11b941735","category":"Pub","checkinsCount":207,"usersCount":71,"tipCount":7,"visitsCount":271,"url":"http://www.jdwetherspoon.co.uk/home/pubs/the-wallaw","tier":"","message":"","currency":"","rating":6.6},{"name":"John The Clerk (Wetherspoon)","phone":"+441670707060","address":"Low Main Place","lat":55.086556,"lng":-1.584999,"city_fetched":"Bedlington,UK","state":"Northumberland","country":"United Kingdom","canonicalUrl":"https://foursquare.com/v/john-the-clerk-wetherspoon/51dc79c5498e7cb7a5561c30","categoryId":"4bf58dd8d48988d11b941735","category":"Pub","checkinsCount":290,"usersCount":103,"tipCount":7,"visitsCount":411,"url":"http://www.jdwetherspoon.co.uk/home/pubs/john-the-clerk-of-cramlington","tier":"","message":"","currency":"","rating":6.3},{"name":"The Rohan Kanhai (Wetherspoon)","phone":"+441670857692","address":"1-4 Woodhorn Rd.","lat":55.18341177153794,"lng":-1.5678368109947673,"city_fetched":"Bedlington,UK","state":"Northumberland","country":"United Kingdom","canonicalUrl":"https://foursquare.com/v/the-rohan-kanhai-wetherspoon/4c87aa37821e9eb03ccc8d89","categoryId":"4bf58dd8d48988d11b941735","category":"Pub","checkinsCount":281,"usersCount":74,"tipCount":1,"visitsCount":291,"url":"http://www.jdwetherspoon.co.uk","tier":"","message":"","currency":"","rating":5.8},{"name":"The Brockwell Seam","phone":"+441670732071","address":"Northumbrian Rd","lat":55.09603937875132,"lng":-1.5842144561269813,"city_fetched":"Bedlington,UK","state":"Northumberland","country":"United Kingdom","canonicalUrl":"https://foursquare.com/v/the-brockwell-seam/4c7e4a10d598a093bb3dc562","categoryId":"4bf58dd8d48988d11b941735","category":"Pub","checkinsCount":229,"usersCount":94,"tipCount":4,"visitsCount":367,"url":"http://www.thebrockwellseamcramlington.co.uk","tier":"","message":"","currency":"","rating":5.4}]