[{"name":"Brewbot Belfast","twitter":"brewbotbelfast","address":"451 Ormeau Rd","lat":54.57562475386242,"lng":-5.917557004079113,"neighborhood":"Ballynafeigh","city_fetched":"Belfast,UK","state":"Belfast","country":"United Kingdom","canonicalUrl":"https://foursquare.com/v/brewbot-belfast/557f140e498ec58585173940","categoryId":"4bf58dd8d48988d116941735","category":"Bar","checkinsCount":358,"usersCount":246,"tipCount":10,"visitsCount":674,"url":"http://teambrewbot.github.io/brewbotbelfast/","tier":2,"message":"Moderate","currency":"£","rating":9.2},{"name":"The Dirty Duck Alehouse","phone":"+442890596666","address":"3 Kinnegar Rd","lat":54.641136926845135,"lng":-5.841220053405562,"city_fetched":"Belfast,UK","country":"United Kingdom","canonicalUrl":"https://foursquare.com/v/the-dirty-duck-alehouse/4c5313e6fd2ea5936562de27","categoryId":"4bf58dd8d48988d11b941735","category":"Pub","checkinsCount":412,"usersCount":355,"tipCount":5,"visitsCount":581,"url":"http://thedirtyduckalehouse.co.uk","tier":"","message":"","currency":"","rating":9},{"name":"The Hudson Bar","phone":"+442890232322","twitter":"hudsonbar","address":"10-12 Gresham St","lat":54.601853533828155,"lng":-5.932295322418212,"neighborhood":"Shankill","city_fetched":"Belfast,UK","country":"United Kingdom","canonicalUrl":"https://foursquare.com/v/the-hudson-bar/4e8628a0775bb844cfa18b60","categoryId":"4bf58dd8d48988d11b941735","category":"Pub","checkinsCount":2147,"usersCount":747,"tipCount":24,"visitsCount":2753,"url":"http://hudsonbelfast.com","tier":3,"message":"Expensive","currency":"£","rating":8.9},{"name":"The Duke of York","phone":"+442890241062","address":"7-11 Commercial Court","lat":54.6018286749013,"lng":-5.927402973175048,"neighborhood":"Cathedral Quarter","city_fetched":"Belfast,UK","country":"United Kingdom","canonicalUrl":"https://foursquare.com/v/the-duke-of-york/4b47cc65f964a520313f26e3","categoryId":"4bf58dd8d48988d11b941735","category":"Pub","checkinsCount":1977,"usersCount":1132,"tipCount":19,"visitsCount":2168,"url":"http://www.dukeofyorkbelfast.com","tier":"","message":"","currency":"","rating":8.9},{"name":"Muriel's Café Bar","phone":"+442890332445","twitter":"murielscafebar","address":"12-14 Church Lane","lat":54.60011337229497,"lng":-5.925557613372803,"neighborhood":"Cath","city_fetched":"Belfast,UK","country":"United Kingdom","canonicalUrl":"https://foursquare.com/v/muriels-caf%C3%A9-bar/4b071106f964a52093f622e3","categoryId":"4bf58dd8d48988d116941735","category":"Bar","checkinsCount":894,"usersCount":531,"tipCount":33,"visitsCount":1010,"tier":"","message":"","currency":"","rating":8.9},{"name":"The Merchant Hotel Cocktail Bar","phone":"+442890234888","twitter":"merchanthotel","address":"16 Skipper St","lat":54.60114504846548,"lng":-5.925922393798828,"neighborhood":"Cathedral Quarter","city_fetched":"Belfast,UK","country":"United Kingdom","canonicalUrl":"https://foursquare.com/v/the-merchant-hotel-cocktail-bar/4ee29cdbaa1f1c23b79f7916","categoryId":"4bf58dd8d48988d11e941735","category":"Cocktail Bar","checkinsCount":435,"usersCount":277,"tipCount":8,"visitsCount":446,"url":"https://www.themerchanthotel.com","tier":"","message":"","currency":"","rating":8.8},{"name":"The Sunflower","phone":"+442890232474","address":"65 Union Street","lat":54.60302360559242,"lng":-5.932601911249365,"neighborhood":"Smithfield and Union Quarter","city_fetched":"Belfast,UK","country":"United Kingdom","canonicalUrl":"https://foursquare.com/v/the-sunflower/50ca5592e4b0cc5bad7c6449","categoryId":"4bf58dd8d48988d116941735","category":"Bar","checkinsCount":468,"usersCount":277,"tipCount":11,"visitsCount":663,"url":"http://sunflowerbelfast.com","tier":"","message":"","currency":"","rating":8.8},{"name":"The Crown Liquor Saloon","phone":"+442890243187","address":"46 Great Victoria St","lat":54.59469042770255,"lng":-5.934231877326965,"city_fetched":"Belfast,UK","country":"United Kingdom","canonicalUrl":"https://foursquare.com/v/the-crown-liquor-saloon/4c4647bd342c1b8d3040b689","categoryId":"4bf58dd8d48988d11b941735","category":"Pub","checkinsCount":2605,"usersCount":2250,"tipCount":49,"visitsCount":2836,"url":"http://www.crownbar.com/‎","tier":2,"message":"Moderate","currency":"£","rating":8.5},{"name":"White's Tavern","address":"2-4 Winecellar Entry","lat":54.599991,"lng":-5.928393,"city_fetched":"Belfast,UK","state":"Belfast","country":"United Kingdom","canonicalUrl":"https://foursquare.com/v/whites-tavern/4bd352d741b9ef3b0fe3ffe5","categoryId":"4bf58dd8d48988d116941735","category":"Bar","checkinsCount":389,"usersCount":333,"tipCount":4,"visitsCount":431,"tier":"","message":"","currency":"","rating":8.4},{"name":"Kelly's Cellars","phone":"+442890246058","address":"30-32 Bank St","lat":54.599678320291005,"lng":-5.932145118713379,"city_fetched":"Belfast,UK","country":"United Kingdom","canonicalUrl":"https://foursquare.com/v/kellys-cellars/4b64a08bf964a52082c32ae3","categoryId":"4bf58dd8d48988d116941735","category":"Bar","checkinsCount":749,"usersCount":549,"tipCount":18,"visitsCount":852,"tier":"","message":"","currency":"","rating":8.3},{"name":"The Garrick","phone":"+442890321984","twitter":"thegarrickbar","address":"29 Chichester Street","lat":54.597291666606566,"lng":-5.926609039306641,"city_fetched":"Belfast,UK","country":"United Kingdom","canonicalUrl":"https://foursquare.com/v/the-garrick/4bb3c394715eef3b6bce86bb","categoryId":"4bf58dd8d48988d116941735","category":"Bar","checkinsCount":1568,"usersCount":616,"tipCount":16,"visitsCount":1631,"url":"http://www.thegarrickbar.com","tier":2,"message":"Moderate","currency":"£","rating":8.3},{"name":"The Dirty Onion","phone":"+442890243712","address":"3 Hill Street","lat":54.6014726813104,"lng":-5.926473365218897,"neighborhood":"Cathedral Quarter","city_fetched":"Belfast,UK","state":"Belfast","country":"United Kingdom","canonicalUrl":"https://foursquare.com/v/the-dirty-onion/52988e8511d22448bd236206","categoryId":"4bf58dd8d48988d116941735","category":"Bar","checkinsCount":834,"usersCount":632,"tipCount":12,"visitsCount":1035,"url":"http://www.thedirtyonion.com","tier":2,"message":"Moderate","currency":"£","rating":8.3},{"name":"The Limelight","phone":"+442890325968","address":"17 Ormeau Ave","lat":54.592803881688155,"lng":-5.928990840911865,"city_fetched":"Belfast,UK","country":"United Kingdom","canonicalUrl":"https://foursquare.com/v/the-limelight/4b65d319f964a5203a022be3","categoryId":"4bf58dd8d48988d11f941735","category":"Nightclub","checkinsCount":1178,"usersCount":602,"tipCount":3,"visitsCount":1393,"url":"http://www.limelightbelfast.com","tier":"","message":"","currency":"","rating":8.2},{"name":"Bert's Jazz Bar","address":"16 Skipper St","lat":54.600553808139395,"lng":-5.925561417087803,"neighborhood":"Cathedral Quarter","city_fetched":"Belfast,UK","country":"United Kingdom","canonicalUrl":"https://foursquare.com/v/berts-jazz-bar/4c6fcdd4d274b60cca8cd70d","categoryId":"4bf58dd8d48988d121941735","category":"Lounge","checkinsCount":408,"usersCount":253,"tipCount":12,"visitsCount":441,"tier":"","message":"","currency":"","rating":8.1},{"name":"McHugh's Bar & Restaurant","phone":"+442890509999","twitter":"mchughsbar1711","address":"29-31 Queen's Square","lat":54.60095860289998,"lng":-5.923304557800293,"city_fetched":"Belfast,UK","country":"United Kingdom","canonicalUrl":"https://foursquare.com/v/mchughs-bar--restaurant/4ba161dcf964a52014b237e3","categoryId":"4bf58dd8d48988d11b941735","category":"Pub","checkinsCount":1487,"usersCount":900,"tipCount":19,"visitsCount":1654,"url":"http://mchughsbar.com","tier":"","message":"","currency":"","rating":8.1},{"name":"The Spaniard","phone":"+442890232448","address":"3 Skipper St","lat":54.601070470341746,"lng":-5.926179885864258,"neighborhood":"Cathedral Quarter","city_fetched":"Belfast,UK","country":"United Kingdom","canonicalUrl":"https://foursquare.com/v/the-spaniard/4bb897143db7b7135e65219a","categoryId":"4bf58dd8d48988d11b941735","category":"Pub","checkinsCount":919,"usersCount":434,"tipCount":15,"visitsCount":931,"url":"http://www.thespaniardbar.com","tier":"","message":"","currency":"","rating":8.1},{"name":"Lavery's","phone":"+442890871106","twitter":"laverysbelfast","address":"12-18 Bradbury Pl","lat":54.58906425477886,"lng":-5.934357409426246,"city_fetched":"Belfast,UK","country":"United Kingdom","canonicalUrl":"https://foursquare.com/v/laverys/4b71e344f964a5204c622de3","categoryId":"4bf58dd8d48988d116941735","category":"Bar","checkinsCount":3487,"usersCount":1336,"tipCount":33,"visitsCount":3997,"url":"http://www.laverysbelfast.com","tier":2,"message":"Moderate","currency":"£","rating":8.1},{"name":"Katy's Bar","phone":"+442890325968","address":"17 Ormeau Ave","lat":54.59276808539911,"lng":-5.928924160916588,"city_fetched":"Belfast,UK","country":"United Kingdom","canonicalUrl":"https://foursquare.com/v/katys-bar/4b881043f964a520dfdc31e3","categoryId":"4bf58dd8d48988d11b941735","category":"Pub","checkinsCount":655,"usersCount":284,"tipCount":8,"visitsCount":668,"tier":"","message":"","currency":"","rating":8.1},{"name":"Executive Lounge","phone":"+442890277000","twitter":"hiltonhotels","address":"Hilton Belfast Hotel, 4 Lanyon Pl","lat":54.597018186939344,"lng":-5.9189754724502555,"city_fetched":"Belfast,UK","state":"Belfast","country":"United Kingdom","canonicalUrl":"https://foursquare.com/v/executive-lounge/4daf1b4f43a1f97d919ace07","categoryId":"4bf58dd8d48988d1d5941735","category":"Hotel Bar","checkinsCount":178,"usersCount":95,"tipCount":3,"visitsCount":181,"tier":"","message":"","currency":"","rating":8},{"name":"The King's Head","phone":"+442890509950","address":"829 Lisburn Road","lat":54.56818219741436,"lng":-5.969049632549286,"neighborhood":"Musgrave","city_fetched":"Belfast,UK","country":"United Kingdom","canonicalUrl":"https://foursquare.com/v/the-kings-head/4be44d43cf200f476cc1113c","categoryId":"4bf58dd8d48988d11b941735","category":"Pub","checkinsCount":378,"usersCount":208,"tipCount":4,"visitsCount":412,"tier":"","message":"","currency":"","rating":8},{"name":"The John Hewitt","phone":"+442890233768","address":"51 Donegall St","lat":54.6019529693837,"lng":-5.928604602813721,"neighborhood":"Cathedral Quarter","city_fetched":"Belfast,UK","country":"United Kingdom","canonicalUrl":"https://foursquare.com/v/the-john-hewitt/4c1669aea5eb76b040ccc4b7","categoryId":"4bf58dd8d48988d11b941735","category":"Pub","checkinsCount":1172,"usersCount":621,"tipCount":18,"visitsCount":1313,"url":"http://www.thejohnhewitt.com","tier":"","message":"","currency":"","rating":7.9},{"name":"Fibber Magees","phone":"+442890247447","address":"38-42 Great Victoria St","lat":54.59485514668248,"lng":-5.93386173248291,"city_fetched":"Belfast,UK","country":"United Kingdom","canonicalUrl":"https://foursquare.com/v/fibber-magees/4b50a28ff964a520762a27e3","categoryId":"4bf58dd8d48988d116941735","category":"Bar","checkinsCount":277,"usersCount":230,"tipCount":4,"visitsCount":278,"url":"http://www.robinsonsbar.co.uk","tier":"","message":"","currency":"","rating":7.9},{"name":"Cuckoo","phone":"+442890667776","twitter":"cuckoobelfast1","address":"149 Lisburn Rd","lat":54.58332942665194,"lng":-5.944998264312744,"neighborhood":"Windsor","city_fetched":"Belfast,UK","country":"United Kingdom","canonicalUrl":"https://foursquare.com/v/cuckoo/4fcd00d0e4b0ff719ba0be0c","categoryId":"4bf58dd8d48988d116941735","category":"Bar","checkinsCount":767,"usersCount":349,"tipCount":12,"visitsCount":886,"tier":"","message":"","currency":"","rating":7.7},{"name":"The Woodworkers","phone":"+442890871106","twitter":"the_woodworkers","address":"20 Bradbury Pl","lat":54.588937460853,"lng":-5.934406766051416,"city_fetched":"Belfast,UK","state":"Belfast","country":"United Kingdom","canonicalUrl":"https://foursquare.com/the_woodworkers","categoryId":"4bf58dd8d48988d118941735","category":"Dive Bar","checkinsCount":377,"usersCount":138,"tipCount":4,"visitsCount":413,"tier":"","message":"","currency":"","rating":7.7},{"name":"Bittles","phone":"+442890311088","address":"70 Upper Church Lane","lat":54.598607450446494,"lng":-5.924098822454628,"neighborhood":"Victoria Square","city_fetched":"Belfast,UK","country":"United Kingdom","canonicalUrl":"https://foursquare.com/v/bittles/4c62a3f94be3b713650ddee8","categoryId":"4bf58dd8d48988d11b941735","category":"Pub","checkinsCount":300,"usersCount":215,"tipCount":12,"visitsCount":301,"tier":"","message":"","currency":"","rating":7.7},{"name":"The Morning Star","phone":"+442890235986","address":"17-19 Pottingers Entry","lat":54.59954517533657,"lng":-5.926263920159073,"city_fetched":"Belfast,UK","state":"Belfast","country":"United Kingdom","canonicalUrl":"https://foursquare.com/v/the-morning-star/4be9c51161aca593fbf58200","categoryId":"4bf58dd8d48988d116941735","category":"Bar","checkinsCount":337,"usersCount":232,"tipCount":11,"visitsCount":340,"tier":"","message":"","currency":"","rating":7.5},{"name":"Speakeasy","phone":"+442890973726","twitter":"mandellahall","address":"Queen's University Students' Union","lat":54.58468483152977,"lng":-5.936930179595947,"neighborhood":"Queen's Quarter","city_fetched":"Belfast,UK","country":"United Kingdom","canonicalUrl":"https://foursquare.com/v/speakeasy/4cb1af00cbab236ab5afaa73","categoryId":"4bf58dd8d48988d116941735","category":"Bar","checkinsCount":298,"usersCount":105,"tipCount":0,"visitsCount":303,"url":"http://www.mandelahall.com","tier":"","message":"","currency":"","rating":7.5},{"name":"Union Street Bar","address":"Union Street","lat":54.60384,"lng":-5.931717,"neighborhood":"Smithfield and Union Quarter","city_fetched":"Belfast,UK","state":"Belfast","country":"United Kingdom","canonicalUrl":"https://foursquare.com/v/union-street-bar/4bf025d33a002d7f0dba85a4","categoryId":"4bf58dd8d48988d1d8941735","category":"Gay Bar","checkinsCount":605,"usersCount":274,"tipCount":2,"visitsCount":693,"tier":"","message":"","currency":"","rating":7.5},{"name":"The Harp Bar","phone":"+442890329923","address":"35-39 Hill St","lat":54.601968943744104,"lng":-5.927166368628105,"neighborhood":"Cathedral Quarter","city_fetched":"Belfast,UK","country":"United Kingdom","canonicalUrl":"https://foursquare.com/v/the-harp-bar/5261399911d21bb2c1ae1f8c","categoryId":"4bf58dd8d48988d116941735","category":"Bar","checkinsCount":381,"usersCount":270,"tipCount":7,"visitsCount":399,"url":"http://www.harpbarbelfast.com","tier":"","message":"","currency":"","rating":7.4},{"name":"Bootleggers","phone":"+442890233282","address":"46 Church Lane","lat":54.59941044258036,"lng":-5.924788138200649,"city_fetched":"Belfast,UK","country":"United Kingdom","canonicalUrl":"https://foursquare.com/v/bootleggers/55a9519d498ee90cd8e10fb1","categoryId":"4bf58dd8d48988d116941735","category":"Bar","checkinsCount":280,"usersCount":144,"tipCount":4,"visitsCount":344,"url":"http://bootleggersbelfast.com","tier":"","message":"","currency":"","rating":7.3},{"name":"Aether & Echo","phone":"+442890239163","twitter":"aetherandecho","address":"11 Lower Garfield St","lat":54.60150244189067,"lng":-5.930239974538252,"city_fetched":"Belfast,UK","country":"United Kingdom","canonicalUrl":"https://foursquare.com/v/aether--echo/523caad611d2076f0f6e025c","categoryId":"4bf58dd8d48988d116941735","category":"Bar","checkinsCount":459,"usersCount":323,"tipCount":1,"visitsCount":626,"url":"http://aetherandecho.com","tier":"","message":"","currency":"","rating":7.3},{"name":"Maverick","phone":"+442890246925","twitter":"maverick_ni","address":"1 Union St","lat":54.60405928573517,"lng":-5.93086921787334,"neighborhood":"Smithfield and Union Quarter","city_fetched":"Belfast,UK","state":"Belfast","country":"United Kingdom","canonicalUrl":"https://foursquare.com/v/maverick/52c89bda498ebff3a28bb97b","categoryId":"4bf58dd8d48988d1d8941735","category":"Gay Bar","checkinsCount":164,"usersCount":74,"tipCount":1,"visitsCount":180,"url":"http://www.maverickbelfast.com","tier":"","message":"","currency":"","rating":7.3},{"name":"Maddens Bar","address":"Berry street","lat":54.59996949293807,"lng":-5.934290471520329,"city_fetched":"Belfast,UK","state":"Belfast","country":"United Kingdom","canonicalUrl":"https://foursquare.com/v/maddens-bar/4c7594d3604a3704191e8349","categoryId":"4bf58dd8d48988d116941735","category":"Bar","checkinsCount":147,"usersCount":114,"tipCount":3,"visitsCount":169,"tier":"","message":"","currency":"","rating":7.3},{"name":"Filthy McNasty's","phone":"+442890246823","twitter":"filthymcnasties","address":"45 Dublin Rd","lat":54.591921184351975,"lng":-5.932681560516357,"city_fetched":"Belfast,UK","country":"United Kingdom","canonicalUrl":"https://foursquare.com/v/filthy-mcnastys/4c90fd172626a1cdf7662e6b","categoryId":"4bf58dd8d48988d11b941735","category":"Pub","checkinsCount":1721,"usersCount":1037,"tipCount":26,"visitsCount":2054,"url":"http://www.thefilthyquarter.com/filthymcnastys/","tier":"","message":"","currency":"","rating":7.2},{"name":"Horatio Todd's","phone":"+442890653090","address":"406 Upper Newtownards Rd","lat":54.595082641694404,"lng":-5.865413616466098,"neighborhood":"Ballyhackamore","city_fetched":"Belfast,UK","state":"Belfast","country":"United Kingdom","canonicalUrl":"https://foursquare.com/v/horatio-todds/4bf859a6b182c9b6ca5b775a","categoryId":"4bf58dd8d48988d116941735","category":"Bar","checkinsCount":512,"usersCount":273,"tipCount":11,"visitsCount":531,"tier":"","message":"","currency":"","rating":7.1},{"name":"Kremlin","phone":"+442890316061","address":"96 Donegall St","lat":54.604028631160475,"lng":-5.931200981140137,"neighborhood":"Smithfield and Union Quarter","city_fetched":"Belfast,UK","state":"Belfast","country":"United Kingdom","canonicalUrl":"https://foursquare.com/v/kremlin/4bef2c5a2ff520a17c3be8a2","categoryId":"4bf58dd8d48988d1d8941735","category":"Gay Bar","checkinsCount":609,"usersCount":273,"tipCount":6,"visitsCount":663,"url":"http://www.kremlin-belfast.com","tier":"","message":"","currency":"","rating":7},{"name":"The Errigle Inn","phone":"+442890641410","twitter":"errigleinn","address":"312-320 Ormeau Rd","lat":54.575912,"lng":-5.917204,"neighborhood":"Ballynafeigh","city_fetched":"Belfast,UK","country":"United Kingdom","canonicalUrl":"https://foursquare.com/v/the-errigle-inn/4c06ca359e1ab7134be25243","categoryId":"4bf58dd8d48988d11b941735","category":"Pub","checkinsCount":854,"usersCount":430,"tipCount":5,"visitsCount":1126,"url":"http://www.errigle.com","tier":"","message":"","currency":"","rating":7},{"name":"Boombox Belfast","phone":"+442890332130","address":"108 Donegall St","lat":54.60419349810812,"lng":-5.931020497584191,"neighborhood":"Smithfield and Union Quarter","city_fetched":"Belfast,UK","state":"Belfast","country":"United Kingdom","canonicalUrl":"https://foursquare.com/v/boombox-belfast/53f1268c498e0e419051fab7","categoryId":"4bf58dd8d48988d1d8941735","category":"Gay Bar","checkinsCount":139,"usersCount":40,"tipCount":0,"visitsCount":158,"url":"http://www.boomboxbelfast.com","tier":"","message":"","currency":"","rating":7},{"name":"The Parlour Bar","phone":"+442890686970","twitter":"parlourbelfast","address":"2-4 Elmwood Avenue","lat":54.584536,"lng":-5.937522,"neighborhood":"Queen's Quarter","city_fetched":"Belfast,UK","country":"United Kingdom","canonicalUrl":"https://foursquare.com/v/the-parlour-bar/4b92b920f964a5204d1534e3","categoryId":"4bf58dd8d48988d11b941735","category":"Pub","checkinsCount":571,"usersCount":246,"tipCount":9,"visitsCount":592,"url":"http://www.parlourbar.co.uk","tier":"","message":"","currency":"","rating":7},{"name":"The Albany","phone":"+442890664442","twitter":"albanybelfast","address":"701-703 Lisburn Road","lat":54.57252111491263,"lng":-5.960181916412153,"neighborhood":"Malone","city_fetched":"Belfast,UK","state":"Belfast","country":"United Kingdom","canonicalUrl":"https://foursquare.com/v/the-albany/52457d76498ea86d1e88f801","categoryId":"4bf58dd8d48988d116941735","category":"Bar","checkinsCount":278,"usersCount":112,"tipCount":11,"visitsCount":333,"url":"http://www.thealbanybelfast.com","tier":"","message":"","currency":"","rating":7},{"name":"The National","phone":"+442890311130","twitter":"nationalbelfast","address":"62-68 High St","lat":54.60064544662235,"lng":-5.9261971378292655,"neighborhood":"Cathedral Quarter","city_fetched":"Belfast,UK","country":"United Kingdom","canonicalUrl":"https://foursquare.com/v/the-national/5230768211d2fff2c199c67d","categoryId":"4bf58dd8d48988d116941735","category":"Bar","checkinsCount":874,"usersCount":529,"tipCount":16,"visitsCount":1049,"url":"http://thenationalbelfast.com","tier":2,"message":"Moderate","currency":"£","rating":7},{"name":"Birdcage","phone":"+442890663101","twitter":"birdcagebelfast","address":"92 Stranmillis Rd","lat":54.57865355550897,"lng":-5.933990478515625,"neighborhood":"Stranmillis Village","city_fetched":"Belfast,UK","country":"United Kingdom","canonicalUrl":"https://foursquare.com/v/birdcage/4f8db803e4b0ca2accec9879","categoryId":"4bf58dd8d48988d11e941735","category":"Cocktail Bar","checkinsCount":277,"usersCount":196,"tipCount":10,"visitsCount":327,"url":"http://www.birdcagebelfast.com","tier":"","message":"","currency":"","rating":7},{"name":"The House Bar","phone":"+442890682266","address":"12 Stranmillis Road","lat":54.58109592733615,"lng":-5.9354599203799365,"neighborhood":"Botanic","city_fetched":"Belfast,UK","country":"United Kingdom","canonicalUrl":"https://foursquare.com/v/the-house-bar/4c71421bd97fa1434843f8ca","categoryId":"4bf58dd8d48988d11b941735","category":"Pub","checkinsCount":344,"usersCount":160,"tipCount":3,"visitsCount":373,"tier":"","message":"","currency":"","rating":6.9},{"name":"Robinson's Saloon","phone":"+442890247447","address":"38-40 Great Victoria St","lat":54.594718398897044,"lng":-5.934569835662842,"city_fetched":"Belfast,UK","country":"United Kingdom","canonicalUrl":"https://foursquare.com/v/robinsons-saloon/4b50a337f964a5209a2a27e3","categoryId":"4bf58dd8d48988d11b941735","category":"Pub","checkinsCount":914,"usersCount":756,"tipCount":18,"visitsCount":922,"url":"http://www.robinsonsbar.co.uk","tier":"","message":"","currency":"","rating":6.9},{"name":"The Menagerie","phone":"+442890235678","twitter":"menageriebar","address":"130 University St","lat":54.58653682748184,"lng":-5.924737681768065,"neighborhood":"Queen's Quarter","city_fetched":"Belfast,UK","country":"United Kingdom","canonicalUrl":"https://foursquare.com/v/the-menagerie/4b64c235f964a520dccd2ae3","categoryId":"4bf58dd8d48988d116941735","category":"Bar","checkinsCount":166,"usersCount":97,"tipCount":3,"visitsCount":185,"url":"http://menageriebar.tumblr.com","tier":"","message":"","currency":"","rating":6.9},{"name":"Pavilion Bar","phone":"+442890283283","address":"296-298 Ormeau Rd.","lat":54.57818096420868,"lng":-5.919227600097656,"neighborhood":"Ballynafeigh","city_fetched":"Belfast,UK","country":"United Kingdom","canonicalUrl":"https://foursquare.com/v/pavilion-bar/4bf566ec496def3bdcfd31bd","categoryId":"4bf58dd8d48988d11b941735","category":"Pub","checkinsCount":384,"usersCount":192,"tipCount":3,"visitsCount":438,"tier":"","message":"","currency":"","rating":6.8},{"name":"The Fly","phone":"+442890509750","twitter":"theflybelfast","address":"5-6 Lower Crescent","lat":54.587897865438414,"lng":-5.933992191368788,"neighborhood":"Queen's Quarter","city_fetched":"Belfast,UK","state":"Antrim","country":"United Kingdom","canonicalUrl":"https://foursquare.com/v/the-fly/50733ba7e4b0f19946c6d20b","categoryId":"4bf58dd8d48988d11f941735","category":"Nightclub","checkinsCount":94,"usersCount":55,"tipCount":5,"visitsCount":94,"url":"http://theflybelfast.co.uk","tier":"","message":"","currency":"","rating":6.7},{"name":"Ronnie Drews","phone":"+442890310375","address":"79-83 May St","lat":54.59627063465992,"lng":-5.923001762897448,"city_fetched":"Belfast,UK","state":"Belfast","country":"United Kingdom","canonicalUrl":"https://foursquare.com/v/ronnie-drews/4f33c690e4b0d59eee049287","categoryId":"4bf58dd8d48988d116941735","category":"Bar","checkinsCount":155,"usersCount":76,"tipCount":2,"visitsCount":155,"url":"http://www.ronniedrews.com","tier":"","message":"","currency":"","rating":6.7},{"name":"Ryan's Bar & Grill","phone":"+442890509850","twitter":"ryansbelfast","address":"116-118 Lisburn Rd","lat":54.583777088295825,"lng":-5.943732261657715,"neighborhood":"Queen's Quarter","city_fetched":"Belfast,UK","country":"United Kingdom","canonicalUrl":"https://foursquare.com/v/ryans-bar--grill/4b4506d3f964a5209b0126e3","categoryId":"4bf58dd8d48988d116941735","category":"Bar","checkinsCount":506,"usersCount":260,"tipCount":6,"visitsCount":565,"url":"http://www.ryansbelfast.com","tier":"","message":"","currency":"","rating":6.7},{"name":"Love & Death Inc.","phone":"+442890247222","twitter":"loveanddeathinc","address":"10a Anne Street","lat":54.598903272479326,"lng":-5.92704930635421,"neighborhood":"Victoria Square","city_fetched":"Belfast,UK","country":"United Kingdom","canonicalUrl":"https://foursquare.com/v/love--death-inc/4cc1f9d591413704f1ebb055","categoryId":"4bf58dd8d48988d11e941735","category":"Cocktail Bar","checkinsCount":401,"usersCount":255,"tipCount":13,"visitsCount":402,"url":"http://loveanddeathinc.com","tier":"","message":"","currency":"","rating":6.7},{"name":"The Bridge House (Wetherspoon)","phone":"+442890727890","address":"35-43 Bedford St","lat":54.592876088502,"lng":-5.9316102200322955,"city_fetched":"Belfast,UK","country":"United Kingdom","canonicalUrl":"https://foursquare.com/v/the-bridge-house-wetherspoon/4c1a73bcb9f876b058af7846","categoryId":"4bf58dd8d48988d11b941735","category":"Pub","checkinsCount":1705,"usersCount":812,"tipCount":22,"visitsCount":1826,"url":"http://www.jdwetherspoon.co.uk","tier":"","message":"","currency":"","rating":6.7},{"name":"Voodoo","phone":"+442890278290","twitter":"voodoo_belfast","address":"9-11 Fountain St","lat":54.59870875910247,"lng":-5.931587219238281,"city_fetched":"Belfast,UK","country":"United Kingdom","canonicalUrl":"https://foursquare.com/v/voodoo/4e90d965722ebb868be073e2","categoryId":"4bf58dd8d48988d116941735","category":"Bar","checkinsCount":448,"usersCount":236,"tipCount":4,"visitsCount":504,"url":"http://www.voodoobelfast.com","tier":"","message":"","currency":"","rating":6.6},{"name":"The Perch","lat":54.595035,"lng":-5.932406,"city_fetched":"Belfast,UK","country":"United Kingdom","canonicalUrl":"https://foursquare.com/v/the-perch/559ff5be498e1f361cefb917","categoryId":"4bf58dd8d48988d117941735","category":"Beer Garden","checkinsCount":94,"usersCount":98,"tipCount":2,"visitsCount":124,"tier":"","message":"","currency":"","rating":6.6},{"name":"Ye Olde Eglantine Inn","phone":"+442890381994","twitter":"egbelfast","address":"32 Malone Road","lat":54.58093170567003,"lng":-5.938394749212892,"neighborhood":"Windsor","city_fetched":"Belfast,UK","country":"United Kingdom","canonicalUrl":"https://foursquare.com/egbelfast","categoryId":"4bf58dd8d48988d116941735","category":"Bar","checkinsCount":191,"usersCount":124,"tipCount":3,"visitsCount":191,"url":"http://www.egbar.co.uk","tier":"","message":"","currency":"","rating":6.5},{"name":"The Botanic Inn","address":"23-27 Malone Rd","lat":54.58106284226866,"lng":-5.938351252496953,"neighborhood":"Windsor","city_fetched":"Belfast,UK","country":"United Kingdom","canonicalUrl":"https://foursquare.com/v/the-botanic-inn/4b490739f964a520b36226e3","categoryId":"4bf58dd8d48988d116941735","category":"Bar","checkinsCount":642,"usersCount":332,"tipCount":7,"visitsCount":674,"tier":"","message":"","currency":"","rating":6.4},{"name":"Brennans Bar","phone":"+442890242986","address":"48-52 Great Victoria St","lat":54.594560596628185,"lng":-5.934456218421669,"city_fetched":"Belfast,UK","country":"United Kingdom","canonicalUrl":"https://foursquare.com/v/brennans-bar/4cbaf5ab43ec6dcb45a3a731","categoryId":"4bf58dd8d48988d116941735","category":"Bar","checkinsCount":223,"usersCount":202,"tipCount":9,"visitsCount":225,"tier":"","message":"","currency":"","rating":6.3},{"name":"Apartment","phone":"+442890509777","address":"2 Donegall Sq W","lat":54.59693117029646,"lng":-5.930986404418945,"city_fetched":"Belfast,UK","country":"United Kingdom","canonicalUrl":"https://foursquare.com/v/apartment/4bbb3099cf2fc9b65942a202","categoryId":"4bf58dd8d48988d116941735","category":"Bar","checkinsCount":782,"usersCount":469,"tipCount":10,"visitsCount":788,"url":"http://www.apartmentbelfast.com/‎","tier":"","message":"","currency":"","rating":6.3},{"name":"El Divino","phone":"+442890322000","twitter":"eldivinobelfast","address":"Mays Meadow","lat":54.59672639967982,"lng":-5.915210897880248,"city_fetched":"Belfast,UK","country":"United Kingdom","canonicalUrl":"https://foursquare.com/v/el-divino/4ea85d5629c25150a6a57694","categoryId":"4bf58dd8d48988d11f941735","category":"Nightclub","checkinsCount":332,"usersCount":178,"tipCount":4,"visitsCount":368,"url":"http://www.eldivino-belfast.com","tier":"","message":"","currency":"","rating":6.2},{"name":"Thompson's Garage","phone":"+442890323762","twitter":"thompsonsgarage","address":"15-19 Chichester St","lat":54.596987793671886,"lng":-5.928178493276203,"city_fetched":"Belfast,UK","country":"United Kingdom","canonicalUrl":"https://foursquare.com/v/thompsons-garage/4c53797c72cf0f47deeee3d2","categoryId":"4bf58dd8d48988d11f941735","category":"Nightclub","checkinsCount":311,"usersCount":163,"tipCount":9,"visitsCount":317,"url":"http://clubthompsons.com","tier":"","message":"","currency":"","rating":6.2},{"name":"The Four Winds","phone":"+442890707970","address":"111 Newton Park","lat":54.555898075386054,"lng":-5.893909882121058,"city_fetched":"Belfast,UK","state":"Belfast","country":"United Kingdom","canonicalUrl":"https://foursquare.com/v/the-four-winds/4bb669ee2f70c9b6de608530","categoryId":"4bf58dd8d48988d11b941735","category":"Pub","checkinsCount":145,"usersCount":143,"tipCount":4,"visitsCount":258,"url":"http://www.thefourwinds.co.uk","tier":"","message":"","currency":"","rating":6.1},{"name":"Irene & Nans","phone":"+442890239123","twitter":"ireneandnans","address":"12 Brunswick St","lat":54.59520087635574,"lng":-5.9330352592743125,"city_fetched":"Belfast,UK","country":"United Kingdom","canonicalUrl":"https://foursquare.com/v/irene--nans/4caf537239458cfabe87f99f","categoryId":"4bf58dd8d48988d116941735","category":"Bar","checkinsCount":143,"usersCount":108,"tipCount":5,"visitsCount":143,"url":"http://www.ireneandnansbelfast.co.uk","tier":"","message":"","currency":"","rating":6.1},{"name":"Morrisons Bar","phone":"+442890320030","address":"21 Bedford St","lat":54.59376793161864,"lng":-5.931193205686442,"city_fetched":"Belfast,UK","country":"United Kingdom","canonicalUrl":"https://foursquare.com/v/morrisons-bar/4b069731f964a5207aed22e3","categoryId":"4bf58dd8d48988d11b941735","category":"Pub","checkinsCount":442,"usersCount":292,"tipCount":2,"visitsCount":465,"tier":"","message":"","currency":"","rating":6},{"name":"Kitchen Bar","address":"1 Victoria Square","lat":54.598351271422054,"lng":-5.924615435822101,"neighborhood":"Victoria Square","city_fetched":"Belfast,UK","country":"United Kingdom","canonicalUrl":"https://foursquare.com/v/kitchen-bar/4b9bbdf9f964a520012036e3","categoryId":"4bf58dd8d48988d116941735","category":"Bar","checkinsCount":772,"usersCount":529,"tipCount":13,"visitsCount":776,"tier":"","message":"","currency":"","rating":6},{"name":"Box Nightclub","address":"2 Queens quay","lat":54.60404105995418,"lng":-5.916341543197632,"neighborhood":"Titanic Quarter","city_fetched":"Belfast,UK","state":"Belfast","country":"United Kingdom","canonicalUrl":"https://foursquare.com/v/box-nightclub/4c7fb3ac8e64952112b417bd","categoryId":"4bf58dd8d48988d11f941735","category":"Nightclub","checkinsCount":275,"usersCount":111,"tipCount":0,"visitsCount":275,"tier":"","message":"","currency":"","rating":6},{"name":"The Fountain","address":"16 Fountain St.","lat":54.59848584492674,"lng":-5.931700329507307,"city_fetched":"Belfast,UK","state":"Belfast","country":"United Kingdom","canonicalUrl":"https://foursquare.com/v/the-fountain/4cf1085f6c29236ade1963a2","categoryId":"4bf58dd8d48988d116941735","category":"Bar","checkinsCount":98,"usersCount":85,"tipCount":1,"visitsCount":99,"tier":"","message":"","currency":"","rating":5.9},{"name":"SQ","lat":54.60300578881961,"lng":-5.926311355314397,"neighborhood":"Cathedral Quarter","city_fetched":"Belfast,UK","country":"United Kingdom","canonicalUrl":"https://foursquare.com/v/sq/5045c1ebe4b074fa4527f095","categoryId":"4bf58dd8d48988d1d5941735","category":"Hotel Bar","checkinsCount":53,"usersCount":47,"tipCount":0,"visitsCount":53,"tier":"","message":"","currency":"","rating":5.9},{"name":"The Northern Whig","phone":"+442890509888","address":"2-10 Bridge Street","lat":54.60065430199894,"lng":-5.927792939711982,"neighborhood":"Cathedral Quarter","city_fetched":"Belfast,UK","country":"United Kingdom","canonicalUrl":"https://foursquare.com/v/the-northern-whig/4b56cf1cf964a520c61b28e3","categoryId":"4bf58dd8d48988d121941735","category":"Lounge","checkinsCount":469,"usersCount":352,"tipCount":8,"visitsCount":506,"url":"http://thenorthernwhig.com","tier":"","message":"","currency":"","rating":5.8},{"name":"Bushmills Bar","twitter":"vyaggio","address":"George Best Belfast City Airport","lat":54.61474742417604,"lng":-5.870750093073955,"neighborhood":"Sydenham","city_fetched":"Belfast,UK","country":"United Kingdom","canonicalUrl":"https://foursquare.com/v/bushmills-bar/4c4d88fdfb742d7fa05fe22c","categoryId":"4bf58dd8d48988d122941735","category":"Whisky Bar","checkinsCount":287,"usersCount":213,"tipCount":7,"visitsCount":287,"url":"http://www.vyaggio.com","tier":"","message":"","currency":"","rating":5.7},{"name":"Metro Bar","address":"Lower Cresent","lat":54.587982,"lng":-5.933065,"neighborhood":"Queen's Quarter","city_fetched":"Belfast,UK","state":"Belfast","country":"United Kingdom","canonicalUrl":"https://foursquare.com/v/metro-bar/50886eb4e4b0f942968dec20","categoryId":"4bf58dd8d48988d11e941735","category":"Cocktail Bar","checkinsCount":95,"usersCount":68,"tipCount":4,"visitsCount":96,"tier":"","message":"","currency":"","rating":5.6},{"name":"Beechlawn House Hotel Belfast","address":"4 Dunmurry LaneDunmurry","lat":54.55180358805434,"lng":-5.998802572144227,"neighborhood":"Dunmurry","city_fetched":"Belfast,UK","state":"Belfast","country":"United Kingdom","canonicalUrl":"https://foursquare.com/v/beechlawn-house-hotel-belfast/4bdeda53fe0e62b5c8ff0506","categoryId":"4bf58dd8d48988d1d5941735","category":"Hotel Bar","checkinsCount":133,"usersCount":81,"tipCount":2,"visitsCount":150,"tier":"","message":"","currency":"","rating":5.6},{"name":"Queens Cafe Bar","address":"Queen's Arcade","lat":54.598174370918606,"lng":-5.930509645902715,"city_fetched":"Belfast,UK","state":"Belfast","country":"United Kingdom","canonicalUrl":"https://foursquare.com/v/queens-cafe-bar/4bd1c79841b9ef3b8c8afce5","categoryId":"4bf58dd8d48988d116941735","category":"Bar","checkinsCount":163,"usersCount":112,"tipCount":6,"visitsCount":163,"tier":"","message":"","currency":"","rating":5.6},{"name":"The Washington Bar & Restaurant","phone":"+442890323313","address":"21 Howard St","lat":54.595973974952464,"lng":-5.932531356811523,"city_fetched":"Belfast,UK","country":"United Kingdom","canonicalUrl":"https://foursquare.com/v/the-washington-bar--restaurant/4c3333523896e21e0c97e990","categoryId":"4bf58dd8d48988d116941735","category":"Bar","checkinsCount":267,"usersCount":193,"tipCount":1,"visitsCount":279,"url":"http://www.washingtonbelfast.com","tier":"","message":"","currency":"","rating":5.5},{"name":"Ollies","phone":"+442890234888","twitter":"olliesbelfast","address":"35-39 Waring St","lat":54.60126313244808,"lng":-5.925823430276429,"neighborhood":"Cathedral Quarter","city_fetched":"Belfast,UK","state":"Belfast","country":"United Kingdom","canonicalUrl":"https://foursquare.com/v/ollies/4c534f8730f92d7f79978fb8","categoryId":"4bf58dd8d48988d11f941735","category":"Nightclub","checkinsCount":279,"usersCount":158,"tipCount":2,"visitsCount":279,"url":"http://www.olliesbelfast.com","tier":"","message":"","currency":"","rating":5.5},{"name":"McCracken's","address":"Crown Entry","lat":54.59946337595171,"lng":-5.926781397602754,"city_fetched":"Belfast,UK","state":"Belfast","country":"United Kingdom","canonicalUrl":"https://foursquare.com/v/mccrackens/4bbf90f3461576b0b4c57832","categoryId":"4bf58dd8d48988d116941735","category":"Bar","checkinsCount":248,"usersCount":196,"tipCount":5,"visitsCount":249,"tier":"","message":"","currency":"","rating":5.5},{"name":"Rockies Sports Bar","phone":"+442890467020","address":"2 Queen's Quay","lat":54.60369712653601,"lng":-5.91624718430368,"neighborhood":"Titanic Quarter","city_fetched":"Belfast,UK","state":"Antrim","country":"United Kingdom","canonicalUrl":"https://foursquare.com/v/rockies-sports-bar/4b61bdb9f964a520f91f2ae3","categoryId":"4bf58dd8d48988d116941735","category":"Bar","checkinsCount":366,"usersCount":169,"tipCount":6,"visitsCount":368,"tier":"","message":"","currency":"","rating":5.4},{"name":"The Bar With No Name","phone":"+442890501660","address":"44 Dublin Rd","lat":54.5915260789991,"lng":-5.932672667273641,"city_fetched":"Belfast,UK","state":"Belfast","country":"United Kingdom","canonicalUrl":"https://foursquare.com/v/the-bar-with-no-name/53bb21e1498e14641110455f","categoryId":"4bf58dd8d48988d116941735","category":"Bar","checkinsCount":107,"usersCount":88,"tipCount":2,"visitsCount":108,"tier":"","message":"","currency":"","rating":4.8}]