[{"name":"Black Swan","phone":"+441773823000","address":"44 Market Place","lat":53.023141096346926,"lng":-1.4786481857299805,"city_fetched":"Belper","state":"Derbyshire","country":"United Kingdom","canonicalUrl":"https://foursquare.com/v/black-swan/4bd2dc6ca8b3a5934d97685f","category":"Pub","checkinsCount":139,"usersCount":61,"tipCount":5,"visitsCount":139,"tier":"","message":"","currency":"","rating":8.2},{"name":"The George & Dragon","address":"117 Bridge Street","lat":53.02658356588843,"lng":-1.4854860689860985,"city_fetched":"Belper","state":"Derbyshire","country":"United Kingdom","canonicalUrl":"https://foursquare.com/v/the-george--dragon/4baf3881f964a520caf13be3","category":"Pub","checkinsCount":114,"usersCount":55,"tipCount":10,"visitsCount":117,"tier":"","message":"","currency":"","rating":8.1},{"name":"The Greyhound","phone":"+441773525415","address":"17 Whitemoor Lane","lat":53.028303,"lng":-1.461142,"city_fetched":"Belper","state":"Derbyshire","country":"United Kingdom","canonicalUrl":"https://foursquare.com/v/the-greyhound/4bcdcf2efb84c9b6ef94223e","category":"Pub","checkinsCount":187,"usersCount":72,"tipCount":8,"visitsCount":344,"tier":"","message":"","currency":"","rating":7.5}]