[{"name":"Red Squirrel Brewery Shop","phone":"+441494784857","twitter":"cheshambrewshop","address":"8 Market Square","lat":51.70362158966782,"lng":-0.6132001830941747,"city_fetched":"Berkhamsted,UK","state":"Buckinghamshire","country":"United Kingdom","canonicalUrl":"https://foursquare.com/v/red-squirrel-brewery-shop/520bc475498e74377dc9b06d","categoryId":"4bf58dd8d48988d11b941735","category":"Pub","checkinsCount":134,"usersCount":60,"tipCount":6,"visitsCount":171,"tier":"","message":"","currency":"","rating":8.6},{"name":"Rising Sun","phone":"+441442864913","address":"George Street","lat":51.759114696852095,"lng":-0.5563116073608398,"city_fetched":"Berkhamsted,UK","state":"Hertfordshire","country":"United Kingdom","canonicalUrl":"https://foursquare.com/v/rising-sun/4c474e5b972c0f47295f2321","categoryId":"4bf58dd8d48988d11b941735","category":"Pub","checkinsCount":315,"usersCount":192,"tipCount":10,"visitsCount":428,"url":"http://www.theriser.co.uk","tier":"","message":"","currency":"","rating":8.5},{"name":"The Berko Brewery Shop","phone":"+441442256970","twitter":"berkobrewshop","address":"104 High Street","lat":51.759149,"lng":-0.560283,"city_fetched":"Berkhamsted,UK","state":"Hertfordshire","country":"United Kingdom","canonicalUrl":"https://foursquare.com/v/the-berko-brewery-shop/55631147498e139d955e6e71","categoryId":"4bf58dd8d48988d117941735","category":"Beer Garden","checkinsCount":55,"usersCount":28,"tipCount":6,"visitsCount":73,"tier":"","message":"","currency":"","rating":8.4},{"name":"The Fishery Inn","phone":"+441442230197","address":"2 Fishery Road","lat":51.74419425,"lng":-0.490946,"city_fetched":"Berkhamsted,UK","state":"Hertfordshire","country":"United Kingdom","canonicalUrl":"https://foursquare.com/v/the-fishery-inn/4b96eed4f964a520aeee34e3","categoryId":"4bf58dd8d48988d11b941735","category":"Pub","checkinsCount":453,"usersCount":333,"tipCount":7,"visitsCount":657,"tier":"","message":"","currency":"","rating":7.9},{"name":"The Red Lion","address":"Leighton Buzzard Rd.","lat":51.78102539507551,"lng":-0.4922840420241182,"city_fetched":"Berkhamsted,UK","state":"Hertfordshire","country":"United Kingdom","canonicalUrl":"https://foursquare.com/v/the-red-lion/4cfb91dfc51fa1cd5277e72b","categoryId":"4bf58dd8d48988d11b941735","category":"Pub","checkinsCount":405,"usersCount":243,"tipCount":7,"visitsCount":551,"tier":"","message":"","currency":"","rating":7.9},{"name":"The Boat","phone":"+441442877152","twitter":"boatberkhamsted","address":"Gravel Path","lat":51.76018826738995,"lng":-0.5568883254598486,"city_fetched":"Berkhamsted,UK","state":"Hertfordshire","country":"United Kingdom","canonicalUrl":"https://foursquare.com/v/the-boat/4c01775958dbc9288969ee6b","categoryId":"4bf58dd8d48988d11b941735","category":"Pub","checkinsCount":891,"usersCount":346,"tipCount":9,"visitsCount":1169,"url":"http://boatberkhamsted.co.uk","tier":"","message":"","currency":"","rating":7.5},{"name":"Three Horseshoes","phone":"+441442862585","twitter":"thewinkwell","address":"Pouchen End Ln","lat":51.74658745879855,"lng":-0.5148033302442465,"city_fetched":"Berkhamsted,UK","state":"Hertfordshire","country":"United Kingdom","canonicalUrl":"https://foursquare.com/v/three-horseshoes/4d739267d145a1cd699bc4f3","categoryId":"4bf58dd8d48988d11b941735","category":"Pub","checkinsCount":260,"usersCount":227,"tipCount":5,"visitsCount":383,"url":"http://www.the3horseshoeswinkwell.co.uk","tier":"","message":"","currency":"","rating":7.3},{"name":"Valiant Trooper","address":"Trooper road","lat":51.800201,"lng":-0.602764,"city_fetched":"Berkhamsted,UK","state":"Hertfordshire","country":"United Kingdom","canonicalUrl":"https://foursquare.com/v/valiant-trooper/4b0fd13cf964a5202b6523e3","categoryId":"4bf58dd8d48988d11b941735","category":"Pub","checkinsCount":108,"usersCount":118,"tipCount":8,"visitsCount":165,"tier":"","message":"","currency":"","rating":7.1},{"name":"The Old Mill","phone":"+441442879590","twitter":"the_old_mill","address":"London Road","lat":51.756695,"lng":-0.551845,"city_fetched":"Berkhamsted,UK","state":"Hertfordshire","country":"United Kingdom","canonicalUrl":"https://foursquare.com/v/the-old-mill/4b47c573f964a520133e26e3","categoryId":"4bf58dd8d48988d11b941735","category":"Pub","checkinsCount":277,"usersCount":278,"tipCount":13,"visitsCount":408,"url":"http://www.theoldmillberkhamsted.co.uk","tier":"","message":"","currency":"","rating":6.7},{"name":"The Greyhound Inn","phone":"+441442851228","address":"Stocks Road","lat":51.803002,"lng":-0.602008,"city_fetched":"Berkhamsted,UK","state":"Hertfordshire","country":"United Kingdom","canonicalUrl":"https://foursquare.com/v/the-greyhound-inn/4ad48401f964a52010e820e3","categoryId":"4bf58dd8d48988d11b941735","category":"Pub","checkinsCount":123,"usersCount":174,"tipCount":5,"visitsCount":197,"tier":"","message":"","currency":"","rating":6.5},{"name":"The George & Dragon","phone":"+441494782402","address":"14 High Street","lat":51.704440988559,"lng":-0.6130456924438477,"city_fetched":"Berkhamsted,UK","state":"Buckinghamshire","country":"United Kingdom","canonicalUrl":"https://foursquare.com/v/the-george--dragon/4b6cb22ef964a520f84c2ce3","categoryId":"4bf58dd8d48988d11b941735","category":"Pub","checkinsCount":155,"usersCount":77,"tipCount":2,"visitsCount":172,"tier":"","message":"","currency":"","rating":6.3},{"name":"The George","phone":"+441442862950","address":"261 High Street","lat":51.76170269097515,"lng":-0.5687208935716447,"city_fetched":"Berkhamsted,UK","state":"Hertfordshire","country":"United Kingdom","canonicalUrl":"https://foursquare.com/v/the-george/4bd5f7a74e32d13a8fd2c180","categoryId":"4bf58dd8d48988d11b941735","category":"Pub","checkinsCount":163,"usersCount":65,"tipCount":4,"visitsCount":175,"url":"http://www.party-pub.co.uk","tier":"","message":"","currency":"","rating":6},{"name":"The Crown (Wetherspoon)","phone":"+441442863993","address":"145 High St.","lat":51.75987174365013,"lng":-0.5634784698486328,"city_fetched":"Berkhamsted,UK","state":"Hertfordshire","country":"United Kingdom","canonicalUrl":"https://foursquare.com/v/the-crown-wetherspoon/4c00e6058c1076b065cf2071","categoryId":"4bf58dd8d48988d11b941735","category":"Pub","checkinsCount":820,"usersCount":218,"tipCount":9,"visitsCount":839,"url":"http://www.jdwetherspoon.co.uk","tier":"","message":"","currency":"","rating":5.7},{"name":"The Misty Moon","address":"Hg St Chesham","lat":51.70639348557067,"lng":-0.611961870344082,"city_fetched":"Berkhamsted,UK","state":"Buckinghamshire","country":"United Kingdom","canonicalUrl":"https://foursquare.com/v/the-misty-moon/4c0933536071a5937b79dd32","categoryId":"4bf58dd8d48988d11b941735","category":"Pub","checkinsCount":247,"usersCount":81,"tipCount":4,"visitsCount":255,"tier":"","message":"","currency":"","rating":5.1}]