[{"name":"Han Karaoke Restaurant","phone":"+442089497730","twitter":"hankaraoke","address":"1 High St.","lat":51.403468911420774,"lng":-0.2565685568721523,"neighborhood":"Kingston upon Thames","city_fetched":"Beverley","state":"Surrey","country":"United Kingdom","canonicalUrl":"https://foursquare.com/v/han-karaoke-restaurant/4e2de9021495329632f56bf0","category":"Karaoke Bar","checkinsCount":212,"usersCount":152,"tipCount":7,"visitsCount":238,"tier":1,"message":"Cheap","currency":"Â£","rating":7},{"name":"The Glasshouse","phone":"+442089424650","twitter":"glasshousenmdn","address":"14 Coombe Rd","lat":51.404306,"lng":-0.257187,"neighborhood":"Kingston upon Thames","city_fetched":"Beverley","state":"Surrey","country":"United Kingdom","canonicalUrl":"https://foursquare.com/v/the-glasshouse/4b7b062cf964a520eb4c2fe3","category":"Gastropub","checkinsCount":719,"usersCount":276,"tipCount":12,"visitsCount":842,"url":"http://theglasshouse-new-malden.co.uk","tier":"","message":"","currency":"","rating":6.7},{"name":"The Fountain Pub","address":"New Malden","lat":51.39841471305042,"lng":-0.2554222888140841,"neighborhood":"Kingston upon Thames","city_fetched":"Beverley","state":"Greater London","country":"United Kingdom","canonicalUrl":"https://foursquare.com/v/the-fountain-pub/4c2f7f503896e21eb907e490","category":"Pub","checkinsCount":257,"usersCount":117,"tipCount":6,"visitsCount":258,"tier":"","message":"","currency":"","rating":6.4},{"name":"The Watchman (Wetherspoon)","phone":"+442083290450","twitter":"jdwtweet","address":"184 High St.","lat":51.39882971651584,"lng":-0.2550396526592233,"neighborhood":"New Malden","city_fetched":"Beverley","state":"Surrey","country":"United Kingdom","canonicalUrl":"https://foursquare.com/v/the-watchman-wetherspoon/4f85551be4b0ae40e167aef9","category":"Pub","checkinsCount":526,"usersCount":283,"tipCount":9,"visitsCount":690,"url":"http://www.jdwetherspoon.co.uk","tier":"","message":"","currency":"","rating":5.5},{"name":"Royal Oak","address":"Coombe Road","lat":51.407397,"lng":-0.258218,"city_fetched":"Beverley","state":"Greater London","country":"United Kingdom","canonicalUrl":"https://foursquare.com/v/royal-oak/4bb60dd6ef159c74e25575f7","category":"Bar","checkinsCount":220,"usersCount":96,"tipCount":3,"visitsCount":251,"tier":"","message":"","currency":"","rating":5.4}]