[{"name":"Dragon Bar","phone":"+441424423688","address":"71 George St.","lat":50.85642099380493,"lng":0.590549,"city_fetched":"Bexhill,UK","state":"East Sussex","country":"United Kingdom","canonicalUrl":"https://foursquare.com/v/dragon-bar/4b9d03a1f964a520a48836e3","categoryId":"4bf58dd8d48988d123941735","category":"Wine Bar","checkinsCount":106,"usersCount":72,"tipCount":1,"visitsCount":111,"tier":"","message":"","currency":"","rating":7.9},{"name":"The Lamb Inn","phone":"+441424848649","address":"Pevensey Marsh,","lat":50.848517204663274,"lng":0.3789282944351652,"city_fetched":"Bexhill,UK","country":"United Kingdom","canonicalUrl":"https://foursquare.com/v/the-lamb-inn/4dac4d080437dccbd83024ec","categoryId":"4bf58dd8d48988d11b941735","category":"Pub","checkinsCount":91,"usersCount":85,"tipCount":3,"visitsCount":128,"tier":"","message":"","currency":"","rating":7.9},{"name":"Porter's Wine Bar","phone":"+441424427000","twitter":"porterswinebar","address":"56 High St","lat":50.851490001197064,"lng":0.5600781112061515,"city_fetched":"Bexhill,UK","state":"East Sussex","country":"United Kingdom","canonicalUrl":"https://foursquare.com/v/porters-wine-bar/4be412355254d13afe6260e1","categoryId":"4bf58dd8d48988d123941735","category":"Wine Bar","checkinsCount":176,"usersCount":65,"tipCount":9,"visitsCount":178,"url":"http://www.porterswinebar.com","tier":"","message":"","currency":"","rating":7.4},{"name":"The Lamb Inn","phone":"+441323832116","address":"Wartling Road","lat":50.85858822438064,"lng":0.3543864521962632,"city_fetched":"Bexhill,UK","state":"East Sussex","country":"United Kingdom","canonicalUrl":"https://foursquare.com/v/the-lamb-inn/4b5c5b2af964a520372c29e3","categoryId":"4bf58dd8d48988d11b941735","category":"Pub","checkinsCount":54,"usersCount":45,"tipCount":1,"visitsCount":64,"tier":"","message":"","currency":"","rating":7.3},{"name":"First In Last Out","phone":"+441424425079","twitter":"filobrewingco","address":"14-15 High St","lat":50.85869087675925,"lng":0.5937369110426204,"city_fetched":"Bexhill,UK","state":"East Sussex","country":"United Kingdom","canonicalUrl":"https://foursquare.com/v/first-in-last-out/4b1d155af964a520b00b24e3","categoryId":"4bf58dd8d48988d11b941735","category":"Pub","checkinsCount":269,"usersCount":93,"tipCount":2,"visitsCount":273,"url":"http://thefilo.co.uk","tier":"","message":"","currency":"","rating":7.1},{"name":"Royal Sovereign - Shepherd Neame","phone":"+441424213427","address":"15 Sea Road","lat":50.84074930984839,"lng":0.47742247581481934,"city_fetched":"Bexhill,UK","country":"United Kingdom","canonicalUrl":"https://foursquare.com/v/royal-sovereign--shepherd-neame/4c66ea717abde21e38e66468","categoryId":"4bf58dd8d48988d11b941735","category":"Pub","checkinsCount":18,"usersCount":12,"tipCount":0,"visitsCount":18,"url":"http://www.shepherdneame.co.uk","tier":"","message":"","currency":"","rating":6.7},{"name":"The Stag Inn - Shepherd Neame","phone":"+441424425734","address":"14 All Saints Street","lat":50.858681,"lng":0.5953752994537354,"city_fetched":"Bexhill,UK","country":"United Kingdom","canonicalUrl":"https://foursquare.com/v/the-stag-inn--shepherd-neame/4bf80ac34a67c928759b24cf","categoryId":"4bf58dd8d48988d11b941735","category":"Pub","checkinsCount":39,"usersCount":35,"tipCount":0,"visitsCount":44,"url":"http://www.shepherdneame.co.uk","tier":"","message":"","currency":"","rating":6.6},{"name":"The Plough Inn - Shepherd Neame","phone":"+441424751066","address":"Westfield","lat":50.90690619159022,"lng":0.5804595351219177,"city_fetched":"Bexhill,UK","state":"East Sussex","country":"United Kingdom","canonicalUrl":"https://foursquare.com/v/the-plough-inn--shepherd-neame/4d3f03fd557d6dcb697f5444","categoryId":"4bf58dd8d48988d11b941735","category":"Pub","checkinsCount":21,"usersCount":9,"tipCount":1,"visitsCount":24,"url":"http://www.shepherdneame.co.uk","tier":"","message":"","currency":"","rating":6.6},{"name":"Royal Standard - Shepherd Neame","phone":"+441424420163","address":"East Beach Street","lat":50.85631910384281,"lng":0.5919662117958069,"city_fetched":"Bexhill,UK","country":"United Kingdom","canonicalUrl":"https://foursquare.com/v/royal-standard--shepherd-neame/4c3490363896e21e5ab7eb90","categoryId":"4bf58dd8d48988d11b941735","category":"Pub","checkinsCount":65,"usersCount":42,"tipCount":4,"visitsCount":65,"url":"http://www.shepherdneame.co.uk","tier":"","message":"","currency":"","rating":6.5},{"name":"Pissarro's","phone":"+441424421363","address":"9-10 Cornwallis St","lat":50.85836025719132,"lng":0.5808602687542712,"city_fetched":"Bexhill,UK","state":"East Sussex","country":"United Kingdom","canonicalUrl":"https://foursquare.com/v/pissarros/4bd9df0b2a3a0f4727a2a8b6","categoryId":"4bf58dd8d48988d116941735","category":"Bar","checkinsCount":152,"usersCount":82,"tipCount":1,"visitsCount":186,"url":"http://pissarros.com","tier":"","message":"","currency":"","rating":6.5},{"name":"Ye Olde Pump House - Shepherd Neame","phone":"+441424422016","address":"64 George Street","lat":50.856099998661364,"lng":0.5893916005907921,"city_fetched":"Bexhill,UK","state":"East Sussex","country":"United Kingdom","canonicalUrl":"https://foursquare.com/v/ye-olde-pump-house--shepherd-neame/4c66cac6b80abe9a3bf3cde5","categoryId":"4bf58dd8d48988d11b941735","category":"Pub","checkinsCount":160,"usersCount":141,"tipCount":2,"visitsCount":165,"url":"http://www.shepherdneame.co.uk","tier":"","message":"","currency":"","rating":6.4},{"name":"Hastings Arms - Shepherd Neame","phone":"+441424722208","address":"2 George Street","lat":50.8562700012854,"lng":0.59038907289505,"city_fetched":"Bexhill,UK","state":"East Sussex","country":"United Kingdom","canonicalUrl":"https://foursquare.com/v/hastings-arms--shepherd-neame/4b1e78b8f964a520441a24e3","categoryId":"4bf58dd8d48988d11b941735","category":"Pub","checkinsCount":61,"usersCount":48,"tipCount":0,"visitsCount":61,"url":"http://www.shepherdneame.co.uk","tier":"","message":"","currency":"","rating":6.4},{"name":"The Harrow - Shepherd Neame","phone":"+441424751109","address":"828 The Ridge","lat":50.89022307560637,"lng":0.5562150478363037,"city_fetched":"Bexhill,UK","country":"United Kingdom","canonicalUrl":"https://foursquare.com/v/the-harrow--shepherd-neame/4e22e411d22d0a3f5a069146","categoryId":"4bf58dd8d48988d11b941735","category":"Pub","checkinsCount":19,"usersCount":14,"tipCount":0,"visitsCount":19,"url":"http://www.shepherdneame.co.uk","tier":"","message":"","currency":"","rating":6.4},{"name":"Anchor Inn - Shepherd Neame","phone":"+441424422286","address":"13 George St","lat":50.85612269330301,"lng":0.5894771218299866,"city_fetched":"Bexhill,UK","state":"East Sussex","country":"United Kingdom","canonicalUrl":"https://foursquare.com/v/anchor-inn--shepherd-neame/4b1e787af964a5203f1a24e3","categoryId":"4bf58dd8d48988d11b941735","category":"Pub","checkinsCount":31,"usersCount":26,"tipCount":0,"visitsCount":31,"url":"http://www.shepherdneame.co.uk","tier":"","message":"","currency":"","rating":6.4},{"name":"The Star Inn","phone":"+441323762648","address":"Normans Bay","lat":50.82967252509665,"lng":0.39328157901763916,"city_fetched":"Bexhill,UK","state":"East Sussex","country":"United Kingdom","canonicalUrl":"https://foursquare.com/v/the-star-inn/4c9dfac90313370427df63d5","categoryId":"4bf58dd8d48988d11b941735","category":"Pub","checkinsCount":89,"usersCount":80,"tipCount":4,"visitsCount":120,"tier":"","message":"","currency":"","rating":6.3},{"name":"The Abbey Hotel - Shepherd Neame","phone":"+441424772755","address":"84 High Street","lat":50.91547041742005,"lng":0.48597872257232666,"city_fetched":"Bexhill,UK","state":"East Sussex","country":"United Kingdom","canonicalUrl":"https://foursquare.com/v/the-abbey-hotel--shepherd-neame/4e141440b3ad51e832e98dd6","categoryId":"4bf58dd8d48988d11b941735","category":"Pub","checkinsCount":29,"usersCount":28,"tipCount":2,"visitsCount":29,"url":"http://www.shepherdneame.co.uk","tier":"","message":"","currency":"","rating":6.3},{"name":"Brewers Fayre","phone":"+441424754070","address":"1 John Macadam Way","lat":50.88675232418033,"lng":0.5508652187214385,"city_fetched":"Bexhill,UK","state":"East Sussex","country":"United Kingdom","canonicalUrl":"https://foursquare.com/v/brewers-fayre/4bf833698d30d13abe540018","categoryId":"4bf58dd8d48988d11b941735","category":"Pub","checkinsCount":174,"usersCount":103,"tipCount":3,"visitsCount":203,"tier":"","message":"","currency":"","rating":6.1},{"name":"The Bull Inn - Shepherd Neame","phone":"+441424424984","address":"530 Bexhill Road","lat":50.846211353135686,"lng":0.5104619264602661,"city_fetched":"Bexhill,UK","country":"United Kingdom","canonicalUrl":"https://foursquare.com/v/the-bull-inn--shepherd-neame/4d027b1cf832a35d0f6ff637","categoryId":"4bf58dd8d48988d11b941735","category":"Pub","checkinsCount":33,"usersCount":24,"tipCount":2,"visitsCount":40,"url":"http://www.shepherdneame.co.uk","tier":"","message":"","currency":"","rating":6},{"name":"Azur","address":"St Leonards Marina","lat":50.85152542509012,"lng":0.5591777587655512,"city_fetched":"Bexhill,UK","state":"East Sussex","country":"United Kingdom","canonicalUrl":"https://foursquare.com/v/azur/4c549e4a479fc92870616d93","categoryId":"4bf58dd8d48988d123941735","category":"Wine Bar","checkinsCount":213,"usersCount":84,"tipCount":4,"visitsCount":223,"tier":"","message":"","currency":"","rating":6},{"name":"The Comet - Shepherd Neame","phone":"+441424439117","address":"Harley Shute Road","lat":50.85961151472265,"lng":0.5321921884240342,"city_fetched":"Bexhill,UK","country":"United Kingdom","canonicalUrl":"https://foursquare.com/v/the-comet--shepherd-neame/4d360fe44202f04da3001532","categoryId":"4bf58dd8d48988d11b941735","category":"Pub","checkinsCount":79,"usersCount":11,"tipCount":1,"visitsCount":79,"url":"http://www.shepherdneame.co.uk","tier":"","message":"","currency":"","rating":5.9},{"name":"The John Logie Baird (Wetherspoon)","phone":"+441424448110","address":"29-31 Havelock Rd.","lat":50.8559467842771,"lng":0.5793232953487263,"city_fetched":"Bexhill,UK","state":"East Sussex","country":"United Kingdom","canonicalUrl":"https://foursquare.com/v/the-john-logie-baird-wetherspoon/4b8169cbf964a52098a430e3","categoryId":"4bf58dd8d48988d11b941735","category":"Pub","checkinsCount":460,"usersCount":225,"tipCount":4,"visitsCount":472,"url":"http://www.jdwetherspoon.co.uk","tier":"","message":"","currency":"","rating":5.1}]