[{"name":"The Penny Black (Wetherspoon)","phone":"+441869321535","address":"58 Sheep St.","lat":51.898805407921024,"lng":-1.151529928143071,"city_fetched":"Bicester","state":"Oxfordshire","country":"United Kingdom","canonicalUrl":"https://foursquare.com/v/the-penny-black-wetherspoon/4c87aa52821e9eb052cc8d89","category":"Pub","checkinsCount":813,"usersCount":234,"tipCount":14,"visitsCount":878,"url":"http://www.jdwetherspoon.co.uk","tier":"","message":"","currency":"","rating":5.9},{"name":"The White Hart","phone":"+448721077077","address":"4 Sheep St","lat":51.89732380054452,"lng":-1.1502277851104736,"city_fetched":"Bicester","state":"Oxfordshire","country":"United Kingdom","canonicalUrl":"https://foursquare.com/v/the-white-hart/4b62b36ef964a5208d4f2ae3","category":"Pub","checkinsCount":94,"usersCount":53,"tipCount":2,"visitsCount":94,"tier":"","message":"","currency":"","rating":5.8},{"name":"Acorn (Hungry Horse)","phone":"+441869246562","address":"Pingle Dr.","lat":51.89416302933035,"lng":-1.1599853773326454,"city_fetched":"Bicester","state":"Oxfordshire","country":"United Kingdom","canonicalUrl":"https://foursquare.com/v/acorn-hungry-horse/4c0fc12b98102d7f4bbbe506","category":"Pub","checkinsCount":395,"usersCount":551,"tipCount":8,"visitsCount":637,"tier":"","message":"","currency":"","rating":5.6},{"name":"Bure Farm","phone":"+441869327578","address":"Barberry Place","lat":51.91029143159736,"lng":-1.1555653810501099,"city_fetched":"Bicester","state":"Oxfordshire","country":"United Kingdom","canonicalUrl":"https://foursquare.com/v/bure-farm/4c1a38de4ff90f4776121149","category":"Pub","checkinsCount":447,"usersCount":161,"tipCount":12,"visitsCount":522,"tier":"","message":"","currency":"","rating":5.4}]