[{"name":"The Young Pretender","phone":"+441260273277","twitter":"ypbeerparlour","address":"30-34 Lawton Street","lat":53.162821,"lng":-2.208537,"city_fetched":"Biddulph,UK","state":"Cheshire","country":"United Kingdom","canonicalUrl":"https://foursquare.com/ypbeerparlour","categoryId":"4bf58dd8d48988d11b941735","category":"Pub","checkinsCount":631,"usersCount":63,"tipCount":1,"visitsCount":663,"tier":"","message":"","currency":"","rating":8},{"name":"The Counting House (Wetherspoon)","phone":"+441260272654","address":"18 Swan Bank","lat":53.163745154601756,"lng":-2.2147942826582248,"city_fetched":"Biddulph,UK","state":"Cheshire","country":"United Kingdom","canonicalUrl":"https://foursquare.com/v/the-counting-house-wetherspoon/4c41f1f8af052d7f48227e79","categoryId":"4bf58dd8d48988d11b941735","category":"Pub","checkinsCount":434,"usersCount":132,"tipCount":3,"visitsCount":459,"url":"http://www.jdwetherspoon.co.uk","tier":"","message":"","currency":"","rating":6.5},{"name":"The Bradley Green (Wetherspoon)","phone":"+441782375500","address":"68 High St.","lat":53.11585871401047,"lng":-2.1764323426301555,"city_fetched":"Biddulph,UK","state":"Staffordshire","country":"United Kingdom","canonicalUrl":"https://foursquare.com/v/the-bradley-green-wetherspoon/4bbf796ff353d13ae3b17e10","categoryId":"4bf58dd8d48988d11b941735","category":"Pub","checkinsCount":174,"usersCount":102,"tipCount":3,"visitsCount":257,"url":"http://www.jdwetherspoon.co.uk","tier":"","message":"","currency":"","rating":6.1}]