[{"name":"The Great Western","phone":"+441902351090","address":"Corn Hill","lat":52.58709350404531,"lng":-2.1175718307495117,"city_fetched":"Birmingham-Wolverhampton,UK","state":"West Midlands","country":"United Kingdom","canonicalUrl":"https://foursquare.com/v/the-great-western/4bcdeb558920b713878da0dc","categoryId":"4bf58dd8d48988d11b941735","category":"Pub","checkinsCount":543,"usersCount":234,"tipCount":13,"visitsCount":602,"url":"http://www.holdensbrewery.co.uk","tier":2,"message":"Moderate","currency":"£","rating":8.8},{"name":"The Vine Inn (Bull & Bladder)","phone":"+44138478293","twitter":"thebathams","address":"10 Delph Rd.","lat":52.47444208002265,"lng":-2.1154394978737114,"city_fetched":"Birmingham-Wolverhampton,UK","state":"Dudley","country":"United Kingdom","canonicalUrl":"https://foursquare.com/v/the-vine-inn-bull--bladder/4b64a230f964a52007c42ae3","categoryId":"4bf58dd8d48988d11b941735","category":"Pub","checkinsCount":524,"usersCount":120,"tipCount":12,"visitsCount":573,"url":"http://www.bathams.co.uk/pubs/the-vine-inn","tier":"","message":"","currency":"","rating":8.7},{"name":"The Black Country Arms","phone":"+441922640588","address":"High Street","lat":52.583218170330724,"lng":-1.9791591167449951,"city_fetched":"Birmingham-Wolverhampton,UK","state":"Walsall","country":"United Kingdom","canonicalUrl":"https://foursquare.com/v/the-black-country-arms/4c6d87e106ed6dcb9026a422","categoryId":"4bf58dd8d48988d11b941735","category":"Pub","checkinsCount":803,"usersCount":151,"tipCount":13,"visitsCount":888,"url":"http://www.blackcountryarms.co.uk","tier":"","message":"","currency":"","rating":8.4},{"name":"The Rising Sun","phone":"+441215571940","twitter":"risingsuntipton","address":"Horseley Rd.","lat":52.5340802804082,"lng":-2.040238380432129,"city_fetched":"Birmingham-Wolverhampton,UK","state":"Sandwell","country":"United Kingdom","canonicalUrl":"https://foursquare.com/v/the-rising-sun/4bcdad250687ef3b5735e1cc","categoryId":"4bf58dd8d48988d11b941735","category":"Pub","checkinsCount":564,"usersCount":41,"tipCount":1,"visitsCount":688,"url":"http://www.therisingsuntipton.co.uk","tier":"","message":"","currency":"","rating":8.1},{"name":"The Old Swan (aka Ma Pardoe's)","phone":"+441384253075","address":"89 Halesowen Rd.","lat":52.4902594,"lng":-2.0830774,"city_fetched":"Birmingham-Wolverhampton,UK","state":"West Midlands","country":"United Kingdom","canonicalUrl":"https://foursquare.com/v/the-old-swan-aka-ma-pardoes/4c2e37ef260bc92879561bd3","categoryId":"50327c8591d4c4b30a586d5d","category":"Brewery","checkinsCount":508,"usersCount":152,"tipCount":10,"visitsCount":595,"tier":"","message":"","currency":"","rating":8},{"name":"Dog and Doublet","lat":52.58594135568576,"lng":-2.129662929639742,"neighborhood":"City Centre","city_fetched":"Birmingham-Wolverhampton,UK","state":"West Midlands","country":"United Kingdom","canonicalUrl":"https://foursquare.com/v/dog-and-doublet/537629a6498eb0ccd3065eda","categoryId":"4bf58dd8d48988d11b941735","category":"Pub","checkinsCount":252,"usersCount":78,"tipCount":4,"visitsCount":278,"tier":"","message":"","currency":"","rating":8},{"name":"The Barns Hotel","phone":"+441543469191","address":"Cocksparrow Ln. Huntington","lat":52.71512250508047,"lng":-2.043581450408197,"city_fetched":"Birmingham-Wolverhampton,UK","state":"Staffordshire","country":"United Kingdom","canonicalUrl":"https://foursquare.com/v/the-barns-hotel/4bd7bd17304fce720ef733ab","categoryId":"4bf58dd8d48988d1d5941735","category":"Hotel Bar","checkinsCount":111,"usersCount":110,"tipCount":2,"visitsCount":172,"url":"http://www.thebarnshotel.co.uk","tier":"","message":"","currency":"","rating":7.9},{"name":"Badelynge Bar (Green Duck Brewery)","phone":"+447747712588","twitter":"greenduckbrew","address":"Rufford Rd","lat":52.45361025053905,"lng":-2.131453162847398,"city_fetched":"Birmingham-Wolverhampton,UK","state":"Dudley","country":"United Kingdom","canonicalUrl":"https://foursquare.com/v/badelynge-bar-green-duck-brewery/52c2c57b498e635e7c1b0c12","categoryId":"50327c8591d4c4b30a586d5d","category":"Brewery","checkinsCount":152,"usersCount":71,"tipCount":2,"visitsCount":196,"url":"http://www.greenduckbrewery.co.uk","tier":"","message":"","currency":"","rating":7.9},{"name":"The Windsor Castle","phone":"+441384895230","twitter":"sadlersales","address":"7 Stourbridge Rd","lat":52.45834403941405,"lng":-2.1179227658041184,"city_fetched":"Birmingham-Wolverhampton,UK","state":"Dudley","country":"United Kingdom","canonicalUrl":"https://foursquare.com/v/the-windsor-castle/4b63760ff964a520947b2ae3","categoryId":"4bf58dd8d48988d11b941735","category":"Pub","checkinsCount":505,"usersCount":213,"tipCount":5,"visitsCount":598,"url":"http://www.windsorcastleinn.co.uk","tier":"","message":"","currency":"","rating":7.8},{"name":"Plough And Harrow","phone":"+441922457847","twitter":"ploughharrowpub","address":"Chester Rd.","lat":52.613192,"lng":-1.885783,"city_fetched":"Birmingham-Wolverhampton,UK","state":"West Midlands","country":"United Kingdom","canonicalUrl":"https://foursquare.com/v/plough-and-harrow/4bc9bb260687ef3bff57dacc","categoryId":"4bf58dd8d48988d117941735","category":"Beer Garden","checkinsCount":177,"usersCount":135,"tipCount":4,"visitsCount":288,"url":"http://www.ploughandharrowaldridge.co.uk","tier":"","message":"","currency":"","rating":7.7},{"name":"Hogshead","phone":"+441902717955","twitter":"hogsheadwolves","address":"186 Stafford St","lat":52.587321645896694,"lng":-2.1258115768432617,"neighborhood":"City Centre","city_fetched":"Birmingham-Wolverhampton,UK","state":"West Midlands","country":"United Kingdom","canonicalUrl":"https://foursquare.com/hogsheadwolves","categoryId":"4bf58dd8d48988d11b941735","category":"Pub","checkinsCount":2335,"usersCount":586,"tipCount":15,"visitsCount":2598,"url":"http://www.hogsheadwolverhampton.co.uk","tier":2,"message":"Moderate","currency":"£","rating":7.7},{"name":"Slater's","phone":"+441902426475","address":"41 Queen Sq","lat":52.58606822156359,"lng":-2.128311243824202,"neighborhood":"City Centre","city_fetched":"Birmingham-Wolverhampton,UK","state":"West Midlands","country":"United Kingdom","canonicalUrl":"https://foursquare.com/v/slaters/56cf4aa0cd109cb42fcbc2b0","categoryId":"56aa371ce4b08b9a8d57356c","category":"Beer Bar","checkinsCount":140,"usersCount":28,"tipCount":3,"visitsCount":141,"tier":"","message":"","currency":"","rating":7.6},{"name":"Bradmore Arms","address":"Trysull Rd","lat":52.576501325661425,"lng":-2.155543581584,"neighborhood":"Bradmore","city_fetched":"Birmingham-Wolverhampton,UK","state":"West Midlands","country":"United Kingdom","canonicalUrl":"https://foursquare.com/v/bradmore-arms/4e18cdaf7d8b8af91391af3e","categoryId":"4bf58dd8d48988d116941735","category":"Bar","checkinsCount":172,"usersCount":88,"tipCount":2,"visitsCount":246,"tier":"","message":"","currency":"","rating":7.6},{"name":"Newhampton Pub","lat":52.59372532367706,"lng":-2.150066,"neighborhood":"Newbridge","city_fetched":"Birmingham-Wolverhampton,UK","state":"West Midlands","country":"United Kingdom","canonicalUrl":"https://foursquare.com/v/newhampton-pub/4c094797bbc676b0ebec47d5","categoryId":"4bf58dd8d48988d11b941735","category":"Pub","checkinsCount":171,"usersCount":97,"tipCount":8,"visitsCount":257,"tier":"","message":"","currency":"","rating":7.6},{"name":"The Duke William","phone":"+441384440202","twitter":"dukeandplough","address":"25 Coventry St.","lat":52.457873386360205,"lng":-2.146114884986313,"city_fetched":"Birmingham-Wolverhampton,UK","state":"West Midlands","country":"United Kingdom","canonicalUrl":"https://foursquare.com/v/the-duke-william/4b92c150f964a520b71834e3","categoryId":"4bf58dd8d48988d11b941735","category":"Pub","checkinsCount":776,"usersCount":177,"tipCount":12,"visitsCount":857,"url":"http://www.craddocksbrewery.com","tier":"","message":"","currency":"","rating":7.5},{"name":"Lych Gate Tavern","phone":"+441902399516","address":"44 Queen St","lat":52.586288446857075,"lng":-2.1284722275615313,"neighborhood":"City Centre","city_fetched":"Birmingham-Wolverhampton,UK","state":"West Midlands","country":"United Kingdom","canonicalUrl":"https://foursquare.com/v/lych-gate-tavern/5036734ae4b0c5e43dc80cb9","categoryId":"4bf58dd8d48988d11b941735","category":"Pub","checkinsCount":793,"usersCount":168,"tipCount":11,"visitsCount":831,"url":"http://www.lychgatetavern.co.uk","tier":2,"message":"Moderate","currency":"£","rating":7.5},{"name":"Spring Hill","lat":52.556603073484794,"lng":-2.1733832359313965,"neighborhood":"Merry Hill","city_fetched":"Birmingham-Wolverhampton,UK","country":"United Kingdom","canonicalUrl":"https://foursquare.com/v/spring-hill/4c3313e166e40f47405dc78b","categoryId":"4bf58dd8d48988d11b941735","category":"Pub","checkinsCount":169,"usersCount":118,"tipCount":5,"visitsCount":247,"tier":"","message":"","currency":"","rating":7.4},{"name":"The Royal London","phone":"+441902795761","address":"6 Wulfruna St","lat":52.58724142427762,"lng":-2.1261959605014393,"neighborhood":"City Centre","city_fetched":"Birmingham-Wolverhampton,UK","state":"West Midlands","country":"United Kingdom","canonicalUrl":"https://foursquare.com/v/the-royal-london/4b68b196f964a52086872be3","categoryId":"4bf58dd8d48988d116941735","category":"Bar","checkinsCount":991,"usersCount":355,"tipCount":8,"visitsCount":998,"tier":"","message":"","currency":"","rating":7.4},{"name":"The Posada","address":"48 Lichfield St.","lat":52.586707838255776,"lng":-2.1263491845737055,"neighborhood":"City Centre","city_fetched":"Birmingham-Wolverhampton,UK","state":"West Midlands","country":"United Kingdom","canonicalUrl":"https://foursquare.com/v/the-posada/4c016e1acebfef3ba43f97fd","categoryId":"4bf58dd8d48988d11b941735","category":"Pub","checkinsCount":323,"usersCount":110,"tipCount":5,"visitsCount":324,"tier":"","message":"","currency":"","rating":7.4},{"name":"The Hawne Tavern","phone":"+441216022601","address":"76 Attwood St","lat":52.455025437508645,"lng":-2.062538266181946,"city_fetched":"Birmingham-Wolverhampton,UK","state":"Dudley","country":"United Kingdom","canonicalUrl":"https://foursquare.com/v/the-hawne-tavern/4b05cc1ef964a52083e322e3","categoryId":"4bf58dd8d48988d117941735","category":"Beer Garden","checkinsCount":353,"usersCount":69,"tipCount":2,"visitsCount":413,"tier":"","message":"","currency":"","rating":7.3},{"name":"The Beacon Hotel","phone":"+441902883380","twitter":"beaconhotel","address":"129 Bilston St.","lat":52.54360755341273,"lng":-2.1146321296691895,"city_fetched":"Birmingham-Wolverhampton,UK","state":"West Midlands","country":"United Kingdom","canonicalUrl":"https://foursquare.com/v/the-beacon-hotel/4c3a15e118e72d7fea501bf5","categoryId":"4bf58dd8d48988d11b941735","category":"Pub","checkinsCount":1033,"usersCount":135,"tipCount":6,"visitsCount":1099,"url":"http://www.sarahhughesbrewery.co.uk/beaconhotel.html","tier":"","message":"","currency":"","rating":7.3},{"name":"Moreton Arms","lat":52.631606238276554,"lng":-2.124910430293684,"city_fetched":"Birmingham-Wolverhampton,UK","state":"West Midlands","country":"United Kingdom","canonicalUrl":"https://foursquare.com/v/moreton-arms/4c81630dd4e23704dc5f5d88","categoryId":"4bf58dd8d48988d11b941735","category":"Pub","checkinsCount":289,"usersCount":79,"tipCount":2,"visitsCount":346,"tier":"","message":"","currency":"","rating":7.2},{"name":"The Giffard Arms","phone":"+441902426664","address":"64 Victoria Street","lat":52.584900856018066,"lng":-2.129607,"neighborhood":"City Centre","city_fetched":"Birmingham-Wolverhampton,UK","state":"West Midlands","country":"United Kingdom","canonicalUrl":"https://foursquare.com/v/the-giffard-arms/4b05882bf964a52006b622e3","categoryId":"4bf58dd8d48988d11b941735","category":"Pub","checkinsCount":392,"usersCount":162,"tipCount":3,"visitsCount":419,"tier":"","message":"","currency":"","rating":7.2},{"name":"The Sportsman","phone":"+441215531353","address":"13-15 High St","lat":52.51297,"lng":-1.984169,"city_fetched":"Birmingham-Wolverhampton,UK","state":"West Midlands","country":"United Kingdom","canonicalUrl":"https://foursquare.com/v/the-sportsman/4c4b3d9bbad7a59393ac97ab","categoryId":"4bf58dd8d48988d11b941735","category":"Pub","checkinsCount":400,"usersCount":164,"tipCount":5,"visitsCount":596,"tier":"","message":"","currency":"","rating":7.2},{"name":"Sadler's Brewhouse & Bar","phone":"+441384895230","twitter":"sadlersbrew","address":"Unit 2, Conyers Trading Est.","lat":52.45959644420461,"lng":-2.115002350075884,"neighborhood":"Lye","city_fetched":"Birmingham-Wolverhampton,UK","state":"Dudley","country":"United Kingdom","canonicalUrl":"https://foursquare.com/v/sadlers-brewhouse--bar/54e31305498e9bec97599c12","categoryId":"50327c8591d4c4b30a586d5d","category":"Brewery","checkinsCount":94,"usersCount":62,"tipCount":2,"visitsCount":136,"url":"http://www.sadlersales.co.uk","tier":"","message":"","currency":"","rating":7.1},{"name":"Holly Bush Inn","phone":"+441902621454","address":"494 Penn Road","lat":52.55790119841738,"lng":-2.1655286367095234,"neighborhood":"Penn","city_fetched":"Birmingham-Wolverhampton,UK","state":"West Midlands","country":"United Kingdom","canonicalUrl":"https://foursquare.com/v/holly-bush-inn/4bdeb36dffdec9285048e9a1","categoryId":"4bf58dd8d48988d11b941735","category":"Pub","checkinsCount":278,"usersCount":161,"tipCount":4,"visitsCount":348,"tier":"","message":"","currency":"","rating":7.1},{"name":"The Clarendon Hotel","phone":"+441902420587","address":"Chapel Ash","lat":52.585194,"lng":-2.137747,"city_fetched":"Birmingham-Wolverhampton,UK","state":"West Midlands","country":"United Kingdom","canonicalUrl":"https://foursquare.com/v/the-clarendon-hotel/4ca329741ee76dcbf47df6dd","categoryId":"4bf58dd8d48988d11b941735","category":"Pub","checkinsCount":150,"usersCount":69,"tipCount":3,"visitsCount":155,"tier":"","message":"","currency":"","rating":7},{"name":"Ye Olde Foundry","phone":"+441384240232","address":"42 King St","lat":52.50918077137837,"lng":-2.0832005121501145,"city_fetched":"Birmingham-Wolverhampton,UK","state":"West Midlands","country":"United Kingdom","canonicalUrl":"https://foursquare.com/v/ye-olde-foundry/4cccb563b571b60c01aad465","categoryId":"4bf58dd8d48988d11b941735","category":"Pub","checkinsCount":834,"usersCount":84,"tipCount":1,"visitsCount":875,"tier":"","message":"","currency":"","rating":6.9},{"name":"The Mermaid","lat":52.58268089,"lng":-2.192596,"city_fetched":"Birmingham-Wolverhampton,UK","country":"United Kingdom","canonicalUrl":"https://foursquare.com/v/the-mermaid/4c4882aa417b20a1812de1a9","categoryId":"4bf58dd8d48988d11b941735","category":"Pub","checkinsCount":304,"usersCount":173,"tipCount":6,"visitsCount":372,"tier":"","message":"","currency":"","rating":6.9},{"name":"The Court House","phone":"+441384240062","address":"30 New St.","lat":52.51154919368625,"lng":-2.082858681678772,"city_fetched":"Birmingham-Wolverhampton,UK","state":"Dudley","country":"United Kingdom","canonicalUrl":"https://foursquare.com/v/the-court-house/4c7fc11b4a03bfb717d6ccd4","categoryId":"4bf58dd8d48988d11b941735","category":"Pub","checkinsCount":353,"usersCount":84,"tipCount":2,"visitsCount":375,"url":"http://www.blackcountryales.co.uk/the-pubs/the-court-house","tier":"","message":"","currency":"","rating":6.8},{"name":"The Gatehouse","phone":"+441902426372","address":"Stafford Rd","lat":52.61025404696119,"lng":-2.1306081108769415,"city_fetched":"Birmingham-Wolverhampton,UK","state":"West Midlands","country":"United Kingdom","canonicalUrl":"https://foursquare.com/v/the-gatehouse/50abc5eae4b050a200eb50b8","categoryId":"4bf58dd8d48988d11b941735","category":"Pub","checkinsCount":406,"usersCount":150,"tipCount":3,"visitsCount":496,"url":"http://www.hungryhorse.co.uk/pubs/gatehouse-wolverhampton","tier":"","message":"","currency":"","rating":6.6},{"name":"Graham's Place","phone":"+441384440315","twitter":"grahamsplace","address":"73 Bridgnorth Rd","lat":52.45976194991682,"lng":-2.1609163284301753,"city_fetched":"Birmingham-Wolverhampton,UK","state":"Dudley","country":"United Kingdom","canonicalUrl":"https://foursquare.com/v/grahams-place/4c853cd4ee6fef3b87c93a5c","categoryId":"4bf58dd8d48988d11b941735","category":"Pub","checkinsCount":386,"usersCount":55,"tipCount":3,"visitsCount":411,"url":"http://www.grahams-place.co.uk","tier":"","message":"","currency":"","rating":6.5},{"name":"The Old Irish Harp","address":"Chester Road","lat":52.60359373905267,"lng":-1.8897908347590915,"city_fetched":"Birmingham-Wolverhampton,UK","state":"Walsall","country":"United Kingdom","canonicalUrl":"https://foursquare.com/v/the-old-irish-harp/4da9d49d1e72c1ab9be59d4f","categoryId":"4bf58dd8d48988d11b941735","category":"Pub","checkinsCount":189,"usersCount":120,"tipCount":6,"visitsCount":244,"url":"http://www.oldirishharppub.co.uk","tier":"","message":"","currency":"","rating":6.5},{"name":"Planet Nightclub","phone":"+447784471018","address":"Westbury St","lat":52.587890318508045,"lng":-2.124777617473779,"neighborhood":"City Centre","city_fetched":"Birmingham-Wolverhampton,UK","state":"West Midlands","country":"United Kingdom","canonicalUrl":"https://foursquare.com/v/planet-nightclub/4bb3639d2397b713cb0438b3","categoryId":"4bf58dd8d48988d11f941735","category":"Nightclub","checkinsCount":276,"usersCount":119,"tipCount":5,"visitsCount":278,"tier":"","message":"","currency":"","rating":6.4},{"name":"Black Eagle","phone":"+441215234008","twitter":"blackeaglepub","address":"16 Factory Rd","lat":52.49854011883788,"lng":-1.9283744676944885,"city_fetched":"Birmingham-Wolverhampton,UK","state":"West Midlands","country":"United Kingdom","canonicalUrl":"https://foursquare.com/v/black-eagle/4b4b69d0f964a520aa9a26e3","categoryId":"4bf58dd8d48988d11b941735","category":"Pub","checkinsCount":540,"usersCount":120,"tipCount":6,"visitsCount":575,"url":"http://www.theblackeaglepub.co.uk","tier":"","message":"","currency":"","rating":6.4},{"name":"The Dog","phone":"+441214292305","twitter":"emberinns","address":"8 Hagley Road W","lat":52.469131364227025,"lng":-1.9745975043482946,"city_fetched":"Birmingham-Wolverhampton,UK","state":"West Midlands","country":"United Kingdom","canonicalUrl":"https://foursquare.com/v/the-dog/4b05882af964a520b2b522e3","categoryId":"4bf58dd8d48988d11b941735","category":"Pub","checkinsCount":409,"usersCount":230,"tipCount":3,"visitsCount":495,"url":"http://www.emberinns.co.uk/the-dog-warley","tier":"","message":"","currency":"","rating":6.3},{"name":"The Stag and Three Horseshoes","phone":"+441214222176","twitter":"sizzlingpubs","address":"Halesowen Rd","lat":52.46151310244095,"lng":-2.0270041718107237,"city_fetched":"Birmingham-Wolverhampton,UK","state":"West Midlands","country":"United Kingdom","canonicalUrl":"https://foursquare.com/v/the-stag-and-three-horseshoes/4b3b2b42f964a520327125e3","categoryId":"4bf58dd8d48988d11b941735","category":"Pub","checkinsCount":1036,"usersCount":229,"tipCount":6,"visitsCount":1207,"url":"http://www.sizzlingpubs.co.uk/thestagandthreehorseshoeshalesowen","tier":"","message":"","currency":"","rating":6.3},{"name":"The Dog & Gun Pub","lat":52.599873,"lng":-2.1721547842025757,"neighborhood":"Tettenhall Wood","city_fetched":"Birmingham-Wolverhampton,UK","country":"United Kingdom","canonicalUrl":"https://foursquare.com/v/the-dog--gun-pub/4babfc94f964a520cddb3ae3","categoryId":"4bf58dd8d48988d11b941735","category":"Pub","checkinsCount":245,"usersCount":115,"tipCount":2,"visitsCount":318,"tier":"","message":"","currency":"","rating":6.3},{"name":"The Sir Henry Newbolt  (Wetherspoon)","phone":"+441902404636","address":"45-47 High St.","lat":52.56414614672188,"lng":-2.080364227294922,"city_fetched":"Birmingham-Wolverhampton,UK","state":"West Midlands","country":"United Kingdom","canonicalUrl":"https://foursquare.com/v/the-sir-henry-newbolt--wetherspoon/4c87aa54821e9eb055cc8d89","categoryId":"4bf58dd8d48988d11b941735","category":"Pub","checkinsCount":701,"usersCount":99,"tipCount":2,"visitsCount":725,"url":"http://www.jdwetherspoon.co.uk","tier":"","message":"","currency":"","rating":6.3},{"name":"The Claregate","phone":"+441902754761","address":"34 Codsall Rd","lat":52.606214599716004,"lng":-2.1598503446986137,"neighborhood":"Claregate","city_fetched":"Birmingham-Wolverhampton,UK","state":"West Midlands","country":"United Kingdom","canonicalUrl":"https://foursquare.com/v/the-claregate/4c3a01842c8020a1f2948d00","categoryId":"4bf58dd8d48988d11b941735","category":"Pub","checkinsCount":197,"usersCount":80,"tipCount":2,"visitsCount":252,"url":"http://www.claregatepub.co.uk","tier":"","message":"","currency":"","rating":6.2},{"name":"Elisabeth Arms","phone":"+441902884222","address":"Overfield Dr, Ettingshall","lat":52.554199831251694,"lng":-2.0939257757548875,"neighborhood":"Ettingshall","city_fetched":"Birmingham-Wolverhampton,UK","state":"West Midlands","country":"United Kingdom","canonicalUrl":"https://foursquare.com/v/elisabeth-arms/4bded35fffdec9287eb9e9a1","categoryId":"4bf58dd8d48988d11b941735","category":"Pub","checkinsCount":191,"usersCount":90,"tipCount":3,"visitsCount":233,"url":"http://www.sizzlingpubs.co.uk/theelisabetharmsbilston/","tier":"","message":"","currency":"","rating":6},{"name":"The Royal Tiger (Wetherspoon)","phone":"+441902307816","address":"41-43 The High St.","lat":52.597839723108535,"lng":-2.0873674808026443,"neighborhood":"Wednesfield","city_fetched":"Birmingham-Wolverhampton,UK","state":"West Midlands","country":"United Kingdom","canonicalUrl":"https://foursquare.com/v/the-royal-tiger-wetherspoon/4c87ac4a821e9eb014ce8d89","categoryId":"4bf58dd8d48988d11b941735","category":"Pub","checkinsCount":426,"usersCount":52,"tipCount":0,"visitsCount":428,"url":"http://www.jdwetherspoon.co.uk","tier":"","message":"","currency":"","rating":5.9},{"name":"The New Pear Tree","address":"Pear Tree Lane","lat":52.61676601456072,"lng":-2.095493698007108,"city_fetched":"Birmingham-Wolverhampton,UK","state":"West Midlands","country":"United Kingdom","canonicalUrl":"https://foursquare.com/v/the-new-pear-tree/4c56e835a31176b05869d0bc","categoryId":"4bf58dd8d48988d11b941735","category":"Pub","checkinsCount":145,"usersCount":81,"tipCount":5,"visitsCount":187,"tier":"","message":"","currency":"","rating":5.7},{"name":"Bar Sport","phone":"+441543503859","twitter":"barsport","address":"85-87 High Green Town Centre, Cannock Ws11 1bj, United Kingdom","lat":52.68953814299157,"lng":-2.03279579218982,"city_fetched":"Birmingham-Wolverhampton,UK","state":"Staffordshire","country":"United Kingdom","canonicalUrl":"https://foursquare.com/v/bar-sport/4b05882af964a520d2b522e3","categoryId":"4bf58dd8d48988d11d941735","category":"Sports Bar","checkinsCount":171,"usersCount":85,"tipCount":4,"visitsCount":175,"url":"http://www.barsport.co.uk","tier":"","message":"","currency":"","rating":5.6},{"name":"Yates's","phone":"+441922637691","twitter":"yateswalsall","address":"25-29 Leicester St","lat":52.58527272514759,"lng":-1.980946889504191,"city_fetched":"Birmingham-Wolverhampton,UK","state":"Walsall","country":"United Kingdom","canonicalUrl":"https://foursquare.com/v/yatess/4bb64fa7ef159c7483c075f7","categoryId":"4bf58dd8d48988d116941735","category":"Bar","checkinsCount":736,"usersCount":154,"tipCount":8,"visitsCount":738,"tier":"","message":"","currency":"","rating":5.5},{"name":"The Oddfellows","address":"Compton","lat":52.58706264697965,"lng":-2.174673392480188,"city_fetched":"Birmingham-Wolverhampton,UK","state":"West Midlands","country":"United Kingdom","canonicalUrl":"https://foursquare.com/v/the-oddfellows/4bf6d9015ec320a1aadf85d3","categoryId":"4bf58dd8d48988d11b941735","category":"Pub","checkinsCount":209,"usersCount":125,"tipCount":5,"visitsCount":260,"tier":"","message":"","currency":"","rating":5.5},{"name":"The George Wallis","lat":52.58489926605252,"lng":-2.1293995534203436,"neighborhood":"City Centre","city_fetched":"Birmingham-Wolverhampton,UK","state":"West Midlands","country":"United Kingdom","canonicalUrl":"https://foursquare.com/v/the-george-wallis/500ac2eee4b0c262430e7f43","categoryId":"4bf58dd8d48988d11b941735","category":"Pub","checkinsCount":291,"usersCount":114,"tipCount":4,"visitsCount":297,"tier":"","message":"","currency":"","rating":5.4},{"name":"The Moon Under Water (Wetherspoon)","phone":"+441902422447","address":"53-55 Lichfield St.","lat":52.58668593618283,"lng":-2.124451185347761,"neighborhood":"City Centre","city_fetched":"Birmingham-Wolverhampton,UK","state":"West Midlands","country":"United Kingdom","canonicalUrl":"https://foursquare.com/v/the-moon-under-water-wetherspoon/4c25cddbf1272d7f087085c5","categoryId":"4bf58dd8d48988d11b941735","category":"Pub","checkinsCount":1779,"usersCount":558,"tipCount":19,"visitsCount":1869,"url":"http://www.jdwetherspoon.co.uk","tier":1,"message":"Cheap","currency":"£","rating":5.4},{"name":"Yates's","phone":"+441902714601","address":"34 Queens Sq","lat":52.58606773176346,"lng":-2.12918611765288,"neighborhood":"City Centre","city_fetched":"Birmingham-Wolverhampton,UK","state":"West Midlands","country":"United Kingdom","canonicalUrl":"https://foursquare.com/v/yatess/4badfcbcf964a5204e783be3","categoryId":"4bf58dd8d48988d116941735","category":"Bar","checkinsCount":800,"usersCount":403,"tipCount":6,"visitsCount":819,"tier":"","message":"","currency":"","rating":5.4},{"name":"The Goose","phone":"+441902717843","address":"32-36 Lichfield St","lat":52.58654921797494,"lng":-2.1265733242034908,"neighborhood":"City Centre","city_fetched":"Birmingham-Wolverhampton,UK","state":"West Midlands","country":"United Kingdom","canonicalUrl":"https://foursquare.com/v/the-goose/4d04de8d54d0236a0272f1d5","categoryId":"4bf58dd8d48988d11b941735","category":"Pub","checkinsCount":582,"usersCount":178,"tipCount":8,"visitsCount":607,"url":"http://www.goosewolverhampton.co.uk","tier":"","message":"","currency":"","rating":5.3},{"name":"The Nickelodeon","phone":"+441902305741","address":"Bentley Bridge Way","lat":52.596981525419615,"lng":-2.091851,"neighborhood":"Wednesfield","city_fetched":"Birmingham-Wolverhampton,UK","state":"West Midlands","country":"United Kingdom","canonicalUrl":"https://foursquare.com/v/the-nickelodeon/4b5b5267f964a52072f428e3","categoryId":"4bf58dd8d48988d11b941735","category":"Pub","checkinsCount":517,"usersCount":254,"tipCount":10,"visitsCount":561,"url":"http://www.fayre-square.com/pub/nickelodeon-wednesfield-wolverhampton/m6963","tier":"","message":"","currency":"","rating":5}]