[{"name":"The White Lion","phone":"+441279836118","address":"28 London Road","lat":51.812925,"lng":0.147589,"city_fetched":"Bishop's Stortford,UK","state":"Hertfordshire","country":"United Kingdom","canonicalUrl":"https://foursquare.com/v/the-white-lion/4c4c8a47c8b6b713c3db8efb","categoryId":"4bf58dd8d48988d11b941735","category":"Pub","checkinsCount":387,"usersCount":109,"tipCount":6,"visitsCount":445,"tier":"","message":"","currency":"","rating":7.9},{"name":"The Cock Public House","phone":"+441279812941","twitter":"thecockstansted","address":"30 Silver St","lat":51.903081,"lng":0.192676,"city_fetched":"Bishop's Stortford,UK","state":"Essex","country":"United Kingdom","canonicalUrl":"https://foursquare.com/v/the-cock-public-house/4b620a71f964a52006322ae3","categoryId":"4bf58dd8d48988d11b941735","category":"Pub","checkinsCount":149,"usersCount":78,"tipCount":2,"visitsCount":248,"url":"http://www.thecockatstansted.co.uk","tier":"","message":"","currency":"","rating":7.9},{"name":"Baroosh","phone":"+441279501868","address":"Market Square","lat":51.870962,"lng":0.159171,"city_fetched":"Bishop's Stortford,UK","state":"Hertfordshire","country":"United Kingdom","canonicalUrl":"https://foursquare.com/v/baroosh/4eb4692fdab4fe511135cfce","categoryId":"4bf58dd8d48988d116941735","category":"Bar","checkinsCount":192,"usersCount":108,"tipCount":6,"visitsCount":200,"url":"http://www.baroosh.co.uk/bishops-stortford/bishops-stortford-home.html","tier":"","message":"","currency":"","rating":7.7},{"name":"Nag's Head","phone":"+441279654553","twitter":"nagsheadstort","address":"216 Dunmow Rd","lat":51.86849865829085,"lng":0.1777812651570036,"city_fetched":"Bishop's Stortford,UK","state":"Hertfordshire","country":"United Kingdom","canonicalUrl":"https://foursquare.com/v/nags-head/4d10264b6b315941f2be41ec","categoryId":"4bf58dd8d48988d11b941735","category":"Pub","checkinsCount":451,"usersCount":195,"tipCount":14,"visitsCount":547,"url":"http://www.mcmullens.co.uk/nagsheadbishopsstortford","tier":"","message":"","currency":"","rating":7.5},{"name":"The Harvest Moon","phone":"+441279836303","address":"Friedberg Ave","lat":51.86192013328203,"lng":0.14223217964172363,"city_fetched":"Bishop's Stortford,UK","state":"Hertfordshire","country":"United Kingdom","canonicalUrl":"https://foursquare.com/v/the-harvest-moon/4bd2eb08a8b3a59371ac685f","categoryId":"4bf58dd8d48988d11b941735","category":"Pub","checkinsCount":263,"usersCount":148,"tipCount":4,"visitsCount":443,"url":"http://www.gkflamegrill.co.uk/locations/harvest-moon-bishops-stortford","tier":"","message":"","currency":"","rating":7.3},{"name":"The Fountain","phone":"+441279659966","address":"7 Station Rd","lat":51.86794,"lng":0.163748,"city_fetched":"Bishop's Stortford,UK","state":"Hertfordshire","country":"United Kingdom","canonicalUrl":"https://foursquare.com/v/the-fountain/4bd30af8046076b047007571","categoryId":"4bf58dd8d48988d116941735","category":"Bar","checkinsCount":109,"usersCount":61,"tipCount":4,"visitsCount":109,"tier":"","message":"","currency":"","rating":7.3},{"name":"Three Horse Shoes","phone":"+441279722849","address":"Spellbrook Lane East","lat":51.836201,"lng":0.15781044960021973,"city_fetched":"Bishop's Stortford,UK","state":"Hertfordshire","country":"United Kingdom","canonicalUrl":"https://foursquare.com/v/three-horse-shoes/4bc09c16f8219c7435ccb110","categoryId":"4bf58dd8d48988d11b941735","category":"Pub","checkinsCount":211,"usersCount":118,"tipCount":4,"visitsCount":303,"url":"http://www.chefandbrewer.com/pub/three-horseshoes-spellbrook-bishops-stortford/p1422/","tier":"","message":"","currency":"","rating":6.6},{"name":"The Star Pub","phone":"+441279654211","address":"7 Bridge St","lat":51.871414,"lng":0.159431,"city_fetched":"Bishop's Stortford,UK","state":"Hertfordshire","country":"United Kingdom","canonicalUrl":"https://foursquare.com/v/the-star-pub/4bb8c46fb35776b04732c901","categoryId":"4bf58dd8d48988d11b941735","category":"Pub","checkinsCount":330,"usersCount":149,"tipCount":6,"visitsCount":377,"url":"http://www.thestar-bishopsstortford.co.uk","tier":"","message":"","currency":"","rating":6.5},{"name":"The Port Jackson (Wetherspoon)","phone":"+441279714460","twitter":"jdwtweet","address":"Riverside Wharf, Riverside","lat":51.869140368268475,"lng":0.16192809092413527,"city_fetched":"Bishop's Stortford,UK","state":"Hertfordshire","country":"United Kingdom","canonicalUrl":"https://foursquare.com/v/the-port-jackson-wetherspoon/534838ab498e16008e4caab0","categoryId":"4bf58dd8d48988d11b941735","category":"Pub","checkinsCount":361,"usersCount":146,"tipCount":8,"visitsCount":463,"url":"http://www.jdwetherspoon.co.uk/home/pubs/the-port-jackson","tier":"","message":"","currency":"","rating":6.4},{"name":"Cabin Bar","lat":51.889715955132345,"lng":0.2607192660238117,"city_fetched":"Bishop's Stortford,UK","country":"United Kingdom","canonicalUrl":"https://foursquare.com/v/cabin-bar/55393a4a498efc2186a1d1ce","categoryId":"4bf58dd8d48988d116941735","category":"Bar","checkinsCount":120,"usersCount":109,"tipCount":2,"visitsCount":120,"tier":"","message":"","currency":"","rating":6},{"name":"The Windmill (Wetherspoon)","phone":"+441279682210","address":"Departure Lounge","lat":51.8893255596656,"lng":0.2604532241821289,"city_fetched":"Bishop's Stortford,UK","state":"Essex","country":"United Kingdom","canonicalUrl":"https://foursquare.com/v/the-windmill-wetherspoon/4b61c0ebf964a520a0202ae3","categoryId":"4bf58dd8d48988d11b941735","category":"Pub","checkinsCount":2613,"usersCount":1976,"tipCount":37,"visitsCount":2617,"url":"http://www.jdwetherspoon.co.uk","tier":2,"message":"Moderate","currency":"Â£","rating":5.2},{"name":"Bridge Bar","address":"Stansted Airport","lat":51.889600773591965,"lng":0.2616075137049455,"city_fetched":"Bishop's Stortford,UK","state":"Essex","country":"United Kingdom","canonicalUrl":"https://foursquare.com/v/bridge-bar/4be54229cf200f472201133c","categoryId":"4bf58dd8d48988d116941735","category":"Bar","checkinsCount":703,"usersCount":604,"tipCount":15,"visitsCount":704,"tier":"","message":"","currency":"","rating":4.5}]