[{"name":"Spread Eagle","address":"Mellor Lane","lat":53.774691756003875,"lng":-2.5047492657143446,"neighborhood":"Blackburn","city_fetched":"Blackburn,UK","state":"Lancashire","country":"United Kingdom","canonicalUrl":"https://foursquare.com/v/spread-eagle/4ca651cb44a8224b32250240","categoryId":"4bf58dd8d48988d11b941735","category":"Pub","checkinsCount":119,"usersCount":80,"tipCount":3,"visitsCount":160,"url":"http://www.thespreadeaglemellor.com","tier":"","message":"","currency":"","rating":6.9},{"name":"Feilden's Arms","phone":"+441254739136","address":"Whalley Rd","lat":53.775889463579915,"lng":-2.547024649132896,"city_fetched":"Blackburn,UK","state":"Blackburn with Darwen","country":"United Kingdom","canonicalUrl":"https://foursquare.com/v/feildens-arms/4da05592c41ca143449645a3","categoryId":"4bf58dd8d48988d11b941735","category":"Pub","checkinsCount":105,"usersCount":55,"tipCount":4,"visitsCount":144,"tier":"","message":"","currency":"","rating":6.7},{"name":"The Postal Order (Wetherspoon)","phone":"+441254676400","address":"15-19 Darwen St.","lat":53.746569703878514,"lng":-2.4826828241489345,"city_fetched":"Blackburn,UK","state":"Blackburn with Darwen","country":"United Kingdom","canonicalUrl":"https://foursquare.com/v/the-postal-order-wetherspoon/4b66170af964a5201a132be3","categoryId":"4bf58dd8d48988d11b941735","category":"Pub","checkinsCount":778,"usersCount":228,"tipCount":10,"visitsCount":845,"url":"http://www.jdwetherspoon.co.uk","tier":"","message":"","currency":"","rating":6.2},{"name":"Blues","phone":"+441254296166","twitter":"blues_ewoodpark","address":"Ewood Park","lat":53.72953925986102,"lng":-2.489969032346399,"city_fetched":"Blackburn,UK","state":"Blackburn with Darwen","country":"United Kingdom","canonicalUrl":"https://foursquare.com/v/blues/4b5ef1e3f964a520099f29e3","categoryId":"4bf58dd8d48988d11d941735","category":"Sports Bar","checkinsCount":343,"usersCount":53,"tipCount":3,"visitsCount":344,"url":"http://www.rovers.co.uk/page/BluesBar","tier":"","message":"","currency":"","rating":5.9},{"name":"The Willows","phone":"+441254681550","address":"Haslingden Rd","lat":53.728239,"lng":-2.44947406,"city_fetched":"Blackburn,UK","state":"Blackburn with Darwen","country":"United Kingdom","canonicalUrl":"https://foursquare.com/v/the-willows/4c68082a1c91a59382e5ee07","categoryId":"4bf58dd8d48988d11b941735","category":"Pub","checkinsCount":224,"usersCount":114,"tipCount":9,"visitsCount":315,"url":"http://www.marstonstaverns.co.uk","tier":"","message":"","currency":"","rating":5.8},{"name":"Fernhurst Arms","address":"466 Bolton Road","lat":53.72547,"lng":-2.488873,"city_fetched":"Blackburn,UK","state":"Blackburn with Darwen","country":"United Kingdom","canonicalUrl":"https://foursquare.com/v/fernhurst-arms/4bbf304e006dc9b61a23fc3f","categoryId":"4bf58dd8d48988d11b941735","category":"Pub","checkinsCount":276,"usersCount":124,"tipCount":6,"visitsCount":290,"tier":"","message":"","currency":"","rating":5.1}]