[{"name":"Revolution","phone":"+441253807172","twitter":"revolutionbars","address":"35 Market St","lat":53.817767700533956,"lng":-3.0551043304317824,"city_fetched":"Blackpool","state":"Blackpool","country":"United Kingdom","canonicalUrl":"https://foursquare.com/v/revolution/4e3190a5d22da3698136f6ce","category":"Cocktail Bar","checkinsCount":575,"usersCount":350,"tipCount":13,"visitsCount":594,"url":"http://www.revolution-bars.co.uk","tier":"","message":"","currency":"","rating":8.5},{"name":"The Washington","phone":"+441253620885","address":"Topping St.","lat":53.81973865080531,"lng":-3.050319812716733,"city_fetched":"Blackpool","state":"Blackpool","country":"United Kingdom","canonicalUrl":"https://foursquare.com/v/the-washington/4b5089e8f964a520802627e3","category":"Pub","checkinsCount":190,"usersCount":98,"tipCount":3,"visitsCount":204,"tier":"","message":"","currency":"","rating":8.4},{"name":"The Velvet Coaster (Wetherspoon)","lat":53.79488949231577,"lng":-3.0560818305809336,"city_fetched":"Blackpool","country":"United Kingdom","canonicalUrl":"https://foursquare.com/v/the-velvet-coaster-wetherspoon/554c880f498e1a6ae302635b","category":"Pub","checkinsCount":219,"usersCount":215,"tipCount":7,"visitsCount":323,"tier":"","message":"","currency":"","rating":8.3},{"name":"Gillespies","phone":"+441253627882","address":"87-89 Topping St.","lat":53.81860599951277,"lng":-3.049795489088228,"city_fetched":"Blackpool","state":"Blackpool","country":"United Kingdom","canonicalUrl":"https://foursquare.com/v/gillespies/4c24ce7a136d20a19466e261","category":"Pub","checkinsCount":316,"usersCount":104,"tipCount":4,"visitsCount":334,"tier":"","message":"","currency":"","rating":8.2},{"name":"The Poulton Elk (Wetherspoon)","phone":"+441253895265","twitter":"jdwtweet","address":"22 Hardhorn Rd","lat":53.845463318589914,"lng":-2.992299199104309,"city_fetched":"Blackpool","state":"Lancashire","country":"United Kingdom","canonicalUrl":"https://foursquare.com/v/the-poulton-elk-wetherspoon/52aede1011d2aa9d4a05e93f","category":"Pub","checkinsCount":218,"usersCount":98,"tipCount":2,"visitsCount":315,"tier":"","message":"","currency":"","rating":7.9},{"name":"The Rose & Crown","phone":"+441253299821","address":"22 Corporation St.","lat":53.818104,"lng":-3.054062,"city_fetched":"Blackpool","state":"Blackpool","country":"United Kingdom","canonicalUrl":"https://foursquare.com/v/the-rose--crown/4c2f4a15a0ced13a7136106e","category":"Pub","checkinsCount":262,"usersCount":124,"tipCount":2,"visitsCount":262,"url":"http://www.roseandcrownblackpool.co.uk","tier":"","message":"","currency":"","rating":7.9},{"name":"Old Town Hall","phone":"+441253892257","address":"5 Church St","lat":53.84702853157812,"lng":-2.992566733349271,"city_fetched":"Blackpool","state":"Lancashire","country":"United Kingdom","canonicalUrl":"https://foursquare.com/v/old-town-hall/4b33f5f1f964a520e22225e3","category":"Pub","checkinsCount":311,"usersCount":82,"tipCount":1,"visitsCount":324,"tier":"","message":"","currency":"","rating":7.6},{"name":"Scrooge's Wine Bar","phone":"+441253625559","address":"4 Milbourne Street","lat":53.818881,"lng":-3.04798,"city_fetched":"Blackpool","state":"Blackpool","country":"United Kingdom","canonicalUrl":"https://foursquare.com/v/scrooges-wine-bar/4b508688f964a520162627e3","category":"Wine Bar","checkinsCount":452,"usersCount":108,"tipCount":6,"visitsCount":482,"tier":"","message":"","currency":"","rating":7.6},{"name":"The Jolly Tars (Wetherspoon)","phone":"+441253856042","twitter":"jdwtweet","address":"154-158 Victoria Road West","lat":53.876439149458776,"lng":-3.0375246625792416,"city_fetched":"Blackpool","state":"Lancashire","country":"United Kingdom","canonicalUrl":"https://foursquare.com/v/the-jolly-tars-wetherspoon/4e08764db61c60b0454b3ad6","category":"Pub","checkinsCount":1513,"usersCount":247,"tipCount":17,"visitsCount":1737,"url":"http://www.jdwetherspoon.co.uk","tier":"","message":"","currency":"","rating":7.6},{"name":"Funny Girls","phone":"+441253649154","address":"5 Dickson Rd","lat":53.821386971461266,"lng":-3.0511662017271384,"city_fetched":"Blackpool","state":"Blackpool","country":"United Kingdom","canonicalUrl":"https://foursquare.com/v/funny-girls/4b4cc997f964a520d9be26e3","category":"Bar","checkinsCount":393,"usersCount":254,"tipCount":14,"visitsCount":398,"url":"http://www.itpleisure.com","tier":"","message":"","currency":"","rating":7.3},{"name":"Toast Cafe Bar & Grill","phone":"+441253749777","address":"28 Corporation St.","lat":53.817870743657906,"lng":-3.053842379025061,"city_fetched":"Blackpool","country":"United Kingdom","canonicalUrl":"https://foursquare.com/v/toast-cafe-bar--grill/4b892507f964a520251f32e3","category":"Café","checkinsCount":256,"usersCount":155,"tipCount":5,"visitsCount":256,"url":"http://toast-cafe-bar.co.uk","tier":"","message":"","currency":"","rating":7.3},{"name":"Kaos Bar","address":"Queen St.","lat":53.82102377959999,"lng":-3.051227331161499,"city_fetched":"Blackpool","state":"Blackpool","country":"United Kingdom","canonicalUrl":"https://foursquare.com/v/kaos-bar/4c294928fe6e2d7f11aa543c","category":"Bar","checkinsCount":370,"usersCount":138,"tipCount":2,"visitsCount":377,"tier":"","message":"","currency":"","rating":7.1},{"name":"The Litten Tree","phone":"+441253629930","address":"8-14 Queen St","lat":53.819975599615525,"lng":-3.054081320197602,"city_fetched":"Blackpool","state":"Blackpool","country":"United Kingdom","canonicalUrl":"https://foursquare.com/v/the-litten-tree/4b6c39eef964a520962a2ce3","category":"Pub","checkinsCount":560,"usersCount":205,"tipCount":1,"visitsCount":612,"url":"http://www.littentreeblackpool.co.uk","tier":"","message":"","currency":"","rating":7},{"name":"River Wyre","phone":"+441253893428","address":"Breck Rd","lat":53.857196879509665,"lng":-2.980649324264388,"city_fetched":"Blackpool","state":"Lancashire","country":"United Kingdom","canonicalUrl":"https://foursquare.com/v/river-wyre/4b5b05b9f964a5205ddf28e3","category":"Gastropub","checkinsCount":266,"usersCount":170,"tipCount":5,"visitsCount":337,"tier":"","message":"","currency":"","rating":7},{"name":"Swift Hound","phone":"+441253299108","address":"Borough Park","lat":53.80818207244831,"lng":-3.047788224837118,"city_fetched":"Blackpool","state":"Blackpool","country":"United Kingdom","canonicalUrl":"https://foursquare.com/v/swift-hound/4c77c860923ba143860b68e6","category":"Pub","checkinsCount":397,"usersCount":129,"tipCount":4,"visitsCount":404,"tier":"","message":"","currency":"","rating":6.8},{"name":"The Victory Pub & Kitchen","phone":"+448712224616","address":"De Vere, East Park Drive","lat":53.81243626694926,"lng":-3.0106957207461016,"city_fetched":"Blackpool","state":"Blackpool","country":"United Kingdom","canonicalUrl":"https://foursquare.com/v/the-victory-pub--kitchen/4d98b6ff744f3704d6f7f557","category":"Gastropub","checkinsCount":339,"usersCount":92,"tipCount":2,"visitsCount":377,"tier":"","message":"","currency":"","rating":6.8},{"name":"The Flying Handbag","phone":"+441253649155","address":"44 Queen Street","lat":53.82116654365569,"lng":-3.051064384376957,"city_fetched":"Blackpool","state":"Blackpool","country":"United Kingdom","canonicalUrl":"https://foursquare.com/v/the-flying-handbag/4b4ca34af964a52064b826e3","category":"Gay Bar","checkinsCount":751,"usersCount":295,"tipCount":11,"visitsCount":822,"url":"http://www.itpleisure.com","tier":"","message":"","currency":"","rating":6.7},{"name":"The Golden Ball","address":"1 Ball St.","lat":53.84747749401521,"lng":-2.992401044054928,"city_fetched":"Blackpool","state":"Lancashire","country":"United Kingdom","canonicalUrl":"https://foursquare.com/v/the-golden-ball/4ca7412476d3a093a849096b","category":"Pub","checkinsCount":169,"usersCount":76,"tipCount":3,"visitsCount":193,"tier":"","message":"","currency":"","rating":6.7},{"name":"Ma Kellys","address":"67 Talbot Rd","lat":53.82011176955965,"lng":-3.051323890686035,"city_fetched":"Blackpool","state":"Blackpool","country":"United Kingdom","canonicalUrl":"https://foursquare.com/v/ma-kellys/4e272bca52b1977e8b49c455","category":"Bar","checkinsCount":263,"usersCount":108,"tipCount":6,"visitsCount":269,"url":"http://www.makellys.com","tier":"","message":"","currency":"","rating":6.6},{"name":"The Trawl Boat Inn (Wetherspoon)","phone":"+441253783080","address":"36-38 Wood St.","lat":53.75088976368062,"lng":-3.029880939463859,"city_fetched":"Blackpool","state":"Lancashire","country":"United Kingdom","canonicalUrl":"https://foursquare.com/v/the-trawl-boat-inn-wetherspoon/4b929e44f964a5204e0a34e3","category":"Pub","checkinsCount":618,"usersCount":299,"tipCount":4,"visitsCount":736,"url":"http://www.jdwetherspoon.co.uk/home/pubs/the-trawl-boat-inn","tier":"","message":"","currency":"","rating":6.5},{"name":"The Castle Gardens","phone":"+441253890015","address":"Poulton Rd","lat":53.85362189178583,"lng":-3.0056234895102913,"city_fetched":"Blackpool","state":"Lancashire","country":"United Kingdom","canonicalUrl":"https://foursquare.com/v/the-castle-gardens/4b5dec36f964a520f47329e3","category":"Pub","checkinsCount":510,"usersCount":193,"tipCount":5,"visitsCount":696,"url":"http://www.emberinns.co.uk","tier":"","message":"","currency":"","rating":6.5},{"name":"The Bay Horse","lat":53.87069269095456,"lng":-2.9993144962877616,"city_fetched":"Blackpool","state":"Blackpool","country":"United Kingdom","canonicalUrl":"https://foursquare.com/v/the-bay-horse/4bc99840cc8cd13a56d7bbcf","category":"Pub","checkinsCount":186,"usersCount":66,"tipCount":1,"visitsCount":241,"tier":"","message":"","currency":"","rating":6.4},{"name":"The Blue Room","phone":"+441253316393","twitter":"blueroombpl","address":"139-141 Church St","lat":53.817905,"lng":-3.048352,"city_fetched":"Blackpool","state":"Blackpool","country":"United Kingdom","canonicalUrl":"https://foursquare.com/v/the-blue-room/4c2b737a2219c928b197a448","category":"Pub","checkinsCount":679,"usersCount":158,"tipCount":8,"visitsCount":701,"url":"http://www.theblueroomlive.com","tier":"","message":"","currency":"","rating":6.4},{"name":"The Tache","twitter":"the_tache","address":"Corporation St.","lat":53.818066008173695,"lng":-3.053995370864868,"city_fetched":"Blackpool","state":"Blackpool","country":"United Kingdom","canonicalUrl":"https://foursquare.com/v/the-tache/4ed0370e490168f8cfa06f9e","category":"Nightclub","checkinsCount":160,"usersCount":52,"tipCount":3,"visitsCount":160,"url":"http://www.thetache.co.uk","tier":"","message":"","currency":"","rating":6.3},{"name":"Mardi Gras","address":"114 Talbot Road","lat":53.8202864589738,"lng":-3.0508011495807623,"city_fetched":"Blackpool","state":"Blackpool","country":"United Kingdom","canonicalUrl":"https://foursquare.com/v/mardi-gras/4ba652c4f964a520524639e3","category":"Gay Bar","checkinsCount":203,"usersCount":87,"tipCount":3,"visitsCount":204,"tier":"","message":"","currency":"","rating":6.3},{"name":"The Highfield","phone":"+441253600101","twitter":"sizzlingpubs","address":"Highfield Rd","lat":53.788888794526265,"lng":-3.025531768798828,"city_fetched":"Blackpool","state":"Blackpool","country":"United Kingdom","canonicalUrl":"https://foursquare.com/v/the-highfield/4e1728eeae60de5d28f93857","category":"Pub","checkinsCount":235,"usersCount":93,"tipCount":4,"visitsCount":332,"url":"http://www.sizzlingpubs.co.uk/findapub/northwest/thehighfieldblackpool","tier":"","message":"","currency":"","rating":6.3},{"name":"The Iron Horse","address":"Thornton","lat":53.889684574142294,"lng":-3.0152423856308355,"city_fetched":"Blackpool","country":"United Kingdom","canonicalUrl":"https://foursquare.com/v/the-iron-horse/53789411498e7fd00e30d1a2","category":"Gastropub","checkinsCount":74,"usersCount":83,"tipCount":2,"visitsCount":182,"tier":2,"message":"Moderate","currency":"£","rating":6.3},{"name":"The Tramway","address":"167-169 Victoria Road West","lat":53.87620301279179,"lng":-3.0341661031082543,"city_fetched":"Blackpool","state":"Lancashire","country":"United Kingdom","canonicalUrl":"https://foursquare.com/v/the-tramway/4bdb347ac79cc928eca081e9","category":"Gastropub","checkinsCount":128,"usersCount":75,"tipCount":3,"visitsCount":153,"tier":"","message":"","currency":"","rating":6.2},{"name":"The Auctioneer (Wetherspoon)","phone":"+441253346412","address":"235-237 Lytham Rd.","lat":53.79996085044401,"lng":-3.050958943377093,"city_fetched":"Blackpool","state":"Blackpool","country":"United Kingdom","canonicalUrl":"https://foursquare.com/v/the-auctioneer-wetherspoon/4c87aa66821e9eb065cc8d89","category":"Pub","checkinsCount":614,"usersCount":176,"tipCount":5,"visitsCount":649,"url":"http://www.jdwetherspoon.co.uk","tier":"","message":"","currency":"","rating":6.2},{"name":"Walkabout","phone":"+441253749132","twitter":"walkiemartyn","address":"1-9 Queen St","lat":53.81983895958491,"lng":-3.0546494575465983,"city_fetched":"Blackpool","country":"United Kingdom","canonicalUrl":"https://foursquare.com/v/walkabout/4c4b631f9c8d2d7f0b75e26a","category":"Australian Restaurant","checkinsCount":609,"usersCount":408,"tipCount":11,"visitsCount":716,"url":"http://walkaboutbars.com","tier":"","message":"","currency":"","rating":6.2},{"name":"Soul Suite","address":"144 Promenade","lat":53.819933939513014,"lng":-3.055396039924747,"city_fetched":"Blackpool","country":"United Kingdom","canonicalUrl":"https://foursquare.com/v/soul-suite/4c785b21566db60cc87c410e","category":"Bar","checkinsCount":84,"usersCount":62,"tipCount":4,"visitsCount":85,"tier":"","message":"","currency":"","rating":6.1},{"name":"The Manchester","phone":"+441253408692","twitter":"manchesterpub1","address":"231-233 Promenade","lat":53.806840299053086,"lng":-3.0550130857733104,"city_fetched":"Blackpool","state":"Blackpool","country":"United Kingdom","canonicalUrl":"https://foursquare.com/v/the-manchester/4bdc0f872a3a0f479764b1b6","category":"Pub","checkinsCount":221,"usersCount":214,"tipCount":2,"visitsCount":259,"url":"http://www.manchester-blackpool.co.uk","tier":"","message":"","currency":"","rating":6.1},{"name":"The Outside Inn","phone":"+441253798477","address":"Whitehills Business Park, Hallam Way","lat":53.78941969180337,"lng":-2.984422474119873,"city_fetched":"Blackpool","state":"Blackpool","country":"United Kingdom","canonicalUrl":"https://foursquare.com/v/the-outside-inn/503f52e3e4b001324f19310d","category":"Pub","checkinsCount":54,"usersCount":45,"tipCount":2,"visitsCount":57,"url":"http://www.fayre-square.com/pub/outside-inn--blackpool-whitehills-business-park/s6038/","tier":"","message":"","currency":"","rating":6.1},{"name":"The Layton Rakes (Wetherspoon)","phone":"+441253743710","twitter":"jdwtweet","address":"17-25 Market St","lat":53.818078409118215,"lng":-3.0548666786951455,"city_fetched":"Blackpool","state":"Blackpool","country":"United Kingdom","canonicalUrl":"https://foursquare.com/v/the-layton-rakes-wetherspoon/4ecbad0329c26a6284510d60","category":"Pub","checkinsCount":968,"usersCount":430,"tipCount":8,"visitsCount":1140,"url":"http://www.jdwetherspoon.co.uk","tier":2,"message":"Moderate","currency":"£","rating":6.1},{"name":"The Counting House","address":"10 Talbot Sq.","lat":53.819084515166644,"lng":-3.0553948095644063,"city_fetched":"Blackpool","state":"Blackpool","country":"United Kingdom","canonicalUrl":"https://foursquare.com/v/the-counting-house/4be592dbbcef2d7fa0f303e5","category":"Bar","checkinsCount":201,"usersCount":149,"tipCount":1,"visitsCount":201,"tier":"","message":"","currency":"","rating":6},{"name":"The Squirrel","phone":"+441253352198","address":"Bispham Road","lat":53.84367717072753,"lng":-3.0337983540387974,"city_fetched":"Blackpool","state":"Blackpool","country":"United Kingdom","canonicalUrl":"https://foursquare.com/v/the-squirrel/4c4d945b9932e21e4c396ccc","category":"Gastropub","checkinsCount":187,"usersCount":107,"tipCount":6,"visitsCount":240,"url":"http://www.crowncarveries.co.uk","tier":"","message":"","currency":"","rating":6},{"name":"Marsh Mill Tavern","phone":"+441253862586","twitter":"atthetavernn","address":"Marsh Mill","lat":53.874385403010976,"lng":-3.0125334520841016,"city_fetched":"Blackpool","state":"Sefton","country":"United Kingdom","canonicalUrl":"https://foursquare.com/v/marsh-mill-tavern/4c38c45893db0f470a332292","category":"Pub","checkinsCount":224,"usersCount":100,"tipCount":7,"visitsCount":250,"tier":"","message":"","currency":"","rating":6},{"name":"Yeadon Way","phone":"+441253298011","address":"Yeadon Way","lat":53.795498781340505,"lng":-3.0468635348640216,"city_fetched":"Blackpool","state":"Blackpool","country":"United Kingdom","canonicalUrl":"https://foursquare.com/v/yeadon-way/4b9a6facf964a52019b535e3","category":"Pub","checkinsCount":139,"usersCount":99,"tipCount":1,"visitsCount":144,"tier":"","message":"","currency":"","rating":5.9},{"name":"Buccaneer Family Pub","phone":"+441253293133","address":"Coral Island","lat":53.814239709560155,"lng":-3.0548740177411644,"city_fetched":"Blackpool","state":"Blackpool","country":"United Kingdom","canonicalUrl":"https://foursquare.com/v/buccaneer-family-pub/4bfa64508d30d13a27790318","category":"Gastropub","checkinsCount":139,"usersCount":89,"tipCount":6,"visitsCount":139,"tier":"","message":"","currency":"","rating":5.9},{"name":"The Albert and The Lion (Wetherspoon)","phone":"+441253622710","address":"Bank Hey St","lat":53.81526638337909,"lng":-3.0557548999786377,"city_fetched":"Blackpool","state":"Blackpool","country":"United Kingdom","canonicalUrl":"https://foursquare.com/v/the-albert-and-the-lion-wetherspoon/4c320248213c2d7f79b5345d","category":"Pub","checkinsCount":1090,"usersCount":610,"tipCount":7,"visitsCount":1188,"url":"http://www.jdwetherspoon.co.uk","tier":"","message":"","currency":"","rating":5.9},{"name":"The Red Lion (Beefeater)","phone":"+441253354942","twitter":"beefeater","address":"Devonshire Rd","lat":53.85487190264812,"lng":-3.0398182937016873,"city_fetched":"Blackpool","state":"Blackpool","country":"United Kingdom","canonicalUrl":"https://foursquare.com/v/the-red-lion-beefeater/4d10ffac5584f04d17405b16","category":"Pub","checkinsCount":254,"usersCount":112,"tipCount":1,"visitsCount":265,"url":"http://www.beefeater.co.uk/steak-restaurant/Lancashire/Red-Lion-Churchtown.html","tier":"","message":"","currency":"","rating":5.8},{"name":"The Air Balloon","phone":"+441253362400","address":"Squires Gate Lane","lat":53.778424,"lng":-3.044401,"city_fetched":"Blackpool","state":"Blackpool","country":"United Kingdom","canonicalUrl":"https://foursquare.com/v/the-air-balloon/4be59267bcef2d7fdbf203e5","category":"Bar","checkinsCount":183,"usersCount":123,"tipCount":6,"visitsCount":197,"tier":"","message":"","currency":"","rating":5.7},{"name":"The Shovels","phone":"+441253762702","address":"260 Common Edge Rd","lat":53.779234886169434,"lng":-3.017653,"city_fetched":"Blackpool","state":"Blackpool","country":"United Kingdom","canonicalUrl":"https://foursquare.com/v/the-shovels/4bd1e524caff95214e95d1f0","category":"Pub","checkinsCount":181,"usersCount":98,"tipCount":6,"visitsCount":196,"tier":"","message":"","currency":"","rating":5.7},{"name":"The Belle Vue","phone":"+441253394702","twitter":"bellevuebands","address":"Whitegate Dr","lat":53.81590658327674,"lng":-3.036499282193953,"city_fetched":"Blackpool","state":"Blackpool","country":"United Kingdom","canonicalUrl":"https://foursquare.com/v/the-belle-vue/4c1fd4cb920076b06e5bc5e9","category":"Pub","checkinsCount":311,"usersCount":116,"tipCount":3,"visitsCount":333,"tier":"","message":"","currency":"","rating":5.6},{"name":"Thornton Lodge","address":"lambs road","lat":53.85855796872278,"lng":-2.983012726337981,"city_fetched":"Blackpool","state":"Blackpool","country":"United Kingdom","canonicalUrl":"https://foursquare.com/v/thornton-lodge/4bc7609f92b376b083994f3a","category":"Pub","checkinsCount":200,"usersCount":106,"tipCount":2,"visitsCount":245,"tier":"","message":"","currency":"","rating":5.6},{"name":"Yates","phone":"+441253299930","address":"13/15 Market St","lat":53.81833425248851,"lng":-3.055369374247618,"city_fetched":"Blackpool","state":"Blackpool","country":"United Kingdom","canonicalUrl":"https://foursquare.com/v/yates/4c4b509e712ac928617bba6c","category":"Bar","checkinsCount":329,"usersCount":229,"tipCount":3,"visitsCount":331,"url":"http://www.weareyates.co.uk","tier":"","message":"","currency":"","rating":5.5},{"name":"Flares","phone":"+441253299688","address":"120-122 Promenade","lat":53.81926307571974,"lng":-3.05495023727417,"city_fetched":"Blackpool","state":"Blackpool","country":"United Kingdom","canonicalUrl":"https://foursquare.com/v/flares/4c4912fb9f2ad13a1531cc52","category":"Nightclub","checkinsCount":170,"usersCount":100,"tipCount":2,"visitsCount":170,"url":"http://www.flaresbars.co.uk","tier":"","message":"","currency":"","rating":5.5}]