[{"name":"The Hatter's Inn  (Wetherspoon)","phone":"+441243840206","address":"2-10 Queensway","lat":50.78322556889748,"lng":-0.6755187542108341,"city_fetched":"Bognor Regis","state":"West Sussex","country":"United Kingdom","canonicalUrl":"https://foursquare.com/v/the-hatters-inn--wetherspoon/4c87aa68821e9eb067cc8d89","category":"Pub","checkinsCount":538,"usersCount":168,"tipCount":2,"visitsCount":559,"url":"http://www.jdwetherspoon.co.uk","tier":"","message":"","currency":"","rating":7},{"name":"Inglenook Hotel","address":"255 Pagham Road","lat":50.78095486481166,"lng":-0.7360725088815281,"city_fetched":"Bognor Regis","state":"West Sussex","country":"United Kingdom","canonicalUrl":"https://foursquare.com/v/inglenook-hotel/4be195c28dd062b572633e3c","category":"Pub","checkinsCount":95,"usersCount":55,"tipCount":4,"visitsCount":103,"tier":"","message":"","currency":"","rating":6.9},{"name":"The Fox","lat":50.78924099138021,"lng":-0.652752,"city_fetched":"Bognor Regis","state":"West Sussex","country":"United Kingdom","canonicalUrl":"https://foursquare.com/v/the-fox/4bd303939854d13adea7fc4d","category":"Pub","checkinsCount":169,"usersCount":88,"tipCount":2,"visitsCount":204,"tier":"","message":"","currency":"","rating":6.6},{"name":"Brewers Fayre","phone":"+441243841763","address":"The Esplanade","lat":50.78249257549628,"lng":-0.671557627242705,"city_fetched":"Bognor Regis","state":"West Sussex","country":"United Kingdom","canonicalUrl":"https://foursquare.com/v/brewers-fayre/4c38a02fae2da5930ff600c6","category":"Pub","checkinsCount":295,"usersCount":113,"tipCount":2,"visitsCount":295,"tier":"","message":"","currency":"","rating":6.4},{"name":"The Lamb","address":"144 Pagham Rd","lat":50.77803736375773,"lng":-0.7370124753101656,"city_fetched":"Bognor Regis","state":"West Sussex","country":"United Kingdom","canonicalUrl":"https://foursquare.com/v/the-lamb/4c000e43c30a2d7fd2ed111d","category":"Pub","checkinsCount":136,"usersCount":83,"tipCount":2,"visitsCount":201,"tier":"","message":"","currency":"","rating":6.4},{"name":"The Beachcomber Inn","address":"at Butlins","lat":50.78579777439016,"lng":-0.6619711768736167,"city_fetched":"Bognor Regis","state":"West Sussex","country":"United Kingdom","canonicalUrl":"https://foursquare.com/v/the-beachcomber-inn/4f63825fe4b08383b0b4f63a","category":"Bar","checkinsCount":222,"usersCount":158,"tipCount":3,"visitsCount":223,"tier":"","message":"","currency":"","rating":5.8},{"name":"The Southdowns","phone":"+441243855834","address":"133 Felpham Way","lat":50.794174904648585,"lng":-0.6384829280697442,"city_fetched":"Bognor Regis","state":"West Sussex","country":"United Kingdom","canonicalUrl":"https://foursquare.com/v/the-southdowns/4bb5e361ef159c74262175f7","category":"Gastropub","checkinsCount":366,"usersCount":75,"tipCount":6,"visitsCount":379,"url":"http://www.sizzlingpubs.co.uk/thesouthdownsbognorregis/","tier":"","message":"","currency":"","rating":5.7},{"name":"Bar Rosso","phone":"+448450704757","twitter":"butlins","address":"Butlin's","lat":50.784928,"lng":-0.662904,"city_fetched":"Bognor Regis","state":"West Sussex","country":"United Kingdom","canonicalUrl":"https://foursquare.com/v/bar-rosso/4c377ba01e06d13a7006763e","category":"Bar","checkinsCount":256,"usersCount":139,"tipCount":8,"visitsCount":256,"url":"http://www.butlins.com","tier":"","message":"","currency":"","rating":4.7}]