[{"name":"Teuchters Landing","phone":"+441315547427","address":"1C Dock Pl","lat":55.97746020085387,"lng":-3.1714224815368652,"neighborhood":"Leith","city_fetched":"Bonnyrigg,UK","state":"Edinburgh","country":"United Kingdom","canonicalUrl":"https://foursquare.com/v/teuchters-landing/4b2b7e7ef964a520d4b624e3","categoryId":"4bf58dd8d48988d11b941735","category":"Pub","checkinsCount":1629,"usersCount":609,"tipCount":22,"visitsCount":1874,"tier":"","message":"","currency":"","rating":9.3},{"name":"The Holyrood 9A","phone":"+441315565044","twitter":"holyrood9a","address":"9A Holyrood Rd","lat":55.949347003722714,"lng":-3.182644844055176,"neighborhood":"Canongate","city_fetched":"Bonnyrigg,UK","state":"Edinburgh","country":"United Kingdom","canonicalUrl":"https://foursquare.com/v/the-holyrood-9a/4ba8f760f964a520a1fe39e3","categoryId":"4bf58dd8d48988d11b941735","category":"Pub","checkinsCount":3585,"usersCount":2752,"tipCount":122,"visitsCount":4439,"url":"http://www.theholyrood.co.uk","tier":2,"message":"Moderate","currency":"£","rating":9.2},{"name":"Whiski Rooms","phone":"+441312257224","twitter":"whiskirooms","address":"4-7 North Bank St.","lat":55.94984861420049,"lng":-3.1934165954589844,"neighborhood":"The Mound","city_fetched":"Bonnyrigg,UK","state":"Edinburgh","country":"United Kingdom","canonicalUrl":"https://foursquare.com/v/whiski-rooms/4e13688952b1655efa577d1f","categoryId":"4bf58dd8d48988d122941735","category":"Whisky Bar","checkinsCount":1269,"usersCount":1315,"tipCount":46,"visitsCount":1520,"url":"http://www.whiskirooms.co.uk","tier":"","message":"","currency":"","rating":9.2},{"name":"OX184","twitter":"ox184","address":"184-186 Cowgate","lat":55.9486366303348,"lng":-3.1882810288358967,"neighborhood":"Cowgate","city_fetched":"Bonnyrigg,UK","state":"Edinburgh","country":"United Kingdom","canonicalUrl":"https://foursquare.com/v/ox184/55106f57498edeebbbb26d1b","categoryId":"4bf58dd8d48988d116941735","category":"Bar","checkinsCount":409,"usersCount":474,"tipCount":9,"visitsCount":627,"url":"http://www.ox184.co.uk","tier":"","message":"","currency":"","rating":9.1},{"name":"BrewDog Edinburgh","phone":"+441346519009","twitter":"brewdog","address":"143 Cowgate","lat":55.94839032141322,"lng":-3.1897446513175964,"neighborhood":"Cowgate","city_fetched":"Bonnyrigg,UK","state":"Edinburgh","country":"United Kingdom","canonicalUrl":"https://foursquare.com/v/brewdog-edinburgh/4d7fbc20b25d6dcb2893d342","categoryId":"56aa371ce4b08b9a8d57356c","category":"Beer Bar","checkinsCount":4540,"usersCount":3628,"tipCount":86,"visitsCount":5579,"url":"http://www.brewdog.com","tier":2,"message":"Moderate","currency":"£","rating":9.1},{"name":"The Bow Bar","phone":"+441312267667","twitter":"bow_bar","address":"80 West Bow","lat":55.948524,"lng":-3.19419146,"neighborhood":"Cowgate","city_fetched":"Bonnyrigg,UK","state":"Midlothian","country":"United Kingdom","canonicalUrl":"https://foursquare.com/v/the-bow-bar/4b05881df964a5208eb222e3","categoryId":"4bf58dd8d48988d11b941735","category":"Pub","checkinsCount":1660,"usersCount":1189,"tipCount":54,"visitsCount":1690,"tier":1,"message":"Cheap","currency":"£","rating":9.1},{"name":"The Bon Vivant","phone":"+441312253275","twitter":"the_bon_vivant","address":"55 Thistle St","lat":55.953894,"lng":-3.199692,"neighborhood":"New Town","city_fetched":"Bonnyrigg,UK","state":"Edinburgh","country":"United Kingdom","canonicalUrl":"https://foursquare.com/v/the-bon-vivant/4bae5d02f964a52023a83be3","categoryId":"4bf58dd8d48988d11e941735","category":"Cocktail Bar","checkinsCount":851,"usersCount":584,"tipCount":21,"visitsCount":927,"url":"http://bonvivantedinburgh.co.uk","tier":"","message":"","currency":"","rating":9},{"name":"The Devil's Advocate","phone":"+441312254465","twitter":"thedaoldtown","address":"9 Advocates Close","lat":55.950334,"lng":-3.19167,"neighborhood":"Waverley Station","city_fetched":"Bonnyrigg,UK","state":"Edinburgh","country":"United Kingdom","canonicalUrl":"https://foursquare.com/v/the-devils-advocate/527ab0e011d25d7b56936543","categoryId":"4bf58dd8d48988d11e941735","category":"Cocktail Bar","checkinsCount":884,"usersCount":990,"tipCount":27,"visitsCount":1227,"url":"http://devilsadvocateedinburgh.co.uk","tier":2,"message":"Moderate","currency":"£","rating":9},{"name":"Scotch Malt Whisky Society","phone":"+441312202044","twitter":"smwsqueenstreet","address":"28 Queen St","lat":55.95451097556808,"lng":-3.19961479719111,"neighborhood":"New Town","city_fetched":"Bonnyrigg,UK","state":"Edinburgh","country":"United Kingdom","canonicalUrl":"https://foursquare.com/v/scotch-malt-whisky-society/4b6416b7f964a520789e2ae3","categoryId":"4bf58dd8d48988d122941735","category":"Whisky Bar","checkinsCount":1576,"usersCount":735,"tipCount":28,"visitsCount":1753,"url":"https://www.smws.com/queen-st","tier":3,"message":"Expensive","currency":"£","rating":8.9},{"name":"The Queens Arms","phone":"+441312251045","twitter":"queensarmsedinb","address":"49 Frederick St","lat":55.953549,"lng":-3.200679,"neighborhood":"New Town","city_fetched":"Bonnyrigg,UK","state":"Edinburgh","country":"United Kingdom","canonicalUrl":"https://foursquare.com/v/the-queens-arms/4b9141eef964a520c3ad33e3","categoryId":"4bf58dd8d48988d116941735","category":"Bar","checkinsCount":1642,"usersCount":982,"tipCount":23,"visitsCount":1833,"url":"http://www.queensarmsedinburgh.com","tier":"","message":"","currency":"","rating":8.9},{"name":"The Hanging Bat","phone":"+441312290759","twitter":"thehangingbat","address":"133 Lothian Rd","lat":55.94533088197111,"lng":-3.2054758071899414,"neighborhood":"Tollcross","city_fetched":"Bonnyrigg,UK","state":"Edinburgh","country":"United Kingdom","canonicalUrl":"https://foursquare.com/v/the-hanging-bat/50a5fe48f31cc1c07ae9f798","categoryId":"50327c8591d4c4b30a586d5d","category":"Brewery","checkinsCount":2516,"usersCount":1620,"tipCount":47,"visitsCount":3405,"url":"http://www.thehangingbat.com","tier":2,"message":"Moderate","currency":"£","rating":8.9},{"name":"The Dome","phone":"+441316248624","twitter":"domeedinburgh","address":"14 George St","lat":55.953270283539815,"lng":-3.195405453898266,"neighborhood":"New Town","city_fetched":"Bonnyrigg,UK","state":"Edinburgh","country":"United Kingdom","canonicalUrl":"https://foursquare.com/v/the-dome/4b05881ff964a5200cb322e3","categoryId":"4bf58dd8d48988d116941735","category":"Bar","checkinsCount":2499,"usersCount":2148,"tipCount":55,"visitsCount":2822,"url":"http://www.thedomeedinburgh.com","tier":"","message":"","currency":"","rating":8.9},{"name":"Bramble Bar","phone":"+441312266343","address":"16A Queen St","lat":55.95490141801036,"lng":-3.197680000543702,"neighborhood":"New Town","city_fetched":"Bonnyrigg,UK","state":"Edinburgh","country":"United Kingdom","canonicalUrl":"https://foursquare.com/v/bramble-bar/4b05881ff964a5200bb322e3","categoryId":"4bf58dd8d48988d11e941735","category":"Cocktail Bar","checkinsCount":906,"usersCount":647,"tipCount":48,"visitsCount":927,"url":"http://www.bramblebar.co.uk","tier":"","message":"","currency":"","rating":8.9},{"name":"The Guildford Arms","phone":"+441315564312","twitter":"guildfordarms","address":"1-5 W Register St","lat":55.953646,"lng":-3.190062024470892,"neighborhood":"New Town","city_fetched":"Bonnyrigg,UK","state":"Edinburgh","country":"United Kingdom","canonicalUrl":"https://foursquare.com/v/the-guildford-arms/4b05881ef964a520ceb222e3","categoryId":"4bf58dd8d48988d11b941735","category":"Pub","checkinsCount":2040,"usersCount":1152,"tipCount":22,"visitsCount":2200,"url":"http://www.guildfordarms.com","tier":"","message":"","currency":"","rating":8.8},{"name":"Scotch Malt Whisky Society","phone":"+441315543451","address":"The Vaults","lat":55.97367,"lng":-3.172722,"neighborhood":"Leith","city_fetched":"Bonnyrigg,UK","state":"Edinburgh","country":"United Kingdom","canonicalUrl":"https://foursquare.com/v/scotch-malt-whisky-society/4c24ec2edb519521df152c3a","categoryId":"4bf58dd8d48988d122941735","category":"Whisky Bar","checkinsCount":744,"usersCount":344,"tipCount":13,"visitsCount":796,"url":"https://www.smws.com/the-vaults","tier":"","message":"","currency":"","rating":8.8},{"name":"Regent Bar","phone":"+441316618198","address":"2 Montrose Terrace","lat":55.95619391366135,"lng":-3.172426728678572,"neighborhood":"Abbeyhill","city_fetched":"Bonnyrigg,UK","state":"Edinburgh","country":"United Kingdom","canonicalUrl":"https://foursquare.com/v/regent-bar/4b182762f964a520e5cd23e3","categoryId":"4bf58dd8d48988d1d8941735","category":"Gay Bar","checkinsCount":900,"usersCount":690,"tipCount":34,"visitsCount":1405,"url":"http://www.theregentbar.co.uk","tier":"","message":"","currency":"","rating":8.8},{"name":"The Voodoo Rooms","phone":"+441315567060","twitter":"voodoorooms","address":"19A W Register St","lat":55.95365703746252,"lng":-3.1904983520507812,"neighborhood":"New Town","city_fetched":"Bonnyrigg,UK","state":"Edinburgh","country":"United Kingdom","canonicalUrl":"https://foursquare.com/v/the-voodoo-rooms/4b05881ff964a52008b322e3","categoryId":"4bf58dd8d48988d116941735","category":"Bar","checkinsCount":1870,"usersCount":1212,"tipCount":17,"visitsCount":1891,"url":"http://thevoodoorooms.com","tier":2,"message":"Moderate","currency":"£","rating":8.7},{"name":"Whiski Bar & Restaurant","phone":"+441315563095","twitter":"whiskibar","address":"119 High St.","lat":55.950256,"lng":-3.18660143,"neighborhood":"Cowgate","city_fetched":"Bonnyrigg,UK","state":"Midlothian","country":"United Kingdom","canonicalUrl":"https://foursquare.com/v/whiski-bar--restaurant/4b3562c2f964a520ba2c25e3","categoryId":"4bf58dd8d48988d11b941735","category":"Pub","checkinsCount":1684,"usersCount":1512,"tipCount":52,"visitsCount":1784,"url":"http://www.whiskibar.co.uk","tier":3,"message":"Expensive","currency":"£","rating":8.7},{"name":"Red Squirrel","phone":"+441312299933","twitter":"redsquirrelbar","address":"21 Lothian Rd","lat":55.94828847486103,"lng":-3.2065680145667543,"neighborhood":"Edinburgh Castle","city_fetched":"Bonnyrigg,UK","state":"Edinburgh","country":"United Kingdom","canonicalUrl":"https://foursquare.com/v/red-squirrel/4dc52b0dd4c0ad9c0f802e64","categoryId":"4bf58dd8d48988d11b941735","category":"Pub","checkinsCount":2334,"usersCount":1463,"tipCount":60,"visitsCount":2841,"url":"http://www.redsquirreledinburgh.co.uk","tier":2,"message":"Moderate","currency":"£","rating":8.6},{"name":"The King's Wark","phone":"+441315549260","twitter":"kingswark","address":"36 Shore","lat":55.976055476247076,"lng":-3.1696414947509766,"neighborhood":"The Shore","city_fetched":"Bonnyrigg,UK","state":"Edinburgh","country":"United Kingdom","canonicalUrl":"https://foursquare.com/v/the-kings-wark/4baccf1df964a520070e3be3","categoryId":"4bf58dd8d48988d116941735","category":"Bar","checkinsCount":847,"usersCount":436,"tipCount":19,"visitsCount":849,"url":"http://www.thekingswark.co.uk","tier":"","message":"","currency":"","rating":8.6},{"name":"The Cumberland Bar","phone":"+441315583134","twitter":"cumberland7","address":"1-3 Cumberland St","lat":55.95899060302951,"lng":-3.1971287727355957,"neighborhood":"New Town","city_fetched":"Bonnyrigg,UK","state":"Edinburgh","country":"United Kingdom","canonicalUrl":"https://foursquare.com/v/the-cumberland-bar/4b06c3d4f964a520d8ef22e3","categoryId":"4bf58dd8d48988d116941735","category":"Bar","checkinsCount":1143,"usersCount":588,"tipCount":16,"visitsCount":1438,"url":"http://cumberlandbar.co.uk","tier":"","message":"","currency":"","rating":8.6},{"name":"The Black Cat","phone":"+441312253349","twitter":"theblackcatbar","address":"168 Rose St","lat":55.951790715730056,"lng":-3.2035821673401257,"neighborhood":"New Town","city_fetched":"Bonnyrigg,UK","country":"United Kingdom","canonicalUrl":"https://foursquare.com/v/the-black-cat/4d87393581fdb1f716e333c0","categoryId":"4bf58dd8d48988d116941735","category":"Bar","checkinsCount":1041,"usersCount":774,"tipCount":23,"visitsCount":1088,"url":"http://www.theblackcatbar.com","tier":"","message":"","currency":"","rating":8.6},{"name":"The Abbotsford Bar","phone":"+441312255276","address":"3-5 Rose St","lat":55.953211038805904,"lng":-3.1944921612739563,"neighborhood":"New Town","city_fetched":"Bonnyrigg,UK","state":"Edinburgh","country":"United Kingdom","canonicalUrl":"https://foursquare.com/v/the-abbotsford-bar/4b05881ef964a520bab222e3","categoryId":"4bf58dd8d48988d116941735","category":"Bar","checkinsCount":798,"usersCount":702,"tipCount":7,"visitsCount":862,"url":"http://www.theabbotsford.com","tier":"","message":"","currency":"","rating":8.5},{"name":"Panda and Sons","phone":"+441312200443","address":"79 Queen St","lat":55.95326948906598,"lng":-3.2068425345654283,"neighborhood":"New Town","city_fetched":"Bonnyrigg,UK","state":"Edinburgh","country":"United Kingdom","canonicalUrl":"https://foursquare.com/v/panda-and-sons/52a0f62311d266f459ec1626","categoryId":"4bf58dd8d48988d1d4941735","category":"Speakeasy","checkinsCount":460,"usersCount":520,"tipCount":23,"visitsCount":638,"url":"http://www.pandaandsons.com","tier":"","message":"","currency":"","rating":8.5},{"name":"The Cambridge Bar","phone":"+441312262120","twitter":"cambridgebar20","address":"20 Young St","lat":55.952824511108666,"lng":-3.2059426353059473,"neighborhood":"New Town","city_fetched":"Bonnyrigg,UK","state":"Edinburgh","country":"United Kingdom","canonicalUrl":"https://foursquare.com/v/the-cambridge-bar/4b05881ef964a520c2b222e3","categoryId":"4bf58dd8d48988d116941735","category":"Bar","checkinsCount":1034,"usersCount":667,"tipCount":36,"visitsCount":1228,"url":"http://www.thecambridgebar.co.uk","tier":"","message":"","currency":"","rating":8.4},{"name":"Sofi's Bar","phone":"+441315557019","twitter":"boda_bar_tweets","address":"63-65 Henderson St","lat":55.9744225698548,"lng":-3.1721949577331543,"neighborhood":"Leith","city_fetched":"Bonnyrigg,UK","state":"Edinburgh","country":"United Kingdom","canonicalUrl":"https://foursquare.com/v/sofis-bar/4b7f0adef964a520541230e3","categoryId":"4bf58dd8d48988d116941735","category":"Bar","checkinsCount":545,"usersCount":255,"tipCount":8,"visitsCount":605,"url":"http://www.bodabar.com/sofis/","tier":"","message":"","currency":"","rating":8.4},{"name":"The Brauhaus","phone":"+441316560356","twitter":"the_brauhaus","address":"105 Lauriston Pl.","lat":55.944381610587136,"lng":-3.2018494606018066,"city_fetched":"Bonnyrigg,UK","state":"Midlothian","country":"United Kingdom","canonicalUrl":"https://foursquare.com/v/the-brauhaus/4b464be2f964a520db1c26e3","categoryId":"4bf58dd8d48988d11b941735","category":"Pub","checkinsCount":644,"usersCount":404,"tipCount":12,"visitsCount":752,"tier":"","message":"","currency":"","rating":8.4},{"name":"The Café Royal","phone":"+441315561884","address":"19 W Register St","lat":55.95379364804295,"lng":-3.19042324709638,"neighborhood":"New Town","city_fetched":"Bonnyrigg,UK","state":"Edinburgh","country":"United Kingdom","canonicalUrl":"https://foursquare.com/v/the-caf%C3%A9-royal/4b05881ef964a520c0b222e3","categoryId":"4bf58dd8d48988d11b941735","category":"Pub","checkinsCount":1733,"usersCount":1162,"tipCount":33,"visitsCount":1750,"url":"http://www.caferoyaledinburgh.co.uk","tier":"","message":"","currency":"","rating":8.3},{"name":"The Caley Sample Room","phone":"+441313377204","twitter":"thecaley","address":"42-58 Angle Park Terr","lat":55.9375637,"lng":-3.225855914285714,"neighborhood":"Ardmillan","city_fetched":"Bonnyrigg,UK","state":"Edinburgh","country":"United Kingdom","canonicalUrl":"https://foursquare.com/v/the-caley-sample-room/4b3bd2b7f964a520e77b25e3","categoryId":"4bf58dd8d48988d11b941735","category":"Pub","checkinsCount":767,"usersCount":436,"tipCount":13,"visitsCount":988,"url":"http://www.thecaleysampleroom.co.uk","tier":"","message":"","currency":"","rating":8.3},{"name":"The Last Drop","phone":"+441312254851","address":"74-78 Grassmarket","lat":55.947702,"lng":-3.195185,"neighborhood":"Grassmarket","city_fetched":"Bonnyrigg,UK","state":"Edinburgh","country":"United Kingdom","canonicalUrl":"https://foursquare.com/v/the-last-drop/4b801ee0f964a520035430e3","categoryId":"4bf58dd8d48988d11b941735","category":"Pub","checkinsCount":2083,"usersCount":2020,"tipCount":40,"visitsCount":2238,"url":"http://www.nicholsonspubs.co.uk/thelastdropgrassmarketedinburgh/","tier":"","message":"","currency":"","rating":8.3},{"name":"The Albanach","phone":"+441312205277","address":"197 High St.","lat":55.9500833,"lng":-3.1882615,"neighborhood":"Cowgate","city_fetched":"Bonnyrigg,UK","state":"Midlothian","country":"United Kingdom","canonicalUrl":"https://foursquare.com/v/the-albanach/4b05881ef964a520cbb222e3","categoryId":"4bf58dd8d48988d11b941735","category":"Pub","checkinsCount":1484,"usersCount":1265,"tipCount":43,"visitsCount":1512,"url":"http://www.albanach-edinburgh.co.uk","tier":"","message":"","currency":"","rating":8.3},{"name":"Brass Monkey","phone":"+441315561961","address":"14 Drummond St","lat":55.947317,"lng":-3.185548,"neighborhood":"Newington","city_fetched":"Bonnyrigg,UK","state":"Edinburgh","country":"United Kingdom","canonicalUrl":"https://foursquare.com/v/brass-monkey/4b06f423f964a52010f422e3","categoryId":"4bf58dd8d48988d116941735","category":"Bar","checkinsCount":1299,"usersCount":810,"tipCount":18,"visitsCount":1406,"tier":"","message":"","currency":"","rating":8.3},{"name":"Andrew Usher And Co","phone":"+441316621757","twitter":"andyusherandco","address":"32b W Nicolson St","lat":55.94470537609042,"lng":-3.1853153000239613,"neighborhood":"Newington","city_fetched":"Bonnyrigg,UK","state":"Edinburgh","country":"United Kingdom","canonicalUrl":"https://foursquare.com/v/andrew-usher-and-co/53b95b05498e7b6c99e72eab","categoryId":"4bf58dd8d48988d11b941735","category":"Pub","checkinsCount":327,"usersCount":125,"tipCount":5,"visitsCount":333,"url":"http://www.andrewushers.co.uk","tier":"","message":"","currency":"","rating":8.3},{"name":"The Southern","phone":"+441316672288","twitter":"thesouthernbar","address":"22-26 South Clerk St","lat":55.940497446349276,"lng":-3.180742420646283,"neighborhood":"Newington","city_fetched":"Bonnyrigg,UK","state":"Edinburgh","country":"United Kingdom","canonicalUrl":"https://foursquare.com/v/the-southern/4b61f244f964a520bf2c2ae3","categoryId":"4bf58dd8d48988d11b941735","category":"Pub","checkinsCount":1438,"usersCount":746,"tipCount":26,"visitsCount":1847,"url":"http://www.thesouthern.co.uk","tier":"","message":"","currency":"","rating":8.3},{"name":"Blue Blazer","phone":"+441312295030","address":"2 Spittal St","lat":55.945895627324546,"lng":-3.2033729553222656,"neighborhood":"Edinburgh Castle","city_fetched":"Bonnyrigg,UK","state":"Edinburgh","country":"United Kingdom","canonicalUrl":"https://foursquare.com/v/blue-blazer/4b05881ef964a520e8b222e3","categoryId":"4bf58dd8d48988d11b941735","category":"Pub","checkinsCount":1090,"usersCount":591,"tipCount":21,"visitsCount":1133,"url":"http://www.theblueblazer.co.uk","tier":"","message":"","currency":"","rating":8.2},{"name":"The Dagda Bar","phone":"+441316679773","address":"93-95 Buccleuch St","lat":55.94223,"lng":-3.18421,"neighborhood":"Southside","city_fetched":"Bonnyrigg,UK","state":"Edinburgh","country":"United Kingdom","canonicalUrl":"https://foursquare.com/v/the-dagda-bar/4b082a2ff964a520380523e3","categoryId":"4bf58dd8d48988d11b941735","category":"Pub","checkinsCount":254,"usersCount":133,"tipCount":9,"visitsCount":260,"tier":"","message":"","currency":"","rating":8.2},{"name":"The Beer Kitchen","phone":"+441312286392","twitter":"beerkitchenedi","address":"81-83 Lothian Rd","lat":55.94647927293624,"lng":-3.2057795497291144,"neighborhood":"Tollcross","city_fetched":"Bonnyrigg,UK","state":"Edinburgh","country":"United Kingdom","canonicalUrl":"https://foursquare.com/v/the-beer-kitchen/55b26be8498e5700530ad008","categoryId":"4bf58dd8d48988d11b941735","category":"Pub","checkinsCount":364,"usersCount":241,"tipCount":9,"visitsCount":383,"url":"http://thebeerkitchen.co.uk","tier":"","message":"","currency":"","rating":8.2},{"name":"Paradise Palms","phone":"+441312254186","twitter":"edinburghpalms","address":"41 Lothian St","lat":55.946223155715806,"lng":-3.18899229528851,"neighborhood":"Newington","city_fetched":"Bonnyrigg,UK","state":"Edinburgh","country":"United Kingdom","canonicalUrl":"https://foursquare.com/v/paradise-palms/53ac7522498e0e151cbe1577","categoryId":"4bf58dd8d48988d11e941735","category":"Cocktail Bar","checkinsCount":261,"usersCount":238,"tipCount":10,"visitsCount":409,"url":"http://www.theparadisepalms.com","tier":2,"message":"Moderate","currency":"£","rating":8.2},{"name":"Kay's Bar","phone":"+441312251858","twitter":"kaysbarscotland","address":"39 Jamaica St","lat":55.95567522977689,"lng":-3.2049179077148438,"neighborhood":"New Town","city_fetched":"Bonnyrigg,UK","state":"Edinburgh","country":"United Kingdom","canonicalUrl":"https://foursquare.com/v/kays-bar/4b05881df964a52096b222e3","categoryId":"4bf58dd8d48988d11b941735","category":"Pub","checkinsCount":501,"usersCount":279,"tipCount":16,"visitsCount":631,"url":"http://kaysbar.co.uk","tier":"","message":"","currency":"","rating":8.1},{"name":"Captains Bar","twitter":"captainsedin","address":"4 South College Street","lat":55.94715182919561,"lng":-3.1863955317717654,"neighborhood":"Newington","city_fetched":"Bonnyrigg,UK","state":"Edinburgh","country":"United Kingdom","canonicalUrl":"https://foursquare.com/v/captains-bar/4c4c974f9c8d2d7fcacea76c","categoryId":"4bf58dd8d48988d11b941735","category":"Pub","checkinsCount":275,"usersCount":184,"tipCount":9,"visitsCount":275,"url":"http://captainsedinburgh.webs.com","tier":"","message":"","currency":"","rating":8.1},{"name":"Dragonfly","phone":"+441312284543","address":"52 West Port","lat":55.94648144,"lng":-3.199589,"neighborhood":"Grassmarket","city_fetched":"Bonnyrigg,UK","state":"Midlothian","country":"United Kingdom","canonicalUrl":"https://foursquare.com/v/dragonfly/4b05881ff964a52003b322e3","categoryId":"4bf58dd8d48988d116941735","category":"Bar","checkinsCount":892,"usersCount":680,"tipCount":13,"visitsCount":1007,"tier":"","message":"","currency":"","rating":8.1},{"name":"The Cask & Barrel","phone":"+441315563132","address":"115 Broughton St","lat":55.9590607881546,"lng":-3.190581,"neighborhood":"Broughton","city_fetched":"Bonnyrigg,UK","state":"Edinburgh","country":"United Kingdom","canonicalUrl":"https://foursquare.com/v/the-cask--barrel/4b1a645ff964a520bae923e3","categoryId":"4bf58dd8d48988d116941735","category":"Bar","checkinsCount":561,"usersCount":431,"tipCount":14,"visitsCount":670,"tier":"","message":"","currency":"","rating":8.1},{"name":"Forester's Guild","phone":"+441316692750","address":"40 Portobello High Street","lat":55.955078,"lng":-3.117922,"neighborhood":"Portobello","city_fetched":"Bonnyrigg,UK","state":"Edinburgh","country":"United Kingdom","canonicalUrl":"https://foursquare.com/v/foresters-guild/5324a921498e58af852c8cdf","categoryId":"4bf58dd8d48988d116941735","category":"Bar","checkinsCount":207,"usersCount":87,"tipCount":0,"visitsCount":311,"url":"http://www.forestersguild.co.uk","tier":"","message":"","currency":"","rating":8},{"name":"The Magnum Restaurant and Bar","phone":"+441315574366","twitter":"magnumbar_rest","address":"1 Albany Street","lat":55.956744348548646,"lng":-3.193202018737793,"neighborhood":"New Town","city_fetched":"Bonnyrigg,UK","state":"Edinburgh","country":"United Kingdom","canonicalUrl":"https://foursquare.com/v/the-magnum-restaurant-and-bar/4b09a536f964a520ee1a23e3","categoryId":"4bf58dd8d48988d11b941735","category":"Pub","checkinsCount":534,"usersCount":270,"tipCount":9,"visitsCount":576,"url":"http://www.themagnumrestaurant.co.uk","tier":"","message":"","currency":"","rating":8},{"name":"Tonic","phone":"+441312256431","address":"34A North Castle St","lat":55.95259984711677,"lng":-3.2038450241088867,"neighborhood":"New Town","city_fetched":"Bonnyrigg,UK","state":"Midlothian","country":"United Kingdom","canonicalUrl":"https://foursquare.com/v/tonic/4b05881ff964a5200ab322e3","categoryId":"4bf58dd8d48988d116941735","category":"Bar","checkinsCount":530,"usersCount":265,"tipCount":5,"visitsCount":531,"tier":"","message":"","currency":"","rating":8},{"name":"The Amber Rose","phone":"+441312261224","address":"22–26 Castle St","lat":55.951747,"lng":-3.203362,"neighborhood":"New Town","city_fetched":"Bonnyrigg,UK","state":"Edinburgh","country":"United Kingdom","canonicalUrl":"https://foursquare.com/v/the-amber-rose/4babe736f964a520c0d33ae3","categoryId":"4bf58dd8d48988d11b941735","category":"Pub","checkinsCount":866,"usersCount":493,"tipCount":10,"visitsCount":874,"url":"http://www.theamberroseedinburgh.co.uk","tier":"","message":"","currency":"","rating":8},{"name":"The Basement","phone":"+441315570097","twitter":"thebasement_ed","address":"10A-12A Broughton St","lat":55.95697858972933,"lng":-3.1882131099700928,"neighborhood":"New Town","city_fetched":"Bonnyrigg,UK","state":"Edinburgh","country":"United Kingdom","canonicalUrl":"https://foursquare.com/v/the-basement/4b28e9cdf964a520229624e3","categoryId":"4bf58dd8d48988d116941735","category":"Bar","checkinsCount":923,"usersCount":530,"tipCount":18,"visitsCount":982,"url":"http://www.basement-bar-edinburgh.co.uk","tier":"","message":"","currency":"","rating":8},{"name":"The Last Word Saloon","phone":"+441312259009","twitter":"lastwordsaloon","address":"44 St Stephen St","lat":55.957849,"lng":-3.206538,"neighborhood":"New Town","city_fetched":"Bonnyrigg,UK","state":"Edinburgh","country":"United Kingdom","canonicalUrl":"https://foursquare.com/v/the-last-word-saloon/4fa043dbe4b0bed4fa6eb428","categoryId":"4bf58dd8d48988d11e941735","category":"Cocktail Bar","checkinsCount":292,"usersCount":178,"tipCount":4,"visitsCount":295,"url":"http://www.lastwordsaloon.com","tier":"","message":"","currency":"","rating":8},{"name":"The Royal Dick","phone":"+448458743000","address":"1 Summerhall Pl","lat":55.939914857755944,"lng":-3.1817265556318572,"neighborhood":"Newington","city_fetched":"Bonnyrigg,UK","state":"Edinburgh","country":"United Kingdom","canonicalUrl":"https://foursquare.com/v/the-royal-dick/50225a08e4b068cff86a58ba","categoryId":"4bf58dd8d48988d116941735","category":"Bar","checkinsCount":510,"usersCount":271,"tipCount":10,"visitsCount":529,"url":"http://www.summerhall.co.uk/bar-cafe/","tier":"","message":"","currency":"","rating":7.9},{"name":"The Ox","address":"Broughton Street","lat":55.95926589094968,"lng":-3.191161332939871,"neighborhood":"New Town","city_fetched":"Bonnyrigg,UK","state":"Edinburgh","country":"United Kingdom","canonicalUrl":"https://foursquare.com/v/the-ox/548c4586498eb38fd05c80f6","categoryId":"4bf58dd8d48988d116941735","category":"Bar","checkinsCount":85,"usersCount":81,"tipCount":1,"visitsCount":95,"tier":"","message":"","currency":"","rating":7.9},{"name":"Sandy Bell's","phone":"+441312252751","address":"25 Forrest Rd.","lat":55.94602046896384,"lng":-3.1911467275921743,"city_fetched":"Bonnyrigg,UK","state":"Edinburgh","country":"United Kingdom","canonicalUrl":"https://foursquare.com/v/sandy-bells/4b61fd23f964a520352f2ae3","categoryId":"4bf58dd8d48988d11b941735","category":"Pub","checkinsCount":584,"usersCount":372,"tipCount":18,"visitsCount":585,"url":"http://www.sandybellsedinburgh.co.uk","tier":"","message":"","currency":"","rating":7.9},{"name":"Lucky Liquor Co","address":"Queen Street","lat":55.95435581402641,"lng":-3.2016104062101665,"neighborhood":"New Town","city_fetched":"Bonnyrigg,UK","state":"Edinburgh","country":"United Kingdom","canonicalUrl":"https://foursquare.com/v/lucky-liquor-co/51ca24b0498e8016a7840441","categoryId":"4bf58dd8d48988d116941735","category":"Bar","checkinsCount":285,"usersCount":192,"tipCount":11,"visitsCount":332,"tier":"","message":"","currency":"","rating":7.9},{"name":"Brass Monkey","phone":"+441315545286","address":"360-362 Leith Walk","lat":55.96384239392033,"lng":-3.1780513117679714,"neighborhood":"Pilrig","city_fetched":"Bonnyrigg,UK","state":"Edinburgh","country":"United Kingdom","canonicalUrl":"https://foursquare.com/v/brass-monkey/4d83c01ad5fab60c4422d39b","categoryId":"4bf58dd8d48988d116941735","category":"Bar","checkinsCount":1627,"usersCount":490,"tipCount":16,"visitsCount":1824,"tier":2,"message":"Moderate","currency":"£","rating":7.9},{"name":"Victoria Bar","phone":"+441315545706","address":"265 Leith Walk","lat":55.96587570190784,"lng":-3.1757569313049316,"neighborhood":"Leith","city_fetched":"Bonnyrigg,UK","state":"Edinburgh","country":"United Kingdom","canonicalUrl":"https://foursquare.com/v/victoria-bar/4b1feae1f964a520c22a24e3","categoryId":"4bf58dd8d48988d116941735","category":"Bar","checkinsCount":520,"usersCount":240,"tipCount":4,"visitsCount":520,"tier":"","message":"","currency":"","rating":7.9},{"name":"Jolly Judge","phone":"+441312252669","twitter":"jolly_judge","address":"7 James Court","lat":55.94954824942551,"lng":-3.193995952606201,"neighborhood":"The Mound","city_fetched":"Bonnyrigg,UK","state":"Edinburgh","country":"United Kingdom","canonicalUrl":"https://foursquare.com/v/jolly-judge/4af4a0d6f964a52076f421e3","categoryId":"4bf58dd8d48988d11b941735","category":"Pub","checkinsCount":861,"usersCount":706,"tipCount":19,"visitsCount":913,"url":"http://www.jollyjudge.co.uk","tier":"","message":"","currency":"","rating":7.9},{"name":"Malt & Hops","phone":"+441315550083","address":"45 Shore","lat":55.975978,"lng":-3.170179,"neighborhood":"The Shore","city_fetched":"Bonnyrigg,UK","state":"Midlothian","country":"United Kingdom","canonicalUrl":"https://foursquare.com/v/malt--hops/4c02b079310fc9b6e8d1c461","categoryId":"4bf58dd8d48988d11b941735","category":"Pub","checkinsCount":252,"usersCount":130,"tipCount":7,"visitsCount":254,"url":"http://www.barcalisa.com","tier":"","message":"","currency":"","rating":7.9},{"name":"World's End","phone":"+441315563628","address":"12 High St.","lat":55.95054545150495,"lng":-3.1844472885131836,"neighborhood":"Cowgate","city_fetched":"Bonnyrigg,UK","state":"Edinburgh","country":"United Kingdom","canonicalUrl":"https://foursquare.com/v/worlds-end/4b59f1a4f964a520b5a228e3","categoryId":"4bf58dd8d48988d11b941735","category":"Pub","checkinsCount":2507,"usersCount":2114,"tipCount":45,"visitsCount":2826,"url":"http://www.worldsend-edinburgh.co.uk","tier":2,"message":"Moderate","currency":"£","rating":7.9},{"name":"The Rabbie Burns","phone":"+441316290507","address":"103 High St.","lat":55.950362,"lng":-3.186204,"neighborhood":"Cowgate","city_fetched":"Bonnyrigg,UK","state":"Edinburgh","country":"United Kingdom","canonicalUrl":"https://foursquare.com/v/the-rabbie-burns/4c455f36dd1f2d7f0f2381f9","categoryId":"4bf58dd8d48988d11b941735","category":"Pub","checkinsCount":332,"usersCount":288,"tipCount":12,"visitsCount":335,"tier":"","message":"","currency":"","rating":7.9},{"name":"Hemma","phone":"+441316293327","twitter":"hemmabar","address":"The Tun Building, 75 Holyrood Rd","lat":55.95062483257399,"lng":-3.177285706305563,"neighborhood":"Canongate","city_fetched":"Bonnyrigg,UK","state":"Midlothian","country":"United Kingdom","canonicalUrl":"https://foursquare.com/v/hemma/4fbd111ae4b0a73b8865a19f","categoryId":"4bf58dd8d48988d116941735","category":"Bar","checkinsCount":818,"usersCount":585,"tipCount":13,"visitsCount":1009,"url":"http://www.bodabar.com/hemma/","tier":"","message":"","currency":"","rating":7.9},{"name":"The Bailie","phone":"+441312254673","twitter":"bailie_bar","address":"2-4 St Stephen St","lat":55.957494398015044,"lng":-3.2072119134778356,"neighborhood":"New Town","city_fetched":"Bonnyrigg,UK","state":"Edinburgh","country":"United Kingdom","canonicalUrl":"https://foursquare.com/v/the-bailie/4b465892f964a520341e26e3","categoryId":"4bf58dd8d48988d11b941735","category":"Pub","checkinsCount":635,"usersCount":324,"tipCount":7,"visitsCount":659,"url":"http://thebailiebar.co.uk","tier":"","message":"","currency":"","rating":7.8},{"name":"Joseph Pearce","phone":"+441315564140","twitter":"boda_bar_tweets","address":"23 Elm Row","lat":55.95918278987259,"lng":-3.183159828186035,"neighborhood":"Leith","city_fetched":"Bonnyrigg,UK","state":"Edinburgh","country":"United Kingdom","canonicalUrl":"https://foursquare.com/v/joseph-pearce/4b15990df964a520e8b023e3","categoryId":"4bf58dd8d48988d11b941735","category":"Pub","checkinsCount":1540,"usersCount":1019,"tipCount":22,"visitsCount":2128,"url":"http://www.bodabar.com/mt-static/pearce.html","tier":"","message":"","currency":"","rating":7.8},{"name":"Jeremiah's  Taproom","phone":"+441315568201","twitter":"jeremiahtap","address":"7-8 Elm Row","lat":55.95833595943405,"lng":-3.1837499141693115,"neighborhood":"Leith","city_fetched":"Bonnyrigg,UK","state":"Edinburgh","country":"United Kingdom","canonicalUrl":"https://foursquare.com/v/jeremiahs--taproom/51f822a8498ec110597d4845","categoryId":"4bf58dd8d48988d116941735","category":"Bar","checkinsCount":741,"usersCount":428,"tipCount":15,"visitsCount":1053,"url":"http://www.jeremiahstaproom.co.uk","tier":"","message":"","currency":"","rating":7.8},{"name":"Royal Mile Whiskies","phone":"+441312253383","address":"379 High St.","lat":55.9496168703244,"lng":-3.191706790847431,"neighborhood":"Cowgate","city_fetched":"Bonnyrigg,UK","state":"Edinburgh","country":"United Kingdom","canonicalUrl":"https://foursquare.com/v/royal-mile-whiskies/4b058825f964a520c7b422e3","categoryId":"4bf58dd8d48988d122941735","category":"Whisky Bar","checkinsCount":224,"usersCount":195,"tipCount":4,"visitsCount":224,"tier":"","message":"","currency":"","rating":7.8},{"name":"Deacon Brodie's Tavern","phone":"+441312256531","address":"435 Lawnmarket","lat":55.94953623478606,"lng":-3.1929552555084224,"neighborhood":"The Mound","city_fetched":"Bonnyrigg,UK","state":"Edinburgh","country":"United Kingdom","canonicalUrl":"https://foursquare.com/v/deacon-brodies-tavern/4b0ed8adf964a520d05b23e3","categoryId":"4bf58dd8d48988d11b941735","category":"Pub","checkinsCount":2481,"usersCount":2844,"tipCount":34,"visitsCount":3136,"url":"http://www.nicholsonspubs.co.uk/deaconbrodiestavernroyalmileedinburgh/","tier":"","message":"","currency":"","rating":7.8},{"name":"Half Way House","phone":"+441312257101","address":"24 Fleshmarket Close","lat":55.951055917639465,"lng":-3.1888356718735817,"neighborhood":"Waverley Station","city_fetched":"Bonnyrigg,UK","state":"Edinburgh","country":"United Kingdom","canonicalUrl":"https://foursquare.com/v/half-way-house/4b3e3e6ff964a5200f9a25e3","categoryId":"4bf58dd8d48988d11b941735","category":"Pub","checkinsCount":602,"usersCount":490,"tipCount":12,"visitsCount":606,"url":"http://halfwayhouse-edinburgh.com","tier":"","message":"","currency":"","rating":7.8},{"name":"The Three Sisters","phone":"+441316226801","twitter":"the3sistersbar","address":"139 Cowgate","lat":55.94823819553931,"lng":-3.1901901987701984,"neighborhood":"Cowgate","city_fetched":"Bonnyrigg,UK","state":"Edinburgh","country":"United Kingdom","canonicalUrl":"https://foursquare.com/v/the-three-sisters/4b05881ef964a520e2b222e3","categoryId":"4bf58dd8d48988d11b941735","category":"Pub","checkinsCount":2251,"usersCount":1600,"tipCount":23,"visitsCount":2381,"url":"http://www.thethreesistersbar.co.uk","tier":"","message":"","currency":"","rating":7.8},{"name":"The Abbey","phone":"+441316684862","address":"65 South Clerk St","lat":55.93940323819909,"lng":-3.1796940830232745,"neighborhood":"Newington","city_fetched":"Bonnyrigg,UK","state":"Edinburgh","country":"United Kingdom","canonicalUrl":"https://foursquare.com/v/the-abbey/4b58a849f964a520156428e3","categoryId":"4bf58dd8d48988d116941735","category":"Bar","checkinsCount":636,"usersCount":199,"tipCount":4,"visitsCount":672,"url":"http://www.abbeybar.co.uk","tier":"","message":"","currency":"","rating":7.8},{"name":"The Banshee Labyrinth","phone":"+441315588209","twitter":"b_labyrinth","address":"29-35 Niddry St","lat":55.949440117536135,"lng":-3.1868934631347656,"neighborhood":"Cowgate","city_fetched":"Bonnyrigg,UK","state":"Edinburgh","country":"United Kingdom","canonicalUrl":"https://foursquare.com/v/the-banshee-labyrinth/4b733b97f964a5206ba32de3","categoryId":"4bf58dd8d48988d11f941735","category":"Nightclub","checkinsCount":1037,"usersCount":686,"tipCount":23,"visitsCount":1120,"url":"http://www.thebansheelabyrinth.com","tier":"","message":"","currency":"","rating":7.8},{"name":"Bijou","address":"Leith Links","lat":55.96975403966456,"lng":-3.159879263314379,"city_fetched":"Bonnyrigg,UK","state":"Edinburgh","country":"United Kingdom","canonicalUrl":"https://foursquare.com/v/bijou/4c42fc76da3dc928c63ccbb9","categoryId":"4bf58dd8d48988d116941735","category":"Bar","checkinsCount":80,"usersCount":61,"tipCount":3,"visitsCount":94,"url":"http://www.bijoubistro.co.uk","tier":"","message":"","currency":"","rating":7.8},{"name":"Safari Lounge","phone":"+441316612855","twitter":"thesafarilounge","address":"21 Cadzow Place","lat":55.95717175441451,"lng":-3.167442822221366,"neighborhood":"Abbeyhill","city_fetched":"Bonnyrigg,UK","state":"Edinburgh","country":"United Kingdom","canonicalUrl":"https://foursquare.com/v/safari-lounge/51f0420b498e5ed73bf1af9d","categoryId":"4bf58dd8d48988d116941735","category":"Bar","checkinsCount":232,"usersCount":170,"tipCount":5,"visitsCount":360,"url":"http://www.thesafarilounge.co.uk","tier":"","message":"","currency":"","rating":7.8},{"name":"Southpour","phone":"+441316501100","twitter":"southpoursays","address":"1-5 Newington Road","lat":55.939093,"lng":-3.179376,"neighborhood":"Newington","city_fetched":"Bonnyrigg,UK","state":"Edinburgh","country":"United Kingdom","canonicalUrl":"https://foursquare.com/v/southpour/56e54ccacd104059d628efcc","categoryId":"4bf58dd8d48988d11b941735","category":"Pub","checkinsCount":62,"usersCount":76,"tipCount":4,"visitsCount":97,"tier":"","message":"","currency":"","rating":7.7},{"name":"Greyfriars Bobby's Bar","phone":"+441312258328","address":"34A Candlemaker Row","lat":55.94699417722261,"lng":-3.1912182922934353,"neighborhood":"Newington","city_fetched":"Bonnyrigg,UK","state":"Edinburgh","country":"United Kingdom","canonicalUrl":"https://foursquare.com/v/greyfriars-bobbys-bar/4b05881df964a5209cb222e3","categoryId":"4bf58dd8d48988d11b941735","category":"Pub","checkinsCount":1358,"usersCount":1179,"tipCount":22,"visitsCount":1363,"url":"http://www.nicholsonspubs.co.uk/greyfriarsbobbysbarcandlemakerrowedinburgh/","tier":"","message":"","currency":"","rating":7.7},{"name":"Clerk's Bar","address":"South Clerk Street","lat":55.93979520923305,"lng":-3.179866598634073,"neighborhood":"Newington","city_fetched":"Bonnyrigg,UK","state":"Edinburgh","country":"United Kingdom","canonicalUrl":"https://foursquare.com/v/clerks-bar/531f9fdb498e1d6d5570a8cb","categoryId":"4bf58dd8d48988d116941735","category":"Bar","checkinsCount":306,"usersCount":207,"tipCount":9,"visitsCount":364,"tier":"","message":"","currency":"","rating":7.7},{"name":"Divino","address":"5 Merchant Street","lat":55.94771882914496,"lng":-3.1920998631286217,"neighborhood":"Cowgate","city_fetched":"Bonnyrigg,UK","state":"Edinburgh","country":"United Kingdom","canonicalUrl":"https://foursquare.com/v/divino/4c66f2a47abde21e55056568","categoryId":"4bf58dd8d48988d123941735","category":"Wine Bar","checkinsCount":256,"usersCount":182,"tipCount":10,"visitsCount":256,"tier":"","message":"","currency":"","rating":7.7},{"name":"The Dalriada","address":"77 Promenade","lat":55.95061753740685,"lng":-3.1000113487243652,"neighborhood":"Joppa","city_fetched":"Bonnyrigg,UK","state":"Edinburgh","country":"United Kingdom","canonicalUrl":"https://foursquare.com/v/the-dalriada/4b5c67f0f964a520582e29e3","categoryId":"4bf58dd8d48988d11b941735","category":"Pub","checkinsCount":275,"usersCount":176,"tipCount":4,"visitsCount":353,"tier":"","message":"","currency":"","rating":7.7},{"name":"Bannerman's","phone":"+441315563254","twitter":"bannermansbar","address":"212 Cowgate","lat":55.94880253040805,"lng":-3.1869318942710803,"neighborhood":"Cowgate","city_fetched":"Bonnyrigg,UK","state":"Edinburgh","country":"United Kingdom","canonicalUrl":"https://foursquare.com/v/bannermans/4b05881ff964a52017b322e3","categoryId":"4bf58dd8d48988d11b941735","category":"Pub","checkinsCount":1174,"usersCount":719,"tipCount":10,"visitsCount":1308,"tier":"","message":"","currency":"","rating":7.7},{"name":"The Theatre Royal Bar","phone":"+441315572142","address":"25-27 Greenside Place","lat":55.95710471900871,"lng":-3.185091018676758,"city_fetched":"Bonnyrigg,UK","state":"Midlothian","country":"United Kingdom","canonicalUrl":"https://foursquare.com/v/the-theatre-royal-bar/4b1a979cf964a520fdec23e3","categoryId":"4bf58dd8d48988d116941735","category":"Bar","checkinsCount":943,"usersCount":601,"tipCount":9,"visitsCount":987,"url":"http://www.theatreroyalbar.co.uk","tier":"","message":"","currency":"","rating":7.7},{"name":"The Royal Oak","phone":"+441315572976","address":"1 Infirmary St","lat":55.947907,"lng":-3.18637,"neighborhood":"Newington","city_fetched":"Bonnyrigg,UK","state":"Edinburgh","country":"United Kingdom","canonicalUrl":"https://foursquare.com/v/the-royal-oak/4b1787c3f964a52031c623e3","categoryId":"4bf58dd8d48988d11b941735","category":"Pub","checkinsCount":452,"usersCount":322,"tipCount":8,"visitsCount":453,"url":"http://www.royal-oak-folk.com","tier":"","message":"","currency":"","rating":7.7},{"name":"The Sheep Heid Inn","phone":"+441316617974","twitter":"sheepheid","address":"43-45 The Causeway","lat":55.941953536329194,"lng":-3.148455521043885,"neighborhood":"Duddingston","city_fetched":"Bonnyrigg,UK","state":"Edinburgh","country":"United Kingdom","canonicalUrl":"https://foursquare.com/v/the-sheep-heid-inn/4b05881ef964a520ddb222e3","categoryId":"4bf58dd8d48988d11b941735","category":"Pub","checkinsCount":698,"usersCount":733,"tipCount":33,"visitsCount":907,"url":"http://www.sheepheid.co.uk","tier":"","message":"","currency":"","rating":7.7},{"name":"Frankenstein","phone":"+441316221818","twitter":"frank_pub_edin","address":"26 George IV Bridge","lat":55.94732,"lng":-3.19157,"neighborhood":"Cowgate","city_fetched":"Bonnyrigg,UK","state":"Midlothian","country":"United Kingdom","canonicalUrl":"https://foursquare.com/v/frankenstein/4b466f21f964a520ca2026e3","categoryId":"4bf58dd8d48988d116941735","category":"Bar","checkinsCount":2143,"usersCount":1852,"tipCount":43,"visitsCount":2170,"url":"http://www.frankenstein-pub.co.uk","tier":"","message":"","currency":"","rating":7.7},{"name":"The Library Bar","phone":"+441316504673","address":"13 Bristo Sq","lat":55.9453623283786,"lng":-3.1888458784604246,"neighborhood":"Newington","city_fetched":"Bonnyrigg,UK","state":"Midlothian","country":"United Kingdom","canonicalUrl":"https://foursquare.com/v/the-library-bar/4b859387f964a520756631e3","categoryId":"4bf58dd8d48988d116941735","category":"Bar","checkinsCount":2177,"usersCount":789,"tipCount":13,"visitsCount":2217,"url":"http://www.eusa.ed.ac.uk/eatdrink/teviot/bars-and-cafes/","tier":2,"message":"Moderate","currency":"£","rating":7.7},{"name":"Cloisters","phone":"+441312219997","twitter":"cloisters_bar","address":"26 Brougham St","lat":55.94321601769541,"lng":-3.202064037322998,"city_fetched":"Bonnyrigg,UK","state":"Edinburgh","country":"United Kingdom","canonicalUrl":"https://foursquare.com/v/cloisters/4b118404f964a520477e23e3","categoryId":"4bf58dd8d48988d11b941735","category":"Pub","checkinsCount":2075,"usersCount":720,"tipCount":23,"visitsCount":2344,"url":"http://www.cloistersbar.com","tier":"","message":"","currency":"","rating":7.6},{"name":"Harvey Nichols Forth Floor Bar","twitter":"harveynichols","address":"30-34 St Andrews Square","lat":55.95469586472259,"lng":-3.192717735196993,"neighborhood":"New Town","city_fetched":"Bonnyrigg,UK","state":"Edinburgh","country":"United Kingdom","canonicalUrl":"https://foursquare.com/v/harvey-nichols-forth-floor-bar/5045053d183fcb060e8d5ee3","categoryId":"4bf58dd8d48988d116941735","category":"Bar","checkinsCount":106,"usersCount":80,"tipCount":3,"visitsCount":107,"url":"http://www.harveynichols.com","tier":"","message":"","currency":"","rating":7.6},{"name":"The Royal Mile Tavern","phone":"+441315579681","twitter":"royalmiletavern","address":"127 High St","lat":55.95037124335457,"lng":-3.186560869216919,"neighborhood":"Waverley Station","city_fetched":"Bonnyrigg,UK","state":"Edinburgh","country":"United Kingdom","canonicalUrl":"https://foursquare.com/v/the-royal-mile-tavern/4c31fb7c09a99c744e740b2a","categoryId":"4bf58dd8d48988d11b941735","category":"Pub","checkinsCount":1459,"usersCount":1252,"tipCount":36,"visitsCount":1496,"url":"http://www.royalmiletavern.com","tier":"","message":"","currency":"","rating":7.6},{"name":"Scotsman Lounge","address":"73 Cockburn Street","lat":55.950301,"lng":-3.18836315,"neighborhood":"Waverley Station","city_fetched":"Bonnyrigg,UK","state":"Edinburgh","country":"United Kingdom","canonicalUrl":"https://foursquare.com/v/scotsman-lounge/4b216bdff964a5209b3b24e3","categoryId":"4bf58dd8d48988d11b941735","category":"Pub","checkinsCount":232,"usersCount":208,"tipCount":4,"visitsCount":233,"tier":"","message":"","currency":"","rating":7.6},{"name":"Woodland Creatures","phone":"+441316295509","twitter":"woodlandsleith","address":"260-262 Leith Walk","lat":55.96605504680613,"lng":-3.1756792796889153,"neighborhood":"Pilrig","city_fetched":"Bonnyrigg,UK","state":"Edinburgh","country":"United Kingdom","canonicalUrl":"https://foursquare.com/v/woodland-creatures/511e6328e4b07cd154db645f","categoryId":"4bf58dd8d48988d116941735","category":"Bar","checkinsCount":410,"usersCount":151,"tipCount":8,"visitsCount":442,"tier":"","message":"","currency":"","rating":7.6},{"name":"SCOTCH Whisky Bar | Balmoral Hotel","phone":"+441315562414","twitter":"the_balmoral","address":"The Balmoral Hotel","lat":55.95312,"lng":-3.189551,"neighborhood":"Waverley Station","city_fetched":"Bonnyrigg,UK","state":"Edinburgh","country":"United Kingdom","canonicalUrl":"https://foursquare.com/v/scotch-whisky-bar--balmoral-hotel/4fc0fd89e4b0c9fe0599e476","categoryId":"4bf58dd8d48988d122941735","category":"Whisky Bar","checkinsCount":76,"usersCount":68,"tipCount":2,"visitsCount":76,"url":"http://thebalmoralhotel.com","tier":"","message":"","currency":"","rating":7.6},{"name":"The Pear Tree","phone":"+441316677533","twitter":"pear_tree_house","address":"38 W Nicolson St","lat":55.94434710372921,"lng":-3.18554684848515,"neighborhood":"Newington","city_fetched":"Bonnyrigg,UK","state":"Edinburgh","country":"United Kingdom","canonicalUrl":"https://foursquare.com/v/the-pear-tree/4af47d94f964a52013f321e3","categoryId":"4bf58dd8d48988d11b941735","category":"Pub","checkinsCount":1641,"usersCount":988,"tipCount":13,"visitsCount":1738,"url":"http://www.pear-tree-house.co.uk/index.php","tier":"","message":"","currency":"","rating":7.6},{"name":"Sneaky Pete's","phone":"+441312251757","address":"73 Cowgate","lat":55.948293,"lng":-3.191556,"neighborhood":"Cowgate","city_fetched":"Bonnyrigg,UK","state":"Edinburgh","country":"United Kingdom","canonicalUrl":"https://foursquare.com/v/sneaky-petes/4b05881ff964a5200db322e3","categoryId":"4bf58dd8d48988d11f941735","category":"Nightclub","checkinsCount":724,"usersCount":307,"tipCount":8,"visitsCount":725,"url":"http://www.sneakypetes.co.uk","tier":"","message":"","currency":"","rating":7.6},{"name":"Kilderkin","phone":"+441315562101","twitter":"kil_der_kin","address":"65 - 67 Canongate","lat":55.95219137947874,"lng":-3.177022933959961,"neighborhood":"Canongate","city_fetched":"Bonnyrigg,UK","state":"Edinburgh","country":"United Kingdom","canonicalUrl":"https://foursquare.com/v/kilderkin/4e594e601495a891127d67b7","categoryId":"4bf58dd8d48988d11b941735","category":"Pub","checkinsCount":700,"usersCount":404,"tipCount":15,"visitsCount":708,"tier":"","message":"","currency":"","rating":7.6},{"name":"Hoot The Reedemer","address":"7 Hanover Place","lat":55.952384206777865,"lng":-3.196582247281675,"neighborhood":"New Town","city_fetched":"Bonnyrigg,UK","state":"Edinburgh","country":"United Kingdom","canonicalUrl":"https://foursquare.com/v/hoot-the-reedemer/55bfd427498ef64252a85b6e","categoryId":"4bf58dd8d48988d118941735","category":"Dive Bar","checkinsCount":102,"usersCount":76,"tipCount":5,"visitsCount":105,"tier":"","message":"","currency":"","rating":7.6},{"name":"No.8 Lister Square","phone":"+441312294634","twitter":"no8listersquare","address":"8 Lister Square","lat":55.943797455426704,"lng":-3.1941602372963374,"city_fetched":"Bonnyrigg,UK","state":"Edinburgh","country":"United Kingdom","canonicalUrl":"https://foursquare.com/v/no8-lister-square/554e5bf8498e73f71834b850","categoryId":"4bf58dd8d48988d116941735","category":"Bar","checkinsCount":106,"usersCount":57,"tipCount":2,"visitsCount":109,"tier":"","message":"","currency":"","rating":7.5},{"name":"Pickle & Custard","lat":55.945948584228006,"lng":-3.2055852882370304,"neighborhood":"Tollcross","city_fetched":"Bonnyrigg,UK","country":"United Kingdom","canonicalUrl":"https://foursquare.com/v/pickle--custard/5440111f498e1e3b7592c912","categoryId":"4bf58dd8d48988d116941735","category":"Bar","checkinsCount":57,"usersCount":54,"tipCount":2,"visitsCount":57,"tier":"","message":"","currency":"","rating":7.5},{"name":"Maggie Dickson's","address":"92 Grassmarket","lat":55.947769,"lng":-3.1948672,"neighborhood":"Grassmarket","city_fetched":"Bonnyrigg,UK","state":"Midlothian","country":"United Kingdom","canonicalUrl":"https://foursquare.com/v/maggie-dicksons/4b05881ef964a520d4b222e3","categoryId":"4bf58dd8d48988d11b941735","category":"Pub","checkinsCount":903,"usersCount":832,"tipCount":14,"visitsCount":906,"tier":"","message":"","currency":"","rating":7.5},{"name":"Barony Bar","phone":"+441315582874","address":"81-85 Broughton St","lat":55.95835,"lng":-3.18966,"neighborhood":"Broughton","city_fetched":"Bonnyrigg,UK","state":"Edinburgh","country":"United Kingdom","canonicalUrl":"https://foursquare.com/v/barony-bar/4b05881ef964a520b5b222e3","categoryId":"4bf58dd8d48988d11b941735","category":"Pub","checkinsCount":467,"usersCount":338,"tipCount":7,"visitsCount":497,"tier":"","message":"","currency":"","rating":7.5},{"name":"The Blackbird","phone":"+441312282280","address":"37-39 Leven St","lat":55.94103464629766,"lng":-3.203515994270686,"neighborhood":"Fountainbridge","city_fetched":"Bonnyrigg,UK","state":"Edinburgh","country":"United Kingdom","canonicalUrl":"https://foursquare.com/v/the-blackbird/506b4838e4b038c6d742c949","categoryId":"4bf58dd8d48988d11b941735","category":"Pub","checkinsCount":451,"usersCount":385,"tipCount":6,"visitsCount":588,"url":"http://www.theblackbirdedinburgh.co.uk","tier":"","message":"","currency":"","rating":7.5},{"name":"The Mitre","phone":"+441316523902","address":"131-133 High St.","lat":55.950363485716856,"lng":-3.186788735804419,"neighborhood":"Waverley Station","city_fetched":"Bonnyrigg,UK","state":"Edinburgh","country":"United Kingdom","canonicalUrl":"https://foursquare.com/v/the-mitre/4b23b886f964a520865824e3","categoryId":"4bf58dd8d48988d11b941735","category":"Pub","checkinsCount":1239,"usersCount":971,"tipCount":21,"visitsCount":1248,"url":"http://www.nicholsonspubs.co.uk/restaurants/scotlandandnorthernireland/themitrebarroyalmileedinburgh","tier":"","message":"","currency":"","rating":7.5},{"name":"Arcade Bar - Haggis & Whisky House","phone":"+441312201297","address":"48 Cockburn St","lat":55.950491,"lng":-3.188814,"neighborhood":"Waverley Station","city_fetched":"Bonnyrigg,UK","state":"Midlothian","country":"United Kingdom","canonicalUrl":"https://foursquare.com/v/arcade-bar--haggis--whisky-house/4b0f08d5f964a520635e23e3","categoryId":"4bf58dd8d48988d122941735","category":"Whisky Bar","checkinsCount":455,"usersCount":412,"tipCount":19,"visitsCount":462,"url":"http://www.arcadepub.co.uk","tier":"","message":"","currency":"","rating":7.5},{"name":"St Vincent Bar","phone":"+441312257447","address":"11 St Vincent St","lat":55.95812575042658,"lng":-3.2033300399780273,"neighborhood":"New Town","city_fetched":"Bonnyrigg,UK","state":"Edinburgh","country":"United Kingdom","canonicalUrl":"https://foursquare.com/v/st-vincent-bar/4b9bde9af964a520782f36e3","categoryId":"4bf58dd8d48988d11b941735","category":"Pub","checkinsCount":426,"usersCount":217,"tipCount":1,"visitsCount":504,"tier":"","message":"","currency":"","rating":7.4},{"name":"Cabaret Voltaire","phone":"+441312474704","twitter":"cabaretvoltaire","address":"36-38 Blair St","lat":55.948864952279884,"lng":-3.187588255306524,"neighborhood":"Cowgate","city_fetched":"Bonnyrigg,UK","state":"Edinburgh","country":"United Kingdom","canonicalUrl":"https://foursquare.com/v/cabaret-voltaire/4b05881ff964a520ffb222e3","categoryId":"4bf58dd8d48988d11f941735","category":"Nightclub","checkinsCount":988,"usersCount":803,"tipCount":13,"visitsCount":1126,"url":"http://www.thecabaretvoltaire.com","tier":"","message":"","currency":"","rating":7.4},{"name":"Revolution Vodka Bar","phone":"+441312205679","twitter":"revolutionbars","address":"30a Chambers St","lat":55.94733865019104,"lng":-3.1907465627465585,"neighborhood":"Cowgate","city_fetched":"Bonnyrigg,UK","state":"Edinburgh","country":"United Kingdom","canonicalUrl":"https://foursquare.com/v/revolution-vodka-bar/4b466f95f964a520d92026e3","categoryId":"4bf58dd8d48988d11e941735","category":"Cocktail Bar","checkinsCount":837,"usersCount":624,"tipCount":11,"visitsCount":865,"url":"http://www.revolution-bars.co.uk","tier":"","message":"","currency":"","rating":7.4},{"name":"Pilgrim Bar","twitter":"pilgrimbar","address":"3 Robertson's Close","lat":55.948826877204525,"lng":-3.186519446099706,"neighborhood":"Cowgate","city_fetched":"Bonnyrigg,UK","state":"Edinburgh","country":"United Kingdom","canonicalUrl":"https://foursquare.com/v/pilgrim-bar/51b65eba498e747a7aca084c","categoryId":"4bf58dd8d48988d116941735","category":"Bar","checkinsCount":276,"usersCount":231,"tipCount":1,"visitsCount":285,"url":"http://www.pilgrimbar.co.uk","tier":"","message":"","currency":"","rating":7.4},{"name":"Finnegan's Wake","phone":"+441312259348","twitter":"finneganswakeed","address":"9B Victoria St","lat":55.94857505154987,"lng":-3.193577527999878,"neighborhood":"Cowgate","city_fetched":"Bonnyrigg,UK","state":"Edinburgh","country":"United Kingdom","canonicalUrl":"https://foursquare.com/v/finnegans-wake/4c3db7d37d002d7fb41cb018","categoryId":"4bf58dd8d48988d116941735","category":"Bar","checkinsCount":1210,"usersCount":770,"tipCount":20,"visitsCount":1242,"url":"http://www.finnegans-wake.co.uk","tier":"","message":"","currency":"","rating":7.4},{"name":"The Salisbury Arms","phone":"+441316674518","twitter":"salisburyarms","address":"58 Dalkeith Road","lat":55.938321936134805,"lng":-3.1736848877328705,"neighborhood":"Newington","city_fetched":"Bonnyrigg,UK","state":"Edinburgh","country":"United Kingdom","canonicalUrl":"https://foursquare.com/v/the-salisbury-arms/4ddaa4c4922ef477d2b9fc4b","categoryId":"4bf58dd8d48988d116941735","category":"Bar","checkinsCount":858,"usersCount":599,"tipCount":15,"visitsCount":1176,"tier":"","message":"","currency":"","rating":7.4},{"name":"The Fiddlers Arms","phone":"+441312290327","address":"11/13 Grassmarket","lat":55.94708177251559,"lng":-3.1975250846440924,"neighborhood":"Grassmarket","city_fetched":"Bonnyrigg,UK","state":"Edinburgh","country":"United Kingdom","canonicalUrl":"https://foursquare.com/v/the-fiddlers-arms/4dd042d552b1f8915bc3d84a","categoryId":"4bf58dd8d48988d116941735","category":"Bar","checkinsCount":811,"usersCount":740,"tipCount":15,"visitsCount":832,"url":"http://www.thefiddlersarms.com","tier":"","message":"","currency":"","rating":7.4},{"name":"1 Grange Road","phone":"+441316672335","address":"1 Grange Road","lat":55.936919,"lng":-3.18035,"neighborhood":"Newington","city_fetched":"Bonnyrigg,UK","state":"Edinburgh","country":"United Kingdom","canonicalUrl":"https://foursquare.com/v/1-grange-road/4b07fc57f964a520ee0123e3","categoryId":"4bf58dd8d48988d11b941735","category":"Pub","checkinsCount":373,"usersCount":174,"tipCount":4,"visitsCount":385,"tier":"","message":"","currency":"","rating":7.4},{"name":"Jakes Place","phone":"+441312261446","address":"9-13 Market Street","lat":55.95090587967244,"lng":-3.190798759460449,"neighborhood":"Waverley Station","city_fetched":"Bonnyrigg,UK","state":"Edinburgh","country":"United Kingdom","canonicalUrl":"https://foursquare.com/v/jakes-place/51769cf0fe700d0e2bf59246","categoryId":"4bf58dd8d48988d116941735","category":"Bar","checkinsCount":254,"usersCount":174,"tipCount":9,"visitsCount":254,"tier":"","message":"","currency":"","rating":7.4},{"name":"Treacle","phone":"+441315570627","address":"39-41 Broughton St","lat":55.957314715778715,"lng":-3.1883611857104257,"neighborhood":"Broughton","city_fetched":"Bonnyrigg,UK","state":"Edinburgh","country":"United Kingdom","canonicalUrl":"https://foursquare.com/v/treacle/4b09a4def964a520e91a23e3","categoryId":"4bf58dd8d48988d116941735","category":"Bar","checkinsCount":1386,"usersCount":775,"tipCount":22,"visitsCount":1479,"url":"http://www.treacleedinburgh.co.uk","tier":"","message":"","currency":"","rating":7.3},{"name":"The Granary","phone":"+448451666005","address":"32-34 Shore","lat":55.97637856690036,"lng":-3.169876045152797,"neighborhood":"The Shore","city_fetched":"Bonnyrigg,UK","state":"Midlothian","country":"United Kingdom","canonicalUrl":"https://foursquare.com/v/the-granary/4bd8790035aad13a84f790f3","categoryId":"4bf58dd8d48988d116941735","category":"Bar","checkinsCount":705,"usersCount":405,"tipCount":11,"visitsCount":711,"tier":"","message":"","currency":"","rating":7.3},{"name":"The Liquid Room","phone":"+441312252564","twitter":"liquidrooms","address":"9C Victoria St","lat":55.948541761878275,"lng":-3.193520370508196,"neighborhood":"Cowgate","city_fetched":"Bonnyrigg,UK","state":"Edinburgh","country":"United Kingdom","canonicalUrl":"https://foursquare.com/v/the-liquid-room/4b05881ff964a52019b322e3","categoryId":"4bf58dd8d48988d11f941735","category":"Nightclub","checkinsCount":736,"usersCount":500,"tipCount":6,"visitsCount":753,"url":"http://www.liquidroom.com","tier":"","message":"","currency":"","rating":7.3},{"name":"Copper Blossom","lat":55.95277484170572,"lng":-3.2034984418291703,"neighborhood":"New Town","city_fetched":"Bonnyrigg,UK","country":"United Kingdom","canonicalUrl":"https://foursquare.com/v/copper-blossom/55fdf458498ea821bd176344","categoryId":"4bf58dd8d48988d11e941735","category":"Cocktail Bar","checkinsCount":76,"usersCount":90,"tipCount":3,"visitsCount":107,"tier":"","message":"","currency":"","rating":7.3},{"name":"Hotel du Vin & Bistro","phone":"+448447364255","address":"11 Bristo Place","lat":55.946147,"lng":-3.190407,"neighborhood":"Newington","city_fetched":"Bonnyrigg,UK","state":"Midlothian","country":"United Kingdom","canonicalUrl":"https://foursquare.com/v/hotel-du-vin--bistro/4b2a754df964a52090a924e3","categoryId":"4bf58dd8d48988d1d5941735","category":"Hotel Bar","checkinsCount":777,"usersCount":521,"tipCount":10,"visitsCount":838,"url":"http://www.hotelduvin.com/hotels/edinburgh/edinburgh.aspx","tier":"","message":"","currency":"","rating":7.3},{"name":"Black Bull","phone":"+441312256636","address":"12 Grassmarket","lat":55.947207,"lng":-3.197295,"neighborhood":"Grassmarket","city_fetched":"Bonnyrigg,UK","state":"Edinburgh","country":"United Kingdom","canonicalUrl":"https://foursquare.com/v/black-bull/4bd84fe3f645c9b6b094a7e0","categoryId":"4bf58dd8d48988d11b941735","category":"Pub","checkinsCount":1076,"usersCount":902,"tipCount":11,"visitsCount":1126,"url":"http://www.blackbulledinburgh.co.uk","tier":"","message":"","currency":"","rating":7.3},{"name":"Beer & Skittles","address":"Picardy Place","lat":55.95709165015072,"lng":-3.186788347385357,"neighborhood":"Broughton","city_fetched":"Bonnyrigg,UK","country":"United Kingdom","canonicalUrl":"https://foursquare.com/v/beer--skittles/5307cadc11d24c5d272c9ad4","categoryId":"4bf58dd8d48988d116941735","category":"Bar","checkinsCount":151,"usersCount":98,"tipCount":4,"visitsCount":152,"tier":"","message":"","currency":"","rating":7.3},{"name":"The Canny Man's","phone":"+441314471484","twitter":"cannymans","address":"237 Morningside Rd","lat":55.92762734817101,"lng":-3.2091665267944336,"neighborhood":"Morningside","city_fetched":"Bonnyrigg,UK","state":"Midlothian","country":"United Kingdom","canonicalUrl":"https://foursquare.com/v/the-canny-mans/4b05881ef964a520c3b222e3","categoryId":"4bf58dd8d48988d11b941735","category":"Pub","checkinsCount":516,"usersCount":265,"tipCount":9,"visitsCount":574,"url":"http://www.cannymans.co.uk","tier":"","message":"","currency":"","rating":7.3},{"name":"The Oxford Bar","address":"8 Young St.","lat":55.953017036149326,"lng":-3.2046110064654285,"neighborhood":"New Town","city_fetched":"Bonnyrigg,UK","state":"Edinburgh","country":"United Kingdom","canonicalUrl":"https://foursquare.com/v/the-oxford-bar/4b93cf47f964a520cc5234e3","categoryId":"4bf58dd8d48988d116941735","category":"Bar","checkinsCount":318,"usersCount":263,"tipCount":7,"visitsCount":344,"tier":"","message":"","currency":"","rating":7.3},{"name":"The Castle Arms","phone":"+441312257432","address":"6 Johnston Terrace","lat":55.94861871764661,"lng":-3.194788388792711,"neighborhood":"Grassmarket","city_fetched":"Bonnyrigg,UK","state":"Edinburgh","country":"United Kingdom","canonicalUrl":"https://foursquare.com/v/the-castle-arms/4bfeccb6daf9c9b69248f9ef","categoryId":"4bf58dd8d48988d11b941735","category":"Pub","checkinsCount":1163,"usersCount":1048,"tipCount":24,"visitsCount":1183,"url":"http://www.thecastlearmsbistro.co.uk","tier":"","message":"","currency":"","rating":7.2},{"name":"The Black Bull Tavern","phone":"+441315575121","address":"43 Leith St","lat":55.95427746642,"lng":-3.1872591081527695,"city_fetched":"Bonnyrigg,UK","state":"Edinburgh","country":"United Kingdom","canonicalUrl":"https://foursquare.com/v/the-black-bull-tavern/4b40f4f5f964a52039be25e3","categoryId":"4bf58dd8d48988d11b941735","category":"Pub","checkinsCount":953,"usersCount":357,"tipCount":13,"visitsCount":997,"tier":"","message":"","currency":"","rating":7.2},{"name":"The David Macbeth Moir (Wetherspoons)","phone":"+441316531060","twitter":"jdwtweet","address":"Bridge St.","lat":55.943568342500605,"lng":-3.058285781007005,"city_fetched":"Bonnyrigg,UK","state":"East Lothian","country":"United Kingdom","canonicalUrl":"https://foursquare.com/v/the-david-macbeth-moir-wetherspoons/4f4107d3e4b0daed435ae257","categoryId":"4bf58dd8d48988d11b941735","category":"Pub","checkinsCount":176,"usersCount":99,"tipCount":3,"visitsCount":199,"url":"http://www.jdwetherspoon.co.uk","tier":"","message":"","currency":"","rating":7.2},{"name":"The Kenilworth","phone":"+441312261773","address":"152-154 Rose St","lat":55.9518790189654,"lng":-3.202342987060547,"neighborhood":"New Town","city_fetched":"Bonnyrigg,UK","state":"Edinburgh","country":"United Kingdom","canonicalUrl":"https://foursquare.com/v/the-kenilworth/4b05881ef964a520d1b222e3","categoryId":"4bf58dd8d48988d11b941735","category":"Pub","checkinsCount":654,"usersCount":604,"tipCount":10,"visitsCount":695,"url":"http://www.nicholsonspubs.co.uk/thekenilworthrosestreetedinburgh/","tier":"","message":"","currency":"","rating":7.2},{"name":"99 Hanover Street","phone":"+441312258200","twitter":"99hanoverstreet","address":"99 Hanover St","lat":55.954445,"lng":-3.19775,"neighborhood":"New Town","city_fetched":"Bonnyrigg,UK","state":"Edinburgh","country":"United Kingdom","canonicalUrl":"https://foursquare.com/v/99-hanover-street/4b24fd9cf964a5200d6b24e3","categoryId":"4bf58dd8d48988d116941735","category":"Bar","checkinsCount":914,"usersCount":602,"tipCount":14,"visitsCount":927,"url":"http://www.99hanoverstreet.com","tier":"","message":"","currency":"","rating":7.2},{"name":"Rose & Crown","phone":"+441312254039","address":"170 Rose St","lat":55.951524606869576,"lng":-3.204113245010376,"neighborhood":"New Town","city_fetched":"Bonnyrigg,UK","state":"Edinburgh","country":"United Kingdom","canonicalUrl":"https://foursquare.com/v/rose--crown/4bfff12fdaf9c9b612f6faef","categoryId":"4bf58dd8d48988d11b941735","category":"Pub","checkinsCount":516,"usersCount":484,"tipCount":7,"visitsCount":537,"url":"http://www.roseandcrownedinburgh.com","tier":"","message":"","currency":"","rating":7.2},{"name":"The Old Bell","phone":"+441316681573","address":"233-235 Causewayside","lat":55.93492367445945,"lng":-3.1792116165161133,"neighborhood":"Southside","city_fetched":"Bonnyrigg,UK","state":"Edinburgh","country":"United Kingdom","canonicalUrl":"https://foursquare.com/v/the-old-bell/4b12d9d8f964a520678f23e3","categoryId":"4bf58dd8d48988d11b941735","category":"Pub","checkinsCount":410,"usersCount":254,"tipCount":9,"visitsCount":479,"tier":"","message":"","currency":"","rating":7.1},{"name":"The Advocate","phone":"+441312262749","address":"7 Hunter Sq","lat":55.949620337184015,"lng":-3.1876659393310547,"neighborhood":"Cowgate","city_fetched":"Bonnyrigg,UK","state":"Midlothian","country":"United Kingdom","canonicalUrl":"https://foursquare.com/v/the-advocate/4c029c4bf423a593dd01cf16","categoryId":"4bf58dd8d48988d11b941735","category":"Pub","checkinsCount":776,"usersCount":616,"tipCount":11,"visitsCount":785,"url":"http://www.theadvocate-edinburgh.co.uk","tier":"","message":"","currency":"","rating":7.1},{"name":"Laird and Dog","address":"High St","lat":55.883441,"lng":-3.1153374910354614,"city_fetched":"Bonnyrigg,UK","state":"Midlothian","country":"United Kingdom","canonicalUrl":"https://foursquare.com/v/laird-and-dog/4b965c19f964a52003c834e3","categoryId":"4bf58dd8d48988d11b941735","category":"Pub","checkinsCount":230,"usersCount":102,"tipCount":4,"visitsCount":266,"tier":"","message":"","currency":"","rating":7.1},{"name":"The Auld Hoose","phone":"+441316682934","address":"23-25 St Leonards Street","lat":55.94346836552352,"lng":-3.180263042449951,"neighborhood":"Newington","city_fetched":"Bonnyrigg,UK","state":"Midlothian","country":"United Kingdom","canonicalUrl":"https://foursquare.com/v/the-auld-hoose/4b585bbef964a5203e5428e3","categoryId":"4bf58dd8d48988d11b941735","category":"Pub","checkinsCount":893,"usersCount":503,"tipCount":19,"visitsCount":1112,"tier":2,"message":"Moderate","currency":"£","rating":7.1},{"name":"Port O Leith Bar","phone":"+441315543568","address":"Constitution St","lat":55.97463547583777,"lng":-3.167298687768229,"neighborhood":"Leith","city_fetched":"Bonnyrigg,UK","state":"Edinburgh","country":"United Kingdom","canonicalUrl":"https://foursquare.com/v/port-o-leith-bar/4c5fa9ecb6f3be9a4ec65d73","categoryId":"4bf58dd8d48988d11b941735","category":"Pub","checkinsCount":105,"usersCount":73,"tipCount":6,"visitsCount":105,"tier":"","message":"","currency":"","rating":7.1},{"name":"Ensign Ewart","phone":"+441312257440","address":"521-523 Lawnmarket","lat":55.9491219708464,"lng":-3.194252152661598,"neighborhood":"Cowgate","city_fetched":"Bonnyrigg,UK","state":"Edinburgh","country":"United Kingdom","canonicalUrl":"https://foursquare.com/v/ensign-ewart/4af4a39ef964a52092f421e3","categoryId":"4bf58dd8d48988d11b941735","category":"Pub","checkinsCount":539,"usersCount":580,"tipCount":11,"visitsCount":625,"tier":"","message":"","currency":"","rating":7.1},{"name":"The White Horse","lat":55.950682,"lng":-3.183662,"neighborhood":"Canongate","city_fetched":"Bonnyrigg,UK","country":"United Kingdom","canonicalUrl":"https://foursquare.com/v/the-white-horse/4c70555ab5a5236a2a0c5052","categoryId":"4bf58dd8d48988d116941735","category":"Bar","checkinsCount":289,"usersCount":232,"tipCount":9,"visitsCount":291,"tier":"","message":"","currency":"","rating":7},{"name":"Boda Bar","phone":"+441315535900","twitter":"boda_bar_tweets","address":"229 Leith Walk","lat":55.9665752530819,"lng":-3.175102472305298,"neighborhood":"Leith","city_fetched":"Bonnyrigg,UK","state":"Edinburgh","country":"United Kingdom","canonicalUrl":"https://foursquare.com/v/boda-bar/4b157e8ef964a520acad23e3","categoryId":"4bf58dd8d48988d116941735","category":"Bar","checkinsCount":315,"usersCount":162,"tipCount":5,"visitsCount":315,"url":"http://www.bodabar.com","tier":"","message":"","currency":"","rating":7},{"name":"The Standing Order (Wetherspoon)","phone":"+441312254460","address":"62-66 George St","lat":55.95285236982974,"lng":-3.1995209447125013,"neighborhood":"New Town","city_fetched":"Bonnyrigg,UK","state":"Edinburgh","country":"United Kingdom","canonicalUrl":"https://foursquare.com/v/the-standing-order-wetherspoon/4b05881ef964a520e0b222e3","categoryId":"4bf58dd8d48988d11b941735","category":"Pub","checkinsCount":4265,"usersCount":3142,"tipCount":67,"visitsCount":5090,"url":"http://www.jdwetherspoon.co.uk","tier":1,"message":"Cheap","currency":"£","rating":7},{"name":"Wolf+Water","lat":55.9772506454994,"lng":-3.1729993034045494,"neighborhood":"Leith","city_fetched":"Bonnyrigg,UK","country":"United Kingdom","canonicalUrl":"https://foursquare.com/v/wolfwater/554cec71498e53034f7f5665","categoryId":"4bf58dd8d48988d116941735","category":"Bar","checkinsCount":127,"usersCount":63,"tipCount":4,"visitsCount":129,"tier":"","message":"","currency":"","rating":7},{"name":"Element","phone":"+441312253297","twitter":"elementbaredin","address":"110-114 Rose St","lat":55.952148,"lng":-3.20060334,"neighborhood":"New Town","city_fetched":"Bonnyrigg,UK","state":"Edinburgh","country":"United Kingdom","canonicalUrl":"https://foursquare.com/v/element/4b5a3d71f964a520bdb628e3","categoryId":"4bf58dd8d48988d116941735","category":"Bar","checkinsCount":646,"usersCount":623,"tipCount":9,"visitsCount":805,"url":"http://www.elementedinburgh.co.uk","tier":"","message":"","currency":"","rating":7},{"name":"Malt Shovel","address":"11 Cockburn Street","lat":55.950613,"lng":-3.190818,"neighborhood":"Waverley Station","city_fetched":"Bonnyrigg,UK","state":"Edinburgh","country":"United Kingdom","canonicalUrl":"https://foursquare.com/v/malt-shovel/4b05881df964a5209eb222e3","categoryId":"4bf58dd8d48988d116941735","category":"Bar","checkinsCount":885,"usersCount":796,"tipCount":14,"visitsCount":923,"tier":"","message":"","currency":"","rating":7},{"name":"The Earl of Marchmont","phone":"+441316621877","address":"22 Marchmont Cr","lat":55.937976424664704,"lng":-3.1928157806396484,"neighborhood":"Marchmont","city_fetched":"Bonnyrigg,UK","state":"Midlothian","country":"United Kingdom","canonicalUrl":"https://foursquare.com/v/the-earl-of-marchmont/4b943610f964a520dc6e34e3","categoryId":"4bf58dd8d48988d116941735","category":"Bar","checkinsCount":567,"usersCount":222,"tipCount":5,"visitsCount":638,"url":"http://theearlofmarchmont.blogspot.co.uk","tier":"","message":"","currency":"","rating":6.9},{"name":"Cask & Barrel Southside","address":"26 W Preston St","lat":55.93913,"lng":-3.1800106666666665,"neighborhood":"Newington","city_fetched":"Bonnyrigg,UK","state":"Midlothian","country":"United Kingdom","canonicalUrl":"https://foursquare.com/v/cask--barrel-southside/4bf03babc601a5933a73c3d1","categoryId":"4bf58dd8d48988d11b941735","category":"Pub","checkinsCount":268,"usersCount":153,"tipCount":11,"visitsCount":269,"tier":"","message":"","currency":"","rating":6.9},{"name":"The Golf Tavern","phone":"+441312215221","address":"30 - 31 Wright's Houses","lat":55.939906,"lng":-3.2036620000000084,"neighborhood":"Bruntsfield","city_fetched":"Bonnyrigg,UK","state":"Midlothian","country":"United Kingdom","canonicalUrl":"https://foursquare.com/v/the-golf-tavern/4bdd76d14ffaa5937e786ff7","categoryId":"4bf58dd8d48988d11b941735","category":"Pub","checkinsCount":928,"usersCount":443,"tipCount":15,"visitsCount":973,"tier":"","message":"","currency":"","rating":6.9},{"name":"Irish pub","address":"Off grass market","lat":55.9487017317585,"lng":-3.1935684245943747,"neighborhood":"Cowgate","city_fetched":"Bonnyrigg,UK","state":"Edinburgh","country":"United Kingdom","canonicalUrl":"https://foursquare.com/v/irish-pub/4e46fbcfaeb70e74f49ca3f9","categoryId":"4bf58dd8d48988d11b941735","category":"Pub","checkinsCount":60,"usersCount":56,"tipCount":1,"visitsCount":60,"tier":"","message":"","currency":"","rating":6.9},{"name":"The Mash Tun","phone":"+441316613896","address":"154 Easter Rd","lat":55.960080297436015,"lng":-3.1714386980839406,"neighborhood":"Leith","city_fetched":"Bonnyrigg,UK","state":"Edinburgh","country":"United Kingdom","canonicalUrl":"https://foursquare.com/v/the-mash-tun/501fe26be4b05ddc7e272bb9","categoryId":"4bf58dd8d48988d116941735","category":"Bar","checkinsCount":313,"usersCount":158,"tipCount":8,"visitsCount":384,"url":"http://www.mashtunedinburgh.co.uk","tier":"","message":"","currency":"","rating":6.9},{"name":"The Wally Dug","phone":"+441315576825","twitter":"thewallydug","address":"32 Northumberland St","lat":55.956905,"lng":-3.198761,"neighborhood":"New Town","city_fetched":"Bonnyrigg,UK","state":"Edinburgh","country":"United Kingdom","canonicalUrl":"https://foursquare.com/v/the-wally-dug/4c2a5a85b34ad13add22e8ce","categoryId":"4bf58dd8d48988d11b941735","category":"Pub","checkinsCount":168,"usersCount":107,"tipCount":6,"visitsCount":172,"tier":"","message":"","currency":"","rating":6.9},{"name":"Iglu","phone":"+441314765333","address":"2B Jamaica Street","lat":55.956103,"lng":-3.202637377777778,"neighborhood":"New Town","city_fetched":"Bonnyrigg,UK","state":"Midlothian","country":"United Kingdom","canonicalUrl":"https://foursquare.com/v/iglu/4b9aa440f964a520e8c835e3","categoryId":"4bf58dd8d48988d116941735","category":"Bar","checkinsCount":157,"usersCount":105,"tipCount":3,"visitsCount":157,"tier":"","message":"","currency":"","rating":6.9},{"name":"Mother's Gin & Draft Bar","phone":"+441312256490","address":"24 Howe St","lat":55.95624145941839,"lng":-3.2027401717659716,"neighborhood":"New Town","city_fetched":"Bonnyrigg,UK","state":"Edinburgh","country":"United Kingdom","canonicalUrl":"https://foursquare.com/v/mothers-gin--draft-bar/5324414e498ef46115a1b2a2","categoryId":"4bf58dd8d48988d116941735","category":"Bar","checkinsCount":66,"usersCount":53,"tipCount":2,"visitsCount":66,"url":"http://www.mothersedinburgh.co.uk","tier":"","message":"","currency":"","rating":6.9},{"name":"The Antiquary","phone":"+441312252858","twitter":"antiquarybar","address":"72-78 St. Stephen St","lat":55.95806569050047,"lng":-3.2062697410583496,"neighborhood":"New Town","city_fetched":"Bonnyrigg,UK","state":"Edinburgh","country":"United Kingdom","canonicalUrl":"https://foursquare.com/v/the-antiquary/4b05881ef964a520bcb222e3","categoryId":"4bf58dd8d48988d11b941735","category":"Pub","checkinsCount":794,"usersCount":206,"tipCount":5,"visitsCount":825,"url":"http://www.theantiquarybar.co.uk","tier":"","message":"","currency":"","rating":6.8},{"name":"North Bridge Brasserie","phone":"+441316222900","address":"20 North Bridge","lat":55.951074078335694,"lng":-3.188159465789795,"neighborhood":"Waverley Station","city_fetched":"Bonnyrigg,UK","state":"Edinburgh","country":"United Kingdom","canonicalUrl":"https://foursquare.com/v/north-bridge-brasserie/4bb787437421a593d398c040","categoryId":"4bf58dd8d48988d1d5941735","category":"Hotel Bar","checkinsCount":179,"usersCount":148,"tipCount":6,"visitsCount":180,"url":"http://www.northbridgebrasserie.com","tier":"","message":"","currency":"","rating":6.8},{"name":"The Canons' Gait","phone":"+441315564481","address":"232 Canongate","lat":55.950828,"lng":-3.18251,"neighborhood":"Canongate","city_fetched":"Bonnyrigg,UK","state":"Edinburgh","country":"United Kingdom","canonicalUrl":"https://foursquare.com/v/the-canons-gait/4b0daecdf964a520d34d23e3","categoryId":"4bf58dd8d48988d116941735","category":"Bar","checkinsCount":597,"usersCount":430,"tipCount":6,"visitsCount":609,"url":"http://www.gait.bar","tier":"","message":"","currency":"","rating":6.8},{"name":"Blackfriars Bar","address":"Blackfriars Street","lat":55.949268,"lng":-3.185456,"neighborhood":"Cowgate","city_fetched":"Bonnyrigg,UK","state":"Edinburgh","country":"United Kingdom","canonicalUrl":"https://foursquare.com/v/blackfriars-bar/517970dce4b071f44e4b3906","categoryId":"4bf58dd8d48988d116941735","category":"Bar","checkinsCount":102,"usersCount":87,"tipCount":2,"visitsCount":102,"tier":"","message":"","currency":"","rating":6.8},{"name":"Shakespeare's Bar","phone":"+441312288400","address":"65 Lothian Rd","lat":55.947402074606295,"lng":-3.2059987216405075,"neighborhood":"Edinburgh Castle","city_fetched":"Bonnyrigg,UK","state":"Edinburgh","country":"United Kingdom","canonicalUrl":"https://foursquare.com/v/shakespeares-bar/4b6331d4f964a520b9692ae3","categoryId":"4bf58dd8d48988d11b941735","category":"Pub","checkinsCount":791,"usersCount":507,"tipCount":8,"visitsCount":797,"tier":"","message":"","currency":"","rating":6.8},{"name":"Robertsons 37 Bar","phone":"+441312256185","address":"37 Rose St","lat":55.952683942860226,"lng":-3.197579383850097,"neighborhood":"New Town","city_fetched":"Bonnyrigg,UK","state":"Edinburgh","country":"United Kingdom","canonicalUrl":"https://foursquare.com/v/robertsons-37-bar/4ba7b2a9f964a520cfaa39e3","categoryId":"4bf58dd8d48988d11b941735","category":"Pub","checkinsCount":366,"usersCount":292,"tipCount":3,"visitsCount":375,"tier":"","message":"","currency":"","rating":6.7},{"name":"Footlights Bar & Grill","phone":"+441312296466","address":"7 Spittal St","lat":55.94595470264192,"lng":-3.2033747993724315,"neighborhood":"Edinburgh Castle","city_fetched":"Bonnyrigg,UK","state":"Edinburgh","country":"United Kingdom","canonicalUrl":"https://foursquare.com/v/footlights-bar--grill/4b05881df964a52090b222e3","categoryId":"4bf58dd8d48988d11d941735","category":"Sports Bar","checkinsCount":374,"usersCount":243,"tipCount":8,"visitsCount":379,"url":"http://www.footlightsbar.co.uk","tier":"","message":"","currency":"","rating":6.7},{"name":"The Lioness of Leith","phone":"+441316290580","twitter":"lionessofleith","address":"21-25 Duke St","lat":55.97020883171818,"lng":-3.1702769213782918,"neighborhood":"Leith","city_fetched":"Bonnyrigg,UK","state":"Edinburgh","country":"United Kingdom","canonicalUrl":"https://foursquare.com/v/the-lioness-of-leith/52af5c1511d2b6a3a5a54b64","categoryId":"4bf58dd8d48988d116941735","category":"Bar","checkinsCount":308,"usersCount":184,"tipCount":8,"visitsCount":413,"tier":"","message":"","currency":"","rating":6.7},{"name":"The Balmoral Bar","phone":"+441315247099","twitter":"the_balmoral","address":"The Balmoral Hotel","lat":55.95308710549911,"lng":-3.1895067899957805,"neighborhood":"Waverley Station","city_fetched":"Bonnyrigg,UK","state":"Edinburgh","country":"United Kingdom","canonicalUrl":"https://foursquare.com/v/the-balmoral-bar/4f5a6ba5e4b00e135f41eb7f","categoryId":"4bf58dd8d48988d1d5941735","category":"Hotel Bar","checkinsCount":409,"usersCount":275,"tipCount":7,"visitsCount":409,"tier":"","message":"","currency":"","rating":6.7},{"name":"Bar 50","address":"Smart City Cafe, Cowgate","lat":55.94908424304216,"lng":-3.185957084364233,"neighborhood":"Cowgate","city_fetched":"Bonnyrigg,UK","country":"United Kingdom","canonicalUrl":"https://foursquare.com/v/bar-50/4c2e0dd176a7ef3b07eddeb8","categoryId":"4bf58dd8d48988d11b941735","category":"Pub","checkinsCount":501,"usersCount":379,"tipCount":3,"visitsCount":509,"tier":"","message":"","currency":"","rating":6.6},{"name":"Juniper","phone":"+441315564901","twitter":"juniperedin","address":"20 Princes Street","lat":55.95294307845321,"lng":-3.191151534566291,"neighborhood":"Waverley Station","city_fetched":"Bonnyrigg,UK","country":"United Kingdom","canonicalUrl":"https://foursquare.com/v/juniper/5212684d11d2be687f5a196a","categoryId":"4bf58dd8d48988d11e941735","category":"Cocktail Bar","checkinsCount":197,"usersCount":127,"tipCount":3,"visitsCount":198,"url":"http://www.juniperedinburgh.co.uk","tier":"","message":"","currency":"","rating":6.6},{"name":"Villager","phone":"+441312262781","address":"49-50 George IV Bridge","lat":55.947997,"lng":-3.191844,"neighborhood":"Cowgate","city_fetched":"Bonnyrigg,UK","state":"Edinburgh","country":"United Kingdom","canonicalUrl":"https://foursquare.com/v/villager/4b71eb5af964a5202d642de3","categoryId":"4bf58dd8d48988d116941735","category":"Bar","checkinsCount":958,"usersCount":621,"tipCount":28,"visitsCount":959,"tier":"","message":"","currency":"","rating":6.6},{"name":"The Newsroom","phone":"+441315575830","address":"5-11 Leith St","lat":55.95392824716212,"lng":-3.188335153736639,"neighborhood":"New Town","city_fetched":"Bonnyrigg,UK","state":"Edinburgh","country":"United Kingdom","canonicalUrl":"https://foursquare.com/v/the-newsroom/4b15598ff964a52061ab23e3","categoryId":"4bf58dd8d48988d116941735","category":"Bar","checkinsCount":1237,"usersCount":883,"tipCount":16,"visitsCount":1304,"url":"http://www.newsroomedinburgh.co.uk","tier":"","message":"","currency":"","rating":6.6},{"name":"Conan Doyle","phone":"+441315579539","address":"71 York Pl","lat":55.956712,"lng":-3.187816,"neighborhood":"New Town","city_fetched":"Bonnyrigg,UK","state":"Edinburgh","country":"United Kingdom","canonicalUrl":"https://foursquare.com/v/conan-doyle/4b09a41ff964a520d81a23e3","categoryId":"4bf58dd8d48988d11b941735","category":"Pub","checkinsCount":1071,"usersCount":967,"tipCount":17,"visitsCount":1210,"url":"http://www.nicholsonspubs.co.uk/theconandoyleedinburgh/","tier":"","message":"","currency":"","rating":6.6},{"name":"Starbar","phone":"+441315398070","address":"1 Northumberland Pl","lat":55.957331,"lng":-3.195545,"neighborhood":"New Town","city_fetched":"Bonnyrigg,UK","state":"Edinburgh","country":"United Kingdom","canonicalUrl":"https://foursquare.com/v/starbar/4b9a8372f964a5208abc35e3","categoryId":"4bf58dd8d48988d11b941735","category":"Pub","checkinsCount":358,"usersCount":196,"tipCount":5,"visitsCount":434,"url":"http://www.starbar.co.uk","tier":"","message":"","currency":"","rating":6.6},{"name":"Doctors Bar","phone":"+441312251819","twitter":"doctorsbar","address":"32 Forrest Rd","lat":55.94537894572608,"lng":-3.1910347938537598,"neighborhood":"Newington","city_fetched":"Bonnyrigg,UK","state":"Midlothian","country":"United Kingdom","canonicalUrl":"https://foursquare.com/v/doctors-bar/4b37a8c7f964a520ca4325e3","categoryId":"4bf58dd8d48988d11b941735","category":"Pub","checkinsCount":1476,"usersCount":950,"tipCount":16,"visitsCount":1581,"tier":"","message":"","currency":"","rating":6.5},{"name":"56 North","phone":"+441316628860","address":"2-8 West Crosscauseway","lat":55.94389146205517,"lng":-3.185221169211895,"neighborhood":"Newington","city_fetched":"Bonnyrigg,UK","state":"Edinburgh","country":"United Kingdom","canonicalUrl":"https://foursquare.com/v/56-north/4b697d04f964a52040a42be3","categoryId":"4bf58dd8d48988d116941735","category":"Bar","checkinsCount":858,"usersCount":614,"tipCount":14,"visitsCount":1051,"url":"http://www.fiftysixnorth.co.uk","tier":"","message":"","currency":"","rating":6.5},{"name":"Gilded Garden","lat":55.94500911531135,"lng":-3.1881489782620185,"neighborhood":"Newington","city_fetched":"Bonnyrigg,UK","country":"United Kingdom","canonicalUrl":"https://foursquare.com/v/gilded-garden/502812cce4b0a90de2f7eab8","categoryId":"4bf58dd8d48988d117941735","category":"Beer Garden","checkinsCount":149,"usersCount":109,"tipCount":4,"visitsCount":149,"tier":"","message":"","currency":"","rating":6.5},{"name":"Electric Circus","address":"36-39 Market Street","lat":55.951067,"lng":-3.1898,"neighborhood":"Waverley Station","city_fetched":"Bonnyrigg,UK","state":"Edinburgh","country":"United Kingdom","canonicalUrl":"https://foursquare.com/v/electric-circus/4b05881ff964a52012b322e3","categoryId":"4bf58dd8d48988d120941735","category":"Karaoke Bar","checkinsCount":724,"usersCount":466,"tipCount":6,"visitsCount":731,"tier":"","message":"","currency":"","rating":6.5},{"name":"The Beehive Inn","phone":"+441312257171","address":"18 Grassmarket","lat":55.947258478447004,"lng":-3.196962258848135,"neighborhood":"Grassmarket","city_fetched":"Bonnyrigg,UK","state":"Edinburgh","country":"United Kingdom","canonicalUrl":"https://foursquare.com/v/the-beehive-inn/4b05881ef964a520b8b222e3","categoryId":"4bf58dd8d48988d11b941735","category":"Pub","checkinsCount":1836,"usersCount":1536,"tipCount":34,"visitsCount":1867,"tier":"","message":"","currency":"","rating":6.5},{"name":"Supercube","address":"58a George Street","lat":55.953076,"lng":-3.199274,"neighborhood":"New Town","city_fetched":"Bonnyrigg,UK","state":"Edinburgh","country":"United Kingdom","canonicalUrl":"https://foursquare.com/v/supercube/4cc9adafdbc376b00681a4bc","categoryId":"4bf58dd8d48988d120941735","category":"Karaoke Bar","checkinsCount":226,"usersCount":142,"tipCount":2,"visitsCount":228,"tier":"","message":"","currency":"","rating":6.5},{"name":"The Tron","phone":"+441312253784","address":"9 Hunter Sq","lat":55.94971060752869,"lng":-3.18766,"neighborhood":"Cowgate","city_fetched":"Bonnyrigg,UK","state":"Edinburgh","country":"United Kingdom","canonicalUrl":"https://foursquare.com/v/the-tron/4b05881df964a52098b222e3","categoryId":"4bf58dd8d48988d11b941735","category":"Pub","checkinsCount":1721,"usersCount":1080,"tipCount":34,"visitsCount":1747,"url":"http://www.thetronedinburgh.co.uk","tier":"","message":"","currency":"","rating":6.4},{"name":"The Steading","address":"118 -120 Biggar Road","lat":55.8906638,"lng":-3.201043,"city_fetched":"Bonnyrigg,UK","state":"Edinburgh","country":"United Kingdom","canonicalUrl":"https://foursquare.com/v/the-steading/4b190e19f964a5207fd723e3","categoryId":"4bf58dd8d48988d11b941735","category":"Pub","checkinsCount":190,"usersCount":183,"tipCount":5,"visitsCount":248,"tier":"","message":"","currency":"","rating":6.4},{"name":"The Links Hotel and Bar","phone":"+441312293834","twitter":"linksedinburgh","address":"2-4 Alvanley Tce.","lat":55.937498,"lng":-3.2030161,"neighborhood":"Bruntsfield","city_fetched":"Bonnyrigg,UK","state":"Edinburgh","country":"United Kingdom","canonicalUrl":"https://foursquare.com/v/the-links-hotel-and-bar/4b466c33f964a5206b2026e3","categoryId":"4bf58dd8d48988d11b941735","category":"Pub","checkinsCount":413,"usersCount":213,"tipCount":10,"visitsCount":431,"url":"http://www.links-hotel-edinburgh.co.uk","tier":"","message":"","currency":"","rating":6.3},{"name":"No 1","twitter":"no1_highstreet","address":"1 High St","lat":55.95068869555225,"lng":-3.184310514916713,"neighborhood":"Waverley Station","city_fetched":"Bonnyrigg,UK","state":"Edinburgh","country":"United Kingdom","canonicalUrl":"https://foursquare.com/v/no-1/4f919bdfe4b0d7edb4e9dc91","categoryId":"4bf58dd8d48988d11b941735","category":"Pub","checkinsCount":733,"usersCount":552,"tipCount":18,"visitsCount":761,"tier":"","message":"","currency":"","rating":6.3},{"name":"Biddy Mulligan's","phone":"+441312201246","address":"96 Grassmarket","lat":55.9478434,"lng":-3.194829,"neighborhood":"Grassmarket","city_fetched":"Bonnyrigg,UK","country":"United Kingdom","canonicalUrl":"https://foursquare.com/v/biddy-mulligans/4b05881ef964a520c4b222e3","categoryId":"4bf58dd8d48988d11b941735","category":"Pub","checkinsCount":1597,"usersCount":1369,"tipCount":26,"visitsCount":1658,"tier":"","message":"","currency":"","rating":6.3},{"name":"Opal Lounge","phone":"+441312262275","twitter":"opallounge","address":"51a George St","lat":55.95330278647778,"lng":-3.199022366368208,"neighborhood":"New Town","city_fetched":"Bonnyrigg,UK","state":"Edinburgh","country":"United Kingdom","canonicalUrl":"https://foursquare.com/v/opal-lounge/4b0f2bb7f964a520f55f23e3","categoryId":"4bf58dd8d48988d11f941735","category":"Nightclub","checkinsCount":751,"usersCount":419,"tipCount":7,"visitsCount":779,"url":"http://www.opallounge.co.uk","tier":"","message":"","currency":"","rating":6.3},{"name":"Grand Cru","phone":"+441312266427","twitter":"grandcrubar","address":"79-83 Hanover St","lat":55.95395145495043,"lng":-3.197531143974331,"neighborhood":"New Town","city_fetched":"Bonnyrigg,UK","state":"Edinburgh","country":"United Kingdom","canonicalUrl":"https://foursquare.com/v/grand-cru/4b1171a1f964a520ab7c23e3","categoryId":"4bf58dd8d48988d116941735","category":"Bar","checkinsCount":891,"usersCount":524,"tipCount":11,"visitsCount":914,"url":"http://grandcrubar.co.uk","tier":"","message":"","currency":"","rating":6.3},{"name":"The Mash House","phone":"+441312202514","twitter":"themashhouse","address":"37 Guthrie St","lat":55.948492505984,"lng":-3.1873592858798703,"neighborhood":"Cowgate","city_fetched":"Bonnyrigg,UK","state":"Edinburgh","country":"United Kingdom","canonicalUrl":"https://foursquare.com/v/the-mash-house/555e1f1b498e23396ae3d177","categoryId":"4bf58dd8d48988d116941735","category":"Bar","checkinsCount":105,"usersCount":66,"tipCount":3,"visitsCount":105,"url":"http://themashhouse.co.uk","tier":"","message":"","currency":"","rating":6.3},{"name":"The Blind Poet","phone":"+441316674268","address":"32 West Nicolson Street","lat":55.94456,"lng":-3.185425,"neighborhood":"Newington","city_fetched":"Bonnyrigg,UK","state":"Midlothian","country":"United Kingdom","canonicalUrl":"https://foursquare.com/v/the-blind-poet/4af48605f964a52078f321e3","categoryId":"4bf58dd8d48988d11b941735","category":"Pub","checkinsCount":575,"usersCount":296,"tipCount":8,"visitsCount":587,"tier":"","message":"","currency":"","rating":6.3},{"name":"Sportsters","address":"1A Market St.","lat":55.95125535029849,"lng":-3.18881916226874,"neighborhood":"Waverley Station","city_fetched":"Bonnyrigg,UK","state":"Edinburgh","country":"United Kingdom","canonicalUrl":"https://foursquare.com/v/sportsters/4b65a421f964a5207ff72ae3","categoryId":"4bf58dd8d48988d11d941735","category":"Sports Bar","checkinsCount":642,"usersCount":280,"tipCount":7,"visitsCount":648,"tier":"","message":"","currency":"","rating":6.2},{"name":"Mathers","phone":"+441315566754","address":"25 Broughton St","lat":55.956984,"lng":-3.18792585,"neighborhood":"Broughton","city_fetched":"Bonnyrigg,UK","state":"Edinburgh","country":"United Kingdom","canonicalUrl":"https://foursquare.com/v/mathers/4b05881ef964a520d5b222e3","categoryId":"4bf58dd8d48988d116941735","category":"Bar","checkinsCount":269,"usersCount":174,"tipCount":2,"visitsCount":271,"tier":"","message":"","currency":"","rating":6.2},{"name":"Biblos","phone":"+441312267177","address":"Chambers St","lat":55.947992916666664,"lng":-3.186747,"neighborhood":"Newington","city_fetched":"Bonnyrigg,UK","state":"Edinburgh","country":"United Kingdom","canonicalUrl":"https://foursquare.com/v/biblos/4b40e291f964a520c2bc25e3","categoryId":"4bf58dd8d48988d116941735","category":"Bar","checkinsCount":982,"usersCount":741,"tipCount":22,"visitsCount":1002,"url":"http://www.biblosedinburgh.co.uk","tier":"","message":"","currency":"","rating":6.2},{"name":"The Black Rose Tavern","phone":"+441312200414","address":"49 Rose St","lat":55.95262387449068,"lng":-3.198115825653076,"neighborhood":"New Town","city_fetched":"Bonnyrigg,UK","state":"Edinburgh","country":"United Kingdom","canonicalUrl":"https://foursquare.com/v/the-black-rose-tavern/4b47b35ff964a5200d3b26e3","categoryId":"4bf58dd8d48988d11b941735","category":"Pub","checkinsCount":941,"usersCount":813,"tipCount":24,"visitsCount":974,"url":"http://www.blackrosetavern.com","tier":"","message":"","currency":"","rating":6.2},{"name":"Tolbooth Tavern","phone":"+441315565348","address":"167 Canongate","lat":55.95145,"lng":-3.180108,"neighborhood":"Canongate","city_fetched":"Bonnyrigg,UK","state":"Midlothian","country":"United Kingdom","canonicalUrl":"https://foursquare.com/v/tolbooth-tavern/4bec4421976ac9288dc2600b","categoryId":"4bf58dd8d48988d11b941735","category":"Pub","checkinsCount":558,"usersCount":538,"tipCount":17,"visitsCount":609,"url":"http://www.tolboothtavern.com","tier":"","message":"","currency":"","rating":6.2},{"name":"Auld Hundred","phone":"+441312251809","address":"100 Rose St","lat":55.95238360008053,"lng":-3.1993603706359863,"neighborhood":"New Town","city_fetched":"Bonnyrigg,UK","state":"Midlothian","country":"United Kingdom","canonicalUrl":"https://foursquare.com/v/auld-hundred/4b9fd2f6f964a520fc4137e3","categoryId":"4bf58dd8d48988d11b941735","category":"Pub","checkinsCount":511,"usersCount":436,"tipCount":13,"visitsCount":514,"url":"http://www.auldhundred.co.uk","tier":"","message":"","currency":"","rating":6.2},{"name":"The Alexander Graham Bell (Wetherspoon)","phone":"+441312408220","address":"126-128 George St","lat":55.95208777328418,"lng":-3.2053348299940967,"neighborhood":"New Town","city_fetched":"Bonnyrigg,UK","state":"Edinburgh","country":"United Kingdom","canonicalUrl":"https://foursquare.com/v/the-alexander-graham-bell-wetherspoon/4c14f081a5eb76b0506ec2b7","categoryId":"4bf58dd8d48988d11b941735","category":"Pub","checkinsCount":1854,"usersCount":919,"tipCount":14,"visitsCount":1934,"url":"http://www.jdwetherspoon.co.uk","tier":1,"message":"Cheap","currency":"£","rating":6.2},{"name":"Milnes Bar","phone":"+441312256738","twitter":"taylorwalkerpub","address":"35 Hanover St","lat":55.952864147409656,"lng":-3.196613788604736,"city_fetched":"Bonnyrigg,UK","state":"Edinburgh","country":"United Kingdom","canonicalUrl":"https://foursquare.com/v/milnes-bar/4b05881ef964a520d7b222e3","categoryId":"4bf58dd8d48988d11b941735","category":"Pub","checkinsCount":1363,"usersCount":1179,"tipCount":20,"visitsCount":1475,"url":"http://www.taylor-walker.co.uk","tier":"","message":"","currency":"","rating":6.1},{"name":"The Counting House","twitter":"jdwtweet","address":"38 West Nicolson St.","lat":55.944609,"lng":-3.185391,"neighborhood":"Newington","city_fetched":"Bonnyrigg,UK","state":"Midlothian","country":"United Kingdom","canonicalUrl":"https://foursquare.com/v/the-counting-house/4c31e95609a99c74d96e0b2a","categoryId":"4bf58dd8d48988d11b941735","category":"Pub","checkinsCount":499,"usersCount":279,"tipCount":1,"visitsCount":512,"tier":"","message":"","currency":"","rating":6.1},{"name":"The Street","phone":"+441315564272","address":"2b Picardy Pl","lat":55.95677517634883,"lng":-3.1877292842959064,"neighborhood":"Broughton","city_fetched":"Bonnyrigg,UK","state":"Edinburgh","country":"United Kingdom","canonicalUrl":"https://foursquare.com/v/the-street/4bb7b3b498c7ef3be4383002","categoryId":"4bf58dd8d48988d116941735","category":"Bar","checkinsCount":2016,"usersCount":545,"tipCount":10,"visitsCount":2046,"url":"http://www.thestreetbaredinburgh.co.uk","tier":"","message":"","currency":"","rating":6.1},{"name":"The Southsider","lat":55.945322,"lng":-3.184027,"neighborhood":"Newington","city_fetched":"Bonnyrigg,UK","country":"United Kingdom","canonicalUrl":"https://foursquare.com/v/the-southsider/4baa9f21f964a520637a3ae3","categoryId":"4bf58dd8d48988d11b941735","category":"Pub","checkinsCount":473,"usersCount":320,"tipCount":9,"visitsCount":500,"tier":"","message":"","currency":"","rating":6.1},{"name":"Candy Bar","address":"113-115 George Street","lat":55.95239904146988,"lng":-3.204185088396416,"neighborhood":"New Town","city_fetched":"Bonnyrigg,UK","state":"Edinburgh","country":"United Kingdom","canonicalUrl":"https://foursquare.com/v/candy-bar/4b05881ff964a52000b322e3","categoryId":"4bf58dd8d48988d116941735","category":"Bar","checkinsCount":558,"usersCount":350,"tipCount":8,"visitsCount":561,"tier":"","message":"","currency":"","rating":6.1},{"name":"All Bar One","phone":"+441312269971","twitter":"allbaronenews","address":"29 George St","lat":55.953675,"lng":-3.19734,"neighborhood":"New Town","city_fetched":"Bonnyrigg,UK","state":"Edinburgh","country":"United Kingdom","canonicalUrl":"https://foursquare.com/v/all-bar-one/4b05881ef964a520bbb222e3","categoryId":"4bf58dd8d48988d116941735","category":"Bar","checkinsCount":1247,"usersCount":805,"tipCount":19,"visitsCount":1252,"url":"http://www.allbarone.co.uk","tier":"","message":"","currency":"","rating":6},{"name":"The Wee Pub","address":"Grassmarket","lat":55.9477864644947,"lng":-3.194827585046342,"neighborhood":"Grassmarket","city_fetched":"Bonnyrigg,UK","state":"Edinburgh","country":"United Kingdom","canonicalUrl":"https://foursquare.com/v/the-wee-pub/520565c111d2ea8c20f80353","categoryId":"4bf58dd8d48988d11b941735","category":"Pub","checkinsCount":130,"usersCount":124,"tipCount":1,"visitsCount":130,"tier":"","message":"","currency":"","rating":6},{"name":"Green Mantle","phone":"+441316628741","twitter":"greenmantlepub","address":"44 West Crosscauseway","lat":55.94380497665231,"lng":-3.1835356559872046,"neighborhood":"Newington","city_fetched":"Bonnyrigg,UK","state":"Edinburgh","country":"United Kingdom","canonicalUrl":"https://foursquare.com/v/green-mantle/4c9521e558d4b60c857b2f29","categoryId":"4bf58dd8d48988d11b941735","category":"Pub","checkinsCount":1243,"usersCount":375,"tipCount":11,"visitsCount":1250,"url":"http://www.greenmantlepub.co.uk","tier":"","message":"","currency":"","rating":6},{"name":"CC Blooms","phone":"+441315569331","address":"23-24 Greenside Pl","lat":55.95719575628728,"lng":-3.185424016636508,"city_fetched":"Bonnyrigg,UK","state":"Edinburgh","country":"United Kingdom","canonicalUrl":"https://foursquare.com/v/cc-blooms/4b05881df964a52097b222e3","categoryId":"4bf58dd8d48988d1d8941735","category":"Gay Bar","checkinsCount":1610,"usersCount":686,"tipCount":13,"visitsCount":1713,"url":"http://ccbloomsedinburgh.com","tier":"","message":"","currency":"","rating":6},{"name":"Planet Bar","phone":"+441315565551","address":"6 Baxter's Pl","lat":55.957609232016566,"lng":-3.184661865234375,"city_fetched":"Bonnyrigg,UK","state":"Edinburgh","country":"United Kingdom","canonicalUrl":"https://foursquare.com/v/planet-bar/4bdf385e6198c9b68d5f16ff","categoryId":"4bf58dd8d48988d1d8941735","category":"Gay Bar","checkinsCount":857,"usersCount":260,"tipCount":7,"visitsCount":863,"tier":"","message":"","currency":"","rating":6},{"name":"Bennets Bar","phone":"+441312295143","address":"8 Leven St","lat":55.941789286865344,"lng":-3.2034513198397825,"neighborhood":"Fountainbridge","city_fetched":"Bonnyrigg,UK","state":"Edinburgh","country":"United Kingdom","canonicalUrl":"https://foursquare.com/v/bennets-bar/4b05881ef964a520b9b222e3","categoryId":"4bf58dd8d48988d116941735","category":"Bar","checkinsCount":394,"usersCount":260,"tipCount":6,"visitsCount":401,"url":"http://www.bennetsbar.co.uk","tier":"","message":"","currency":"","rating":5.9},{"name":"Monboddo Bar","address":"34 Bread Street","lat":55.94588,"lng":-3.203436,"neighborhood":"Edinburgh Castle","city_fetched":"Bonnyrigg,UK","state":"Edinburgh","country":"United Kingdom","canonicalUrl":"https://foursquare.com/v/monboddo-bar/4b05881ef964a520d8b222e3","categoryId":"4bf58dd8d48988d123941735","category":"Wine Bar","checkinsCount":315,"usersCount":173,"tipCount":3,"visitsCount":316,"tier":"","message":"","currency":"","rating":5.9},{"name":"Ecco Vino","phone":"+441312251441","address":"19 Cockburn St.","lat":55.950564,"lng":-3.190407,"neighborhood":"Waverley Station","city_fetched":"Bonnyrigg,UK","state":"Edinburgh","country":"United Kingdom","canonicalUrl":"https://foursquare.com/v/ecco-vino/4b0abeaaf964a520342723e3","categoryId":"4bf58dd8d48988d123941735","category":"Wine Bar","checkinsCount":451,"usersCount":327,"tipCount":8,"visitsCount":455,"tier":"","message":"","currency":"","rating":5.9},{"name":"Belushi's","phone":"+441312261446","twitter":"belushis","address":"13 Market St","lat":55.951021,"lng":-3.190181,"neighborhood":"Waverley Station","city_fetched":"Bonnyrigg,UK","state":"Edinburgh","country":"United Kingdom","canonicalUrl":"https://foursquare.com/v/belushis/4bb720c62ea195217c91ac2f","categoryId":"4bf58dd8d48988d116941735","category":"Bar","checkinsCount":636,"usersCount":484,"tipCount":7,"visitsCount":637,"url":"https://www.belushis.com","tier":"","message":"","currency":"","rating":5.9},{"name":"Rose Street Brewery","phone":"+441312201227","twitter":"dodropinns","address":"55-57 Rose St","lat":55.952491723749624,"lng":-3.1989312171936035,"neighborhood":"New Town","city_fetched":"Bonnyrigg,UK","state":"Edinburgh","country":"United Kingdom","canonicalUrl":"https://foursquare.com/v/rose-street-brewery/4b05881ef964a520dcb222e3","categoryId":"4bf58dd8d48988d11b941735","category":"Pub","checkinsCount":720,"usersCount":619,"tipCount":11,"visitsCount":724,"url":"http://www.dodropinns.co.uk","tier":"","message":"","currency":"","rating":5.9},{"name":"Habana","phone":"+441315581270","twitter":"habanaedinburgh","address":"22 Greenside Pl","lat":55.95700862054739,"lng":-3.185681104660034,"city_fetched":"Bonnyrigg,UK","state":"Edinburgh","country":"United Kingdom","canonicalUrl":"https://foursquare.com/v/habana/4bb66d31f562ef3bd9233097","categoryId":"4bf58dd8d48988d1d8941735","category":"Gay Bar","checkinsCount":1489,"usersCount":333,"tipCount":8,"visitsCount":1491,"tier":"","message":"","currency":"","rating":5.9},{"name":"The Jinglin' Geordie","address":"Fleshmarket Close","lat":55.951149,"lng":-3.1888068,"neighborhood":"Waverley Station","city_fetched":"Bonnyrigg,UK","state":"Edinburgh","country":"United Kingdom","canonicalUrl":"https://foursquare.com/v/the-jinglin-geordie/4b250fccf964a520ce6b24e3","categoryId":"4bf58dd8d48988d11b941735","category":"Pub","checkinsCount":194,"usersCount":164,"tipCount":3,"visitsCount":194,"tier":"","message":"","currency":"","rating":5.9},{"name":"The Parlour","phone":"+441315553848","twitter":"parlourbar","address":"142 Duke St","lat":55.969175,"lng":-3.167752925,"neighborhood":"Leith","city_fetched":"Bonnyrigg,UK","state":"Edinburgh","country":"United Kingdom","canonicalUrl":"https://foursquare.com/v/the-parlour/4c6c512023c1a1cd283b19cf","categoryId":"4bf58dd8d48988d116941735","category":"Bar","checkinsCount":250,"usersCount":77,"tipCount":6,"visitsCount":253,"url":"http://theparlouredinburgh.com","tier":"","message":"","currency":"","rating":5.9},{"name":"The Merlin","phone":"+441314474329","address":"168 Morningside Rd","lat":55.92927425027417,"lng":-3.2098960876464844,"neighborhood":"Morningside","city_fetched":"Bonnyrigg,UK","state":"Midlothian","country":"United Kingdom","canonicalUrl":"https://foursquare.com/v/the-merlin/4b589395f964a520225f28e3","categoryId":"4bf58dd8d48988d11b941735","category":"Pub","checkinsCount":514,"usersCount":320,"tipCount":15,"visitsCount":584,"url":"http://www.themerlin-edinburgh.co.uk","tier":"","message":"","currency":"","rating":5.8},{"name":"Why Not Nightclub","phone":"+441316248633","twitter":"whynotnightclub","address":"14 George St","lat":55.95321877249661,"lng":-3.195540106211222,"neighborhood":"New Town","city_fetched":"Bonnyrigg,UK","state":"Edinburgh","country":"United Kingdom","canonicalUrl":"https://foursquare.com/v/why-not-nightclub/4bfb0d7c65fbc9b6e5ec906c","categoryId":"4bf58dd8d48988d11f941735","category":"Nightclub","checkinsCount":362,"usersCount":259,"tipCount":9,"visitsCount":364,"url":"http://wnclub.co.uk","tier":"","message":"","currency":"","rating":5.8},{"name":"Lady Nairne (Beefeater)","phone":"+441316613396","twitter":"beefeatergrill","address":"228-258 Willowbrae Rd","lat":55.946633236797,"lng":-3.13685165102328,"neighborhood":"Duddingston","city_fetched":"Bonnyrigg,UK","state":"Edinburgh","country":"United Kingdom","canonicalUrl":"https://foursquare.com/v/lady-nairne-beefeater/4bfecf29daf9c9b67a4cf9ef","categoryId":"4bf58dd8d48988d11b941735","category":"Pub","checkinsCount":231,"usersCount":93,"tipCount":1,"visitsCount":245,"url":"http://www.beefeater.co.uk","tier":"","message":"","currency":"","rating":5.8},{"name":"Cav","phone":"+441312283252","address":"3 W Tollcross","lat":55.94335933227771,"lng":-3.204470411133475,"neighborhood":"Lochrin","city_fetched":"Bonnyrigg,UK","state":"Edinburgh","country":"United Kingdom","canonicalUrl":"https://foursquare.com/v/cav/5056794fe4b04ed4f1b1e506","categoryId":"4bf58dd8d48988d11f941735","category":"Nightclub","checkinsCount":286,"usersCount":151,"tipCount":4,"visitsCount":287,"url":"http://www.thecav.co.uk","tier":"","message":"","currency":"","rating":5.8},{"name":"The Hebrides Bar","phone":"+441312204213","address":"17 Market Street","lat":55.95090587967244,"lng":-3.1902408599853516,"neighborhood":"Waverley Station","city_fetched":"Bonnyrigg,UK","state":"Edinburgh","country":"United Kingdom","canonicalUrl":"https://foursquare.com/v/the-hebrides-bar/4bb904283db7b71336e6219a","categoryId":"4bf58dd8d48988d116941735","category":"Bar","checkinsCount":184,"usersCount":162,"tipCount":4,"visitsCount":184,"tier":"","message":"","currency":"","rating":5.8},{"name":"The Chanter","phone":"+441312210575","twitter":"chanter_edinbur","address":"30-32 Bread St","lat":55.94590915546426,"lng":-3.2036660032135797,"neighborhood":"Edinburgh Castle","city_fetched":"Bonnyrigg,UK","state":"Edinburgh","country":"United Kingdom","canonicalUrl":"https://foursquare.com/v/the-chanter/4b475250f964a520da2e26e3","categoryId":"4bf58dd8d48988d116941735","category":"Bar","checkinsCount":1159,"usersCount":464,"tipCount":11,"visitsCount":1182,"url":"http://www.thechanterpub.co.uk","tier":"","message":"","currency":"","rating":5.8},{"name":"Hunters Tryst","address":"97 Oxgangs Rd","lat":55.902268,"lng":-3.221082,"city_fetched":"Bonnyrigg,UK","country":"United Kingdom","canonicalUrl":"https://foursquare.com/v/hunters-tryst/4ca37cd4d5a2a143e1da4990","categoryId":"4bf58dd8d48988d11b941735","category":"Pub","checkinsCount":199,"usersCount":102,"tipCount":8,"visitsCount":242,"tier":"","message":"","currency":"","rating":5.8},{"name":"The Argyle Bar","address":"Sciennes Road","lat":55.93811273574829,"lng":-3.191404938697815,"neighborhood":"Marchmont","city_fetched":"Bonnyrigg,UK","state":"Edinburgh","country":"United Kingdom","canonicalUrl":"https://foursquare.com/v/the-argyle-bar/4bc605c3f360ef3b4b00db2d","categoryId":"4bf58dd8d48988d11b941735","category":"Pub","checkinsCount":169,"usersCount":108,"tipCount":2,"visitsCount":171,"tier":"","message":"","currency":"","rating":5.7},{"name":"Henrick's Bar","phone":"+441312292442","address":"3 Barclay Pl.","lat":55.9404332370403,"lng":-3.203986342816929,"neighborhood":"Fountainbridge","city_fetched":"Bonnyrigg,UK","state":"Midlothian","country":"United Kingdom","canonicalUrl":"https://foursquare.com/v/henricks-bar/4bd213de046076b0772c7371","categoryId":"4bf58dd8d48988d11b941735","category":"Pub","checkinsCount":419,"usersCount":196,"tipCount":6,"visitsCount":421,"tier":"","message":"","currency":"","rating":5.7},{"name":"The Booking Office (Wetherspoon)","lat":55.95178046116897,"lng":-3.191474275160235,"neighborhood":"Waverley Station","city_fetched":"Bonnyrigg,UK","state":"Edinburgh","country":"United Kingdom","canonicalUrl":"https://foursquare.com/v/the-booking-office-wetherspoon/576191fb498e95975b581854","categoryId":"4bf58dd8d48988d11b941735","category":"Pub","checkinsCount":83,"usersCount":68,"tipCount":2,"visitsCount":83,"tier":"","message":"","currency":"","rating":5.7},{"name":"The Outhouse","phone":"+441315576668","twitter":"theouthousebar","address":"12A Broughton St Ln","lat":55.95738553889332,"lng":-3.187090531911863,"neighborhood":"Broughton","city_fetched":"Bonnyrigg,UK","state":"Edinburgh","country":"United Kingdom","canonicalUrl":"https://foursquare.com/v/the-outhouse/4b05881ef964a520dab222e3","categoryId":"4bf58dd8d48988d116941735","category":"Bar","checkinsCount":432,"usersCount":281,"tipCount":5,"visitsCount":438,"url":"http://www.outhouse-edinburgh.co.uk/#!/home.","tier":"","message":"","currency":"","rating":5.7},{"name":"Lola Lo","phone":"+441312262224","twitter":"lolaloed","address":"43B Frederick St","lat":55.953362,"lng":-3.200658,"neighborhood":"New Town","city_fetched":"Bonnyrigg,UK","state":"Edinburgh","country":"United Kingdom","canonicalUrl":"https://foursquare.com/v/lola-lo/4e5064f1483bb770491e7b0a","categoryId":"4bf58dd8d48988d11f941735","category":"Nightclub","checkinsCount":105,"usersCount":82,"tipCount":2,"visitsCount":105,"url":"http://www.lolaloedinburgh.com","tier":"","message":"","currency":"","rating":5.6},{"name":"Opium","phone":"+441312258382","address":"71 Cowgate","lat":55.94816654144937,"lng":-3.1915712356567383,"neighborhood":"Cowgate","city_fetched":"Bonnyrigg,UK","state":"Edinburgh","country":"United Kingdom","canonicalUrl":"https://foursquare.com/v/opium/4b11a8bbf964a5209d8123e3","categoryId":"4bf58dd8d48988d11f941735","category":"Nightclub","checkinsCount":956,"usersCount":484,"tipCount":7,"visitsCount":981,"url":"http://www.opiumedinburgh.co.uk","tier":"","message":"","currency":"","rating":5.6},{"name":"Lulu","phone":"+441312255005","twitter":"lulu_edinburgh","address":"125B George St","lat":55.952302666025844,"lng":-3.2051749327393946,"neighborhood":"New Town","city_fetched":"Bonnyrigg,UK","state":"Edinburgh","country":"United Kingdom","canonicalUrl":"https://foursquare.com/v/lulu/4b05881ff964a52002b322e3","categoryId":"4bf58dd8d48988d11f941735","category":"Nightclub","checkinsCount":583,"usersCount":334,"tipCount":9,"visitsCount":587,"url":"http://www.luluedinburgh.co.uk","tier":"","message":"","currency":"","rating":5.6},{"name":"Wash Bar","phone":"+441312256193","address":"11-13 North Bank Street","lat":55.95004084643365,"lng":-3.194403648376465,"neighborhood":"The Mound","city_fetched":"Bonnyrigg,UK","state":"Edinburgh","country":"United Kingdom","canonicalUrl":"https://foursquare.com/v/wash-bar/4b915884f964a520f5b433e3","categoryId":"4bf58dd8d48988d11b941735","category":"Pub","checkinsCount":475,"usersCount":378,"tipCount":4,"visitsCount":483,"url":"http://www.washbar.co.uk","tier":"","message":"","currency":"","rating":5.6},{"name":"The Globe Bar","phone":"+441315583837","address":"Niddry Street","lat":55.94973296203601,"lng":-3.186872961556116,"neighborhood":"Cowgate","city_fetched":"Bonnyrigg,UK","state":"Edinburgh","country":"United Kingdom","canonicalUrl":"https://foursquare.com/v/the-globe-bar/4b76ce45f964a52079602ee3","categoryId":"4bf58dd8d48988d116941735","category":"Bar","checkinsCount":418,"usersCount":231,"tipCount":6,"visitsCount":418,"tier":"","message":"","currency":"","rating":5.6},{"name":"The Oz Bar","phone":"+441312267190","address":"31-33 Candlemaker Row","lat":55.9474865,"lng":-3.19226598,"neighborhood":"Cowgate","city_fetched":"Bonnyrigg,UK","state":"Midlothian","country":"United Kingdom","canonicalUrl":"https://foursquare.com/v/the-oz-bar/4bae7aecf964a5209ab73be3","categoryId":"4bf58dd8d48988d11b941735","category":"Pub","checkinsCount":753,"usersCount":334,"tipCount":7,"visitsCount":757,"tier":"","message":"","currency":"","rating":5.6},{"name":"Leslie's Bar","address":"45 Ratcliffe Terrace","lat":55.933772,"lng":-3.178275,"neighborhood":"Southside","city_fetched":"Bonnyrigg,UK","state":"Edinburgh","country":"United Kingdom","canonicalUrl":"https://foursquare.com/v/leslies-bar/4b214231f964a5201e3924e3","categoryId":"4bf58dd8d48988d11b941735","category":"Pub","checkinsCount":135,"usersCount":81,"tipCount":4,"visitsCount":136,"tier":"","message":"","currency":"","rating":5.5},{"name":"Shandwick's","lat":55.95074,"lng":-3.206049,"neighborhood":"New Town","city_fetched":"Bonnyrigg,UK","state":"Edinburgh","country":"United Kingdom","canonicalUrl":"https://foursquare.com/v/shandwicks/4e7777848998ed82a5a4e9d8","categoryId":"4bf58dd8d48988d116941735","category":"Bar","checkinsCount":375,"usersCount":172,"tipCount":6,"visitsCount":417,"tier":"","message":"","currency":"","rating":5.5},{"name":"Ocean Bar","address":"Ocean Terminal","lat":55.980996,"lng":-3.178279,"neighborhood":"Leith","city_fetched":"Bonnyrigg,UK","state":"Edinburgh","country":"United Kingdom","canonicalUrl":"https://foursquare.com/v/ocean-bar/4c091f46bbc676b0219947d5","categoryId":"4bf58dd8d48988d11e941735","category":"Cocktail Bar","checkinsCount":150,"usersCount":99,"tipCount":5,"visitsCount":150,"tier":"","message":"","currency":"","rating":5.5},{"name":"City Nightclub","phone":"+441312269560","address":"1a Market St.","lat":55.95141689761919,"lng":-3.1886066815459344,"neighborhood":"Waverley Station","city_fetched":"Bonnyrigg,UK","state":"Edinburgh","country":"United Kingdom","canonicalUrl":"https://foursquare.com/v/city-nightclub/4b05881ff964a52011b322e3","categoryId":"4bf58dd8d48988d11f941735","category":"Nightclub","checkinsCount":455,"usersCount":91,"tipCount":5,"visitsCount":456,"url":"http://www.cityedinburgh.co.uk","tier":"","message":"","currency":"","rating":5.5},{"name":"Espionage","phone":"+441314777007","twitter":"espionage_007","address":"Victoria St","lat":55.948405855568964,"lng":-3.1930047335894716,"neighborhood":"Cowgate","city_fetched":"Bonnyrigg,UK","state":"Midlothian","country":"United Kingdom","canonicalUrl":"https://foursquare.com/v/espionage/4b21a05cf964a520293f24e3","categoryId":"4bf58dd8d48988d11f941735","category":"Nightclub","checkinsCount":850,"usersCount":565,"tipCount":13,"visitsCount":855,"url":"http://www.espionage007.co.uk/Edinburgh","tier":"","message":"","currency":"","rating":5.5},{"name":"The Hive","phone":"+441315560444","twitter":"clubhive","address":"15-17 Niddry St","lat":55.94955055098811,"lng":-3.186920859766802,"neighborhood":"Cowgate","city_fetched":"Bonnyrigg,UK","state":"Edinburgh","country":"United Kingdom","canonicalUrl":"https://foursquare.com/v/the-hive/4b05881ff964a5202eb322e3","categoryId":"4bf58dd8d48988d11f941735","category":"Nightclub","checkinsCount":944,"usersCount":484,"tipCount":12,"visitsCount":948,"url":"http://www.clubhive.co.uk","tier":"","message":"","currency":"","rating":5.5},{"name":"Cameo Bar","phone":"+441315549999","address":"23 Commercial St","lat":55.97648255718259,"lng":-3.1713313675304837,"neighborhood":"The Shore","city_fetched":"Bonnyrigg,UK","state":"Edinburgh","country":"United Kingdom","canonicalUrl":"https://foursquare.com/v/cameo-bar/4b069375f964a52053ed22e3","categoryId":"4bf58dd8d48988d116941735","category":"Bar","checkinsCount":681,"usersCount":257,"tipCount":12,"visitsCount":687,"tier":"","message":"","currency":"","rating":5.5},{"name":"The Foot Of The Walk (Wetherspoon)","phone":"+441315530120","address":"183 Constitution St.","lat":55.97053895645469,"lng":-3.1711769234699028,"neighborhood":"Pilrig","city_fetched":"Bonnyrigg,UK","state":"Edinburgh","country":"United Kingdom","canonicalUrl":"https://foursquare.com/v/the-foot-of-the-walk-wetherspoon/4ca9fd7014c33704033ce33b","categoryId":"4bf58dd8d48988d11b941735","category":"Pub","checkinsCount":731,"usersCount":321,"tipCount":6,"visitsCount":863,"url":"http://www.jdwetherspoon.co.uk","tier":"","message":"","currency":"","rating":5.4},{"name":"Madogs","phone":"+441312253408","address":"38 George Street","lat":55.95339735634185,"lng":-3.1979006682405444,"neighborhood":"New Town","city_fetched":"Bonnyrigg,UK","state":"Edinburgh","country":"United Kingdom","canonicalUrl":"https://foursquare.com/v/madogs/4bfaf0fc65fbc9b66fbe906c","categoryId":"4bf58dd8d48988d120941735","category":"Karaoke Bar","checkinsCount":142,"usersCount":122,"tipCount":5,"visitsCount":142,"tier":"","message":"","currency":"","rating":5.4},{"name":"The Playfair (Lloyds No. 1 Bar)","phone":"+441315247760","twitter":"jdwtweet","address":"Omni Centre","lat":55.95645604976503,"lng":-3.1862282752990723,"city_fetched":"Bonnyrigg,UK","state":"Edinburgh","country":"United Kingdom","canonicalUrl":"https://foursquare.com/v/the-playfair-lloyds-no-1-bar/4bf3fc0f98ac0f47fb6c63a8","categoryId":"4bf58dd8d48988d11b941735","category":"Pub","checkinsCount":1594,"usersCount":794,"tipCount":21,"visitsCount":1604,"url":"http://www.jdwetherspoon.co.uk/home/pubs/the-playfair","tier":"","message":"","currency":"","rating":5.3},{"name":"Isobar","phone":"+441314678904","twitter":"isobarleith","address":"7 Bernard St","lat":55.975343832393165,"lng":-3.167088077217067,"neighborhood":"Leith","city_fetched":"Bonnyrigg,UK","state":"Edinburgh","country":"United Kingdom","canonicalUrl":"https://foursquare.com/v/isobar/4bbdc874078095218aebda91","categoryId":"4bf58dd8d48988d116941735","category":"Bar","checkinsCount":610,"usersCount":101,"tipCount":7,"visitsCount":614,"url":"http://www.isobar-leith.co.uk","tier":"","message":"","currency":"","rating":5.3},{"name":"Phoenix Bar","phone":"+441315570234","address":"46-48A Broughton St","lat":55.958446240321344,"lng":-3.1898476252856063,"neighborhood":"Broughton","city_fetched":"Bonnyrigg,UK","state":"Midlothian","country":"United Kingdom","canonicalUrl":"https://foursquare.com/v/phoenix-bar/4bad2b1bf964a52005353be3","categoryId":"4bf58dd8d48988d116941735","category":"Bar","checkinsCount":220,"usersCount":164,"tipCount":4,"visitsCount":222,"url":"http://www.phoenixedinburgh.com","tier":"","message":"","currency":"","rating":5.3},{"name":"THE ROYAL SCOTS CLUB | Private members","phone":"+441315564270","address":"30 Abercromby Pl","lat":55.95626142879674,"lng":-3.1979049079192854,"neighborhood":"New Town","city_fetched":"Bonnyrigg,UK","state":"Edinburgh","country":"United Kingdom","canonicalUrl":"https://foursquare.com/v/the-royal-scots-club--private-members/4b7d06ddf964a52072ac2fe3","categoryId":"4bf58dd8d48988d121941735","category":"Lounge","checkinsCount":304,"usersCount":196,"tipCount":3,"visitsCount":344,"tier":"","message":"","currency":"","rating":5.1},{"name":"The Nor' Loch","address":"Station Brae","lat":55.95219401330641,"lng":-3.189184760913252,"neighborhood":"Waverley Station","city_fetched":"Bonnyrigg,UK","country":"United Kingdom","canonicalUrl":"https://foursquare.com/v/the-nor-loch/4bddd1b9e75c0f476ebcc503","categoryId":"4bf58dd8d48988d116941735","category":"Bar","checkinsCount":441,"usersCount":321,"tipCount":8,"visitsCount":441,"tier":"","message":"","currency":"","rating":5},{"name":"Shanghai","phone":"+441312703900","twitter":"lemondehotel","address":"16 George St","lat":55.953504,"lng":-3.195979,"neighborhood":"New Town","city_fetched":"Bonnyrigg,UK","state":"Edinburgh","country":"United Kingdom","canonicalUrl":"https://foursquare.com/v/shanghai/4b05881ef964a520fcb222e3","categoryId":"4bf58dd8d48988d11f941735","category":"Nightclub","checkinsCount":377,"usersCount":256,"tipCount":1,"visitsCount":378,"url":"http://lemondehotel.co.uk/shanghai/","tier":"","message":"","currency":"","rating":5}]