[{"name":"Ludo Lounge","phone":"+441202430699","twitter":"ludolounge","address":"34 Southbourne Gro","lat":50.726329979999996,"lng":-1.8159,"city_fetched":"Bournemouth-Poole,UK","state":"Dorset","country":"United Kingdom","canonicalUrl":"https://foursquare.com/v/ludo-lounge/4c38e3fd3849c9286255c0b1","categoryId":"4bf58dd8d48988d121941735","category":"Lounge","checkinsCount":812,"usersCount":375,"tipCount":13,"visitsCount":980,"url":"http://www.thelounges.co.uk","tier":"","message":"","currency":"","rating":8.6},{"name":"Hotel Du Vin","phone":"+448447489265","address":"Thames St.","lat":50.712756113319585,"lng":-1.9898138868273925,"city_fetched":"Bournemouth-Poole,UK","state":"Dorset","country":"United Kingdom","canonicalUrl":"https://foursquare.com/v/hotel-du-vin/4baf8698f964a52049073ce3","categoryId":"4bf58dd8d48988d1d5941735","category":"Hotel Bar","checkinsCount":372,"usersCount":225,"tipCount":9,"visitsCount":442,"url":"https://www.hotelduvin.com","tier":"","message":"","currency":"","rating":8.5},{"name":"Smokin' Aces","phone":"+447886953733","twitter":"smokinacesbmth","address":"103 Commercial Road","lat":50.719714412355415,"lng":-1.8851262331008911,"city_fetched":"Bournemouth-Poole,UK","state":"Dorset","country":"United Kingdom","canonicalUrl":"https://foursquare.com/v/smokin-aces/4cf06fb67e93f04dc9374769","categoryId":"4bf58dd8d48988d11e941735","category":"Cocktail Bar","checkinsCount":672,"usersCount":339,"tipCount":10,"visitsCount":715,"url":"http://www.smokin-aces.co.uk","tier":"","message":"","currency":"","rating":8.4},{"name":"The Wight Bear Ale House","phone":"+441202433733","twitter":"thewightbear","address":"65 Southbourne Grove","lat":50.72623203992687,"lng":-1.8148058206823792,"city_fetched":"Bournemouth-Poole,UK","state":"Dorset","country":"United Kingdom","canonicalUrl":"https://foursquare.com/v/the-wight-bear-ale-house/55869fae498e965d3332145c","categoryId":"4bf58dd8d48988d11b941735","category":"Pub","checkinsCount":234,"usersCount":41,"tipCount":3,"visitsCount":270,"url":"http://thewightbear.co.uk","tier":"","message":"","currency":"","rating":8.4},{"name":"Bankes Arms","phone":"+441929450225","address":"Manor Rd","lat":50.64231932052597,"lng":-1.9472618646546647,"city_fetched":"Bournemouth-Poole,UK","state":"Dorset","country":"United Kingdom","canonicalUrl":"https://foursquare.com/v/bankes-arms/4c1ced308b3aa5930e9e995f","categoryId":"4bf58dd8d48988d11b941735","category":"Pub","checkinsCount":266,"usersCount":289,"tipCount":6,"visitsCount":348,"url":"http://www.bankesarms.com","tier":"","message":"","currency":"","rating":8.4},{"name":"Bermuda Triangle","phone":"+441202748087","address":"10 Parr St","lat":50.723909,"lng":-1.953273,"city_fetched":"Bournemouth-Poole,UK","state":"Dorset","country":"United Kingdom","canonicalUrl":"https://foursquare.com/v/bermuda-triangle/4bb25195715eef3be41185bb","categoryId":"4bf58dd8d48988d11b941735","category":"Pub","checkinsCount":199,"usersCount":102,"tipCount":7,"visitsCount":201,"tier":"","message":"","currency":"","rating":8},{"name":"The Blue Boar","address":"29 Market Close","lat":50.715318,"lng":-1.986682,"city_fetched":"Bournemouth-Poole,UK","state":"Dorset","country":"United Kingdom","canonicalUrl":"https://foursquare.com/v/the-blue-boar/4b87c78df964a520a4cb31e3","categoryId":"4bf58dd8d48988d11b941735","category":"Pub","checkinsCount":181,"usersCount":86,"tipCount":8,"visitsCount":182,"tier":"","message":"","currency":"","rating":7.7},{"name":"Inferno","phone":"+441202589167","twitter":"infernobmth","address":"36-42 Holdenhurst Rd.","lat":50.72324270903507,"lng":-1.8648485601083145,"city_fetched":"Bournemouth-Poole,UK","state":"Dorset","country":"United Kingdom","canonicalUrl":"https://foursquare.com/v/inferno/4b6dd4daf964a520ec932ce3","categoryId":"4bf58dd8d48988d11b941735","category":"Pub","checkinsCount":927,"usersCount":410,"tipCount":6,"visitsCount":988,"url":"http://www.theinfernobournemouth.co.uk","tier":"","message":"","currency":"","rating":7.7},{"name":"Sixty Million Postcards","phone":"+441202292697","twitter":"60mpc","address":"19-21 Exeter Rd","lat":50.71849983185251,"lng":-1.8797455158388314,"city_fetched":"Bournemouth-Poole,UK","state":"Dorset","country":"United Kingdom","canonicalUrl":"https://foursquare.com/v/sixty-million-postcards/4b44aadff964a520f9f825e3","categoryId":"4bf58dd8d48988d116941735","category":"Bar","checkinsCount":3178,"usersCount":1367,"tipCount":47,"visitsCount":3554,"url":"http://sixtymillionpostcards.com","tier":2,"message":"Moderate","currency":"Â£","rating":7.7},{"name":"Halo","phone":"+441202552562","address":"Exeter Rd","lat":50.71930262003535,"lng":-1.880309063173558,"city_fetched":"Bournemouth-Poole,UK","state":"Dorset","country":"United Kingdom","canonicalUrl":"https://foursquare.com/v/halo/51aee54bc6409cc4bf18a4bf","categoryId":"4bf58dd8d48988d11f941735","category":"Nightclub","checkinsCount":1100,"usersCount":674,"tipCount":8,"visitsCount":1177,"url":"http://halobournemouth.com","tier":"","message":"","currency":"","rating":7.6},{"name":"Circo lounge","phone":"+441202540823","twitter":"circolounge","address":"66 Poole Rd.","lat":50.72308247741317,"lng":-1.9024496328411928,"city_fetched":"Bournemouth-Poole,UK","state":"Dorset","country":"United Kingdom","canonicalUrl":"https://foursquare.com/v/circo-lounge/4f4801abe4b0525939c3208e","categoryId":"4bf58dd8d48988d121941735","category":"Lounge","checkinsCount":415,"usersCount":235,"tipCount":7,"visitsCount":497,"tier":"","message":"","currency":"","rating":7.6},{"name":"Cameo","phone":"+441202311178","address":"Fir Vale Rd","lat":50.72199537215919,"lng":-1.8740858453330405,"city_fetched":"Bournemouth-Poole,UK","state":"Dorset","country":"United Kingdom","canonicalUrl":"https://foursquare.com/v/cameo/514e595ae4b020b3b13c398c","categoryId":"4bf58dd8d48988d11f941735","category":"Nightclub","checkinsCount":2524,"usersCount":1492,"tipCount":11,"visitsCount":3239,"url":"http://www.cameonightclub.co.uk/bournemouth","tier":"","message":"","currency":"","rating":7.6},{"name":"The Bakers Arms","phone":"+441202622900","address":"Dorchester Road, Lytchett Minster","lat":50.73340357018023,"lng":-2.0652841312578687,"city_fetched":"Bournemouth-Poole,UK","state":"Dorset","country":"United Kingdom","canonicalUrl":"https://foursquare.com/v/the-bakers-arms/4b961eeaf964a52069bd34e3","categoryId":"4bf58dd8d48988d11b941735","category":"Pub","checkinsCount":269,"usersCount":113,"tipCount":7,"visitsCount":269,"tier":"","message":"","currency":"","rating":7.5},{"name":"Chaplin's & The Cellar Bar","phone":"+441202251953","twitter":"chaplinscellar","address":"529 Christchurch Rd","lat":50.72579242498133,"lng":-1.8421365368351923,"city_fetched":"Bournemouth-Poole,UK","state":"Dorset","country":"United Kingdom","canonicalUrl":"https://foursquare.com/v/chaplins--the-cellar-bar/4dbc3a575da3ff58ec4568b8","categoryId":"4bf58dd8d48988d116941735","category":"Bar","checkinsCount":255,"usersCount":153,"tipCount":7,"visitsCount":290,"url":"http://www.chaplins-bar.co.uk","tier":"","message":"","currency":"","rating":7.4},{"name":"The Cliff","phone":"+441202492921","address":"Ravine Road","lat":50.703363,"lng":-1.919664,"city_fetched":"Bournemouth-Poole,UK","state":"Dorset","country":"United Kingdom","canonicalUrl":"https://foursquare.com/v/the-cliff/4d6d6b4b423d5481a1f8edb1","categoryId":"4bf58dd8d48988d11b941735","category":"Pub","checkinsCount":207,"usersCount":171,"tipCount":5,"visitsCount":257,"url":"http://www.thecliff-sandbanks.co.uk","tier":"","message":"","currency":"","rating":7.4},{"name":"1812 Cocktail Bar","phone":"+441202203050","address":"Exeter Road","lat":50.717685084414775,"lng":-1.8786406517028809,"city_fetched":"Bournemouth-Poole,UK","state":"Dorset","country":"United Kingdom","canonicalUrl":"https://foursquare.com/v/1812-cocktail-bar/4b95500bf964a520c89b34e3","categoryId":"4bf58dd8d48988d11e941735","category":"Cocktail Bar","checkinsCount":840,"usersCount":547,"tipCount":20,"visitsCount":934,"url":"http://eighteen-twelve.com","tier":"","message":"","currency":"","rating":7.4},{"name":"The Slug and Lettuce","phone":"+441202670520","address":"48 High St","lat":50.713491993787045,"lng":-1.9870126247406006,"city_fetched":"Bournemouth-Poole,UK","state":"Dorset","country":"United Kingdom","canonicalUrl":"https://foursquare.com/v/the-slug-and-lettuce/4c2b309c2219c9288322a448","categoryId":"4bf58dd8d48988d11b941735","category":"Pub","checkinsCount":399,"usersCount":221,"tipCount":12,"visitsCount":407,"url":"http://www.slugandlettuce.co.uk/slug-poole/","tier":"","message":"","currency":"","rating":7.3},{"name":"Conto lounge","phone":"+441202539274","address":"418 Wimborne Rd","lat":50.74251686009119,"lng":-1.8789830408916173,"city_fetched":"Bournemouth-Poole,UK","state":"Dorset","country":"United Kingdom","canonicalUrl":"https://foursquare.com/v/conto-lounge/4f203da0e4b0ec749ca866ff","categoryId":"4bf58dd8d48988d121941735","category":"Lounge","checkinsCount":445,"usersCount":285,"tipCount":14,"visitsCount":556,"url":"http://www.thelounges.co.uk","tier":"","message":"","currency":"","rating":7.2},{"name":"Buffalo","address":"Withermoor Road","lat":50.74196876,"lng":-1.8804,"city_fetched":"Bournemouth-Poole,UK","state":"Dorset","country":"United Kingdom","canonicalUrl":"https://foursquare.com/v/buffalo/4b523044f964a520646e27e3","categoryId":"4bf58dd8d48988d116941735","category":"Bar","checkinsCount":453,"usersCount":198,"tipCount":6,"visitsCount":516,"tier":"","message":"","currency":"","rating":7.2},{"name":"Patricks","lat":50.72458566541138,"lng":-1.9503814342593466,"city_fetched":"Bournemouth-Poole,UK","country":"United Kingdom","canonicalUrl":"https://foursquare.com/v/patricks/4d02aad40e49721e4728667f","categoryId":"4bf58dd8d48988d116941735","category":"Bar","checkinsCount":491,"usersCount":93,"tipCount":5,"visitsCount":509,"tier":"","message":"","currency":"","rating":7.1},{"name":"The Portsmouth Hoy","lat":50.71222580039128,"lng":-1.9872529238119263,"city_fetched":"Bournemouth-Poole,UK","state":"Dorset","country":"United Kingdom","canonicalUrl":"https://foursquare.com/v/the-portsmouth-hoy/4c4202bbd7fad13ada7108da","categoryId":"4bf58dd8d48988d11b941735","category":"Pub","checkinsCount":125,"usersCount":94,"tipCount":4,"visitsCount":125,"tier":"","message":"","currency":"","rating":7.1},{"name":"Eden","address":"Terrace Rd","lat":50.719404,"lng":-1.880673,"city_fetched":"Bournemouth-Poole,UK","state":"Dorset","country":"United Kingdom","canonicalUrl":"https://foursquare.com/v/eden/53d3ea43498ebed2ce227936","categoryId":"4bf58dd8d48988d117941735","category":"Beer Garden","checkinsCount":265,"usersCount":166,"tipCount":0,"visitsCount":294,"tier":"","message":"","currency":"","rating":7.1},{"name":"Revolution","address":"163-167 Old Christchurch Rd","lat":50.722232744237466,"lng":-1.870432401146206,"city_fetched":"Bournemouth-Poole,UK","state":"Dorset","country":"United Kingdom","canonicalUrl":"https://foursquare.com/v/revolution/50eb1351e4b05b31f6fd61f6","categoryId":"4bf58dd8d48988d11b941735","category":"Pub","checkinsCount":898,"usersCount":547,"tipCount":7,"visitsCount":1015,"tier":"","message":"","currency":"","rating":7},{"name":"The Antelope Inn","phone":"+441202672029","address":"8 high Street","lat":50.713009,"lng":-1.988236,"city_fetched":"Bournemouth-Poole,UK","state":"Dorset","country":"United Kingdom","canonicalUrl":"https://foursquare.com/v/the-antelope-inn/4babc0cff964a52081c63ae3","categoryId":"4bf58dd8d48988d11b941735","category":"Pub","checkinsCount":166,"usersCount":112,"tipCount":5,"visitsCount":166,"tier":"","message":"","currency":"","rating":7},{"name":"The Lord Nelson","phone":"+441202776226","twitter":"lordnelsonpoole","address":"The Quay","lat":50.712197,"lng":-1.985778,"city_fetched":"Bournemouth-Poole,UK","state":"Dorset","country":"United Kingdom","canonicalUrl":"https://foursquare.com/v/the-lord-nelson/4c2f836466e40f47640ac28b","categoryId":"4bf58dd8d48988d11b941735","category":"Pub","checkinsCount":294,"usersCount":152,"tipCount":5,"visitsCount":295,"url":"http://www.thelordnelsonpoole.co.uk","tier":"","message":"","currency":"","rating":6.9},{"name":"Camden Bar and Kitchen","phone":"+441202383879","twitter":"camden_ashleyx","address":"6 Bournemouth Road","lat":50.72465067824002,"lng":-1.9501132497608225,"city_fetched":"Bournemouth-Poole,UK","state":"Dorset","country":"United Kingdom","canonicalUrl":"https://foursquare.com/v/camden-bar-and-kitchen/4da34e8b00a92d430e3cb27d","categoryId":"4bf58dd8d48988d116941735","category":"Bar","checkinsCount":243,"usersCount":88,"tipCount":4,"visitsCount":243,"tier":"","message":"","currency":"","rating":6.8},{"name":"The Grove Tavern","phone":"+441202420600","address":"Southbourne Grove","lat":50.726275285037126,"lng":-1.816832150388622,"city_fetched":"Bournemouth-Poole,UK","state":"Dorset","country":"United Kingdom","canonicalUrl":"https://foursquare.com/v/the-grove-tavern/4bcc7b01511f95211405b3c7","categoryId":"4bf58dd8d48988d116941735","category":"Bar","checkinsCount":284,"usersCount":85,"tipCount":4,"visitsCount":299,"tier":"","message":"","currency":"","rating":6.7},{"name":"Walkabout","phone":"+441202295072","twitter":"walkaboutbourno","address":"156-164 Christchurch Rd","lat":50.72232070418892,"lng":-1.8727980453438278,"city_fetched":"Bournemouth-Poole,UK","state":"Dorset","country":"United Kingdom","canonicalUrl":"https://foursquare.com/v/walkabout/4b6f5cb7f964a5203bed2ce3","categoryId":"4bf58dd8d48988d116941735","category":"Bar","checkinsCount":1391,"usersCount":960,"tipCount":11,"visitsCount":1667,"url":"http://walkaboutbars.com","tier":"","message":"","currency":"","rating":6.6},{"name":"Shamrock Bar","phone":"+441202297084","address":"97 St Michaels Rd.","lat":50.71627044651813,"lng":-1.8834686279296875,"city_fetched":"Bournemouth-Poole,UK","state":"Dorset","country":"United Kingdom","canonicalUrl":"https://foursquare.com/v/shamrock-bar/4de681948877a085f8cb1182","categoryId":"4bf58dd8d48988d116941735","category":"Bar","checkinsCount":145,"usersCount":103,"tipCount":1,"visitsCount":145,"tier":"","message":"","currency":"","rating":6.6},{"name":"The Jolly Sailor","phone":"+441202674138","address":"The Quay","lat":50.71213960647583,"lng":-1.98588,"city_fetched":"Bournemouth-Poole,UK","state":"Dorset","country":"United Kingdom","canonicalUrl":"https://foursquare.com/v/the-jolly-sailor/4bfc1cb6da7120a17a9649fd","categoryId":"4bf58dd8d48988d11b941735","category":"Pub","checkinsCount":268,"usersCount":184,"tipCount":7,"visitsCount":269,"tier":"","message":"","currency":"","rating":6.6},{"name":"Sound Circus","phone":"+441202900014","twitter":"sound_circus","address":"140 Holdenhurst Road","lat":50.72705090733904,"lng":-1.8612774692286536,"city_fetched":"Bournemouth-Poole,UK","state":"Dorset","country":"United Kingdom","canonicalUrl":"https://foursquare.com/v/sound-circus/4c38f6eb2c8020a19bdd8b00","categoryId":"4bf58dd8d48988d11f941735","category":"Nightclub","checkinsCount":493,"usersCount":135,"tipCount":2,"visitsCount":494,"url":"http://www.soundcircus.co.uk","tier":"","message":"","currency":"","rating":6.5},{"name":"The Blackwater Stream (Wetherspoon)","phone":"+441202642580","twitter":"jdwtweet","address":"180 Lower Blandford Rd.","lat":50.75930522447624,"lng":-1.9935035705566406,"city_fetched":"Bournemouth-Poole,UK","state":"Dorset","country":"United Kingdom","canonicalUrl":"https://foursquare.com/v/the-blackwater-stream-wetherspoon/4d642fd34e1ea1cd34b541b9","categoryId":"4bf58dd8d48988d11b941735","category":"Pub","checkinsCount":532,"usersCount":137,"tipCount":4,"visitsCount":601,"url":"http://www.jdwetherspoon.co.uk","tier":"","message":"","currency":"","rating":6.5},{"name":"Willett Arms","address":"1 Oakley Ln","lat":50.7871,"lng":-1.9765242654830217,"city_fetched":"Bournemouth-Poole,UK","state":"Dorset","country":"United Kingdom","canonicalUrl":"https://foursquare.com/v/willett-arms/4d1b866770d76ea8fdd44e73","categoryId":"4bf58dd8d48988d11b941735","category":"Pub","checkinsCount":181,"usersCount":111,"tipCount":5,"visitsCount":237,"tier":"","message":"","currency":"","rating":6.4},{"name":"Old Fire Station","phone":"+441202963889","address":"36 Holdenhurst Rd","lat":50.723186410447816,"lng":-1.8651635830702795,"city_fetched":"Bournemouth-Poole,UK","state":"Dorset","country":"United Kingdom","canonicalUrl":"https://foursquare.com/v/old-fire-station/4b75e8e4f964a520fc2d2ee3","categoryId":"4bf58dd8d48988d11f941735","category":"Nightclub","checkinsCount":838,"usersCount":346,"tipCount":5,"visitsCount":847,"tier":"","message":"","currency":"","rating":6.4},{"name":"Poole Arms","phone":"+448719511000","address":"The Quay","lat":50.71212139397442,"lng":-1.9869880143480891,"city_fetched":"Bournemouth-Poole,UK","state":"Dorset","country":"United Kingdom","canonicalUrl":"https://foursquare.com/v/poole-arms/4b5c3cc8f964a5202a2829e3","categoryId":"4bf58dd8d48988d11b941735","category":"Pub","checkinsCount":122,"usersCount":101,"tipCount":7,"visitsCount":122,"tier":"","message":"","currency":"","rating":6.4},{"name":"Sherbet Lounge","address":"163-167 Old Christchurch Rd.","lat":50.721962703209265,"lng":-1.8707656860351562,"city_fetched":"Bournemouth-Poole,UK","state":"Dorset","country":"United Kingdom","canonicalUrl":"https://foursquare.com/v/sherbet-lounge/4c4adaf9bad7a593469102ab","categoryId":"4bf58dd8d48988d121941735","category":"Lounge","checkinsCount":452,"usersCount":220,"tipCount":5,"visitsCount":452,"tier":"","message":"","currency":"","rating":6.4},{"name":"The Grasshopper","phone":"+441202741463","address":"141 Bournemouth Road","lat":50.724716,"lng":-1.936159,"city_fetched":"Bournemouth-Poole,UK","state":"Dorset","country":"United Kingdom","canonicalUrl":"https://foursquare.com/v/the-grasshopper/4be96509fbbb9c741c3e1e8e","categoryId":"4bf58dd8d48988d116941735","category":"Bar","checkinsCount":307,"usersCount":155,"tipCount":6,"visitsCount":377,"url":"http://www.thegrasshopperparkstone.co.uk","tier":"","message":"","currency":"","rating":6.3},{"name":"The Porterhouse","address":"County Gates Ln","lat":50.72901333882301,"lng":-1.9154722387191168,"city_fetched":"Bournemouth-Poole,UK","state":"Dorset","country":"United Kingdom","canonicalUrl":"https://foursquare.com/v/the-porterhouse/4d2de8d4d9d8a143bac8f4d7","categoryId":"4bf58dd8d48988d11b941735","category":"Pub","checkinsCount":793,"usersCount":93,"tipCount":7,"visitsCount":813,"tier":"","message":"","currency":"","rating":6.3},{"name":"Le Bateau","phone":"+441202730263","address":"141-143 Commercial Rd.","lat":50.72416805039212,"lng":-1.9508714223881596,"city_fetched":"Bournemouth-Poole,UK","state":"Dorset","country":"United Kingdom","canonicalUrl":"https://foursquare.com/v/le-bateau/4b477cecf964a520c03326e3","categoryId":"4bf58dd8d48988d116941735","category":"Bar","checkinsCount":409,"usersCount":178,"tipCount":7,"visitsCount":424,"tier":"","message":"","currency":"","rating":6.2},{"name":"The Hop Inn","phone":"+441202244626","address":"6 Westcliff Road","lat":50.71652178986392,"lng":-1.883653700351715,"city_fetched":"Bournemouth-Poole,UK","state":"Dorset","country":"United Kingdom","canonicalUrl":"https://foursquare.com/v/the-hop-inn/4bb62d462f70c9b69aff8430","categoryId":"4bf58dd8d48988d116941735","category":"Bar","checkinsCount":209,"usersCount":132,"tipCount":2,"visitsCount":209,"tier":"","message":"","currency":"","rating":6.2},{"name":"The Lord Wimborne (Wetherspoon)","phone":"+441202493290","address":"59 Lagland St.","lat":50.71657556666667,"lng":-1.9823011,"city_fetched":"Bournemouth-Poole,UK","state":"Dorset","country":"United Kingdom","canonicalUrl":"https://foursquare.com/v/the-lord-wimborne-wetherspoon/4c87abc6821e9eb0a8cd8d89","categoryId":"4bf58dd8d48988d11b941735","category":"Pub","checkinsCount":1033,"usersCount":332,"tipCount":4,"visitsCount":1048,"url":"http://www.jdwetherspoon.co.uk","tier":"","message":"","currency":"","rating":6.2},{"name":"The Lost Garden","lat":50.718041572450794,"lng":-1.8799227968881937,"city_fetched":"Bournemouth-Poole,UK","country":"United Kingdom","canonicalUrl":"https://foursquare.com/v/the-lost-garden/51cde545498e703fd33fbfb9","categoryId":"4bf58dd8d48988d11e941735","category":"Cocktail Bar","checkinsCount":219,"usersCount":161,"tipCount":3,"visitsCount":222,"tier":"","message":"","currency":"","rating":6.1},{"name":"Shah Of Persia Hotel","phone":"+441202676587","address":"173 Longfleet Rd.","lat":50.725266337394714,"lng":-1.967336,"city_fetched":"Bournemouth-Poole,UK","state":"Dorset","country":"United Kingdom","canonicalUrl":"https://foursquare.com/v/shah-of-persia-hotel/4bd5ff4a9649ce723acc511d","categoryId":"4bf58dd8d48988d11b941735","category":"Pub","checkinsCount":175,"usersCount":105,"tipCount":5,"visitsCount":206,"url":"http://www.shahofpersiapub.co.uk","tier":"","message":"","currency":"","rating":6.1},{"name":"The Quay (Wetherspoon)","phone":"+441202664380","address":"21 The Quay","lat":50.7123081453234,"lng":-1.9864441943329472,"city_fetched":"Bournemouth-Poole,UK","state":"Dorset","country":"United Kingdom","canonicalUrl":"https://foursquare.com/v/the-quay-wetherspoon/4c4887711879c9b6f9c4e143","categoryId":"4bf58dd8d48988d11b941735","category":"Pub","checkinsCount":880,"usersCount":410,"tipCount":11,"visitsCount":908,"url":"http://www.jdwetherspoon.co.uk","tier":"","message":"","currency":"","rating":6},{"name":"Yates","lat":50.714916,"lng":-1.985014,"city_fetched":"Bournemouth-Poole,UK","country":"United Kingdom","canonicalUrl":"https://foursquare.com/v/yates/4c7e601a10916dcbd5122c96","categoryId":"4bf58dd8d48988d11b941735","category":"Pub","checkinsCount":127,"usersCount":88,"tipCount":5,"visitsCount":130,"tier":"","message":"","currency":"","rating":6},{"name":"Anchor Inn","phone":"+441929423020","address":"30-32 High St","lat":50.60834022391574,"lng":-1.9573259353637695,"city_fetched":"Bournemouth-Poole,UK","state":"Dorset","country":"United Kingdom","canonicalUrl":"https://foursquare.com/v/anchor-inn/4b93d3bff964a520a85334e3","categoryId":"4bf58dd8d48988d11b941735","category":"Pub","checkinsCount":191,"usersCount":57,"tipCount":3,"visitsCount":191,"tier":"","message":"","currency":"","rating":5.9},{"name":"The Greyhound Inn","phone":"+441929480205","twitter":"greyhoundcorfe","address":"The Square","lat":50.638614337872895,"lng":-2.057382786554899,"city_fetched":"Bournemouth-Poole,UK","state":"Dorset","country":"United Kingdom","canonicalUrl":"https://foursquare.com/v/the-greyhound-inn/4be3f6a0d27a20a1d157935b","categoryId":"4bf58dd8d48988d11b941735","category":"Pub","checkinsCount":246,"usersCount":211,"tipCount":7,"visitsCount":249,"url":"http://www.greyhoundcorfe.co.uk","tier":"","message":"","currency":"","rating":5.9},{"name":"The White Hart","phone":"+441202848478","address":"6 Corn Mkt","lat":50.79926909578965,"lng":-1.9889817995700398,"city_fetched":"Bournemouth-Poole,UK","state":"Dorset","country":"United Kingdom","canonicalUrl":"https://foursquare.com/v/the-white-hart/4bfd72254cf820a1a67becf4","categoryId":"4bf58dd8d48988d11b941735","category":"Pub","checkinsCount":193,"usersCount":87,"tipCount":5,"visitsCount":196,"url":"http://www.thewhitehartwimborne.co.uk","tier":"","message":"","currency":"","rating":5.9},{"name":"DYMK","phone":"+441202318566","twitter":"d_y_m_k","address":"31 Poole Hill","lat":50.71971514038939,"lng":-1.8874038068467458,"city_fetched":"Bournemouth-Poole,UK","state":"Dorset","country":"United Kingdom","canonicalUrl":"https://foursquare.com/v/dymk/4c3100d0213c2d7f1156335d","categoryId":"4bf58dd8d48988d1d8941735","category":"Gay Bar","checkinsCount":494,"usersCount":170,"tipCount":6,"visitsCount":516,"url":"http://www.dymk-bar.com","tier":"","message":"","currency":"","rating":5.8},{"name":"Xchange","phone":"+441202294321","twitter":"xchangeclub","address":"4 The Triangle","lat":50.7199950564995,"lng":-1.8853251550003138,"city_fetched":"Bournemouth-Poole,UK","state":"Dorset","country":"United Kingdom","canonicalUrl":"https://foursquare.com/v/xchange/4b9af9baf964a5207be835e3","categoryId":"4bf58dd8d48988d1d8941735","category":"Gay Bar","checkinsCount":204,"usersCount":70,"tipCount":6,"visitsCount":204,"tier":"","message":"","currency":"","rating":5.7},{"name":"Dylan's Bar","phone":"+441202965781","address":"Bournemouth University","lat":50.742857,"lng":-1.896748,"city_fetched":"Bournemouth-Poole,UK","state":"Dorset","country":"United Kingdom","canonicalUrl":"https://foursquare.com/v/dylans-bar/4bd98c752e6f0f4711f10a08","categoryId":"4bf58dd8d48988d116941735","category":"Bar","checkinsCount":922,"usersCount":219,"tipCount":9,"visitsCount":925,"tier":"","message":"","currency":"","rating":5.7},{"name":"Banana Wharf","lat":50.712016,"lng":-1.9851404428482056,"city_fetched":"Bournemouth-Poole,UK","country":"United Kingdom","canonicalUrl":"https://foursquare.com/v/banana-wharf/4c7b96d1794e224bc99c6b28","categoryId":"4bf58dd8d48988d116941735","category":"Bar","checkinsCount":117,"usersCount":87,"tipCount":4,"visitsCount":117,"tier":"","message":"","currency":"","rating":5.6},{"name":"BAR : [ME]","twitter":"barmebmth","address":"134-136 Old Christchurch Rd","lat":50.72253045356217,"lng":-1.8744933411626186,"city_fetched":"Bournemouth-Poole,UK","state":"Dorset","country":"United Kingdom","canonicalUrl":"https://foursquare.com/v/bar--me/4bdcb4d1afe8c9b611a25085","categoryId":"4bf58dd8d48988d116941735","category":"Bar","checkinsCount":330,"usersCount":131,"tipCount":5,"visitsCount":331,"url":"http://www.barme.co.uk","tier":"","message":"","currency":"","rating":5.2},{"name":"The Cow Pub","phone":"+441202749569","address":"58 Station Rd","lat":50.723192085518804,"lng":-1.9483888149261475,"city_fetched":"Bournemouth-Poole,UK","state":"Dorset","country":"United Kingdom","canonicalUrl":"https://foursquare.com/v/the-cow-pub/4b476590f964a520d63026e3","categoryId":"4bf58dd8d48988d11b941735","category":"Pub","checkinsCount":492,"usersCount":237,"tipCount":7,"visitsCount":572,"url":"http://gkpubs.co.uk/pubs-in-poole/the-cow-pub","tier":"","message":"","currency":"","rating":5.1}]