[{"name":"The Elm Tree","phone":"+441425472516","lat":50.843061,"lng":-1.769819,"city_fetched":"Bourne","country":"United Kingdom","canonicalUrl":"https://foursquare.com/v/the-elm-tree/4b7a9648f964a52070322fe3","category":"Pub","checkinsCount":297,"usersCount":114,"tipCount":4,"visitsCount":402,"tier":"","message":"","currency":"","rating":8.7},{"name":"Ludo Lounge","phone":"+441202430699","twitter":"ludolounge","address":"34 Southbourne Gro","lat":50.726329979999996,"lng":-1.8159,"city_fetched":"Bourne","state":"Dorset","country":"United Kingdom","canonicalUrl":"https://foursquare.com/v/ludo-lounge/4c38e3fd3849c9286255c0b1","category":"Lounge","checkinsCount":812,"usersCount":375,"tipCount":13,"visitsCount":980,"url":"http://www.thelounges.co.uk","tier":"","message":"","currency":"","rating":8.6},{"name":"The Wight Bear Ale House","phone":"+441202433733","twitter":"thewightbear","address":"65 Southbourne Grove","lat":50.72623203992687,"lng":-1.8148058206823792,"city_fetched":"Bourne","state":"Dorset","country":"United Kingdom","canonicalUrl":"https://foursquare.com/v/the-wight-bear-ale-house/55869fae498e965d3332145c","category":"Pub","checkinsCount":234,"usersCount":41,"tipCount":3,"visitsCount":270,"url":"http://thewightbear.co.uk","tier":"","message":"","currency":"","rating":8.4},{"name":"Smokin' Aces","phone":"+447886953733","twitter":"smokinacesbmth","address":"103 Commercial Road","lat":50.719714412355415,"lng":-1.8851262331008911,"city_fetched":"Bourne","state":"Dorset","country":"United Kingdom","canonicalUrl":"https://foursquare.com/v/smokin-aces/4cf06fb67e93f04dc9374769","category":"Cocktail Bar","checkinsCount":672,"usersCount":339,"tipCount":10,"visitsCount":715,"url":"http://www.smokin-aces.co.uk","tier":"","message":"","currency":"","rating":8.3},{"name":"Camden","phone":"+441202540979","twitter":"camdenbar_west","address":"46 Seamoor Rd","lat":50.72254562169998,"lng":-1.9043416975055558,"city_fetched":"Bourne","state":"Dorset","country":"United Kingdom","canonicalUrl":"https://foursquare.com/v/camden/5426c28b498e0a36cc3692a3","category":"Bar","checkinsCount":124,"usersCount":35,"tipCount":1,"visitsCount":143,"url":"http://www.camdenbar.co.uk","tier":"","message":"","currency":"","rating":8.2},{"name":"Brunswick","phone":"+441202290197","address":"199 Malmesbury Park Rd","lat":50.733706,"lng":-1.862756,"city_fetched":"Bourne","state":"Dorset","country":"United Kingdom","canonicalUrl":"https://foursquare.com/v/brunswick/4bdc6987fed22d7f290a58c9","category":"Bar","checkinsCount":581,"usersCount":240,"tipCount":6,"visitsCount":892,"tier":"","message":"","currency":"","rating":8.2},{"name":"The Three Tuns","phone":"+441425672232","address":"Ringwood Road","lat":50.77715121586847,"lng":-1.731247901916504,"city_fetched":"Bourne","state":"Hampshire","country":"United Kingdom","canonicalUrl":"https://foursquare.com/v/the-three-tuns/4b8ab250f964a5207c7a32e3","category":"Gastropub","checkinsCount":178,"usersCount":126,"tipCount":6,"visitsCount":240,"url":"http://www.threetunsinn.com","tier":"","message":"","currency":"","rating":8},{"name":"Ringwood Brewery","phone":"+441425471177","address":"138 Christchurch Rd","lat":50.840900053886266,"lng":-1.7871665954589844,"city_fetched":"Bourne","state":"Hampshire","country":"United Kingdom","canonicalUrl":"https://foursquare.com/v/ringwood-brewery/4b785320f964a52079c52ee3","category":"Brewery","checkinsCount":277,"usersCount":209,"tipCount":1,"visitsCount":354,"tier":"","message":"","currency":"","rating":7.9},{"name":"The Parkstone and Heatherlands  (Wetherspoon)","phone":"+441202853020","address":"433-457 Wimborne Road","lat":50.74337692413087,"lng":-1.8786229537004515,"city_fetched":"Bourne","state":"Dorset","country":"United Kingdom","canonicalUrl":"https://foursquare.com/v/the-parkstone-and-heatherlands--wetherspoon/4c87aa70821e9eb06dcc8d89","category":"Pub","checkinsCount":1122,"usersCount":424,"tipCount":6,"visitsCount":1349,"url":"http://www.jdwetherspoon.co.uk","tier":"","message":"","currency":"","rating":7.9},{"name":"Framptons","lat":50.84645168700447,"lng":-1.7931540002240927,"city_fetched":"Bourne","state":"Hampshire","country":"United Kingdom","canonicalUrl":"https://foursquare.com/v/framptons/4dc53f4c1f6ef43b8a0fbca3","category":"Wine Bar","checkinsCount":251,"usersCount":121,"tipCount":3,"visitsCount":305,"tier":"","message":"","currency":"","rating":7.9},{"name":"Boathouse","phone":"+441202480033","address":"Quay Rd","lat":50.731246,"lng":-1.77601,"city_fetched":"Bourne","state":"Dorset","country":"United Kingdom","canonicalUrl":"https://foursquare.com/v/boathouse/4c03b5a0f423a5933c8cd016","category":"Restaurant","checkinsCount":479,"usersCount":429,"tipCount":19,"visitsCount":620,"url":"http://www.boathouse.co.uk","tier":"","message":"","currency":"","rating":7.9},{"name":"Urban Beach Hotel","address":"23 Argyll Rd","lat":50.724075047385895,"lng":-1.8409180641174316,"city_fetched":"Bourne","state":"Dorset","country":"United Kingdom","canonicalUrl":"https://foursquare.com/v/urban-beach-hotel/4b75a6e3f964a5203e1a2ee3","category":"Hotel","checkinsCount":1061,"usersCount":336,"tipCount":13,"visitsCount":1206,"url":"http://www.urbanbeach.co.uk","tier":"","message":"","currency":"","rating":7.9},{"name":"Circo lounge","phone":"+441202540823","twitter":"circolounge","address":"66 Poole Rd.","lat":50.72308247741317,"lng":-1.9024496328411928,"city_fetched":"Bourne","state":"Dorset","country":"United Kingdom","canonicalUrl":"https://foursquare.com/v/circo-lounge/4f4801abe4b0525939c3208e","category":"Lounge","checkinsCount":415,"usersCount":235,"tipCount":7,"visitsCount":497,"tier":"","message":"","currency":"","rating":7.8},{"name":"Inferno","phone":"+441202589167","twitter":"infernobmth","address":"36-42 Holdenhurst Rd.","lat":50.72324270903507,"lng":-1.8648485601083145,"city_fetched":"Bourne","state":"Dorset","country":"United Kingdom","canonicalUrl":"https://foursquare.com/v/inferno/4b6dd4daf964a520ec932ce3","category":"Pub","checkinsCount":927,"usersCount":410,"tipCount":6,"visitsCount":988,"url":"http://www.theinfernobournemouth.co.uk","tier":"","message":"","currency":"","rating":7.8},{"name":"Bermuda Triangle","phone":"+441202748087","address":"10 Parr St","lat":50.723909,"lng":-1.953273,"city_fetched":"Bourne","state":"Dorset","country":"United Kingdom","canonicalUrl":"https://foursquare.com/v/bermuda-triangle/4bb25195715eef3be41185bb","category":"Pub","checkinsCount":199,"usersCount":102,"tipCount":7,"visitsCount":201,"tier":"","message":"","currency":"","rating":7.8},{"name":"Three Legged Cross Pub","lat":50.84437,"lng":-1.863374,"city_fetched":"Bourne","country":"United Kingdom","canonicalUrl":"https://foursquare.com/v/three-legged-cross-pub/4d88ddfa6daeb60cc0aa43e0","category":"Pub","checkinsCount":116,"usersCount":71,"tipCount":4,"visitsCount":142,"tier":"","message":"","currency":"","rating":7.7},{"name":"Sixty Million Postcards","phone":"+441202292697","twitter":"60mpc","address":"19-21 Exeter Rd","lat":50.71849983185251,"lng":-1.8797455158388314,"city_fetched":"Bourne","state":"Dorset","country":"United Kingdom","canonicalUrl":"https://foursquare.com/v/sixty-million-postcards/4b44aadff964a520f9f825e3","category":"Bar","checkinsCount":3178,"usersCount":1367,"tipCount":47,"visitsCount":3554,"url":"http://sixtymillionpostcards.com","tier":2,"message":"Moderate","currency":"£","rating":7.7},{"name":"The Goat and Tricycle","phone":"+441202314220","twitter":"goatandtricycle","address":"27-29 W Hill Rd.","lat":50.71931621172789,"lng":-1.88764333557502,"neighborhood":"Dorset","city_fetched":"Bourne","state":"Dorset","country":"United Kingdom","canonicalUrl":"https://foursquare.com/v/the-goat-and-tricycle/4bc3124f920eb713a1e41c2c","category":"Pub","checkinsCount":665,"usersCount":350,"tipCount":14,"visitsCount":714,"url":"http://www.goatandtricycle.co.uk/home","tier":"","message":"","currency":"","rating":7.7},{"name":"Halo","phone":"+441202552562","address":"Exeter Rd","lat":50.71930262003535,"lng":-1.880309063173558,"city_fetched":"Bourne","state":"Dorset","country":"United Kingdom","canonicalUrl":"https://foursquare.com/v/halo/51aee54bc6409cc4bf18a4bf","category":"Nightclub","checkinsCount":1100,"usersCount":674,"tipCount":8,"visitsCount":1177,"url":"http://halobournemouth.com","tier":"","message":"","currency":"","rating":7.6},{"name":"Thomas Tripp","phone":"+441202490498","twitter":"thomastripppub","address":"10 Wick Ln","lat":50.733139783108186,"lng":-1.77653842769287,"city_fetched":"Bourne","state":"Dorset","country":"United Kingdom","canonicalUrl":"https://foursquare.com/v/thomas-tripp/4b92d32ff964a520381f34e3","category":"Pub","checkinsCount":255,"usersCount":113,"tipCount":6,"visitsCount":275,"tier":"","message":"","currency":"","rating":7.6},{"name":"Cameo","phone":"+441202311178","address":"Fir Vale Rd","lat":50.72199537215919,"lng":-1.8740858453330405,"city_fetched":"Bourne","state":"Dorset","country":"United Kingdom","canonicalUrl":"https://foursquare.com/v/cameo/514e595ae4b020b3b13c398c","category":"Nightclub","checkinsCount":2524,"usersCount":1492,"tipCount":11,"visitsCount":3239,"url":"http://www.cameonightclub.co.uk/bournemouth","tier":"","message":"","currency":"","rating":7.6},{"name":"The Fish Inn","phone":"+441425473185","address":"The Bridges","lat":50.84590346980929,"lng":-1.7994002109759801,"city_fetched":"Bourne","state":"Hampshire","country":"United Kingdom","canonicalUrl":"https://foursquare.com/v/the-fish-inn/4bcaf301937ca59368a7a892","category":"Pub","checkinsCount":191,"usersCount":142,"tipCount":5,"visitsCount":239,"tier":"","message":"","currency":"","rating":7.6},{"name":"Arcado Lounge","phone":"+441202480285","twitter":"arcadolounge","address":"71 High Street","lat":50.73369409312205,"lng":-1.7759596402840194,"city_fetched":"Bourne","state":"Dorset","country":"United Kingdom","canonicalUrl":"https://foursquare.com/v/arcado-lounge/5047b1b9e4b0aeb3443131a7","category":"Lounge","checkinsCount":177,"usersCount":98,"tipCount":4,"visitsCount":185,"tier":"","message":"","currency":"","rating":7.5},{"name":"The Libertine","phone":"+441202767498","twitter":"thelibertinebh4","address":"1 Alumhurst Road","lat":50.722491088011,"lng":-1.904606583534604,"city_fetched":"Bourne","state":"Dorset","country":"United Kingdom","canonicalUrl":"https://foursquare.com/v/the-libertine/50a39a69e4b0438744d1630c","category":"Gastropub","checkinsCount":536,"usersCount":194,"tipCount":8,"visitsCount":602,"url":"http://thelibertine-westbourne.com","tier":3,"message":"Expensive","currency":"£","rating":7.5},{"name":"1812 Cocktail Bar","phone":"+441202203050","address":"Exeter Road","lat":50.717685084414775,"lng":-1.8786406517028809,"city_fetched":"Bourne","state":"Dorset","country":"United Kingdom","canonicalUrl":"https://foursquare.com/v/1812-cocktail-bar/4b95500bf964a520c89b34e3","category":"Cocktail Bar","checkinsCount":840,"usersCount":547,"tipCount":20,"visitsCount":934,"url":"http://eighteen-twelve.com","tier":"","message":"","currency":"","rating":7.4},{"name":"Conto lounge","phone":"+441202539274","address":"418 Wimborne Rd","lat":50.74251686009119,"lng":-1.8789830408916173,"city_fetched":"Bourne","state":"Dorset","country":"United Kingdom","canonicalUrl":"https://foursquare.com/v/conto-lounge/4f203da0e4b0ec749ca866ff","category":"Lounge","checkinsCount":445,"usersCount":285,"tipCount":14,"visitsCount":556,"url":"http://www.thelounges.co.uk","tier":"","message":"","currency":"","rating":7.4},{"name":"Chaplin's & The Cellar Bar","phone":"+441202251953","twitter":"chaplinscellar","address":"529 Christchurch Rd","lat":50.72579242498133,"lng":-1.8421365368351923,"city_fetched":"Bourne","state":"Dorset","country":"United Kingdom","canonicalUrl":"https://foursquare.com/v/chaplins--the-cellar-bar/4dbc3a575da3ff58ec4568b8","category":"Bar","checkinsCount":254,"usersCount":153,"tipCount":7,"visitsCount":289,"url":"http://www.chaplins-bar.co.uk","tier":"","message":"","currency":"","rating":7.4},{"name":"Buffalo","address":"Withermoor Road","lat":50.74196876,"lng":-1.8804,"city_fetched":"Bourne","state":"Dorset","country":"United Kingdom","canonicalUrl":"https://foursquare.com/v/buffalo/4b523044f964a520646e27e3","category":"Bar","checkinsCount":453,"usersCount":198,"tipCount":6,"visitsCount":516,"tier":"","message":"","currency":"","rating":7.3},{"name":"The Fiveways","address":"438 Charminster Rd","lat":50.743719726890106,"lng":-1.861446282621345,"city_fetched":"Bourne","state":"Dorset","country":"United Kingdom","canonicalUrl":"https://foursquare.com/v/the-fiveways/4bc9b9f0937ca593c52da692","category":"Pub","checkinsCount":570,"usersCount":310,"tipCount":5,"visitsCount":789,"tier":"","message":"","currency":"","rating":7.3},{"name":"The Old Thatch","phone":"+441202877192","address":"285 Wimborne Road","lat":50.80483052,"lng":-1.92525,"city_fetched":"Bourne","state":"Dorset","country":"United Kingdom","canonicalUrl":"https://foursquare.com/v/the-old-thatch/4bf7cd718d30d13a4f86ff17","category":"Pub","checkinsCount":83,"usersCount":61,"tipCount":3,"visitsCount":91,"tier":"","message":"","currency":"","rating":7.2},{"name":"Hot Rocks","phone":"+441202555559","address":"Pier Approach","lat":50.716362207382744,"lng":-1.8764853652424531,"city_fetched":"Bourne","state":"Dorset","country":"United Kingdom","canonicalUrl":"https://foursquare.com/v/hot-rocks/4c2f8f1d213c2d7f4116315d","category":"Bar","checkinsCount":714,"usersCount":551,"tipCount":12,"visitsCount":716,"url":"http://www.hotrocks.com","tier":"","message":"","currency":"","rating":7.2},{"name":"The Curlew","address":"287 Christchurch Rd.","lat":50.78179409612868,"lng":-1.8760958385467983,"city_fetched":"Bourne","state":"Dorset","country":"United Kingdom","canonicalUrl":"https://foursquare.com/v/the-curlew/4b8282b4f964a52006d630e3","category":"Pub","checkinsCount":199,"usersCount":168,"tipCount":7,"visitsCount":259,"tier":"","message":"","currency":"","rating":7.2},{"name":"The Mary Shelley (Wetherspoon)","phone":"+441202786510","address":"St. Peter's Rd.","lat":50.72063377937046,"lng":-1.8762078881263733,"city_fetched":"Bourne","state":"Dorset","country":"United Kingdom","canonicalUrl":"https://foursquare.com/v/the-mary-shelley-wetherspoon/4bc1c082b492d13af767a660","category":"Pub","checkinsCount":3434,"usersCount":1692,"tipCount":17,"visitsCount":4074,"url":"http://www.jdwetherspoon.co.uk","tier":2,"message":"Moderate","currency":"£","rating":7.2},{"name":"The Cliff","phone":"+441202492921","address":"Ravine Road","lat":50.703363,"lng":-1.919664,"city_fetched":"Bourne","state":"Dorset","country":"United Kingdom","canonicalUrl":"https://foursquare.com/v/the-cliff/4d6d6b4b423d5481a1f8edb1","category":"Pub","checkinsCount":207,"usersCount":171,"tipCount":5,"visitsCount":257,"url":"http://www.thecliff-sandbanks.co.uk","tier":"","message":"","currency":"","rating":7.2},{"name":"Bar So","phone":"+441202203050","twitter":"bar_so","address":"Exeter Rd","lat":50.717685,"lng":-1.879075,"city_fetched":"Bourne","state":"Dorset","country":"United Kingdom","canonicalUrl":"https://foursquare.com/v/bar-so/4ba29a74f964a5205b0838e3","category":"Bar","checkinsCount":706,"usersCount":557,"tipCount":6,"visitsCount":876,"tier":"","message":"","currency":"","rating":7.2},{"name":"Patricks","lat":50.72458566541138,"lng":-1.9503814342593466,"city_fetched":"Bourne","country":"United Kingdom","canonicalUrl":"https://foursquare.com/v/patricks/4d02aad40e49721e4728667f","category":"Bar","checkinsCount":491,"usersCount":93,"tipCount":5,"visitsCount":509,"tier":"","message":"","currency":"","rating":7.1},{"name":"Eden","address":"Terrace Rd","lat":50.719404,"lng":-1.880673,"city_fetched":"Bourne","state":"Dorset","country":"United Kingdom","canonicalUrl":"https://foursquare.com/v/eden/53d3ea43498ebed2ce227936","category":"Beer Garden","checkinsCount":266,"usersCount":167,"tipCount":0,"visitsCount":295,"tier":"","message":"","currency":"","rating":7.1},{"name":"Rising Sun","lat":50.73580030593434,"lng":-1.7607303345069922,"city_fetched":"Bourne","state":"Dorset","country":"United Kingdom","canonicalUrl":"https://foursquare.com/v/rising-sun/4e7cd679cc2169aa4d345f0e","category":"Thai Restaurant","checkinsCount":30,"usersCount":25,"tipCount":3,"visitsCount":31,"tier":"","message":"","currency":"","rating":7.1},{"name":"The Inn on The Furlong","address":"12 Meeting House Ln","lat":50.84687768786211,"lng":-1.792367091026263,"city_fetched":"Bourne","state":"Hampshire","country":"United Kingdom","canonicalUrl":"https://foursquare.com/v/the-inn-on-the-furlong/4b699366f964a52001a82be3","category":"Pub","checkinsCount":403,"usersCount":102,"tipCount":6,"visitsCount":420,"tier":"","message":"","currency":"","rating":7.1},{"name":"Revolution","address":"163-167 Old Christchurch Rd","lat":50.722232744237466,"lng":-1.870432401146206,"city_fetched":"Bourne","state":"Dorset","country":"United Kingdom","canonicalUrl":"https://foursquare.com/v/revolution/50eb1351e4b05b31f6fd61f6","category":"Pub","checkinsCount":898,"usersCount":547,"tipCount":7,"visitsCount":1015,"tier":"","message":"","currency":"","rating":7},{"name":"Aruba","phone":"+441202554211","twitter":"arubabmouth","address":"Pier Approach","lat":50.716033438353485,"lng":-1.8754982825612887,"city_fetched":"Bourne","state":"Dorset","country":"United Kingdom","canonicalUrl":"https://foursquare.com/v/aruba/4b76c5d2f964a5201d5e2ee3","category":"Bar","checkinsCount":2183,"usersCount":1408,"tipCount":29,"visitsCount":2356,"url":"http://www.aruba-bournemouth.co.uk","tier":"","message":"","currency":"","rating":6.9}]