[{"name":"Stag & Hounds","phone":"+441344483553","address":"Forest Rd","lat":51.433277409656654,"lng":-0.777317388921454,"city_fetched":"Bracknell,UK","state":"Bracknell Forest","country":"United Kingdom","canonicalUrl":"https://foursquare.com/v/stag--hounds/4b9bb796f964a520531d36e3","categoryId":"4bf58dd8d48988d11b941735","category":"Pub","checkinsCount":553,"usersCount":277,"tipCount":8,"visitsCount":746,"url":"http://www.thestagandhounds.com","tier":"","message":"","currency":"","rating":8.9},{"name":"The Cricketers","phone":"+441344882910","twitter":"atcricketers","address":"Cricketers Ln","lat":51.43383085727692,"lng":-0.719831,"city_fetched":"Bracknell,UK","state":"Bracknell Forest","country":"United Kingdom","canonicalUrl":"https://foursquare.com/v/the-cricketers/4b61f1c5f964a5209d2c2ae3","categoryId":"4bf58dd8d48988d11b941735","category":"Pub","checkinsCount":267,"usersCount":173,"tipCount":8,"visitsCount":401,"url":"http://www.cricketerswarfield.co.uk","tier":"","message":"","currency":"","rating":8.3},{"name":"The Brickmakers","phone":"+441276472267","address":"Chertsey Rd","lat":51.371999,"lng":-0.6380116939544678,"city_fetched":"Bracknell,UK","state":"Surrey","country":"United Kingdom","canonicalUrl":"https://foursquare.com/v/the-brickmakers/4b7fd7c2f964a5205b4030e3","categoryId":"4bf58dd8d48988d11b941735","category":"Pub","checkinsCount":220,"usersCount":208,"tipCount":7,"visitsCount":376,"url":"http://www.thebrickmakerswindlesham.co.uk","tier":"","message":"","currency":"","rating":8.1},{"name":"Victoria Arms","phone":"+441344483856","twitter":"thevicbinfield","address":"Terrace Rd N","lat":51.434860825538635,"lng":-0.7893045,"city_fetched":"Bracknell,UK","state":"Bracknell Forest","country":"United Kingdom","canonicalUrl":"https://foursquare.com/v/victoria-arms/4bf58e4994b2a5932fd0abee","categoryId":"4bf58dd8d48988d11b941735","category":"Pub","checkinsCount":366,"usersCount":144,"tipCount":10,"visitsCount":477,"url":"http://www.victoriaarmsbinfield.co.uk","tier":"","message":"","currency":"","rating":7.9},{"name":"The Beehive","phone":"+441628822877","twitter":"thebeehivetweet","address":"Waltham Rd","lat":51.487130367730494,"lng":-0.7781705260276794,"city_fetched":"Bracknell,UK","country":"United Kingdom","canonicalUrl":"https://foursquare.com/v/the-beehive/4b50e773f964a520f13727e3","categoryId":"4bf58dd8d48988d11b941735","category":"Pub","checkinsCount":230,"usersCount":171,"tipCount":8,"visitsCount":337,"url":"http://www.thebeehivewhitewaltham.com","tier":"","message":"","currency":"","rating":7.8},{"name":"The Bull","address":"Barkham Rd","lat":51.3960564373165,"lng":-0.8806435514045174,"city_fetched":"Bracknell,UK","state":"Berkshire","country":"United Kingdom","canonicalUrl":"https://foursquare.com/v/the-bull/4e3aeac17d8b90abc32cba01","categoryId":"4bf58dd8d48988d116941735","category":"Bar","checkinsCount":117,"usersCount":89,"tipCount":1,"visitsCount":204,"tier":"","message":"","currency":"","rating":7.8},{"name":"The Thatched Tavern","phone":"+441344620874","address":"Cheapside Rd","lat":51.41684483730013,"lng":-0.6437448181394232,"city_fetched":"Bracknell,UK","state":"Berkshire","country":"United Kingdom","canonicalUrl":"https://foursquare.com/v/the-thatched-tavern/4bc75a4114d79521793767e9","categoryId":"4bf58dd8d48988d11b941735","category":"Pub","checkinsCount":361,"usersCount":171,"tipCount":12,"visitsCount":457,"url":"http://www.thethatchedtavern.co.uk","tier":"","message":"","currency":"","rating":7.7},{"name":"The Old Hatchet","phone":"+441344899911","address":"Hatchet Ln","lat":51.43282203009056,"lng":-0.6751871109008789,"city_fetched":"Bracknell,UK","state":"Bracknell Forest","country":"United Kingdom","canonicalUrl":"https://foursquare.com/v/the-old-hatchet/4b8a6d91f964a5206c6c32e3","categoryId":"4bf58dd8d48988d11b941735","category":"Pub","checkinsCount":111,"usersCount":93,"tipCount":4,"visitsCount":187,"url":"http://www.oldhatchet.co.uk","tier":"","message":"","currency":"","rating":7.7},{"name":"The Belgian Arms","phone":"+441628634468","twitter":"thebelgianarms","address":"Holyport St","lat":51.492304,"lng":-0.7152003049850464,"city_fetched":"Bracknell,UK","state":"Berkshire","country":"United Kingdom","canonicalUrl":"https://foursquare.com/v/the-belgian-arms/4af1801ff964a52026e121e3","categoryId":"4bf58dd8d48988d11b941735","category":"Pub","checkinsCount":367,"usersCount":207,"tipCount":5,"visitsCount":432,"url":"http://www.thebelgianarms.com","tier":"","message":"","currency":"","rating":7.6},{"name":"Peacock Farm","phone":"+441344423481","address":"Peacock Ln","lat":51.409882597763534,"lng":-0.7824172553591893,"city_fetched":"Bracknell,UK","country":"United Kingdom","canonicalUrl":"https://foursquare.com/v/peacock-farm/4bad1a75f964a520d62d3be3","categoryId":"4bf58dd8d48988d11b941735","category":"Pub","checkinsCount":1222,"usersCount":661,"tipCount":20,"visitsCount":1803,"url":"http://www.peacockfarm.co.uk","tier":"","message":"","currency":"","rating":7.5},{"name":"The Two Poplars","lat":51.401942425667315,"lng":-0.8404975822982076,"city_fetched":"Bracknell,UK","country":"United Kingdom","canonicalUrl":"https://foursquare.com/v/the-two-poplars/4bfd742f4cf820a19e7eecf4","categoryId":"4bf58dd8d48988d11b941735","category":"Pub","checkinsCount":248,"usersCount":136,"tipCount":7,"visitsCount":376,"tier":"","message":"","currency":"","rating":7.3},{"name":"The Bell","phone":"+441189341788","twitter":"bellinnfood","address":"The Street","lat":51.485042587650646,"lng":-0.8065241575241089,"city_fetched":"Bracknell,UK","country":"United Kingdom","canonicalUrl":"https://foursquare.com/v/the-bell/4bffbcddc30a2d7fc057111d","categoryId":"4bf58dd8d48988d11b941735","category":"Pub","checkinsCount":128,"usersCount":138,"tipCount":2,"visitsCount":234,"url":"http://thebellwalthamstlawrence.co.uk","tier":"","message":"","currency":"","rating":7.3},{"name":"The Crooked Billet","address":"Honey Hill","lat":51.39339804307388,"lng":-0.8138517928315385,"city_fetched":"Bracknell,UK","country":"United Kingdom","canonicalUrl":"https://foursquare.com/v/the-crooked-billet/4c80206c2f1c236a62e02343","categoryId":"4bf58dd8d48988d11b941735","category":"Pub","checkinsCount":655,"usersCount":128,"tipCount":5,"visitsCount":839,"tier":"","message":"","currency":"","rating":7.2},{"name":"The Belvedere Arms","phone":"+441344870931","address":"London Rd","lat":51.409307581137966,"lng":-0.6241947177541585,"city_fetched":"Bracknell,UK","country":"United Kingdom","canonicalUrl":"https://foursquare.com/v/the-belvedere-arms/4c72b686376da093fe1fa7c6","categoryId":"4bf58dd8d48988d11b941735","category":"Pub","checkinsCount":453,"usersCount":404,"tipCount":13,"visitsCount":632,"url":"http://www.thebelvederearms.co.uk","tier":"","message":"","currency":"","rating":7.2},{"name":"Dog & Partridge","phone":"+441344623204","address":"92 Upper Village Rd.","lat":51.40217608992935,"lng":-0.6599534473812118,"city_fetched":"Bracknell,UK","country":"United Kingdom","canonicalUrl":"https://foursquare.com/v/dog--partridge/4d0cb2f17d28721e7e41f420","categoryId":"4bf58dd8d48988d11b941735","category":"Pub","checkinsCount":108,"usersCount":82,"tipCount":6,"visitsCount":143,"url":"http://www.oxandfire.co.uk","tier":"","message":"","currency":"","rating":7.2},{"name":"The Wheelwrights Arms","phone":"+441189344100","address":"Davis Way","lat":51.4386508581289,"lng":-0.8696472644805908,"city_fetched":"Bracknell,UK","country":"United Kingdom","canonicalUrl":"https://foursquare.com/v/the-wheelwrights-arms/4bbf7b56b083a593e585a3e9","categoryId":"4bf58dd8d48988d11b941735","category":"Pub","checkinsCount":829,"usersCount":164,"tipCount":8,"visitsCount":948,"url":"http://www.thewheelwrightsarms.co.uk","tier":"","message":"","currency":"","rating":7.1},{"name":"The White Hart","address":"Moneyrow Green","lat":51.48572048269334,"lng":-0.7187952828059732,"city_fetched":"Bracknell,UK","state":"Berkshire","country":"United Kingdom","canonicalUrl":"https://foursquare.com/v/the-white-hart/4c3f3aafff711b8d96940e05","categoryId":"4bf58dd8d48988d11b941735","category":"Pub","checkinsCount":104,"usersCount":59,"tipCount":3,"visitsCount":123,"tier":"","message":"","currency":"","rating":6.9},{"name":"The Ship Inn","phone":"+441189780389","twitter":"theship_inn","address":"104 Peach St","lat":51.41191192635142,"lng":-0.8295078526941518,"city_fetched":"Bracknell,UK","state":"Berkshire","country":"United Kingdom","canonicalUrl":"https://foursquare.com/v/the-ship-inn/4ee61a462da504839760f90b","categoryId":"4bf58dd8d48988d11b941735","category":"Pub","checkinsCount":416,"usersCount":291,"tipCount":5,"visitsCount":557,"url":"http://www.shipwokingham.co.uk","tier":"","message":"","currency":"","rating":6.9},{"name":"The Nags Head","phone":"+441344622725","twitter":"nagsheadharveys","address":"28 High St","lat":51.39977911900513,"lng":-0.6310802388128597,"city_fetched":"Bracknell,UK","state":"Berkshire","country":"United Kingdom","canonicalUrl":"https://foursquare.com/v/the-nags-head/4df51a69c65bf55ee5316a16","categoryId":"4bf58dd8d48988d11b941735","category":"Pub","checkinsCount":406,"usersCount":48,"tipCount":7,"visitsCount":598,"url":"http://www.nagsheadsunningdale.co.uk","tier":"","message":"","currency":"","rating":6.8},{"name":"Jack Oâ€™ Newbury","phone":"+441344454881","address":"Terrace Rd. N","lat":51.43922209739685,"lng":-0.7856512069702148,"city_fetched":"Bracknell,UK","country":"United Kingdom","canonicalUrl":"https://foursquare.com/v/jack-o-newbury/4c812bda2f1c236ab2272d43","categoryId":"4bf58dd8d48988d11b941735","category":"Pub","checkinsCount":59,"usersCount":40,"tipCount":3,"visitsCount":92,"tier":"","message":"","currency":"","rating":6.8},{"name":"Broad Street Tavern","phone":"+441189773706","twitter":"broadsttav","address":"29 Broad St","lat":51.411352704437526,"lng":-0.8351216550536977,"city_fetched":"Bracknell,UK","country":"United Kingdom","canonicalUrl":"https://foursquare.com/v/broad-street-tavern/4bce00b968f976b0c53f6583","categoryId":"4bf58dd8d48988d11b941735","category":"Pub","checkinsCount":755,"usersCount":273,"tipCount":10,"visitsCount":795,"tier":"","message":"","currency":"","rating":6.7},{"name":"The Green Man","phone":"+441189342599","address":"Hinton Road","lat":51.459704,"lng":-0.849467,"city_fetched":"Bracknell,UK","country":"United Kingdom","canonicalUrl":"https://foursquare.com/v/the-green-man/4c2738c1136d20a1749ce661","categoryId":"4bf58dd8d48988d11b941735","category":"Pub","checkinsCount":123,"usersCount":106,"tipCount":5,"visitsCount":183,"tier":"","message":"","currency":"","rating":6.7},{"name":"The Queen's Head","phone":"+441189781221","address":"23 The Terrace","lat":51.41214111328491,"lng":-0.8384585899819041,"city_fetched":"Bracknell,UK","state":"Berkshire","country":"United Kingdom","canonicalUrl":"https://foursquare.com/v/the-queens-head/4bfc1080a118a593d3e76db6","categoryId":"4bf58dd8d48988d11b941735","category":"Pub","checkinsCount":290,"usersCount":145,"tipCount":5,"visitsCount":406,"tier":"","message":"","currency":"","rating":6.7},{"name":"The Gig House (Wetherspoon)","phone":"+441189123130","address":"2 The Plaza","lat":51.409338668818144,"lng":-0.8360123634338379,"city_fetched":"Bracknell,UK","country":"United Kingdom","canonicalUrl":"https://foursquare.com/v/the-gig-house-wetherspoon/4c87ac61821e9eb024ce8d89","categoryId":"4bf58dd8d48988d11b941735","category":"Pub","checkinsCount":716,"usersCount":240,"tipCount":5,"visitsCount":744,"url":"http://www.jdwetherspoon.co.uk","tier":"","message":"","currency":"","rating":6.6},{"name":"The Old Manor (Wetherspoon)","phone":"+441344304490","address":"Church Rd.","lat":51.41626084141454,"lng":-0.7457664680410524,"city_fetched":"Bracknell,UK","country":"United Kingdom","canonicalUrl":"https://foursquare.com/v/the-old-manor-wetherspoon/4c87aa72821e9eb06fcc8d89","categoryId":"4bf58dd8d48988d11b941735","category":"Pub","checkinsCount":1294,"usersCount":370,"tipCount":14,"visitsCount":1471,"url":"http://www.jdwetherspoon.co.uk","tier":"","message":"","currency":"","rating":6.6},{"name":"Redan","phone":"+441189891177","address":"24 Peach St","lat":51.410758,"lng":-0.831935,"city_fetched":"Bracknell,UK","country":"United Kingdom","canonicalUrl":"https://foursquare.com/v/redan/4babeacef964a52031d53ae3","categoryId":"4bf58dd8d48988d116941735","category":"Bar","checkinsCount":242,"usersCount":130,"tipCount":5,"visitsCount":255,"tier":"","message":"","currency":"","rating":6.6},{"name":"The Walter Arms","lat":51.418215,"lng":-0.882166,"city_fetched":"Bracknell,UK","state":"Berkshire","country":"United Kingdom","canonicalUrl":"https://foursquare.com/v/the-walter-arms/4bd19341462cb713bc62da07","categoryId":"4bf58dd8d48988d11b941735","category":"Pub","checkinsCount":328,"usersCount":226,"tipCount":10,"visitsCount":461,"tier":"","message":"","currency":"","rating":6.5},{"name":"The Molly Millar","address":"59 Station Rd.","lat":51.41119723398277,"lng":-0.841544302657752,"city_fetched":"Bracknell,UK","country":"United Kingdom","canonicalUrl":"https://foursquare.com/v/the-molly-millar/4b7a943af964a5200d322fe3","categoryId":"4bf58dd8d48988d11b941735","category":"Pub","checkinsCount":357,"usersCount":150,"tipCount":5,"visitsCount":362,"tier":"","message":"","currency":"","rating":6.5},{"name":"Sunningdale Lounge","phone":"+441344876887","address":"12 London Rd","lat":51.39257355755749,"lng":-0.6294171830273698,"city_fetched":"Bracknell,UK","state":"Berkshire","country":"United Kingdom","canonicalUrl":"https://foursquare.com/v/sunningdale-lounge/4bcf515977b29c7470db8882","categoryId":"4bf58dd8d48988d121941735","category":"Lounge","checkinsCount":230,"usersCount":120,"tipCount":5,"visitsCount":233,"url":"http://www.sunningdalelounge.co.uk","tier":"","message":"","currency":"","rating":6.4},{"name":"The Prince Albert Pub","phone":"+441753864788","address":"2 Clewer Hill Rd.","lat":51.470987,"lng":-0.62979182,"city_fetched":"Bracknell,UK","country":"United Kingdom","canonicalUrl":"https://foursquare.com/v/the-prince-albert-pub/4bdecd29fe0e62b5ddf50506","categoryId":"4bf58dd8d48988d11b941735","category":"Pub","checkinsCount":125,"usersCount":68,"tipCount":2,"visitsCount":144,"url":"http://www.theprincealbertpub.com","tier":"","message":"","currency":"","rating":6.3},{"name":"Running Horse","phone":"+441344425215","twitter":"londonirishpubs","address":"London Rd","lat":51.41360805172223,"lng":-0.7309341430664062,"city_fetched":"Bracknell,UK","state":"Bracknell Forest","country":"United Kingdom","canonicalUrl":"https://foursquare.com/v/running-horse/4ee61a462da504839760f8cd","categoryId":"4bf58dd8d48988d11b941735","category":"Pub","checkinsCount":49,"usersCount":47,"tipCount":2,"visitsCount":116,"url":"http://www.londonirishpubs.co.uk","tier":"","message":"","currency":"","rating":6.2},{"name":"Rackstraws Farm (Beefeater)","phone":"+441252878181","twitter":"beefeater","address":"221 Yorktown Rd","lat":51.345443831676256,"lng":-0.7860072790156986,"city_fetched":"Bracknell,UK","state":"Bracknell Forest","country":"United Kingdom","canonicalUrl":"https://foursquare.com/v/rackstraws-farm-beefeater/4bf58e0c5e800f475db4e5d4","categoryId":"4bf58dd8d48988d11b941735","category":"Pub","checkinsCount":307,"usersCount":177,"tipCount":8,"visitsCount":359,"url":"http://www.beefeater.co.uk/steak-restaurant/Berkshire/Rackstraws-Farm-Sandhurst.html","tier":"","message":"","currency":"","rating":6},{"name":"Three Frogs Pub","phone":"+441189785925","address":"London Road","lat":51.4107707633191,"lng":-0.8166790008544922,"city_fetched":"Bracknell,UK","state":"Berkshire","country":"United Kingdom","canonicalUrl":"https://foursquare.com/v/three-frogs-pub/4b605574f964a5202de029e3","categoryId":"4bf58dd8d48988d11b941735","category":"Pub","checkinsCount":403,"usersCount":239,"tipCount":4,"visitsCount":502,"tier":"","message":"","currency":"","rating":6},{"name":"The Crispin","phone":"+441189780309","address":"Denmark St.","lat":51.40869049505174,"lng":-0.8357033649367054,"city_fetched":"Bracknell,UK","country":"United Kingdom","canonicalUrl":"https://foursquare.com/v/the-crispin/4bb09654f964a520b74d3ce3","categoryId":"4bf58dd8d48988d11b941735","category":"Pub","checkinsCount":106,"usersCount":54,"tipCount":4,"visitsCount":113,"tier":"","message":"","currency":"","rating":6},{"name":"Ye Olde Leathern Bottle","address":"221 Barkham Rd.","lat":51.40446322745461,"lng":-0.8572564993362448,"city_fetched":"Bracknell,UK","country":"United Kingdom","canonicalUrl":"https://foursquare.com/v/ye-olde-leathern-bottle/4b69f1b9f964a52080bd2be3","categoryId":"4bf58dd8d48988d11b941735","category":"Pub","checkinsCount":461,"usersCount":259,"tipCount":14,"visitsCount":665,"tier":"","message":"","currency":"","rating":5.9},{"name":"Downshire Arms (Beefeater)","phone":"+441344423585","twitter":"beefeatergrill","address":"Downshire Way","lat":51.412234229047286,"lng":-0.7588813023677314,"city_fetched":"Bracknell,UK","state":"Bracknell Forest","country":"United Kingdom","canonicalUrl":"https://foursquare.com/v/downshire-arms-beefeater/4bc31481abf49521a837c393","categoryId":"4bf58dd8d48988d11b941735","category":"Pub","checkinsCount":248,"usersCount":132,"tipCount":6,"visitsCount":277,"url":"http://www.beefeater.co.uk","tier":"","message":"","currency":"","rating":5.9},{"name":"The Stag","address":"63 High St","lat":51.41057059999999,"lng":-0.671994,"city_fetched":"Bracknell,UK","state":"Berkshire","country":"United Kingdom","canonicalUrl":"https://foursquare.com/v/the-stag/4bdd57846c1b95219136ad0f","categoryId":"4bf58dd8d48988d11b941735","category":"Pub","checkinsCount":320,"usersCount":180,"tipCount":8,"visitsCount":346,"tier":"","message":"","currency":"","rating":5.9},{"name":"Running Horse","phone":"+441344425215","address":"London Rd","lat":51.41349125,"lng":-0.73070873,"city_fetched":"Bracknell,UK","country":"United Kingdom","canonicalUrl":"https://foursquare.com/v/running-horse/4de7c8f652b19568bd851bbf","categoryId":"4bf58dd8d48988d11b941735","category":"Pub","checkinsCount":222,"usersCount":98,"tipCount":3,"visitsCount":229,"tier":"","message":"","currency":"","rating":5.7},{"name":"The Goose","phone":"+441344311629","address":"Station Rd","lat":51.413527951661386,"lng":-0.7514693217241457,"city_fetched":"Bracknell,UK","state":"Bracknell Forest","country":"United Kingdom","canonicalUrl":"https://foursquare.com/v/the-goose/4c829fc047cc224b53d5879f","categoryId":"4bf58dd8d48988d11b941735","category":"Pub","checkinsCount":471,"usersCount":130,"tipCount":4,"visitsCount":473,"url":"http://www.gooseatbracknell.co.uk","tier":"","message":"","currency":"","rating":5.6},{"name":"Bar1 & Club1","address":"1 High St","lat":51.41098263893022,"lng":-0.6756498161523367,"city_fetched":"Bracknell,UK","country":"United Kingdom","canonicalUrl":"https://foursquare.com/v/bar1--club1/4bdd59096c1b9521b836ad0f","categoryId":"4bf58dd8d48988d116941735","category":"Bar","checkinsCount":340,"usersCount":234,"tipCount":2,"visitsCount":408,"url":"http://www.baroneascot.com","tier":"","message":"","currency":"","rating":5.5},{"name":"The Weathervane","phone":"+448701977036","address":"Arlington Sq","lat":51.41749832851084,"lng":-0.7566438081606903,"city_fetched":"Bracknell,UK","country":"United Kingdom","canonicalUrl":"https://foursquare.com/v/the-weathervane/4ba8c08bf964a5202fec39e3","categoryId":"4bf58dd8d48988d11b941735","category":"Pub","checkinsCount":371,"usersCount":196,"tipCount":8,"visitsCount":428,"tier":"","message":"","currency":"","rating":5.5},{"name":"The Bridge Pub","phone":"+441344862912","address":"Wokingham Rd","lat":51.41864206720348,"lng":-0.7676261785191041,"city_fetched":"Bracknell,UK","state":"Bracknell Forest","country":"United Kingdom","canonicalUrl":"https://foursquare.com/v/the-bridge-pub/4bb9ca5f98c7ef3bf74e3202","categoryId":"4bf58dd8d48988d11b941735","category":"Pub","checkinsCount":239,"usersCount":93,"tipCount":4,"visitsCount":324,"url":"http://gkpubs.co.uk","tier":"","message":"","currency":"","rating":5.4},{"name":"Jagz","phone":"+441344878100","twitter":"jagzascot","address":"Station Hill","lat":51.40664785331615,"lng":-0.6758366462827082,"city_fetched":"Bracknell,UK","country":"United Kingdom","canonicalUrl":"https://foursquare.com/v/jagz/4bed863191380f476906a018","categoryId":"4bf58dd8d48988d11b941735","category":"Pub","checkinsCount":450,"usersCount":282,"tipCount":8,"visitsCount":453,"url":"http://www.jagz.co.uk","tier":"","message":"","currency":"","rating":5.3}]