[{"name":"The Sparrow","phone":"+441274270772","twitter":"thesparrowbd1","address":"32 North Parade","lat":53.79724651364551,"lng":-1.7567216313161913,"neighborhood":"City","city_fetched":"Bradford","country":"United Kingdom","canonicalUrl":"https://foursquare.com/v/the-sparrow/4dcc16b76365eedaf112f803","category":"Bar","checkinsCount":561,"usersCount":245,"tipCount":15,"visitsCount":623,"url":"http://thesparrowbradford.co.uk","tier":"","message":"","currency":"","rating":9},{"name":"Fanny's Ale House","phone":"+441274591419","twitter":"fannysalehouse","address":"63 Saltaire Rd.","lat":53.836112453926795,"lng":-1.787865631721659,"neighborhood":"Shipley","city_fetched":"Bradford","country":"United Kingdom","canonicalUrl":"https://foursquare.com/v/fannys-ale-house/4b6dd119f964a520a4922ce3","category":"Pub","checkinsCount":1131,"usersCount":359,"tipCount":18,"visitsCount":1249,"url":"http://www.fannysalehouse.com","tier":"","message":"","currency":"","rating":8.7},{"name":"The Fox","twitter":"foxshipley","address":"41 Briggate","lat":53.834988,"lng":-1.774002,"neighborhood":"Shipley","city_fetched":"Bradford","state":"Bradford","country":"United Kingdom","canonicalUrl":"https://foursquare.com/v/the-fox/52407a9a498e65df093fab37","category":"Pub","checkinsCount":255,"usersCount":63,"tipCount":4,"visitsCount":299,"tier":"","message":"","currency":"","rating":8.5},{"name":"The Fighting Cock","phone":"+441274726907","address":"21-23, Preston St","lat":53.795518749432226,"lng":-1.770355573516507,"neighborhood":"City","city_fetched":"Bradford","country":"United Kingdom","canonicalUrl":"https://foursquare.com/v/the-fighting-cock/4c8a36de542e9c74a61e8397","category":"Pub","checkinsCount":387,"usersCount":89,"tipCount":7,"visitsCount":427,"tier":"","message":"","currency":"","rating":8.5},{"name":"The Fleece","phone":"+441132565564","address":"116 Town St.","lat":53.81502875900979,"lng":-1.6702299955537117,"neighborhood":"Stanningley","city_fetched":"Bradford","country":"United Kingdom","canonicalUrl":"https://foursquare.com/v/the-fleece/4c889d42a0ffb60c767d23c5","category":"Pub","checkinsCount":242,"usersCount":88,"tipCount":4,"visitsCount":385,"tier":"","message":"","currency":"","rating":8.5},{"name":"The Cock & Bottle","phone":"+441756794734","address":"30 Swadford St","lat":53.960198184065796,"lng":-2.0188558101654053,"city_fetched":"Bradford","state":"North Yorkshire","country":"United Kingdom","canonicalUrl":"https://foursquare.com/v/the-cock--bottle/4baa8d05f964a520df733ae3","category":"Pub","checkinsCount":234,"usersCount":102,"tipCount":6,"visitsCount":241,"tier":"","message":"","currency":"","rating":8.5},{"name":"The Woolly Sheep Inn","phone":"+441756700966","twitter":"woollysheepinn","address":"38 Sheep St","lat":53.9604990676067,"lng":-2.017750818085341,"city_fetched":"Bradford","state":"North Yorkshire","country":"United Kingdom","canonicalUrl":"https://foursquare.com/v/the-woolly-sheep-inn/4baa8e59f964a52048743ae3","category":"Pub","checkinsCount":403,"usersCount":251,"tipCount":11,"visitsCount":451,"url":"http://woollysheepinn.co.uk","tier":"","message":"","currency":"","rating":8.4},{"name":"The Bay Horse","lat":53.940705501651166,"lng":-2.011877197847944,"city_fetched":"Bradford","country":"United Kingdom","canonicalUrl":"https://foursquare.com/v/the-bay-horse/4c5d92557f661b8d84a74b1c","category":"Pub","checkinsCount":116,"usersCount":98,"tipCount":4,"visitsCount":199,"tier":"","message":"","currency":"","rating":8.4},{"name":"The Grouse Inn","phone":"+441535643073","address":"Harehills Lane, Oldfield","lat":53.8403,"lng":-1.9856169732346314,"neighborhood":"Keighley","city_fetched":"Bradford","country":"United Kingdom","canonicalUrl":"https://foursquare.com/v/the-grouse-inn/4d20bacadd6a236aacd63938","category":"Pub","checkinsCount":52,"usersCount":56,"tipCount":4,"visitsCount":79,"url":"http://thegrouse.co.uk","tier":"","message":"","currency":"","rating":8.3},{"name":"Al's Dime Bar","twitter":"alsdimebar","address":"10 North Parade","lat":53.796659,"lng":-1.755789,"neighborhood":"City","city_fetched":"Bradford","state":"Bradford","country":"United Kingdom","canonicalUrl":"https://foursquare.com/alsdimebar","category":"Dive Bar","checkinsCount":94,"usersCount":54,"tipCount":10,"visitsCount":105,"url":"http://www.alsdimebar.com","tier":"","message":"","currency":"","rating":8.3},{"name":"Friends of Ham (Ilkley)","phone":"+441943604344","address":"8 Wells Rd","lat":53.924167,"lng":-1.822762,"neighborhood":"Ilkley","city_fetched":"Bradford","state":"Bradford","country":"United Kingdom","canonicalUrl":"https://foursquare.com/v/friends-of-ham-ilkley/55df058d498eb23a677a44b0","category":"Bar","checkinsCount":53,"usersCount":50,"tipCount":2,"visitsCount":91,"url":"http://www.friendsofham.com/friends-of-ham-ilkley/","tier":"","message":"","currency":"","rating":8.3},{"name":"The Golden Fleece","phone":"+441274651743","address":"23 Whitehall Rd. East","lat":53.74768106917297,"lng":-1.6907956933189647,"neighborhood":"Birkenshaw","city_fetched":"Bradford","country":"United Kingdom","canonicalUrl":"https://foursquare.com/v/the-golden-fleece/4cf177657bf3b60ceff05f7f","category":"Pub","checkinsCount":31,"usersCount":48,"tipCount":1,"visitsCount":126,"tier":"","message":"","currency":"","rating":8.2},{"name":"The Shibden Mill Inn","phone":"+441422365840","twitter":"shibdenmill","address":"Shibden Mill Fold","lat":53.741493,"lng":-1.847599,"city_fetched":"Bradford","country":"United Kingdom","canonicalUrl":"https://foursquare.com/v/the-shibden-mill-inn/4be407e9d4f7c9b6748e2320","category":"Pub","checkinsCount":156,"usersCount":111,"tipCount":4,"visitsCount":174,"url":"http://www.shibdenmillinn.com","tier":"","message":"","currency":"","rating":8.2},{"name":"The Cow & Calf","phone":"+441943607335","address":"Hanging Stone Rd.","lat":53.915292,"lng":-1.797873,"neighborhood":"Ilkley","city_fetched":"Bradford","country":"United Kingdom","canonicalUrl":"https://foursquare.com/v/the-cow--calf/4bc1c327abf49521066cc193","category":"Pub","checkinsCount":345,"usersCount":369,"tipCount":12,"visitsCount":470,"tier":"","message":"","currency":"","rating":8.2},{"name":"Old Gate Bar & Restaurant","phone":"+441422843993","twitter":"oldgatehebden","address":"1-5 Old Gate","lat":53.74144588044867,"lng":-2.0149744143519204,"city_fetched":"Bradford","state":"Calderdale","country":"United Kingdom","canonicalUrl":"https://foursquare.com/v/old-gate-bar--restaurant/507bfaad498ec6be8efe70e5","category":"Gastropub","checkinsCount":354,"usersCount":202,"tipCount":6,"visitsCount":429,"url":"http://www.oldgatehebden.co.uk","tier":"","message":"","currency":"","rating":8.1},{"name":"Coopers","phone":"+441943878835","twitter":"markettowntavs","address":"4-6 Otley Rd","lat":53.872504,"lng":-1.709326,"neighborhood":"Guiseley","city_fetched":"Bradford","country":"United Kingdom","canonicalUrl":"https://foursquare.com/v/coopers/4bf2e4276991c9b6cea029e9","category":"Pub","checkinsCount":538,"usersCount":151,"tipCount":9,"visitsCount":629,"url":"http://www.mttcoopers.co.uk","tier":"","message":"","currency":"","rating":8},{"name":"Delius Lived Next Door","phone":"+441274721672","address":"8-10 Claremont","lat":53.790314,"lng":-1.763187525,"neighborhood":"City","city_fetched":"Bradford","country":"United Kingdom","canonicalUrl":"https://foursquare.com/v/delius-lived-next-door/4bdb13632a3a0f472e4aadb6","category":"Bar","checkinsCount":503,"usersCount":126,"tipCount":9,"visitsCount":515,"url":"http://www.deliuslivednextdoor.co.uk","tier":"","message":"","currency":"","rating":8},{"name":"The Greyhound","phone":"+441132852427","address":"23 Tong Lane, Tong Village,","lat":53.77184827944671,"lng":-1.6653728485107422,"neighborhood":"Tong","city_fetched":"Bradford","country":"United Kingdom","canonicalUrl":"https://foursquare.com/v/the-greyhound/4b8bb94cf964a52070a832e3","category":"Pub","checkinsCount":145,"usersCount":66,"tipCount":3,"visitsCount":164,"tier":"","message":"","currency":"","rating":7.9},{"name":"The Record Café","phone":"+441274723143","twitter":"therecordcafe","address":"45-47 North Parade","lat":53.79766943801531,"lng":-1.7569541931152344,"neighborhood":"City","city_fetched":"Bradford","country":"United Kingdom","canonicalUrl":"https://foursquare.com/v/the-record-caf%C3%A9/546ceae1498e64797d2cfa96","category":"Beer Bar","checkinsCount":100,"usersCount":67,"tipCount":1,"visitsCount":123,"url":"http://therecordcafe.co.uk","tier":"","message":"","currency":"","rating":7.9},{"name":"The Bradford Brewery","twitter":"bradfordbrewery","address":"Rawson Rd","lat":53.79657835171666,"lng":-1.7594826099068266,"neighborhood":"City","city_fetched":"Bradford","country":"United Kingdom","canonicalUrl":"https://foursquare.com/v/the-bradford-brewery/54e63cdc498e1219a4db74e8","category":"Brewery","checkinsCount":110,"usersCount":90,"tipCount":3,"visitsCount":161,"url":"http://bradfordbrewery.com","tier":"","message":"","currency":"","rating":7.8},{"name":"Holdsworth House Hotel","phone":"+441422240024","twitter":"holdsworthhotel","address":"Holdsworth Rd","lat":53.757933874069145,"lng":-1.8750905008144887,"city_fetched":"Bradford","country":"United Kingdom","canonicalUrl":"https://foursquare.com/v/holdsworth-house-hotel/4bfff2f8147bd13aa37a2a4d","category":"Hotel","checkinsCount":189,"usersCount":137,"tipCount":6,"visitsCount":248,"url":"http://www.holdsworthhouse.co.uk","tier":"","message":"","currency":"","rating":7.8},{"name":"The Narrowboat","phone":"+441756797922","twitter":"markettowntavs","address":"36-38 Victoria St.","lat":53.9610534891932,"lng":-2.0189738273620605,"city_fetched":"Bradford","state":"North Yorkshire","country":"United Kingdom","canonicalUrl":"https://foursquare.com/v/the-narrowboat/4c03a7b739d476b03c5930a7","category":"Bar","checkinsCount":396,"usersCount":152,"tipCount":7,"visitsCount":416,"tier":"","message":"","currency":"","rating":7.8},{"name":"Pasha","phone":"+441274733484","twitter":"pasha","address":"20 Edderthorpe St","lat":53.79186556345805,"lng":-1.737767732280386,"neighborhood":"Bradford East","city_fetched":"Bradford","country":"United Kingdom","canonicalUrl":"https://foursquare.com/v/pasha/4c4a39969c8d2d7ff2e53569","category":"Hookah Bar","checkinsCount":136,"usersCount":127,"tipCount":6,"visitsCount":204,"url":"http://www.pashashisha.co.uk","tier":"","message":"","currency":"","rating":7.7},{"name":"The Flying Duck","phone":"+441943609587","twitter":"flyingduckpub","address":"16 Church Street","lat":53.9263853792678,"lng":-1.8252861499786377,"neighborhood":"Ilkley","city_fetched":"Bradford","country":"United Kingdom","canonicalUrl":"https://foursquare.com/v/the-flying-duck/5285f12911d27acf440520ac","category":"Pub","checkinsCount":96,"usersCount":53,"tipCount":4,"visitsCount":96,"tier":"","message":"","currency":"","rating":7.7},{"name":"The Fleece","phone":"+441943830491","address":"152-154 Main Street","lat":53.943785422807586,"lng":-1.8760993138991582,"neighborhood":"Addingham","city_fetched":"Bradford","state":"Bradford","country":"United Kingdom","canonicalUrl":"https://foursquare.com/v/the-fleece/4c7bd7afdf08a1cd0a9fe15d","category":"Pub","checkinsCount":267,"usersCount":70,"tipCount":13,"visitsCount":267,"tier":"","message":"","currency":"","rating":7.7},{"name":"The Westleigh Hotel","phone":"+441274727089","address":"28-30 Easby Rd","lat":53.78750704630007,"lng":-1.7660093307495117,"neighborhood":"City","city_fetched":"Bradford","country":"United Kingdom","canonicalUrl":"https://foursquare.com/v/the-westleigh-hotel/4bbaeafe7421a593b249c440","category":"Bed & Breakfast","checkinsCount":181,"usersCount":84,"tipCount":4,"visitsCount":193,"tier":"","message":"","currency":"","rating":7.6},{"name":"Bar T'at","phone":"+441943608888","twitter":"markettowntavs","address":"7 Cunliffe Road","lat":53.92514376075074,"lng":-1.8258956268526763,"neighborhood":"Ilkley","city_fetched":"Bradford","country":"United Kingdom","canonicalUrl":"https://foursquare.com/v/bar-tat/4bb26e8b2397b713fc0037b3","category":"Bar","checkinsCount":475,"usersCount":186,"tipCount":13,"visitsCount":512,"tier":"","message":"","currency":"","rating":7.6},{"name":"Saltaire Brewery","phone":"+441274594959","address":"Unit 6, County Workshops","lat":53.83840420429386,"lng":-1.7667141867512128,"neighborhood":"Shipley","city_fetched":"Bradford","country":"United Kingdom","canonicalUrl":"https://foursquare.com/v/saltaire-brewery/4c5338c9fd2ea593f1db1628","category":"Brewery","checkinsCount":258,"usersCount":156,"tipCount":9,"visitsCount":321,"tier":"","message":"","currency":"","rating":7.5},{"name":"the crescent","address":"brook street","lat":53.92593684157323,"lng":-1.8230438232421875,"neighborhood":"Ilkley","city_fetched":"Bradford","country":"United Kingdom","canonicalUrl":"https://foursquare.com/v/the-crescent/4e0dee0a1fc79cade2238703","category":"Pub","checkinsCount":192,"usersCount":102,"tipCount":4,"visitsCount":193,"tier":"","message":"","currency":"","rating":7.5},{"name":"Town Street Tavern","phone":"+441132819996","twitter":"markettowntavs","address":"16-18 Town St","lat":53.837335272432504,"lng":-1.6414690017700195,"neighborhood":"Horsforth","city_fetched":"Bradford","country":"United Kingdom","canonicalUrl":"https://foursquare.com/v/town-street-tavern/4bcb6b29b6c49c74592e9291","category":"Bar","checkinsCount":409,"usersCount":149,"tipCount":9,"visitsCount":436,"tier":"","message":"","currency":"","rating":7.4},{"name":"The Clothiers' Arms (Wetherspoon)","twitter":"jdwtweet","address":"56 High St.","lat":53.86600999061442,"lng":-1.6817982743051678,"neighborhood":"Yeadon","city_fetched":"Bradford","country":"United Kingdom","canonicalUrl":"https://foursquare.com/v/the-clothiers-arms-wetherspoon/4c09909f6071a5932d2ede32","category":"Pub","checkinsCount":256,"usersCount":79,"tipCount":4,"visitsCount":260,"url":"http://www.jdwetherspoon.co.uk","tier":"","message":"","currency":"","rating":7.4},{"name":"The Rodley Barge","phone":"+441132574606","twitter":"therodleybarge","address":"182-184 Town St.","lat":53.823173,"lng":-1.662487,"neighborhood":"Rodley","city_fetched":"Bradford","country":"United Kingdom","canonicalUrl":"https://foursquare.com/therodleybarge","category":"Pub","checkinsCount":837,"usersCount":121,"tipCount":3,"visitsCount":844,"url":"http://www.therodley-barge.co.uk","tier":"","message":"","currency":"","rating":7.4},{"name":"Halfway House","phone":"+441274584610","twitter":"h_houseshipley","address":"45 Otley Rd.","lat":53.84633047023448,"lng":-1.7519009113311768,"neighborhood":"Baildon","city_fetched":"Bradford","country":"United Kingdom","canonicalUrl":"https://foursquare.com/v/halfway-house/4baa2258f964a5204a4d3ae3","category":"Pub","checkinsCount":371,"usersCount":115,"tipCount":3,"visitsCount":465,"url":"http://www.thehalfwayhouseshipley.co.uk","tier":"","message":"","currency":"","rating":7.4},{"name":"The Stubbing Wharf","phone":"+441422844107","address":"King Street","lat":53.74083048834174,"lng":-2.027599811553955,"city_fetched":"Bradford","state":"Calderdale","country":"United Kingdom","canonicalUrl":"https://foursquare.com/v/the-stubbing-wharf/4b8bd66ef964a520e7ad32e3","category":"Pub","checkinsCount":176,"usersCount":141,"tipCount":10,"visitsCount":244,"tier":"","message":"","currency":"","rating":7.4},{"name":"The Myrtle Grove (Wetherspoon)","phone":"+441274568637","address":"141 Main St.","lat":53.84728821315337,"lng":-1.8373967271689002,"neighborhood":"Bingley","city_fetched":"Bradford","country":"United Kingdom","canonicalUrl":"https://foursquare.com/v/the-myrtle-grove-wetherspoon/4c87aa55821e9eb056cc8d89","category":"Pub","checkinsCount":439,"usersCount":158,"tipCount":3,"visitsCount":478,"url":"http://www.jdwetherspoon.co.uk","tier":"","message":"","currency":"","rating":7.4},{"name":"City Vaults","phone":"+441274739697","address":"33 Hustlergate","lat":53.794421597087975,"lng":-1.7526490055658028,"neighborhood":"City","city_fetched":"Bradford","country":"United Kingdom","canonicalUrl":"https://foursquare.com/v/city-vaults/4b98048bf964a520632635e3","category":"Pub","checkinsCount":359,"usersCount":179,"tipCount":11,"visitsCount":371,"url":"http://www.cityvaults.co.uk","tier":"","message":"","currency":"","rating":7.4},{"name":"The Hitching Post","phone":"+441274611169","address":"54 Leeds Rd.","lat":53.834525471323595,"lng":-1.7183694729687207,"neighborhood":"Bradford East","city_fetched":"Bradford","country":"United Kingdom","canonicalUrl":"https://foursquare.com/v/the-hitching-post/4bdc75b9fed22d7ffe4258c9","category":"Pub","checkinsCount":166,"usersCount":80,"tipCount":4,"visitsCount":230,"url":"http://www.hitchingpostbradfordpub.co.uk","tier":"","message":"","currency":"","rating":7.3},{"name":"The Dog and Gun Inn","phone":"+441535633855","address":"Colne Rd.","lat":53.896418944207426,"lng":-2.011347315599452,"city_fetched":"Bradford","country":"United Kingdom","canonicalUrl":"https://foursquare.com/v/the-dog-and-gun-inn/4caf7941eb65b1f7860364cd","category":"Gastropub","checkinsCount":105,"usersCount":73,"tipCount":5,"visitsCount":131,"url":"http://www.dog-and-gun-inn.co.uk","tier":1,"message":"Cheap","currency":"£","rating":7.3},{"name":"Fox And Goose","phone":"+441422648052","twitter":"hebdenfox","address":"7 Heptonstall Rd","lat":53.741898443116675,"lng":-2.021248493030583,"city_fetched":"Bradford","state":"Calderdale","country":"United Kingdom","canonicalUrl":"https://foursquare.com/v/fox-and-goose/4c1285a67f7f2d7fe775dd68","category":"Pub","checkinsCount":320,"usersCount":53,"tipCount":9,"visitsCount":331,"url":"http://www.foxandgoose.org","tier":"","message":"","currency":"","rating":7.3},{"name":"The White Lion Hotel","phone":"+441422842197","twitter":"whitelionhotel1","address":"Bridge Gate","lat":53.742386583272605,"lng":-2.0119338238583104,"city_fetched":"Bradford","country":"United Kingdom","canonicalUrl":"https://foursquare.com/v/the-white-lion-hotel/4cc2dfc706c254810a768c47","category":"Hotel","checkinsCount":137,"usersCount":107,"tipCount":9,"visitsCount":158,"url":"http://www.whitelionhotel.net","tier":"","message":"","currency":"","rating":7.3},{"name":"Boltmakers Arms","phone":"+441535661936","address":"117 East Parade","lat":53.86657892891087,"lng":-1.9046590077266496,"neighborhood":"Keighley Central","city_fetched":"Bradford","country":"United Kingdom","canonicalUrl":"https://foursquare.com/v/boltmakers-arms/4d150d59e190721ee56b0c21","category":"Pub","checkinsCount":150,"usersCount":69,"tipCount":6,"visitsCount":164,"url":"http://www.boltmakers.co.uk","tier":"","message":"","currency":"","rating":7.2},{"name":"The Boathouse Inn","phone":"+441274585690","address":"Victoria Rd.","lat":53.83984222129571,"lng":-1.7900848388671875,"neighborhood":"Shipley","city_fetched":"Bradford","country":"United Kingdom","canonicalUrl":"https://foursquare.com/v/the-boathouse-inn/4c38670818e72d7f923918f5","category":"Bar","checkinsCount":491,"usersCount":299,"tipCount":12,"visitsCount":578,"url":"http://www.theboathouseinn.co.uk","tier":"","message":"","currency":"","rating":7.2},{"name":"The Turf","phone":"+441274547348","address":"217 Keighley Road","lat":53.81575508183551,"lng":-1.7732288345034564,"neighborhood":"Heaton","city_fetched":"Bradford","country":"United Kingdom","canonicalUrl":"https://foursquare.com/v/the-turf/51745abbe4b09fc943cc4112","category":"Bar","checkinsCount":103,"usersCount":49,"tipCount":4,"visitsCount":128,"tier":"","message":"","currency":"","rating":7.2},{"name":"Horse and Farrier","address":"7 Bridge St","lat":53.90674959103531,"lng":-1.6934596937825035,"neighborhood":"Otley and Wharfedale","city_fetched":"Bradford","country":"United Kingdom","canonicalUrl":"https://foursquare.com/v/horse-and-farrier/4db0912ef7b1bd003acbafbd","category":"Pub","checkinsCount":381,"usersCount":83,"tipCount":7,"visitsCount":411,"tier":"","message":"","currency":"","rating":7.2},{"name":"Cricketers Arms","phone":"+441535669912","address":"23, Coney Ln.","lat":53.865582880873404,"lng":-1.9052888824866692,"neighborhood":"Keighley Central","city_fetched":"Bradford","country":"United Kingdom","canonicalUrl":"https://foursquare.com/v/cricketers-arms/4c275edd5c5ca593aea047fe","category":"Pub","checkinsCount":133,"usersCount":55,"tipCount":4,"visitsCount":134,"url":"http://www.cricketersarmskeighley.co.uk","tier":"","message":"","currency":"","rating":7.2},{"name":"Moorlands Inn","phone":"+441422248943","address":"Keighley Rd.","lat":53.766394867766536,"lng":-1.8953561782836914,"city_fetched":"Bradford","country":"United Kingdom","canonicalUrl":"https://foursquare.com/v/moorlands-inn/4c7bdff272ccef3b60f76132","category":"Pub","checkinsCount":142,"usersCount":87,"tipCount":8,"visitsCount":158,"tier":"","message":"","currency":"","rating":7.2},{"name":"Sir Titus Salt (Wetherspoon)","phone":"+441274732853","address":"Unit B, Windsor Baths","lat":53.79114512956937,"lng":-1.758338212966919,"neighborhood":"City","city_fetched":"Bradford","country":"United Kingdom","canonicalUrl":"https://foursquare.com/v/sir-titus-salt-wetherspoon/4b659978f964a520eef52ae3","category":"Pub","checkinsCount":1128,"usersCount":481,"tipCount":10,"visitsCount":1378,"url":"http://www.jdwetherspoon.co.uk","tier":"","message":"","currency":"","rating":7.1},{"name":"The Fleece","address":"61 Westgate","lat":53.904146908581374,"lng":-1.7004332137904044,"neighborhood":"Otley and Wharfedale","city_fetched":"Bradford","state":"Leeds","country":"United Kingdom","canonicalUrl":"https://foursquare.com/v/the-fleece/4d83d49599b78cfa95dea91f","category":"Pub","checkinsCount":436,"usersCount":119,"tipCount":11,"visitsCount":469,"tier":"","message":"","currency":"","rating":7.1},{"name":"The Yard","phone":"+441943609606","twitter":"yardilkley","address":"30 Brook St","lat":53.92567150714699,"lng":-1.823129653930664,"neighborhood":"Ilkley","city_fetched":"Bradford","country":"United Kingdom","canonicalUrl":"https://foursquare.com/v/the-yard/4bdc8abffed22d7f92a758c9","category":"Bar","checkinsCount":166,"usersCount":90,"tipCount":3,"visitsCount":168,"url":"http://www.workhardplayyard.co.uk","tier":"","message":"","currency":"","rating":7},{"name":"Haworth Old Hall","phone":"+441535642709","twitter":"hawortholdhall","address":"Sun Street","lat":53.828404,"lng":-1.953515,"neighborhood":"Keighley","city_fetched":"Bradford","country":"United Kingdom","canonicalUrl":"https://foursquare.com/v/haworth-old-hall/4c4c9edd50710f47b4476132","category":"Restaurant","checkinsCount":310,"usersCount":139,"tipCount":9,"visitsCount":351,"url":"http://www.hawortholdhall.co.uk ","tier":2,"message":"Moderate","currency":"£","rating":7},{"name":"The Fox","phone":"+441943873024","address":"129 Bradford Rd","lat":53.89284138171922,"lng":-1.7320713134071481,"neighborhood":"Menston","city_fetched":"Bradford","country":"United Kingdom","canonicalUrl":"https://foursquare.com/v/the-fox/4b8a83c1f964a5201b7032e3","category":"Pub","checkinsCount":190,"usersCount":139,"tipCount":4,"visitsCount":275,"url":"http://www.thefoxmenston.co.uk","tier":"","message":"","currency":"","rating":7},{"name":"The Junction","phone":"+441943463233","address":"44 Bondgate","lat":53.90400947677477,"lng":-1.6912508010864258,"neighborhood":"Otley and Wharfedale","city_fetched":"Bradford","country":"United Kingdom","canonicalUrl":"https://foursquare.com/v/the-junction/4ba56465f964a520950239e3","category":"Pub","checkinsCount":717,"usersCount":109,"tipCount":13,"visitsCount":758,"tier":"","message":"","currency":"","rating":7},{"name":"Bottomley's Arms","phone":"+441274678649","lat":53.75254255456018,"lng":-1.8166494369506836,"city_fetched":"Bradford","state":"Calderdale","country":"United Kingdom","canonicalUrl":"https://foursquare.com/v/bottomleys-arms/4cd6a858dfb4a1cd8b2d605c","category":"Brewery","checkinsCount":386,"usersCount":69,"tipCount":4,"visitsCount":459,"tier":"","message":"","currency":"","rating":6.9},{"name":"Wyke Lion","phone":"+441274674756","address":"Bradford Rd.","lat":53.73084676477518,"lng":-1.777075693280156,"neighborhood":"Wyke","city_fetched":"Bradford","country":"United Kingdom","canonicalUrl":"https://foursquare.com/v/wyke-lion/4bb88562cf2fc9b6e7969f02","category":"Pub","checkinsCount":170,"usersCount":155,"tipCount":2,"visitsCount":251,"url":"http://www.vintageinn.co.uk/thewykelionbradford/","tier":"","message":"","currency":"","rating":6.9},{"name":"Cue Gardens","address":"Stadium Road","lat":53.763766,"lng":-1.75994154,"neighborhood":"Low Moor","city_fetched":"Bradford","state":"Bradford","country":"United Kingdom","canonicalUrl":"https://foursquare.com/v/cue-gardens/4c1bdb75b306c928a3e762b7","category":"Bar","checkinsCount":424,"usersCount":122,"tipCount":3,"visitsCount":477,"tier":"","message":"","currency":"","rating":6.9},{"name":"The Crossed Shuttle (Wetherspoon)","phone":"+441132909620","twitter":"jdwtweet","address":"11 Manor House St.","lat":53.79651117381642,"lng":-1.6616597406490825,"neighborhood":"South Pudsey","city_fetched":"Bradford","country":"United Kingdom","canonicalUrl":"https://foursquare.com/v/the-crossed-shuttle-wetherspoon/4dc290dbfa7608e86fdbbc65","category":"Pub","checkinsCount":384,"usersCount":128,"tipCount":3,"visitsCount":452,"url":"http://www.jdwetherspoon.co.uk","tier":"","message":"","currency":"","rating":6.7}]