[{"name":"The Picture Palace  (Wetherspoon)","phone":"+441376550255","address":"Fairfield Rd","lat":51.87730323068405,"lng":0.5537369916673373,"city_fetched":"Braintree,UK","state":"Essex","country":"United Kingdom","canonicalUrl":"https://foursquare.com/v/the-picture-palace--wetherspoon/4c87aa74821e9eb071cc8d89","categoryId":"4bf58dd8d48988d11b941735","category":"Pub","checkinsCount":599,"usersCount":174,"tipCount":10,"visitsCount":693,"url":"http://www.jdwetherspoon.co.uk","tier":"","message":"","currency":"","rating":8.6},{"name":"Fowlers Farm","phone":"+441376551560","address":"Cressing Rd.","lat":51.86732588359218,"lng":0.5826609586618818,"city_fetched":"Braintree,UK","state":"Essex","country":"United Kingdom","canonicalUrl":"https://foursquare.com/v/fowlers-farm/4bfa5fd85efe2d7f27776d34","categoryId":"4bf58dd8d48988d11b941735","category":"Pub","checkinsCount":150,"usersCount":108,"tipCount":5,"visitsCount":184,"tier":"","message":"","currency":"","rating":6.8},{"name":"Brewers Fayre","phone":"+448701977039","address":"Braintree Bypass","lat":51.880032587139844,"lng":0.5760814855858111,"city_fetched":"Braintree,UK","state":"Essex","country":"United Kingdom","canonicalUrl":"https://foursquare.com/v/brewers-fayre/4c4ef3aefa9d952119d2700a","categoryId":"4bf58dd8d48988d11b941735","category":"Pub","checkinsCount":69,"usersCount":34,"tipCount":1,"visitsCount":69,"tier":"","message":"","currency":"","rating":6},{"name":"The Essex Cricketers - Shepherd Neame","phone":"+441376569096","address":"Notley Green","lat":51.85745088569438,"lng":0.5244255065917969,"city_fetched":"Braintree,UK","state":"Essex","country":"United Kingdom","canonicalUrl":"https://foursquare.com/v/the-essex-cricketers--shepherd-neame/4ba4cda3f964a52051b638e3","categoryId":"4bf58dd8d48988d11b941735","category":"Pub","checkinsCount":126,"usersCount":43,"tipCount":4,"visitsCount":129,"url":"http://www.shepherdneame.co.uk","tier":"","message":"","currency":"","rating":5.7},{"name":"Mulberry Tree","address":"Braintree By Pass","lat":51.86896,"lng":0.582121,"city_fetched":"Braintree,UK","state":"Essex","country":"United Kingdom","canonicalUrl":"https://foursquare.com/v/mulberry-tree/50def524e4b0f6dd08b20134","categoryId":"4bf58dd8d48988d11b941735","category":"Pub","checkinsCount":67,"usersCount":82,"tipCount":1,"visitsCount":110,"tier":"","message":"","currency":"","rating":5.2}]