[{"name":"The Olde Dog Inn","phone":"+441277810337","address":"Billericay Rd","lat":51.59367648652511,"lng":0.36837685014105825,"city_fetched":"Brentwood,UK","state":"Essex","country":"United Kingdom","canonicalUrl":"https://foursquare.com/v/the-olde-dog-inn/4c764d231b30a0938d9bf109","categoryId":"4bf58dd8d48988d11b941735","category":"Pub","checkinsCount":118,"usersCount":89,"tipCount":2,"visitsCount":164,"tier":"","message":"","currency":"","rating":7.3},{"name":"The Bull","lat":51.61195408565591,"lng":0.274667440184654,"city_fetched":"Brentwood,UK","country":"United Kingdom","canonicalUrl":"https://foursquare.com/v/the-bull/5243fc2a11d235153427664a","categoryId":"4bf58dd8d48988d11b941735","category":"Pub","checkinsCount":50,"usersCount":73,"tipCount":4,"visitsCount":115,"tier":"","message":"","currency":"","rating":7.2},{"name":"The Green Man - Shepherd Neame","phone":"+441277810292","address":"11 Cricketers Lane, Herongate","lat":51.5960614381727,"lng":0.3511977195739746,"city_fetched":"Brentwood,UK","state":"Essex","country":"United Kingdom","canonicalUrl":"https://foursquare.com/v/the-green-man--shepherd-neame/4e65f055091afcffda120582","categoryId":"4bf58dd8d48988d11b941735","category":"Pub","checkinsCount":180,"usersCount":63,"tipCount":0,"visitsCount":218,"url":"http://www.shepherdneame.co.uk","tier":"","message":"","currency":"","rating":6.8},{"name":"Nag's Head","phone":"+441277260005","address":"Brook St.","lat":51.61077854119456,"lng":0.27167539285128817,"city_fetched":"Brentwood,UK","state":"Essex","country":"United Kingdom","canonicalUrl":"https://foursquare.com/v/nags-head/4babbe00f964a52072c53ae3","categoryId":"50327c8591d4c4b30a586d5d","category":"Brewery","checkinsCount":266,"usersCount":238,"tipCount":3,"visitsCount":363,"tier":"","message":"","currency":"","rating":6.7},{"name":"The Black Horse","lat":51.63815,"lng":0.27854,"city_fetched":"Brentwood,UK","state":"Essex","country":"United Kingdom","canonicalUrl":"https://foursquare.com/v/the-black-horse/4c19041098f4a5938f69fff5","categoryId":"4bf58dd8d48988d117941735","category":"Beer Garden","checkinsCount":125,"usersCount":115,"tipCount":1,"visitsCount":215,"tier":"","message":"","currency":"","rating":6.5},{"name":"The Slug and Lettuce","address":"High Street","lat":51.619847,"lng":0.300099,"city_fetched":"Brentwood,UK","state":"Essex","country":"United Kingdom","canonicalUrl":"https://foursquare.com/v/the-slug-and-lettuce/4bc46d7ab492d13afbf8a960","categoryId":"4bf58dd8d48988d116941735","category":"Bar","checkinsCount":242,"usersCount":173,"tipCount":1,"visitsCount":248,"tier":"","message":"","currency":"","rating":6.4},{"name":"The Swan","lat":51.61956200170072,"lng":0.29881954193115234,"city_fetched":"Brentwood,UK","state":"Essex","country":"United Kingdom","canonicalUrl":"https://foursquare.com/v/the-swan/4bb64b2f1344b7135a489d04","categoryId":"4bf58dd8d48988d11b941735","category":"Pub","checkinsCount":432,"usersCount":150,"tipCount":4,"visitsCount":469,"tier":"","message":"","currency":"","rating":6.3},{"name":"The Hutton Junction","address":"15 Rayleigh Road","lat":51.6317182,"lng":0.333158,"city_fetched":"Brentwood,UK","state":"Essex","country":"United Kingdom","canonicalUrl":"https://foursquare.com/v/the-hutton-junction/4b7449d7f964a520c5d22de3","categoryId":"4bf58dd8d48988d11b941735","category":"Pub","checkinsCount":370,"usersCount":105,"tipCount":4,"visitsCount":485,"tier":"","message":"","currency":"","rating":6.2},{"name":"Murphys Sports Bar","phone":"+441277212860","twitter":"murphys4sport","address":"161 Kings Rd","lat":51.6149008329128,"lng":0.29949482646920517,"city_fetched":"Brentwood,UK","state":"Essex","country":"United Kingdom","canonicalUrl":"https://foursquare.com/v/murphys-sports-bar/4c095583bbc676b0390648d5","categoryId":"4bf58dd8d48988d116941735","category":"Bar","checkinsCount":289,"usersCount":110,"tipCount":3,"visitsCount":291,"url":"http://www.murphyssportsbar.co.uk","tier":"","message":"","currency":"","rating":5.6},{"name":"Sugar Hut Village","phone":"+441277200884","address":"93-95 High St.","lat":51.6200941348296,"lng":0.30044722766053544,"city_fetched":"Brentwood,UK","state":"Essex","country":"United Kingdom","canonicalUrl":"https://foursquare.com/v/sugar-hut-village/4cba16e8bac937046c43e97c","categoryId":"4bf58dd8d48988d11f941735","category":"Nightclub","checkinsCount":593,"usersCount":455,"tipCount":4,"visitsCount":673,"tier":"","message":"","currency":"","rating":5.6},{"name":"The Bear (Sizzling Pubs)","phone":"+441708381935","twitter":"sizzlingpubs","address":"Noak Hill Rd.","lat":51.61697042727947,"lng":0.2195103318674729,"neighborhood":"Harold Hill","city_fetched":"Brentwood,UK","state":"Greater London","country":"United Kingdom","canonicalUrl":"https://foursquare.com/v/the-bear-sizzling-pubs/4c7a233f2d3ba143589090d0","categoryId":"4bf58dd8d48988d11b941735","category":"Pub","checkinsCount":83,"usersCount":45,"tipCount":2,"visitsCount":83,"tier":"","message":"","currency":"","rating":5.4}]