[{"name":"Admirals Table","phone":"+441278685671","lat":51.163025,"lng":-2.987408,"city_fetched":"Bridgwater,UK","state":"Somerset","country":"United Kingdom","canonicalUrl":"https://foursquare.com/v/admirals-table/4bdedb63fe0e62b5a3000606","categoryId":"4bf58dd8d48988d116941735","category":"Bar","checkinsCount":143,"usersCount":82,"tipCount":5,"visitsCount":161,"url":"http://www.admiralstablepubbridgwater.co.uk","tier":"","message":"","currency":"","rating":7.6},{"name":"The Bower Inn","address":"Bower Lane","lat":51.13299663474042,"lng":-2.972335664121235,"city_fetched":"Bridgwater,UK","state":"Somerset","country":"United Kingdom","canonicalUrl":"https://foursquare.com/v/the-bower-inn/4d987fc3c19fb60cf06eaf65","categoryId":"4bf58dd8d48988d11b941735","category":"Pub","checkinsCount":67,"usersCount":48,"tipCount":3,"visitsCount":80,"tier":"","message":"","currency":"","rating":6.8},{"name":"The Carnival Inn  (Wetherspoon)","phone":"+441278726180","address":"37 St Mary St.","lat":51.12741893551187,"lng":-3.003930960202851,"city_fetched":"Bridgwater,UK","state":"Somerset","country":"United Kingdom","canonicalUrl":"https://foursquare.com/v/the-carnival-inn--wetherspoon/4c87aa76821e9eb074cc8d89","categoryId":"4bf58dd8d48988d11b941735","category":"Pub","checkinsCount":918,"usersCount":140,"tipCount":3,"visitsCount":942,"url":"http://www.jdwetherspoon.co.uk","tier":"","message":"","currency":"","rating":6.4},{"name":"Brewers Fayre","phone":"+441278440550","address":"Express Park","lat":51.1458820462858,"lng":-2.9915284712552603,"city_fetched":"Bridgwater,UK","state":"Somerset","country":"United Kingdom","canonicalUrl":"https://foursquare.com/v/brewers-fayre/4c529e622d51952106734390","categoryId":"4bf58dd8d48988d11b941735","category":"Pub","checkinsCount":221,"usersCount":108,"tipCount":1,"visitsCount":249,"tier":"","message":"","currency":"","rating":6},{"name":"The Cornhill","phone":"+441278429292","address":"6-7 Cornhill","lat":51.128159249825245,"lng":-3.0037728071536516,"city_fetched":"Bridgwater,UK","state":"Somerset","country":"United Kingdom","canonicalUrl":"https://foursquare.com/v/the-cornhill/4bd6c07b6798ef3b7985658d","categoryId":"4bf58dd8d48988d116941735","category":"Bar","checkinsCount":185,"usersCount":87,"tipCount":2,"visitsCount":186,"tier":"","message":"","currency":"","rating":5.6}]