[{"name":"The Old Castle","phone":"+441746711420","address":"10-11 W Castle St","lat":52.533644651893454,"lng":-2.420023083686828,"city_fetched":"Bridgnorth","state":"Shropshire","country":"United Kingdom","canonicalUrl":"https://foursquare.com/v/the-old-castle/4dd797b345ddced8208a0f04","category":"Pub","checkinsCount":116,"usersCount":62,"tipCount":1,"visitsCount":120,"url":"http://www.oldcastlebridgnorth.co.uk","tier":"","message":"","currency":"","rating":7.8},{"name":"BamBoo","phone":"+441746765333","twitter":"bamboowinebar","address":"15 Bridge St","lat":52.53429727726924,"lng":-2.416938543319702,"city_fetched":"Bridgnorth","state":"Shropshire","country":"United Kingdom","canonicalUrl":"https://foursquare.com/v/bamboo/51361490e4b0210f8cfaf62a","category":"Wine Bar","checkinsCount":79,"usersCount":24,"tipCount":4,"visitsCount":82,"url":"http://bamboobridgnorth.co.uk","tier":"","message":"","currency":"","rating":7.8},{"name":"White Lion","phone":"+441746763962","address":"3 W Castle St","lat":52.534171647638274,"lng":-2.4196529388427734,"city_fetched":"Bridgnorth","state":"Shropshire","country":"United Kingdom","canonicalUrl":"https://foursquare.com/v/white-lion/4d644fd04e1ea1cd674d43b9","category":"Pub","checkinsCount":192,"usersCount":83,"tipCount":7,"visitsCount":198,"url":"http://www.whitelionbridgnorth.co.uk","tier":"","message":"","currency":"","rating":7.7},{"name":"Railwaymans Arms","phone":"+441746764361","address":"Hollybush Rd","lat":52.53042363,"lng":-2.420575,"city_fetched":"Bridgnorth","state":"Shropshire","country":"United Kingdom","canonicalUrl":"https://foursquare.com/v/railwaymans-arms/4d7b98635a396dcbf46162fb","category":"Pub","checkinsCount":230,"usersCount":99,"tipCount":12,"visitsCount":230,"url":"http://www.bridgnorthstation.co.uk/bar.html","tier":"","message":"","currency":"","rating":7.1},{"name":"Kings Head and Stable Bar","phone":"+441746762141","address":"3 Whitburn St","lat":52.53648369004025,"lng":-2.4211661961961477,"city_fetched":"Bridgnorth","state":"Shropshire","country":"United Kingdom","canonicalUrl":"https://foursquare.com/v/kings-head-and-stable-bar/4c8b7bbe1eafb1f79cde8335","category":"Bar","checkinsCount":305,"usersCount":122,"tipCount":5,"visitsCount":332,"url":"http://www.kingsheadbridgnorth.co.uk","tier":"","message":"","currency":"","rating":6.4},{"name":"Jewel of the Severn (Wetherspoon)","phone":"+441746711980","address":"80-81 High St.","lat":52.53663685952411,"lng":-2.4203717708587646,"city_fetched":"Bridgnorth","state":"Shropshire","country":"United Kingdom","canonicalUrl":"https://foursquare.com/v/jewel-of-the-severn-wetherspoon/4c87aa75821e9eb073cc8d89","category":"Pub","checkinsCount":533,"usersCount":166,"tipCount":10,"visitsCount":556,"url":"http://www.jdwetherspoon.co.uk","tier":"","message":"","currency":"","rating":6.4},{"name":"The Crown","phone":"+441746763229","address":"High Street","lat":52.53623896071665,"lng":-2.4208223369029387,"city_fetched":"Bridgnorth","state":"Shropshire","country":"United Kingdom","canonicalUrl":"https://foursquare.com/v/the-crown/4b7c5764f964a5207e8d2fe3","category":"Pub","checkinsCount":182,"usersCount":85,"tipCount":7,"visitsCount":184,"tier":"","message":"","currency":"","rating":4.9}]