[{"name":"The Coach","phone":"+441656665477","address":"37 Cowbridge Rd","lat":51.5014386177063,"lng":-3.5745584964752197,"city_fetched":"Bridgend,UK","state":"Bridgend county borough","country":"United Kingdom","canonicalUrl":"https://foursquare.com/v/the-coach/4d85023d99b78cfa2306c51f","categoryId":"4bf58dd8d48988d11b941735","category":"Pub","checkinsCount":212,"usersCount":51,"tipCount":7,"visitsCount":276,"tier":"","message":"","currency":"","rating":7.2},{"name":"The Caeffatri","address":"Caeffatri Close","lat":51.5130066361136,"lng":-3.576126343052203,"city_fetched":"Bridgend,UK","state":"Bridgend county borough","country":"United Kingdom","canonicalUrl":"https://foursquare.com/v/the-caeffatri/4e172b741f6eb653a5ed660f","categoryId":"4bf58dd8d48988d11b941735","category":"Pub","checkinsCount":37,"usersCount":24,"tipCount":2,"visitsCount":62,"tier":"","message":"","currency":"","rating":7.2},{"name":"Llangewydd Arms","phone":"+441656658059","address":"District Centre","lat":51.50119617280511,"lng":-3.601487874984741,"city_fetched":"Bridgend,UK","state":"Bridgend county borough","country":"United Kingdom","canonicalUrl":"https://foursquare.com/v/llangewydd-arms/4bd5fe984e32d13a1bdfc180","categoryId":"4bf58dd8d48988d11b941735","category":"Pub","checkinsCount":216,"usersCount":49,"tipCount":2,"visitsCount":241,"tier":"","message":"","currency":"","rating":6.2},{"name":"Ty Risha","phone":"+441656725287","address":"Pen-Y-Cae","lat":51.532223,"lng":-3.582801,"city_fetched":"Bridgend,UK","country":"United Kingdom","canonicalUrl":"https://foursquare.com/v/ty-risha/4c7fe5d9d34ca143c25c1480","categoryId":"4bf58dd8d48988d11b941735","category":"Pub","checkinsCount":93,"usersCount":59,"tipCount":4,"visitsCount":100,"tier":"","message":"","currency":"","rating":5.9},{"name":"The Wyndham Arms (Wetherspoon)","phone":"+441656673500","address":"Dunraven Pl.","lat":51.506531,"lng":-3.579339,"city_fetched":"Bridgend,UK","country":"United Kingdom","canonicalUrl":"https://foursquare.com/v/the-wyndham-arms-wetherspoon/4bcf142f0ffdce72983ab2c0","categoryId":"4bf58dd8d48988d11b941735","category":"Pub","checkinsCount":558,"usersCount":179,"tipCount":15,"visitsCount":640,"url":"http://www.jdwetherspoon.co.uk","tier":"","message":"","currency":"","rating":5.8},{"name":"The Watermill","lat":51.482341289520264,"lng":-3.6008763313293457,"city_fetched":"Bridgend,UK","country":"United Kingdom","canonicalUrl":"https://foursquare.com/v/the-watermill/4c62fdb8eb82d13aa8c006d6","categoryId":"4bf58dd8d48988d11b941735","category":"Pub","checkinsCount":125,"usersCount":138,"tipCount":15,"visitsCount":173,"tier":"","message":"","currency":"","rating":5.2}]