[{"name":"The Anchor Inn","phone":"+441297489215","address":"Sea Hill Ln","lat":50.722426,"lng":-2.823355,"city_fetched":"Bridport,UK","state":"Dorset","country":"United Kingdom","canonicalUrl":"https://foursquare.com/v/the-anchor-inn/4b7ad427f964a520473f2fe3","categoryId":"4bf58dd8d48988d11b941735","category":"Pub","checkinsCount":163,"usersCount":140,"tipCount":13,"visitsCount":185,"url":"http://www.theanchorinnseatown.co.uk","tier":"","message":"","currency":"","rating":8.7},{"name":"The Bull Hotel","address":"34 East St","lat":50.733192,"lng":-2.7562189,"city_fetched":"Bridport,UK","state":"Dorset","country":"United Kingdom","canonicalUrl":"https://foursquare.com/v/the-bull-hotel/4b6d83e8f964a52085792ce3","categoryId":"4bf58dd8d48988d1d5941735","category":"Hotel Bar","checkinsCount":287,"usersCount":131,"tipCount":5,"visitsCount":306,"tier":"","message":"","currency":"","rating":7.6},{"name":"The Ropemakers","phone":"+441308421255","address":"36 West St","lat":50.73364392820089,"lng":-2.7602505683898926,"city_fetched":"Bridport,UK","state":"Dorset","country":"United Kingdom","canonicalUrl":"https://foursquare.com/v/the-ropemakers/4c63a8b2eb82d13abc7808d6","categoryId":"4bf58dd8d48988d11b941735","category":"Pub","checkinsCount":61,"usersCount":41,"tipCount":4,"visitsCount":63,"tier":"","message":"","currency":"","rating":6.1},{"name":"The Greyhound  (Wetherspoon)","phone":"+441308421905","address":"2 East St","lat":50.73330267608703,"lng":-2.7579267214922627,"city_fetched":"Bridport,UK","state":"Dorset","country":"United Kingdom","canonicalUrl":"https://foursquare.com/v/the-greyhound--wetherspoon/4c87aa78821e9eb076cc8d89","categoryId":"4bf58dd8d48988d11b941735","category":"Pub","checkinsCount":303,"usersCount":118,"tipCount":3,"visitsCount":308,"url":"http://www.jdwetherspoon.co.uk","tier":"","message":"","currency":"","rating":5.8}]