[{"name":"The Craft Beer Co.","phone":"+441273723736","twitter":"craftbeercobn1","address":"22-23 Upper North St","lat":50.82504192703643,"lng":-0.14643732825697198,"neighborhood":"Central Brighton","city_fetched":"Brighton,UK","state":"Brighton and Hove","country":"United Kingdom","canonicalUrl":"https://foursquare.com/v/the-craft-beer-co/4fd1ec0be4b0d4fb7410a454","categoryId":"4bf58dd8d48988d11b941735","category":"Pub","checkinsCount":1817,"usersCount":783,"tipCount":26,"visitsCount":2255,"url":"http://www.thecraftbeerco.com","tier":3,"message":"Expensive","currency":"£","rating":9.3},{"name":"Ten Green Bottles","phone":"+441273567176","twitter":"tgbottles","address":"9 Jubilee St","lat":50.82512266073136,"lng":-0.1385684332755122,"neighborhood":"North Laine","city_fetched":"Brighton,UK","state":"Brighton and Hove","country":"United Kingdom","canonicalUrl":"https://foursquare.com/v/ten-green-bottles/53b1530a498ef5363140c973","categoryId":"4bf58dd8d48988d123941735","category":"Wine Bar","checkinsCount":578,"usersCount":267,"tipCount":21,"visitsCount":584,"url":"http://www.tengreenbottles.com","tier":"","message":"","currency":"","rating":8.9},{"name":"Northern Lights","phone":"+441273747096","twitter":"nlightsbrighton","address":"6 Little East St","lat":50.820296656842686,"lng":-0.1397939772259388,"neighborhood":"The Lanes","city_fetched":"Brighton,UK","state":"Brighton and Hove","country":"United Kingdom","canonicalUrl":"https://foursquare.com/v/northern-lights/4b38eab9f964a520285225e3","categoryId":"4bf58dd8d48988d116941735","category":"Bar","checkinsCount":1014,"usersCount":614,"tipCount":24,"visitsCount":1105,"url":"http://www.northernlightsbrighton.co.uk","tier":"","message":"","currency":"","rating":8.8},{"name":"The Lion & Lobster","phone":"+441273327299","address":"24 Sillwood St","lat":50.82376197437321,"lng":-0.15415603762130572,"neighborhood":"Brunswick and Adelaide","city_fetched":"Brighton,UK","state":"Brighton and Hove","country":"United Kingdom","canonicalUrl":"https://foursquare.com/v/the-lion--lobster/4b058846f964a52092bb22e3","categoryId":"4bf58dd8d48988d11b941735","category":"Pub","checkinsCount":2050,"usersCount":1389,"tipCount":56,"visitsCount":2681,"url":"http://www.thelionandlobster.co.uk","tier":"","message":"","currency":"","rating":8.8},{"name":"Hand in Hand","phone":"+441273699595","address":"33 Upper St. James's St.","lat":50.81940479851248,"lng":-0.12729763984680176,"neighborhood":"Kemptown","city_fetched":"Brighton,UK","state":"Brighton and Hove","country":"United Kingdom","canonicalUrl":"https://foursquare.com/v/hand-in-hand/4b51f9bff964a5209a5e27e3","categoryId":"4bf58dd8d48988d11b941735","category":"Pub","checkinsCount":348,"usersCount":216,"tipCount":9,"visitsCount":381,"url":"http://www.handbrewpub.com","tier":"","message":"","currency":"","rating":8.7},{"name":"The Evening Star","phone":"+441273328931","twitter":"eveningstarpub","address":"55/56 Surrey St.","lat":50.82759882962996,"lng":-0.14209270477294922,"neighborhood":"North Laine","city_fetched":"Brighton,UK","state":"Brighton and Hove","country":"United Kingdom","canonicalUrl":"https://foursquare.com/v/the-evening-star/4b058846f964a52088bb22e3","categoryId":"4bf58dd8d48988d11b941735","category":"Pub","checkinsCount":1558,"usersCount":677,"tipCount":25,"visitsCount":1787,"url":"http://darkstarbrewing.co.uk/the-brewery/","tier":2,"message":"Moderate","currency":"£","rating":8.6},{"name":"Brighton Beer Dispensary","phone":"+441273710624","address":"38 Dean St","lat":50.82462225083111,"lng":-0.14893487934530958,"neighborhood":"Central Brighton","city_fetched":"Brighton,UK","state":"Brighton and Hove","country":"United Kingdom","canonicalUrl":"https://foursquare.com/v/brighton-beer-dispensary/5346f350498e70ca48e32c40","categoryId":"4bf58dd8d48988d11b941735","category":"Pub","checkinsCount":432,"usersCount":253,"tipCount":15,"visitsCount":557,"url":"http://www.brightonbier.com/our-pub.html","tier":2,"message":"Moderate","currency":"£","rating":8.6},{"name":"The Southover","phone":"+441273601419","address":"58 Southover St","lat":50.8273454672271,"lng":-0.12629206207056373,"neighborhood":"Elm Grove","city_fetched":"Brighton,UK","state":"Brighton and Hove","country":"United Kingdom","canonicalUrl":"https://foursquare.com/v/the-southover/5198c273498eaee021850846","categoryId":"4bf58dd8d48988d11b941735","category":"Pub","checkinsCount":104,"usersCount":74,"tipCount":4,"visitsCount":140,"url":"http://www.thesouthoverbrighton.co.uk","tier":"","message":"","currency":"","rating":8.6},{"name":"The Cocktail Shack","phone":"+441273321196","twitter":"cocktailshack","address":"34 Regency Sq","lat":50.823085,"lng":-0.149874,"neighborhood":"Central Brighton","city_fetched":"Brighton,UK","state":"Brighton and Hove","country":"United Kingdom","canonicalUrl":"https://foursquare.com/v/the-cocktail-shack/53089ca3498e841da1606cbf","categoryId":"4bf58dd8d48988d11e941735","category":"Cocktail Bar","checkinsCount":178,"usersCount":101,"tipCount":6,"visitsCount":191,"url":"http://www.cocktailshackbrighton.co.uk","tier":"","message":"","currency":"","rating":8.5},{"name":"Hare & Hounds","phone":"+441273682839","twitter":"harehoundsbtn","address":"75 London Rd","lat":50.83346773974392,"lng":-0.1385249584457842,"city_fetched":"Brighton,UK","state":"Brighton and Hove","country":"United Kingdom","canonicalUrl":"https://foursquare.com/v/hare--hounds/518e522f498e6afb48db14ad","categoryId":"4bf58dd8d48988d116941735","category":"Bar","checkinsCount":830,"usersCount":533,"tipCount":24,"visitsCount":1301,"url":"http://www.thehareandhounds.pub","tier":2,"message":"Moderate","currency":"£","rating":8.4},{"name":"Busby and Wilds","phone":"+441273696135","address":"8-9 Rock St","lat":50.816713,"lng":-0.112152,"neighborhood":"Kemptown","city_fetched":"Brighton,UK","state":"Brighton and Hove","country":"United Kingdom","canonicalUrl":"https://foursquare.com/v/busby-and-wilds/514b4c05e4b0b8f96ee841da","categoryId":"4bf58dd8d48988d11b941735","category":"Pub","checkinsCount":214,"usersCount":72,"tipCount":6,"visitsCount":231,"url":"http://busbyandwilds.co.uk","tier":"","message":"","currency":"","rating":8.4},{"name":"The Great Eastern","phone":"+441273685681","address":"103 Trafalgar St.","lat":50.828025463014534,"lng":-0.1361838110512429,"city_fetched":"Brighton,UK","state":"Brighton and Hove","country":"United Kingdom","canonicalUrl":"https://foursquare.com/v/the-great-eastern/4b058846f964a5208fbb22e3","categoryId":"4bf58dd8d48988d11b941735","category":"Pub","checkinsCount":668,"usersCount":384,"tipCount":20,"visitsCount":697,"tier":"","message":"","currency":"","rating":8.3},{"name":"The Black Dove","phone":"+441273671119","address":"74 St James's St.","lat":50.820237,"lng":-0.130294,"neighborhood":"Kemptown","city_fetched":"Brighton,UK","state":"Brighton and Hove","country":"United Kingdom","canonicalUrl":"https://foursquare.com/v/the-black-dove/4c7936d7a868370425b10f4d","categoryId":"4bf58dd8d48988d11b941735","category":"Pub","checkinsCount":493,"usersCount":359,"tipCount":15,"visitsCount":585,"tier":"","message":"","currency":"","rating":8.3},{"name":"The George Payne","phone":"+441273329563","address":"18 Payne Ave","lat":50.83599761287589,"lng":-0.1859511469120701,"neighborhood":"Wish","city_fetched":"Brighton,UK","state":"Brighton and Hove","country":"United Kingdom","canonicalUrl":"https://foursquare.com/v/the-george-payne/4fba90a8e4b0f11cb4489c7d","categoryId":"4bf58dd8d48988d11b941735","category":"Pub","checkinsCount":225,"usersCount":167,"tipCount":4,"visitsCount":407,"url":"http://www.thegeorgepayne.co.uk","tier":"","message":"","currency":"","rating":8.3},{"name":"The Urchin","phone":"+441273241881","twitter":"urchinpub","address":"15-17 Belfast St","lat":50.830433,"lng":-0.175209,"neighborhood":"Central Hove","city_fetched":"Brighton,UK","state":"Brighton and Hove","country":"United Kingdom","canonicalUrl":"https://foursquare.com/v/the-urchin/54e50142498e179cb1b70dff","categoryId":"4bf58dd8d48988d116941735","category":"Bar","checkinsCount":102,"usersCount":101,"tipCount":9,"visitsCount":207,"url":"http://www.urchinpub.co.uk","tier":"","message":"","currency":"","rating":8.2},{"name":"The Mesmerist","phone":"+441273328542","twitter":"mesmeristbar","address":"1-3 Prince Albert St","lat":50.82109807203903,"lng":-0.14046461614456482,"neighborhood":"The Lanes","city_fetched":"Brighton,UK","state":"Brighton and Hove","country":"United Kingdom","canonicalUrl":"https://foursquare.com/v/the-mesmerist/4c822e7847cc224b7d12839f","categoryId":"4bf58dd8d48988d116941735","category":"Bar","checkinsCount":2208,"usersCount":1552,"tipCount":50,"visitsCount":2440,"url":"http://www.drinkinbrighton.co.uk/mesmerist","tier":3,"message":"Expensive","currency":"£","rating":8.2},{"name":"The Signalman","phone":"+441273689783","address":"76 Ditchling Rise","lat":50.83619784959059,"lng":-0.13643986787420903,"neighborhood":"Preston","city_fetched":"Brighton,UK","state":"Brighton and Hove","country":"United Kingdom","canonicalUrl":"https://foursquare.com/v/the-signalman/4b0696caf964a52078ed22e3","categoryId":"4bf58dd8d48988d11b941735","category":"Pub","checkinsCount":702,"usersCount":289,"tipCount":14,"visitsCount":869,"tier":"","message":"","currency":"","rating":8.2},{"name":"The Basketmakers Arms","phone":"+441273689006","address":"12 Gloucester Rd","lat":50.82662303568102,"lng":-0.13674295054332952,"neighborhood":"North Laine","city_fetched":"Brighton,UK","state":"Brighton and Hove","country":"United Kingdom","canonicalUrl":"https://foursquare.com/v/the-basketmakers-arms/4b05c12bf964a52082e222e3","categoryId":"4bf58dd8d48988d11b941735","category":"Pub","checkinsCount":1693,"usersCount":783,"tipCount":36,"visitsCount":1821,"url":"http://basket-makers-brighton.co.uk","tier":"","message":"","currency":"","rating":8.2},{"name":"The Reservoir","phone":"+441273692484","address":"Howard Road","lat":50.831113576774875,"lng":-0.12686169138278872,"neighborhood":"Elm Grove","city_fetched":"Brighton,UK","state":"Brighton and Hove","country":"United Kingdom","canonicalUrl":"https://foursquare.com/v/the-reservoir/4c796331df08a1cdf589da5d","categoryId":"4bf58dd8d48988d116941735","category":"Bar","checkinsCount":177,"usersCount":105,"tipCount":8,"visitsCount":206,"url":"http://www.reservoirbrighton.co.uk","tier":"","message":"","currency":"","rating":8.1},{"name":"Twisted Lemon","phone":"+441273726693","address":"47 Middle St.","lat":50.822623,"lng":-0.142676,"neighborhood":"The Lanes","city_fetched":"Brighton,UK","state":"Brighton and Hove","country":"United Kingdom","canonicalUrl":"https://foursquare.com/v/twisted-lemon/4da0c63ed686b60cb9f29628","categoryId":"4bf58dd8d48988d11e941735","category":"Cocktail Bar","checkinsCount":344,"usersCount":260,"tipCount":20,"visitsCount":360,"tier":"","message":"","currency":"","rating":8.1},{"name":"The Brunswick","phone":"+441273733984","twitter":"brunswickpub","address":"1-3 Holland Rd","lat":50.82430446623869,"lng":-0.16246781593511414,"neighborhood":"Brunswick and Adelaide","city_fetched":"Brighton,UK","state":"Brighton and Hove","country":"United Kingdom","canonicalUrl":"https://foursquare.com/v/the-brunswick/4bbf628bb083a5937a54a3e9","categoryId":"4bf58dd8d48988d11b941735","category":"Pub","checkinsCount":766,"usersCount":502,"tipCount":9,"visitsCount":1000,"url":"http://www.thebrunswick.net","tier":"","message":"","currency":"","rating":8.1},{"name":"The Bristol Bar","phone":"+441273605687","address":"Paston Pl","lat":50.81727207295069,"lng":-0.11933371627412176,"neighborhood":"Kemptown","city_fetched":"Brighton,UK","state":"Brighton and Hove","country":"United Kingdom","canonicalUrl":"https://foursquare.com/v/the-bristol-bar/4c8cd5cdc37a6dcbea8afa7a","categoryId":"4bf58dd8d48988d116941735","category":"Bar","checkinsCount":165,"usersCount":161,"tipCount":8,"visitsCount":229,"url":"http://www.thebristolbar.co.uk","tier":"","message":"","currency":"","rating":8},{"name":"The Plotting Parlour","phone":"+441273621238","address":"6 Steine St","lat":50.82034151612916,"lng":-0.13603978609155326,"neighborhood":"Kemptown","city_fetched":"Brighton,UK","state":"Brighton and Hove","country":"United Kingdom","canonicalUrl":"https://foursquare.com/v/the-plotting-parlour/54394a11498ea4de494e03fa","categoryId":"4bf58dd8d48988d11e941735","category":"Cocktail Bar","checkinsCount":67,"usersCount":58,"tipCount":4,"visitsCount":71,"tier":"","message":"","currency":"","rating":8},{"name":"The Constant Service","phone":"+441273607058","address":"96 Islingword Rd","lat":50.82906975,"lng":-0.126056,"neighborhood":"Elm Grove","city_fetched":"Brighton,UK","state":"Brighton and Hove","country":"United Kingdom","canonicalUrl":"https://foursquare.com/v/the-constant-service/4b127aebf964a520268a23e3","categoryId":"4bf58dd8d48988d11b941735","category":"Pub","checkinsCount":250,"usersCount":134,"tipCount":7,"visitsCount":348,"tier":2,"message":"Moderate","currency":"£","rating":8},{"name":"Earth and Stars","phone":"+441273722879","address":"46 Windsor St","lat":50.824834,"lng":-0.142242,"neighborhood":"North Laine","city_fetched":"Brighton,UK","state":"Brighton and Hove","country":"United Kingdom","canonicalUrl":"https://foursquare.com/v/earth-and-stars/4af55ad3f964a520e3f821e3","categoryId":"4bf58dd8d48988d11b941735","category":"Pub","checkinsCount":869,"usersCount":593,"tipCount":24,"visitsCount":1025,"url":"http://www.drinkinbrighton.co.uk/earth-and-stars","tier":"","message":"","currency":"","rating":8},{"name":"Seven Stars","phone":"+441273258800","twitter":"youngspubs","address":"27 Ship St","lat":50.82225,"lng":-0.141533,"neighborhood":"The Lanes","city_fetched":"Brighton,UK","state":"Brighton and Hove","country":"United Kingdom","canonicalUrl":"https://foursquare.com/v/seven-stars/4b7c4bf5f964a5207f8a2fe3","categoryId":"4bf58dd8d48988d11b941735","category":"Pub","checkinsCount":893,"usersCount":762,"tipCount":30,"visitsCount":1104,"url":"http://www.youngs.co.uk/pubs/seven-stars","tier":"","message":"","currency":"","rating":8},{"name":"The Hop Poles","phone":"+441273207566","twitter":"hoppolesbrighto","address":"13 Middle St","lat":50.82136389366513,"lng":-0.14329089576280762,"neighborhood":"The Lanes","city_fetched":"Brighton,UK","state":"Brighton and Hove","country":"United Kingdom","canonicalUrl":"https://foursquare.com/v/the-hop-poles/4e7f3aacb63474966618a431","categoryId":"4bf58dd8d48988d11b941735","category":"Pub","checkinsCount":852,"usersCount":456,"tipCount":20,"visitsCount":878,"url":"http://www.hoppolesbrighton.co.uk","tier":1,"message":"Cheap","currency":"£","rating":8},{"name":"BrewDog Brighton","phone":"+441358724924","twitter":"brewdogbrighton","address":"52-54 Grand Parade","lat":50.82446567042465,"lng":-0.13575733125361047,"neighborhood":"North Laine","city_fetched":"Brighton,UK","state":"Brighton and Hove","country":"United Kingdom","canonicalUrl":"https://foursquare.com/v/brewdog-brighton/55b800f9498e1ef486e1af1a","categoryId":"56aa371ce4b08b9a8d57356c","category":"Beer Bar","checkinsCount":484,"usersCount":490,"tipCount":16,"visitsCount":881,"url":"https://www.brewdog.com/bars/uk/brighton","tier":"","message":"","currency":"","rating":7.9},{"name":"Merkaba","phone":"+441273900300","twitter":"merkababrighton","address":"17 Jubilee St","lat":50.824512926865125,"lng":-0.13883916287556516,"neighborhood":"North Laine","city_fetched":"Brighton,UK","state":"Brighton and Hove","country":"United Kingdom","canonicalUrl":"https://foursquare.com/v/merkaba/4b083fd9f964a520570723e3","categoryId":"4bf58dd8d48988d11e941735","category":"Cocktail Bar","checkinsCount":162,"usersCount":113,"tipCount":6,"visitsCount":162,"url":"http://www.merkababrighton.com","tier":"","message":"","currency":"","rating":7.9},{"name":"Cocoloco","address":"171-181 Kings Road Arches","lat":50.82019545406686,"lng":-0.1435146756696208,"neighborhood":"The Lanes","city_fetched":"Brighton,UK","state":"Brighton and Hove","country":"United Kingdom","canonicalUrl":"https://foursquare.com/v/cocoloco/5022bb27e4b00d04bad99569","categoryId":"4bf58dd8d48988d11f941735","category":"Nightclub","checkinsCount":1153,"usersCount":668,"tipCount":1,"visitsCount":1286,"tier":"","message":"","currency":"","rating":7.9},{"name":"The Camelford Arms","phone":"+441273622386","address":"30-31 Camelford St","lat":50.820139,"lng":-0.13296,"neighborhood":"Kemptown","city_fetched":"Brighton,UK","state":"Brighton and Hove","country":"United Kingdom","canonicalUrl":"https://foursquare.com/v/the-camelford-arms/4bed938b91380f47cd1da018","categoryId":"4bf58dd8d48988d1d8941735","category":"Gay Bar","checkinsCount":853,"usersCount":378,"tipCount":18,"visitsCount":937,"url":"http://www.camelfordarms.com","tier":"","message":"","currency":"","rating":7.8},{"name":"Koba","phone":"+441273720059","address":"135 Western Rd.","lat":50.824838842045835,"lng":-0.15168964862823486,"neighborhood":"Montpelier","city_fetched":"Brighton,UK","state":"Brighton and Hove","country":"United Kingdom","canonicalUrl":"https://foursquare.com/v/koba/4b058846f964a520a7bb22e3","categoryId":"4bf58dd8d48988d11e941735","category":"Cocktail Bar","checkinsCount":561,"usersCount":342,"tipCount":9,"visitsCount":562,"url":"http://www.cafekoba.com","tier":2,"message":"Moderate","currency":"£","rating":7.8},{"name":"Chimney House pub","address":"28 Upper Hamilton Rd","lat":50.835345,"lng":-0.14865875244140192,"neighborhood":"Preston Park","city_fetched":"Brighton,UK","state":"Brighton and Hove","country":"United Kingdom","canonicalUrl":"https://foursquare.com/v/chimney-house-pub/4b562da5f964a520d90328e3","categoryId":"4bf58dd8d48988d11b941735","category":"Pub","checkinsCount":380,"usersCount":137,"tipCount":7,"visitsCount":440,"tier":"","message":"","currency":"","rating":7.8},{"name":"Brighton Music Hall","phone":"+441273747287","address":"126-137 Kings Rd. Arches","lat":50.82063670603308,"lng":-0.14662832021713257,"neighborhood":"Central Brighton","city_fetched":"Brighton,UK","state":"Brighton and Hove","country":"United Kingdom","canonicalUrl":"https://foursquare.com/v/brighton-music-hall/4db5b2274df05e5aaaf7f41a","categoryId":"4bf58dd8d48988d117941735","category":"Beer Garden","checkinsCount":762,"usersCount":737,"tipCount":14,"visitsCount":942,"tier":"","message":"","currency":"","rating":7.8},{"name":"The Open House","phone":"+441273880102","address":"146 Springfield Rd","lat":50.83716010291502,"lng":-0.1362133026123047,"neighborhood":"Preston","city_fetched":"Brighton,UK","country":"United Kingdom","canonicalUrl":"https://foursquare.com/v/the-open-house/4af5b2caf964a5207efb21e3","categoryId":"4bf58dd8d48988d11b941735","category":"Pub","checkinsCount":857,"usersCount":410,"tipCount":16,"visitsCount":1068,"url":"http://www.drinkinbrighton.co.uk/open-house","tier":"","message":"","currency":"","rating":7.8},{"name":"The View","phone":"+441273207100","address":"Western Esplanade","lat":50.82551148757445,"lng":-0.18735122680664462,"neighborhood":"Westbourne","city_fetched":"Brighton,UK","state":"Brighton and Hove","country":"United Kingdom","canonicalUrl":"https://foursquare.com/v/the-view/4d613de8d439cbff35d25dba","categoryId":"4bf58dd8d48988d116941735","category":"Bar","checkinsCount":333,"usersCount":319,"tipCount":4,"visitsCount":510,"url":"http://www.viewhove.com","tier":"","message":"","currency":"","rating":7.7},{"name":"The Connaught","phone":"+441273206578","address":"48 Hove St","lat":50.828394604788926,"lng":-0.178925867471807,"neighborhood":"Central Hove","city_fetched":"Brighton,UK","state":"Brighton and Hove","country":"United Kingdom","canonicalUrl":"https://foursquare.com/v/the-connaught/4b50e3c4f964a520223727e3","categoryId":"4bf58dd8d48988d11b941735","category":"Pub","checkinsCount":348,"usersCount":245,"tipCount":14,"visitsCount":437,"tier":"","message":"","currency":"","rating":7.7},{"name":"The Brighton Tavern","phone":"+441273680365","address":"99-100 Gloucester Rd","lat":50.82693539875857,"lng":-0.1389472149422883,"neighborhood":"North Laine","city_fetched":"Brighton,UK","state":"Brighton and Hove","country":"United Kingdom","canonicalUrl":"https://foursquare.com/v/the-brighton-tavern/4b058845f964a5206bbb22e3","categoryId":"4bf58dd8d48988d1d8941735","category":"Gay Bar","checkinsCount":477,"usersCount":191,"tipCount":3,"visitsCount":496,"tier":"","message":"","currency":"","rating":7.7},{"name":"The Joker","phone":"+441273675769","twitter":"joker_brighton","address":"2 Preston Rd","lat":50.8339272,"lng":-0.1389755,"neighborhood":"Preston","city_fetched":"Brighton,UK","state":"Brighton and Hove","country":"United Kingdom","canonicalUrl":"https://foursquare.com/v/the-joker/5478265f498e8a2013999be6","categoryId":"4bf58dd8d48988d116941735","category":"Bar","checkinsCount":180,"usersCount":120,"tipCount":7,"visitsCount":201,"url":"http://www.thejokerbrighton.com","tier":"","message":"","currency":"","rating":7.7},{"name":"Crown's","phone":"+441273710928","address":"9-10 Cranbourne St","lat":50.82336821306318,"lng":-0.1445736009947348,"neighborhood":"Central Brighton","city_fetched":"Brighton,UK","state":"Brighton and Hove","country":"United Kingdom","canonicalUrl":"https://foursquare.com/v/crowns/50db0013e4b04490d2e6b495","categoryId":"4bf58dd8d48988d116941735","category":"Bar","checkinsCount":650,"usersCount":341,"tipCount":4,"visitsCount":689,"tier":"","message":"","currency":"","rating":7.7},{"name":"Dead Wax Social","address":"Bond Street","lat":50.824222106211494,"lng":-0.14020651638186488,"neighborhood":"North Laine","city_fetched":"Brighton,UK","state":"East Sussex","country":"United Kingdom","canonicalUrl":"https://foursquare.com/v/dead-wax-social/558fdf39498e4c955b024790","categoryId":"4bf58dd8d48988d116941735","category":"Bar","checkinsCount":141,"usersCount":123,"tipCount":4,"visitsCount":177,"tier":"","message":"","currency":"","rating":7.7},{"name":"The Fortune of War","phone":"+441273205065","address":"157 Kings Road Arches","lat":50.820235,"lng":-0.144581,"neighborhood":"The Lanes","city_fetched":"Brighton,UK","state":"Brighton and Hove","country":"United Kingdom","canonicalUrl":"https://foursquare.com/v/the-fortune-of-war/4b058845f964a52076bb22e3","categoryId":"4bf58dd8d48988d11b941735","category":"Pub","checkinsCount":1316,"usersCount":1066,"tipCount":14,"visitsCount":1423,"url":"https://www.drinkinbrighton.co.uk/fortune-of-war","tier":"","message":"","currency":"","rating":7.6},{"name":"Hobgoblin","phone":"+441273682933","twitter":"hobbrighton","address":"31 York Pl","lat":50.829422449435945,"lng":-0.13606280553777425,"city_fetched":"Brighton,UK","state":"Brighton and Hove","country":"United Kingdom","canonicalUrl":"https://foursquare.com/v/hobgoblin/4b058846f964a5208ebb22e3","categoryId":"4bf58dd8d48988d11b941735","category":"Pub","checkinsCount":1256,"usersCount":736,"tipCount":32,"visitsCount":1439,"url":"http://www.hobgoblinbrighton.co.uk","tier":"","message":"","currency":"","rating":7.6},{"name":"The Wick Inn","phone":"+441273321400","address":"63 Western Rd","lat":50.826337062133284,"lng":-0.1619342922702453,"neighborhood":"Brunswick and Adelaide","city_fetched":"Brighton,UK","state":"Brighton and Hove","country":"United Kingdom","canonicalUrl":"https://foursquare.com/v/the-wick-inn/4b058846f964a5207fbb22e3","categoryId":"4bf58dd8d48988d11b941735","category":"Pub","checkinsCount":1190,"usersCount":576,"tipCount":24,"visitsCount":1293,"url":"http://www.wickinnbrighton.co.uk","tier":2,"message":"Moderate","currency":"£","rating":7.6},{"name":"North Laine","phone":"+441273683666","twitter":"northlainepub","address":"27 Gloucester Pl","lat":50.82685281234514,"lng":-0.13550676683590873,"neighborhood":"North Laine","city_fetched":"Brighton,UK","state":"Brighton and Hove","country":"United Kingdom","canonicalUrl":"https://foursquare.com/v/north-laine/505b4c59e4b0078ffd55f791","categoryId":"4bf58dd8d48988d11b941735","category":"Pub","checkinsCount":1697,"usersCount":1488,"tipCount":29,"visitsCount":2624,"url":"http://brewedinbrighton.co.uk","tier":3,"message":"Expensive","currency":"£","rating":7.6},{"name":"The Bee's Mouth","phone":"+441273770083","address":"10 Western Rd","lat":50.82542503571534,"lng":-0.15622752350784982,"neighborhood":"Brunswick and Adelaide","city_fetched":"Brighton,UK","state":"Brighton and Hove","country":"United Kingdom","canonicalUrl":"https://foursquare.com/v/the-bees-mouth/4b22973ff964a520ad4924e3","categoryId":"4bf58dd8d48988d11b941735","category":"Pub","checkinsCount":618,"usersCount":380,"tipCount":10,"visitsCount":758,"tier":"","message":"","currency":"","rating":7.6},{"name":"Sussex Yeoman","phone":"+441273327985","address":"7 Guildford Rd","lat":50.82871887837559,"lng":-0.14239228959760308,"neighborhood":"Seven Dials","city_fetched":"Brighton,UK","state":"Brighton and Hove","country":"United Kingdom","canonicalUrl":"https://foursquare.com/v/sussex-yeoman/4b058845f964a5205cbb22e3","categoryId":"4bf58dd8d48988d11b941735","category":"Pub","checkinsCount":782,"usersCount":256,"tipCount":16,"visitsCount":796,"url":"http://www.sussexyeoman.com","tier":"","message":"","currency":"","rating":7.6},{"name":"The Robin Hood","phone":"+441273325645","address":"Norfolk Place","lat":50.824618,"lng":-0.155519,"neighborhood":"Brunswick and Adelaide","city_fetched":"Brighton,UK","country":"United Kingdom","canonicalUrl":"https://foursquare.com/v/the-robin-hood/4b71e85ff964a5206d632de3","categoryId":"4bf58dd8d48988d11b941735","category":"Pub","checkinsCount":833,"usersCount":344,"tipCount":11,"visitsCount":944,"tier":"","message":"","currency":"","rating":7.5},{"name":"The Prince Albert","phone":"+441273730499","address":"48 Trafalgar St","lat":50.8284865994234,"lng":-0.14067649841308594,"neighborhood":"North Laine","city_fetched":"Brighton,UK","state":"Brighton and Hove","country":"United Kingdom","canonicalUrl":"https://foursquare.com/v/the-prince-albert/4b058846f964a5208abb22e3","categoryId":"4bf58dd8d48988d11b941735","category":"Pub","checkinsCount":1487,"usersCount":786,"tipCount":15,"visitsCount":1543,"tier":"","message":"","currency":"","rating":7.4},{"name":"The Westbourne","phone":"+441273823633","twitter":"westbournehove","address":"90 Portland Rd","lat":50.832824341730586,"lng":-0.18178248229017882,"neighborhood":"Westbourne","city_fetched":"Brighton,UK","state":"Brighton and Hove","country":"United Kingdom","canonicalUrl":"https://foursquare.com/v/the-westbourne/4bf57a30706e20a1b186aa98","categoryId":"4bf58dd8d48988d116941735","category":"Bar","checkinsCount":392,"usersCount":216,"tipCount":7,"visitsCount":527,"url":"http://www.thewestbournehove.co.uk","tier":"","message":"","currency":"","rating":7.4},{"name":"Be At One","phone":"+441273777200","twitter":"beatonebar","address":"5 Castle Sq","lat":50.82165445275161,"lng":-0.1380799300509993,"neighborhood":"Central Brighton","city_fetched":"Brighton,UK","state":"Brighton and Hove","country":"United Kingdom","canonicalUrl":"https://foursquare.com/v/be-at-one/52e304cd498e0577d44cf921","categoryId":"4bf58dd8d48988d116941735","category":"Bar","checkinsCount":290,"usersCount":183,"tipCount":5,"visitsCount":296,"url":"http://www.beatone.co.uk","tier":"","message":"","currency":"","rating":7.4},{"name":"The Geese","phone":"+441273693491","address":"16 Southover St","lat":50.82920041,"lng":-0.130329,"neighborhood":"Elm Grove","city_fetched":"Brighton,UK","state":"Brighton and Hove","country":"United Kingdom","canonicalUrl":"https://foursquare.com/v/the-geese/4b81410ff964a520479c30e3","categoryId":"4bf58dd8d48988d11b941735","category":"Pub","checkinsCount":273,"usersCount":134,"tipCount":4,"visitsCount":282,"url":"http://www.thegeese.co.uk","tier":"","message":"","currency":"","rating":7.4},{"name":"The Cricketers","phone":"+441273329472","address":"14 Black Lion St","lat":50.82124476049128,"lng":-0.14098701399965574,"neighborhood":"The Lanes","city_fetched":"Brighton,UK","state":"Brighton and Hove","country":"United Kingdom","canonicalUrl":"https://foursquare.com/v/the-cricketers/4b058845f964a52028bb22e3","categoryId":"4bf58dd8d48988d11b941735","category":"Pub","checkinsCount":1068,"usersCount":838,"tipCount":19,"visitsCount":1079,"url":"http://www.cricketersbrighton.co.uk","tier":"","message":"","currency":"","rating":7.4},{"name":"The Western","phone":"+441273725656","address":"11 Cranbourne St","lat":50.82349011385932,"lng":-0.14471901536226187,"neighborhood":"Central Brighton","city_fetched":"Brighton,UK","state":"Brighton and Hove","country":"United Kingdom","canonicalUrl":"https://foursquare.com/v/the-western/4b058845f964a5205dbb22e3","categoryId":"4bf58dd8d48988d11b941735","category":"Pub","checkinsCount":767,"usersCount":552,"tipCount":5,"visitsCount":774,"url":"http://www.drinkinbrighton.co.uk/thewestern","tier":"","message":"","currency":"","rating":7.4},{"name":"Tempest Inn","phone":"+441273770505","twitter":"tempestinn","address":"159-161 Kings Road Arches","lat":50.820283,"lng":-0.144239,"neighborhood":"The Lanes","city_fetched":"Brighton,UK","state":"Brighton and Hove","country":"United Kingdom","canonicalUrl":"https://foursquare.com/v/tempest-inn/55216477498e86217dfbba19","categoryId":"52e81612bcbc57f1066b7a0d","category":"Beach Bar","checkinsCount":274,"usersCount":260,"tipCount":6,"visitsCount":328,"url":"http://www.drinkinbrighton.co.uk/tempest","tier":"","message":"","currency":"","rating":7.4},{"name":"Good Companions","phone":"+441273204993","address":"132 Dyke Rd.","lat":50.83196297053503,"lng":-0.14837980270385742,"neighborhood":"Wilbury","city_fetched":"Brighton,UK","state":"Brighton and Hove","country":"United Kingdom","canonicalUrl":"https://foursquare.com/v/good-companions/4d21d9ffd7b0b1f7577c209f","categoryId":"4bf58dd8d48988d11b941735","category":"Pub","checkinsCount":766,"usersCount":615,"tipCount":17,"visitsCount":1416,"tier":"","message":"","currency":"","rating":7.4},{"name":"The Foundry","phone":"+441273697014","address":"13-14 Foundry St.","lat":50.826493,"lng":-0.14011,"neighborhood":"North Laine","city_fetched":"Brighton,UK","state":"Brighton and Hove","country":"United Kingdom","canonicalUrl":"https://foursquare.com/v/the-foundry/4af46505f964a52009f221e3","categoryId":"4bf58dd8d48988d11b941735","category":"Pub","checkinsCount":383,"usersCount":268,"tipCount":10,"visitsCount":453,"tier":"","message":"","currency":"","rating":7.3},{"name":"The Black Lion","phone":"+441273711884","twitter":"blacklion_btn","address":"14 Black Lion St","lat":50.821346018672024,"lng":-0.1412171912130803,"neighborhood":"The Lanes","city_fetched":"Brighton,UK","state":"Brighton and Hove","country":"United Kingdom","canonicalUrl":"https://foursquare.com/v/the-black-lion/4b24ff06f964a5201a6b24e3","categoryId":"4bf58dd8d48988d11b941735","category":"Pub","checkinsCount":1916,"usersCount":1357,"tipCount":37,"visitsCount":1995,"url":"http://www.drinkinbrighton.co.uk","tier":"","message":"","currency":"","rating":7.3},{"name":"Pryzm","phone":"+441273710976","twitter":"pryzmbrighton","address":"West St","lat":50.821051892453966,"lng":-0.1447079094905872,"neighborhood":"Central Brighton","city_fetched":"Brighton,UK","state":"Brighton and Hove","country":"United Kingdom","canonicalUrl":"https://foursquare.com/v/pryzm/53890cea498eff328341c4f0","categoryId":"4bf58dd8d48988d11f941735","category":"Nightclub","checkinsCount":1639,"usersCount":977,"tipCount":3,"visitsCount":2070,"url":"http://www.pryzm.co.uk/brighton","tier":"","message":"","currency":"","rating":7.3},{"name":"The Crescent","address":"Clifton Hill","lat":50.828316,"lng":-0.148669,"neighborhood":"Montpelier","city_fetched":"Brighton,UK","state":"Brighton and Hove","country":"United Kingdom","canonicalUrl":"https://foursquare.com/v/the-crescent/4bba2c5498c7ef3b73ca3202","categoryId":"4bf58dd8d48988d11b941735","category":"Pub","checkinsCount":235,"usersCount":195,"tipCount":6,"visitsCount":354,"tier":"","message":"","currency":"","rating":7.3},{"name":"The Blue Man","phone":"+441273726003","twitter":"bluemanbrighton","address":"8 Queens Rd","lat":50.82475243096061,"lng":-0.1431441307067871,"neighborhood":"Montpelier","city_fetched":"Brighton,UK","state":"Brighton and Hove","country":"United Kingdom","canonicalUrl":"https://foursquare.com/v/the-blue-man/502bbfa38055ef19314e0b70","categoryId":"4bf58dd8d48988d121941735","category":"Lounge","checkinsCount":187,"usersCount":116,"tipCount":4,"visitsCount":189,"tier":"","message":"","currency":"","rating":7.3},{"name":"The Windmill","address":"Upper North St.","lat":50.82554876235814,"lng":-0.14890551567077637,"neighborhood":"Montpelier","city_fetched":"Brighton,UK","state":"Brighton and Hove","country":"United Kingdom","canonicalUrl":"https://foursquare.com/v/the-windmill/4b6d9d4bf964a52068802ce3","categoryId":"4bf58dd8d48988d11b941735","category":"Pub","checkinsCount":664,"usersCount":361,"tipCount":8,"visitsCount":762,"tier":"","message":"","currency":"","rating":7.2},{"name":"The Shakespeare's Head","phone":"+441273329444","address":"1 Chatham Place","lat":50.83188,"lng":-0.145629,"neighborhood":"Seven Dials","city_fetched":"Brighton,UK","state":"Brighton and Hove","country":"United Kingdom","canonicalUrl":"https://foursquare.com/v/the-shakespeares-head/4b268c07f964a5204f7d24e3","categoryId":"4bf58dd8d48988d11b941735","category":"Pub","checkinsCount":409,"usersCount":318,"tipCount":8,"visitsCount":572,"tier":"","message":"","currency":"","rating":7.2},{"name":"The Font","phone":"+441273747727","address":"Union St","lat":50.822311263885105,"lng":-0.14100870093567316,"neighborhood":"The Lanes","city_fetched":"Brighton,UK","state":"Brighton and Hove","country":"United Kingdom","canonicalUrl":"https://foursquare.com/v/the-font/4b7c815ff964a52075972fe3","categoryId":"4bf58dd8d48988d11b941735","category":"Pub","checkinsCount":2235,"usersCount":1360,"tipCount":17,"visitsCount":2713,"url":"http://www.fontbrighton.co.uk","tier":"","message":"","currency":"","rating":7.2},{"name":"Wah Kiki","phone":"+441273202807","twitter":"wahkiki","address":"209-211 Kings Rd Arches","lat":50.819601363652254,"lng":-0.14095544815063477,"neighborhood":"The Lanes","city_fetched":"Brighton,UK","state":"Brighton and Hove","country":"United Kingdom","canonicalUrl":"https://foursquare.com/v/wah-kiki/51caf7547dd20ebba484d412","categoryId":"4bf58dd8d48988d11f941735","category":"Nightclub","checkinsCount":184,"usersCount":133,"tipCount":0,"visitsCount":184,"url":"http://wahkiki.com","tier":"","message":"","currency":"","rating":7.2},{"name":"The Saint James","lat":50.82079199015353,"lng":-0.13404223577360547,"neighborhood":"Kemptown","city_fetched":"Brighton,UK","country":"United Kingdom","canonicalUrl":"https://foursquare.com/v/the-saint-james/51cd7f72498eefe161effd09","categoryId":"4bf58dd8d48988d116941735","category":"Bar","checkinsCount":217,"usersCount":90,"tipCount":0,"visitsCount":230,"tier":"","message":"","currency":"","rating":7.2},{"name":"The Marlborough","address":"4 Princes St.","lat":50.822232,"lng":-0.13631,"city_fetched":"Brighton,UK","state":"Brighton and Hove","country":"United Kingdom","canonicalUrl":"https://foursquare.com/v/the-marlborough/4b058846f964a5209abb22e3","categoryId":"4bf58dd8d48988d11b941735","category":"Pub","checkinsCount":211,"usersCount":132,"tipCount":1,"visitsCount":212,"tier":"","message":"","currency":"","rating":7.1},{"name":"The Hampton Arms","address":"Upper North St.","lat":50.82584479311747,"lng":-0.15008567905777587,"neighborhood":"Montpelier","city_fetched":"Brighton,UK","state":"Brighton and Hove","country":"United Kingdom","canonicalUrl":"https://foursquare.com/v/the-hampton-arms/4b1eb180f964a520ee1d24e3","categoryId":"4bf58dd8d48988d11b941735","category":"Pub","checkinsCount":713,"usersCount":336,"tipCount":16,"visitsCount":840,"tier":"","message":"","currency":"","rating":7.1},{"name":"Bath Arms - Shepherd Neame","phone":"+441273731864","address":"3-4 Meeting House Lane","lat":50.822219,"lng":-0.140802,"neighborhood":"The Lanes","city_fetched":"Brighton,UK","country":"United Kingdom","canonicalUrl":"https://foursquare.com/v/bath-arms--shepherd-neame/4b058845f964a52065bb22e3","categoryId":"4bf58dd8d48988d11b941735","category":"Pub","checkinsCount":829,"usersCount":579,"tipCount":18,"visitsCount":840,"url":"http://www.shepherdneame.co.uk","tier":"","message":"","currency":"","rating":7.1},{"name":"The Hartington","phone":"+441273682874","twitter":"hartingtonbn2","address":"41 Whippingham Rd","lat":50.83256193912718,"lng":-0.12150380685966493,"neighborhood":"Elm Grove","city_fetched":"Brighton,UK","state":"Brighton and Hove","country":"United Kingdom","canonicalUrl":"https://foursquare.com/v/the-hartington/4db807956a238ed5d8ead797","categoryId":"4bf58dd8d48988d11b941735","category":"Pub","checkinsCount":201,"usersCount":99,"tipCount":3,"visitsCount":268,"url":"http://www.the-hartington.co.uk","tier":"","message":"","currency":"","rating":7.1},{"name":"The Farm Tavern","phone":"+441273779886","twitter":"thefarmtavern","address":"13 Farm Rd","lat":50.82664576027505,"lng":-0.15879707620721906,"neighborhood":"Brunswick and Adelaide","city_fetched":"Brighton,UK","state":"Brighton and Hove","country":"United Kingdom","canonicalUrl":"https://foursquare.com/v/the-farm-tavern/4b058845f964a52060bb22e3","categoryId":"4bf58dd8d48988d11b941735","category":"Pub","checkinsCount":121,"usersCount":82,"tipCount":5,"visitsCount":127,"url":"http://www.thefarmtavern.com","tier":"","message":"","currency":"","rating":7.1},{"name":"Thomas Kemp","address":"8 St George's Rd","lat":50.819343795369846,"lng":-0.12385368347167969,"neighborhood":"Kemptown","city_fetched":"Brighton,UK","state":"Brighton and Hove","country":"United Kingdom","canonicalUrl":"https://foursquare.com/v/thomas-kemp/4b094a28f964a520461523e3","categoryId":"4bf58dd8d48988d11b941735","category":"Pub","checkinsCount":602,"usersCount":291,"tipCount":13,"visitsCount":676,"tier":"","message":"","currency":"","rating":7.1},{"name":"The Queen Victoria","phone":"+441273302121","address":"54 High St.","lat":50.80349383509373,"lng":-0.05730271339416504,"neighborhood":"Rottingdean","city_fetched":"Brighton,UK","state":"Brighton and Hove","country":"United Kingdom","canonicalUrl":"https://foursquare.com/v/the-queen-victoria/4c7bded32d3ba143e43e95d0","categoryId":"4bf58dd8d48988d11b941735","category":"Pub","checkinsCount":153,"usersCount":75,"tipCount":7,"visitsCount":173,"tier":"","message":"","currency":"","rating":7},{"name":"The Exchange Inn","lat":50.83364422210071,"lng":-0.17404903226619436,"neighborhood":"Wilbury","city_fetched":"Brighton,UK","country":"United Kingdom","canonicalUrl":"https://foursquare.com/v/the-exchange-inn/4bbf9b36b492d13a85f2a260","categoryId":"4bf58dd8d48988d11b941735","category":"Pub","checkinsCount":185,"usersCount":143,"tipCount":2,"visitsCount":271,"tier":"","message":"","currency":"","rating":7},{"name":"The Anchor Inn","phone":"+441273400414","address":"Anchor Lane, Barcombe","lat":50.925545,"lng":0.050707,"city_fetched":"Brighton,UK","state":"East Sussex","country":"United Kingdom","canonicalUrl":"https://foursquare.com/v/the-anchor-inn/4b63f6b0f964a520fa982ae3","categoryId":"4bf58dd8d48988d11b941735","category":"Pub","checkinsCount":80,"usersCount":93,"tipCount":3,"visitsCount":100,"tier":"","message":"","currency":"","rating":7},{"name":"The Greys","phone":"+441273680734","address":"105 Southover St","lat":50.829236,"lng":-0.130433,"city_fetched":"Brighton,UK","state":"Brighton and Hove","country":"United Kingdom","canonicalUrl":"https://foursquare.com/v/the-greys/4b058846f964a52080bb22e3","categoryId":"4bf58dd8d48988d11b941735","category":"Pub","checkinsCount":1731,"usersCount":157,"tipCount":3,"visitsCount":1751,"url":"http://www.greys.pub","tier":"","message":"","currency":"","rating":7},{"name":"Bohemia","phone":"+441273777770","twitter":"bohemiabrighton","address":"54-55 Meeting House Ln","lat":50.82164097520267,"lng":-0.14097777057453387,"neighborhood":"The Lanes","city_fetched":"Brighton,UK","state":"Brighton and Hove","country":"United Kingdom","canonicalUrl":"https://foursquare.com/v/bohemia/501d9e58e4b0b1c509fbe7cc","categoryId":"4bf58dd8d48988d11e941735","category":"Cocktail Bar","checkinsCount":613,"usersCount":465,"tipCount":20,"visitsCount":639,"url":"http://www.bohemiabrighton.co.uk","tier":"","message":"","currency":"","rating":7},{"name":"The Ancient Mariner","phone":"+441273748595","twitter":"mariner_hove","address":"59 Rutland Rd","lat":50.835336,"lng":-0.18272,"neighborhood":"Westbourne","city_fetched":"Brighton,UK","state":"Brighton and Hove","country":"United Kingdom","canonicalUrl":"https://foursquare.com/v/the-ancient-mariner/4b129f36f964a520718b23e3","categoryId":"4bf58dd8d48988d11b941735","category":"Pub","checkinsCount":433,"usersCount":253,"tipCount":11,"visitsCount":590,"url":"http://www.drinkinbrighton.co.uk/ancient-mariner","tier":"","message":"","currency":"","rating":7},{"name":"Legends","phone":"+441273624462","twitter":"legendsbrighton","address":"31-34 Marine Parade","lat":50.819588430138644,"lng":-0.13290398178647167,"neighborhood":"Kemptown","city_fetched":"Brighton,UK","state":"Brighton and Hove","country":"United Kingdom","canonicalUrl":"https://foursquare.com/legendsbrighton","categoryId":"4bf58dd8d48988d1d8941735","category":"Gay Bar","checkinsCount":1818,"usersCount":891,"tipCount":13,"visitsCount":2199,"url":"http://www.legendsbrighton.com","tier":"","message":"","currency":"","rating":7},{"name":"The Hope and Ruin","address":"11-12 Queens Rd","lat":50.82482280138391,"lng":-0.14291623158082675,"neighborhood":"North Laine","city_fetched":"Brighton,UK","state":"Brighton and Hove","country":"United Kingdom","canonicalUrl":"https://foursquare.com/v/the-hope-and-ruin/4b058846f964a520adbb22e3","categoryId":"4bf58dd8d48988d11b941735","category":"Pub","checkinsCount":791,"usersCount":749,"tipCount":15,"visitsCount":1090,"tier":"","message":"","currency":"","rating":7},{"name":"The Bulldog","phone":"+441273696996","twitter":"bulldogbrighton","address":"30 St James's St","lat":50.820801617577594,"lng":-0.1339127565922099,"city_fetched":"Brighton,UK","state":"Brighton and Hove","country":"United Kingdom","canonicalUrl":"https://foursquare.com/v/the-bulldog/4b1055f6f964a520206e23e3","categoryId":"4bf58dd8d48988d1d8941735","category":"Gay Bar","checkinsCount":1916,"usersCount":638,"tipCount":23,"visitsCount":1940,"url":"http://bulldogbrighton.com","tier":"","message":"","currency":"","rating":7},{"name":"Three and Ten","phone":"+447800983290","twitter":"upthreeandten","address":"10a Steine St","lat":50.8209808,"lng":-0.1362964,"neighborhood":"Kemptown","city_fetched":"Brighton,UK","state":"Brighton and Hove","country":"United Kingdom","canonicalUrl":"https://foursquare.com/v/three-and-ten/4af46532f964a5200bf221e3","categoryId":"4bf58dd8d48988d116941735","category":"Bar","checkinsCount":582,"usersCount":218,"tipCount":8,"visitsCount":582,"tier":"","message":"","currency":"","rating":7},{"name":"Revolution","phone":"+441273806090","address":"77 West St.","lat":50.82138753467791,"lng":-0.144306841184925,"neighborhood":"The Lanes","city_fetched":"Brighton,UK","state":"Brighton and Hove","country":"United Kingdom","canonicalUrl":"https://foursquare.com/v/revolution/4bd3778c9854d13adbe6fd4d","categoryId":"4bf58dd8d48988d11e941735","category":"Cocktail Bar","checkinsCount":1174,"usersCount":761,"tipCount":13,"visitsCount":1218,"url":"http://www.revolution-bars.co.uk/brighton","tier":"","message":"","currency":"","rating":6.9},{"name":"King And Queen","phone":"+441273607207","address":"13-17 Marlborough Place","lat":50.824724026942306,"lng":-0.136811311378038,"neighborhood":"North Laine","city_fetched":"Brighton,UK","state":"Brighton and Hove","country":"United Kingdom","canonicalUrl":"https://foursquare.com/v/king-and-queen/4bdd750bf219c9b63c9c1210","categoryId":"4bf58dd8d48988d11b941735","category":"Pub","checkinsCount":3807,"usersCount":2281,"tipCount":40,"visitsCount":4968,"url":"http://www.thekingandqueen.co.uk","tier":"","message":"","currency":"","rating":6.9},{"name":"Coalition Brighton","phone":"+441273772842","address":"171-181 Kings Road Arches","lat":50.820129483502335,"lng":-0.1434585560377064,"neighborhood":"The Lanes","city_fetched":"Brighton,UK","state":"Brighton and Hove","country":"United Kingdom","canonicalUrl":"https://foursquare.com/v/coalition-brighton/4b058845f964a52043bb22e3","categoryId":"4bf58dd8d48988d11f941735","category":"Nightclub","checkinsCount":1629,"usersCount":1012,"tipCount":15,"visitsCount":1663,"url":"http://www.coalitionbrighton.com","tier":2,"message":"Moderate","currency":"£","rating":6.9},{"name":"The Lord Nelson Inn","phone":"+441273695872","address":"36 Trafalgar St","lat":50.828385,"lng":-0.139305,"neighborhood":"North Laine","city_fetched":"Brighton,UK","country":"United Kingdom","canonicalUrl":"https://foursquare.com/v/the-lord-nelson-inn/4b058845f964a52068bb22e3","categoryId":"4bf58dd8d48988d11b941735","category":"Pub","checkinsCount":781,"usersCount":304,"tipCount":8,"visitsCount":807,"url":"http://www.thelordnelsoninn.co.uk","tier":"","message":"","currency":"","rating":6.9},{"name":"The Pump House","address":"45 Market St","lat":50.821407,"lng":-0.139935,"neighborhood":"The Lanes","city_fetched":"Brighton,UK","state":"Brighton and Hove","country":"United Kingdom","canonicalUrl":"https://foursquare.com/v/the-pump-house/4b250548f964a5205d6b24e3","categoryId":"4bf58dd8d48988d11b941735","category":"Pub","checkinsCount":525,"usersCount":416,"tipCount":10,"visitsCount":534,"tier":"","message":"","currency":"","rating":6.9},{"name":"The Colonnade Bar","phone":"+441273328728","twitter":"thecolonnadebar","address":"10 New Rd","lat":50.82309186458588,"lng":-0.139365,"neighborhood":"Central Brighton","city_fetched":"Brighton,UK","state":"Brighton and Hove","country":"United Kingdom","canonicalUrl":"https://foursquare.com/v/the-colonnade-bar/4b058845f964a5207bbb22e3","categoryId":"4bf58dd8d48988d116941735","category":"Bar","checkinsCount":292,"usersCount":182,"tipCount":2,"visitsCount":294,"url":"http://www.thecolonnadebrighton.co.uk","tier":"","message":"","currency":"","rating":6.9},{"name":"Brighton Rocks","phone":"+441273600550","twitter":"brightonrocks_","address":"6 Rock Pl","lat":50.819872486625194,"lng":-0.1310420036315918,"neighborhood":"Kemptown","city_fetched":"Brighton,UK","state":"Brighton and Hove","country":"United Kingdom","canonicalUrl":"https://foursquare.com/v/brighton-rocks/4b8129f5f964a520e29830e3","categoryId":"4bf58dd8d48988d11e941735","category":"Cocktail Bar","checkinsCount":405,"usersCount":223,"tipCount":5,"visitsCount":409,"url":"http://www.brightonrocksbar.co.uk","tier":"","message":"","currency":"","rating":6.9},{"name":"The Office","phone":"+441273609134","address":"8 Sydney St","lat":50.827363128971314,"lng":-0.13788400338908663,"neighborhood":"North Laine","city_fetched":"Brighton,UK","state":"Brighton and Hove","country":"United Kingdom","canonicalUrl":"https://foursquare.com/v/the-office/4b058845f964a5206abb22e3","categoryId":"4bf58dd8d48988d116941735","category":"Bar","checkinsCount":873,"usersCount":527,"tipCount":31,"visitsCount":910,"url":"http://www.viewbrighton.co.uk/pubsandbars/the-office-info-26333.html","tier":"","message":"","currency":"","rating":6.9},{"name":"The Martha Gunn","phone":"+441273681671","address":"100 Upper Lewes Rd","lat":50.838469138510725,"lng":-0.127888948783834,"neighborhood":"Lewes Road","city_fetched":"Brighton,UK","state":"Brighton and Hove","country":"United Kingdom","canonicalUrl":"https://foursquare.com/v/the-martha-gunn/4fc14a3ae4b021b6dfcc6353","categoryId":"4bf58dd8d48988d11b941735","category":"Pub","checkinsCount":127,"usersCount":25,"tipCount":7,"visitsCount":128,"url":"http://marthagunnbrighton.co.uk","tier":"","message":"","currency":"","rating":6.9},{"name":"The Park Crescent","address":"Park Crescent Pl.","lat":50.83315558401709,"lng":-0.13106346130371094,"city_fetched":"Brighton,UK","state":"Brighton and Hove","country":"United Kingdom","canonicalUrl":"https://foursquare.com/v/the-park-crescent/4c44a51774ffc928fdd975cc","categoryId":"4bf58dd8d48988d11b941735","category":"Pub","checkinsCount":339,"usersCount":116,"tipCount":6,"visitsCount":362,"tier":"","message":"","currency":"","rating":6.8},{"name":"The Sidewinder","phone":"+441273679927","address":"65 St. James's St.","lat":50.819878,"lng":-0.12907607,"neighborhood":"Kemptown","city_fetched":"Brighton,UK","state":"Brighton and Hove","country":"United Kingdom","canonicalUrl":"https://foursquare.com/v/the-sidewinder/4b7d3836f964a52058b32fe3","categoryId":"4bf58dd8d48988d11b941735","category":"Pub","checkinsCount":759,"usersCount":576,"tipCount":22,"visitsCount":1006,"tier":"","message":"","currency":"","rating":6.8},{"name":"Longman Of Wilmington","twitter":"thelongmanpub","lat":50.85982178857563,"lng":-0.14171864926459654,"neighborhood":"Hollingbury","city_fetched":"Brighton,UK","country":"United Kingdom","canonicalUrl":"https://foursquare.com/v/longman-of-wilmington/4d3c79a33ec9a35d90f54881","categoryId":"4bf58dd8d48988d11b941735","category":"Pub","checkinsCount":165,"usersCount":87,"tipCount":4,"visitsCount":223,"tier":"","message":"","currency":"","rating":6.8},{"name":"The Cow","address":"78 Dyke Rd","lat":50.829800347706225,"lng":-0.147017581571729,"neighborhood":"Seven Dials","city_fetched":"Brighton,UK","state":"Brighton and Hove","country":"United Kingdom","canonicalUrl":"https://foursquare.com/v/the-cow/50ca597ee4b00957ba444384","categoryId":"4bf58dd8d48988d116941735","category":"Bar","checkinsCount":501,"usersCount":330,"tipCount":23,"visitsCount":678,"tier":"","message":"","currency":"","rating":6.8},{"name":"The Temple Bar","phone":"+441273721501","address":"121 Western Rd","lat":50.82497477531433,"lng":-0.15368521213531494,"neighborhood":"Brunswick and Adelaide","city_fetched":"Brighton,UK","state":"Brighton and Hove","country":"United Kingdom","canonicalUrl":"https://foursquare.com/v/the-temple-bar/4b3bc877f964a5201b7b25e3","categoryId":"4bf58dd8d48988d116941735","category":"Bar","checkinsCount":1160,"usersCount":620,"tipCount":19,"visitsCount":1342,"url":"http://www.thetemplebar.pub","tier":"","message":"","currency":"","rating":6.8},{"name":"The Eagle","phone":"+441273607765","address":"125 Gloucester Rd.","lat":50.826646,"lng":-0.136921,"neighborhood":"North Laine","city_fetched":"Brighton,UK","state":"Brighton and Hove","country":"United Kingdom","canonicalUrl":"https://foursquare.com/v/the-eagle/4b06c02ff964a520a1ef22e3","categoryId":"4bf58dd8d48988d11b941735","category":"Pub","checkinsCount":1490,"usersCount":732,"tipCount":11,"visitsCount":1694,"tier":"","message":"","currency":"","rating":6.8},{"name":"East Street Tap","address":"74 East Street","lat":50.820058521353864,"lng":-0.13919334688549967,"neighborhood":"The Lanes","city_fetched":"Brighton,UK","state":"Brighton and Hove","country":"United Kingdom","canonicalUrl":"https://foursquare.com/v/east-street-tap/56dad8a8498e7460523a95d0","categoryId":"4bf58dd8d48988d116941735","category":"Bar","checkinsCount":102,"usersCount":88,"tipCount":4,"visitsCount":106,"tier":"","message":"","currency":"","rating":6.8},{"name":"The Paris House","phone":"+441273724195","address":"21 Western Rd","lat":50.825525,"lng":-0.157363,"neighborhood":"Brunswick and Adelaide","city_fetched":"Brighton,UK","state":"Brighton and Hove","country":"United Kingdom","canonicalUrl":"https://foursquare.com/v/the-paris-house/4d9f63317ec88cfaec9d825a","categoryId":"4bf58dd8d48988d116941735","category":"Bar","checkinsCount":333,"usersCount":202,"tipCount":9,"visitsCount":353,"url":"http://www.the-paris-house.co.uk","tier":"","message":"","currency":"","rating":6.8},{"name":"Proud Cabaret Brighton","phone":"+441273605789","twitter":"brightonproud","address":"83 St George's Rd","lat":50.81787684761173,"lng":-0.11897599777416439,"neighborhood":"Kemptown","city_fetched":"Brighton,UK","state":"Brighton and Hove","country":"United Kingdom","canonicalUrl":"https://foursquare.com/brightonproud","categoryId":"4bf58dd8d48988d1d4941735","category":"Speakeasy","checkinsCount":96,"usersCount":87,"tipCount":5,"visitsCount":101,"url":"http://www.proudcabaret.com","tier":"","message":"","currency":"","rating":6.7},{"name":"Three Jolly Butchers","phone":"+441273608571","twitter":"3jollybutchers","address":"59 North Rd.","lat":50.82607847999999,"lng":-0.1414792,"neighborhood":"North Laine","city_fetched":"Brighton,UK","state":"Brighton and Hove","country":"United Kingdom","canonicalUrl":"https://foursquare.com/v/three-jolly-butchers/4b7e85e3f964a520ccf02fe3","categoryId":"4bf58dd8d48988d11b941735","category":"Pub","checkinsCount":562,"usersCount":271,"tipCount":12,"visitsCount":586,"url":"http://www.three-jolly-butchers.co.uk","tier":"","message":"","currency":"","rating":6.7},{"name":"The Heart & Hand","phone":"+441273683320","address":"75 North Rd","lat":50.825721,"lng":-0.139529,"neighborhood":"North Laine","city_fetched":"Brighton,UK","state":"Brighton and Hove","country":"United Kingdom","canonicalUrl":"https://foursquare.com/v/the-heart--hand/4b058845f964a5206fbb22e3","categoryId":"4bf58dd8d48988d11b941735","category":"Pub","checkinsCount":292,"usersCount":231,"tipCount":2,"visitsCount":293,"tier":"","message":"","currency":"","rating":6.7},{"name":"White Rabbit","phone":"+441273677655","twitter":"whiterabbitpub","address":"Kensington Gardens","lat":50.82672255012679,"lng":-0.13851978422432157,"neighborhood":"North Laine","city_fetched":"Brighton,UK","state":"Brighton and Hove","country":"United Kingdom","canonicalUrl":"https://foursquare.com/v/white-rabbit/4b102bcef964a520876a23e3","categoryId":"4bf58dd8d48988d11b941735","category":"Pub","checkinsCount":1268,"usersCount":865,"tipCount":17,"visitsCount":1295,"tier":"","message":"","currency":"","rating":6.7},{"name":"Falmer Bar","address":"Falmer House","lat":50.86447305063217,"lng":-0.08855211851175722,"neighborhood":"University of Sussex","city_fetched":"Brighton,UK","state":"Brighton and Hove","country":"United Kingdom","canonicalUrl":"https://foursquare.com/v/falmer-bar/4af47086f964a52076f221e3","categoryId":"4bf58dd8d48988d11f941735","category":"Nightclub","checkinsCount":845,"usersCount":274,"tipCount":11,"visitsCount":871,"tier":"","message":"","currency":"","rating":6.7},{"name":"Oxygen","address":"74 West St","lat":50.82182462284013,"lng":-0.14432449079396828,"neighborhood":"Central Brighton","city_fetched":"Brighton,UK","state":"Brighton and Hove","country":"United Kingdom","canonicalUrl":"https://foursquare.com/v/oxygen/4d8e49fcd265236a91ee0617","categoryId":"4bf58dd8d48988d11e941735","category":"Cocktail Bar","checkinsCount":373,"usersCount":254,"tipCount":2,"visitsCount":373,"tier":"","message":"","currency":"","rating":6.7},{"name":"Chequers","phone":"+441273220855","address":"45 Preston St.","lat":50.82410712735088,"lng":-0.15068143037816892,"neighborhood":"Central Brighton","city_fetched":"Brighton,UK","state":"Brighton and Hove","country":"United Kingdom","canonicalUrl":"https://foursquare.com/v/chequers/4dff6466fa76b5130d78c9a1","categoryId":"4bf58dd8d48988d11b941735","category":"Pub","checkinsCount":110,"usersCount":62,"tipCount":3,"visitsCount":116,"tier":"","message":"","currency":"","rating":6.6},{"name":"The Setting Sun","address":"48-49 Sussex St.","lat":50.82467110273432,"lng":-0.12990474700927734,"city_fetched":"Brighton,UK","state":"Brighton and Hove","country":"United Kingdom","canonicalUrl":"https://foursquare.com/v/the-setting-sun/4ba93920f964a520c8153ae3","categoryId":"4bf58dd8d48988d11b941735","category":"Pub","checkinsCount":185,"usersCount":134,"tipCount":5,"visitsCount":232,"tier":"","message":"","currency":"","rating":6.6},{"name":"Hove Place","address":"37 First Ave","lat":50.826478988506146,"lng":-0.16609209784415796,"neighborhood":"Central Hove","city_fetched":"Brighton,UK","state":"Brighton and Hove","country":"United Kingdom","canonicalUrl":"https://foursquare.com/v/hove-place/4b058846f964a5207dbb22e3","categoryId":"4bf58dd8d48988d11b941735","category":"Pub","checkinsCount":353,"usersCount":288,"tipCount":13,"visitsCount":444,"tier":"","message":"","currency":"","rating":6.6},{"name":"The Poets Ale and Smoke House","phone":"+441273272212","address":"33 Montgomery St","lat":50.83413811200272,"lng":-0.17890334129333496,"neighborhood":"Westbourne","city_fetched":"Brighton,UK","state":"Brighton and Hove","country":"United Kingdom","canonicalUrl":"https://foursquare.com/v/the-poets-ale-and-smoke-house/4b451985f964a520950426e3","categoryId":"4bf58dd8d48988d11b941735","category":"Pub","checkinsCount":487,"usersCount":137,"tipCount":3,"visitsCount":566,"url":"http://www.thepoets.co.uk","tier":"","message":"","currency":"","rating":6.6},{"name":"Fitzherberts","address":"New Rd","lat":50.823906,"lng":-0.139135,"neighborhood":"Central Brighton","city_fetched":"Brighton,UK","state":"Brighton and Hove","country":"United Kingdom","canonicalUrl":"https://foursquare.com/v/fitzherberts/4bddce5a587b2d7f5e285509","categoryId":"4bf58dd8d48988d116941735","category":"Bar","checkinsCount":684,"usersCount":437,"tipCount":6,"visitsCount":691,"tier":"","message":"","currency":"","rating":6.6},{"name":"The Edinburgh | \"The Eddy\"","phone":"+441273329540","twitter":"theeddyyes","address":"67a Upper Gloucester Rd","lat":50.82767611888069,"lng":-0.14362511685947527,"neighborhood":"Seven Dials","city_fetched":"Brighton,UK","state":"Brighton and Hove","country":"United Kingdom","canonicalUrl":"https://foursquare.com/v/the-edinburgh--the-eddy/4b73cb3af964a52013bc2de3","categoryId":"4bf58dd8d48988d11b941735","category":"Pub","checkinsCount":428,"usersCount":174,"tipCount":6,"visitsCount":456,"tier":"","message":"","currency":"","rating":6.6},{"name":"The Victory Inn","phone":"+441273326555","twitter":"victorybrighton","address":"6 Duke St","lat":50.8227035,"lng":-0.1424243,"neighborhood":"The Lanes","city_fetched":"Brighton,UK","state":"Brighton and Hove","country":"United Kingdom","canonicalUrl":"https://foursquare.com/v/the-victory-inn/4b058845f964a52067bb22e3","categoryId":"4bf58dd8d48988d11b941735","category":"Pub","checkinsCount":991,"usersCount":720,"tipCount":12,"visitsCount":1066,"url":"http://www.drinkinbrighton.co.uk/victory","tier":"","message":"","currency":"","rating":6.6},{"name":"Coopers Cask","phone":"+441273737026","address":"3 Farm Rd","lat":50.826095,"lng":-0.159223,"neighborhood":"Brunswick and Adelaide","city_fetched":"Brighton,UK","state":"Brighton and Hove","country":"United Kingdom","canonicalUrl":"https://foursquare.com/v/coopers-cask/4b058845f964a5205fbb22e3","categoryId":"4bf58dd8d48988d11b941735","category":"Pub","checkinsCount":180,"usersCount":81,"tipCount":9,"visitsCount":180,"tier":"","message":"","currency":"","rating":6.6},{"name":"Club Revenge","phone":"+441273606064","twitter":"revengebrighton","address":"32-34 Old Steine","lat":50.82009714731124,"lng":-0.13650385036092394,"neighborhood":"Kemptown","city_fetched":"Brighton,UK","state":"West Sussex","country":"United Kingdom","canonicalUrl":"https://foursquare.com/v/club-revenge/4b245271f964a520e16524e3","categoryId":"4bf58dd8d48988d11f941735","category":"Nightclub","checkinsCount":866,"usersCount":541,"tipCount":8,"visitsCount":874,"url":"http://www.revenge.co.uk","tier":"","message":"","currency":"","rating":6.6},{"name":"Shooshh Brighton","twitter":"shooshhbrighton","address":"214 Kings Road Arches","lat":50.81976236206195,"lng":-0.14101316031553945,"neighborhood":"The Lanes","city_fetched":"Brighton,UK","state":"Brighton and Hove","country":"United Kingdom","canonicalUrl":"https://foursquare.com/v/shooshh-brighton/514b4a42e4b013dccb783b33","categoryId":"4bf58dd8d48988d11f941735","category":"Nightclub","checkinsCount":1388,"usersCount":846,"tipCount":7,"visitsCount":1552,"tier":"","message":"","currency":"","rating":6.5},{"name":"Pub du Vin","address":"6 Ship St","lat":50.820892283596365,"lng":-0.14221239518632986,"neighborhood":"The Lanes","city_fetched":"Brighton,UK","state":"Brighton and Hove","country":"United Kingdom","canonicalUrl":"https://foursquare.com/v/pub-du-vin/4af5b3e8f964a52091fb21e3","categoryId":"4bf58dd8d48988d11b941735","category":"Pub","checkinsCount":485,"usersCount":317,"tipCount":7,"visitsCount":493,"tier":"","message":"","currency":"","rating":6.5},{"name":"The Druids Arms","phone":"+441273680596","twitter":"druidspub","address":"79-81 Ditchling Rd","lat":50.831871490401625,"lng":-0.13430625200271606,"city_fetched":"Brighton,UK","state":"Brighton and Hove","country":"United Kingdom","canonicalUrl":"https://foursquare.com/v/the-druids-arms/4b058845f964a52063bb22e3","categoryId":"4bf58dd8d48988d11b941735","category":"Pub","checkinsCount":636,"usersCount":194,"tipCount":5,"visitsCount":660,"tier":"","message":"","currency":"","rating":6.5},{"name":"The Haunt","phone":"+441273736618","twitter":"hauntbrighton","address":"10 Pool Valley","lat":50.8199834424333,"lng":-0.13806022628535566,"neighborhood":"Central Brighton","city_fetched":"Brighton,UK","state":"Brighton and Hove","country":"United Kingdom","canonicalUrl":"https://foursquare.com/v/the-haunt/4d6d87cbcb7a8cfae8ea6079","categoryId":"4bf58dd8d48988d11f941735","category":"Nightclub","checkinsCount":698,"usersCount":411,"tipCount":8,"visitsCount":701,"url":"http://thehauntbrighton.co.uk","tier":"","message":"","currency":"","rating":6.5},{"name":"The Freemasons Tavern","phone":"+441273732043","address":"38-39 Western Rd.","lat":50.82585734021613,"lng":-0.15979084248218323,"neighborhood":"Brunswick and Adelaide","city_fetched":"Brighton,UK","state":"Brighton and Hove","country":"United Kingdom","canonicalUrl":"https://foursquare.com/v/the-freemasons-tavern/4ba4e24ef964a520d1be38e3","categoryId":"4bf58dd8d48988d116941735","category":"Bar","checkinsCount":453,"usersCount":335,"tipCount":10,"visitsCount":516,"tier":"","message":"","currency":"","rating":6.5},{"name":"Dirty Blonde","phone":"+441273727494","twitter":"blindfrederick","address":"75-79 East St","lat":50.81995646697744,"lng":-0.13878468503186048,"neighborhood":"Central Brighton","city_fetched":"Brighton,UK","state":"Brighton and Hove","country":"United Kingdom","canonicalUrl":"https://foursquare.com/v/dirty-blonde/533d7bb8498ee0515b56d790","categoryId":"4bf58dd8d48988d11e941735","category":"Cocktail Bar","checkinsCount":132,"usersCount":107,"tipCount":1,"visitsCount":136,"url":"http://www.dirtyblondebrighton.com","tier":"","message":"","currency":"","rating":6.5},{"name":"The Station Bar","phone":"+441273733660","address":"100 Goldstone Villas","lat":50.83465385917065,"lng":-0.17099390873520834,"neighborhood":"Wilbury","city_fetched":"Brighton,UK","state":"Brighton and Hove","country":"United Kingdom","canonicalUrl":"https://foursquare.com/v/the-station-bar/4bf6db0f5ec320a1a0e485d3","categoryId":"4bf58dd8d48988d116941735","category":"Bar","checkinsCount":550,"usersCount":327,"tipCount":10,"visitsCount":584,"url":"http://www.thestationhove.co.uk","tier":"","message":"","currency":"","rating":6.5},{"name":"Lucky Voice","phone":"+441273715770","twitter":"sing_brighton","address":"8 Black Lion St.","lat":50.820883907880926,"lng":-0.14110270799753105,"neighborhood":"The Lanes","city_fetched":"Brighton,UK","state":"Brighton and Hove","country":"United Kingdom","canonicalUrl":"https://foursquare.com/v/lucky-voice/4b0b015cf964a5206f2b23e3","categoryId":"4bf58dd8d48988d120941735","category":"Karaoke Bar","checkinsCount":271,"usersCount":214,"tipCount":5,"visitsCount":274,"tier":"","message":"","currency":"","rating":6.5},{"name":"London Irish Pub","phone":"+441273328439","twitter":"londonirishpubs","address":"Smugglers, 10 Ship Street","lat":50.82489238086823,"lng":-0.14548424742270744,"neighborhood":"Central Brighton","city_fetched":"Brighton,UK","state":"West Sussex","country":"United Kingdom","canonicalUrl":"https://foursquare.com/v/london-irish-pub/4ee61a462da504839760f8d2","categoryId":"4bf58dd8d48988d11b941735","category":"Pub","checkinsCount":21,"usersCount":20,"tipCount":0,"visitsCount":21,"url":"http://www.londonirishpubs.co.uk","tier":"","message":"","currency":"","rating":6.5},{"name":"Caxton Arms - Shepherd Neame","phone":"+441273725866","address":"36 North Gardens","lat":50.826914354369954,"lng":-0.14259964227676392,"neighborhood":"Seven Dials","city_fetched":"Brighton,UK","country":"United Kingdom","canonicalUrl":"https://foursquare.com/v/caxton-arms--shepherd-neame/4bcc5fe0937ca5930df2aa92","categoryId":"4bf58dd8d48988d11b941735","category":"Pub","checkinsCount":431,"usersCount":198,"tipCount":7,"visitsCount":511,"url":"http://www.shepherdneame.co.uk","tier":"","message":"","currency":"","rating":6.4},{"name":"Druid's Head","phone":"+441273325490","address":"9 Brighton Pl","lat":50.82175887673588,"lng":-0.1401488684475044,"neighborhood":"The Lanes","city_fetched":"Brighton,UK","state":"Brighton and Hove","country":"United Kingdom","canonicalUrl":"https://foursquare.com/v/druids-head/4d4dc5e99ee13704951e888b","categoryId":"4bf58dd8d48988d11b941735","category":"Pub","checkinsCount":729,"usersCount":464,"tipCount":11,"visitsCount":734,"url":"http://www.taylor-walker.co.uk/pub/druids-head-brighton/c1336/","tier":"","message":"","currency":"","rating":6.4},{"name":"The Pond","phone":"+441273621400","address":"49 Gloucester Rd","lat":50.827208,"lng":-0.140843,"neighborhood":"North Laine","city_fetched":"Brighton,UK","state":"Brighton and Hove","country":"United Kingdom","canonicalUrl":"https://foursquare.com/v/the-pond/4b058846f964a52089bb22e3","categoryId":"4bf58dd8d48988d11b941735","category":"Pub","checkinsCount":182,"usersCount":120,"tipCount":6,"visitsCount":183,"tier":"","message":"","currency":"","rating":6.4},{"name":"Prince of Wales - Shepherd Neame","phone":"+441273324391","address":"47 Clarence Square","lat":50.8236680429616,"lng":-0.14656126499176025,"neighborhood":"Central Brighton","city_fetched":"Brighton,UK","country":"United Kingdom","canonicalUrl":"https://foursquare.com/v/prince-of-wales--shepherd-neame/4bbcac0cf57ba593b50badb9","categoryId":"4bf58dd8d48988d11b941735","category":"Pub","checkinsCount":76,"usersCount":65,"tipCount":2,"visitsCount":76,"url":"http://www.shepherdneame.co.uk","tier":"","message":"","currency":"","rating":6.4},{"name":"The Battle of Trafalgar","phone":"+441273327997","address":"34 Guildford Rd","lat":50.82884100633596,"lng":-0.14246451749875177,"neighborhood":"Seven Dials","city_fetched":"Brighton,UK","state":"Brighton and Hove","country":"United Kingdom","canonicalUrl":"https://foursquare.com/v/the-battle-of-trafalgar/4b058845f964a52073bb22e3","categoryId":"4bf58dd8d48988d11b941735","category":"Pub","checkinsCount":629,"usersCount":270,"tipCount":6,"visitsCount":637,"tier":"","message":"","currency":"","rating":6.4},{"name":"Charles Street Bar & Club","phone":"+441273624091","address":"8 Marine Parade","lat":50.820017462273505,"lng":-0.13543802926760923,"neighborhood":"Kemptown","city_fetched":"Brighton,UK","state":"Brighton and Hove","country":"United Kingdom","canonicalUrl":"https://foursquare.com/v/charles-street-bar--club/4b058846f964a520b5bb22e3","categoryId":"4bf58dd8d48988d1d8941735","category":"Gay Bar","checkinsCount":1692,"usersCount":659,"tipCount":23,"visitsCount":1756,"url":"http://www.charles-street.com","tier":"","message":"","currency":"","rating":6.4},{"name":"The Stoneham","phone":"+441273383840","twitter":"thestonehampub","address":"153 Portland Rd","lat":50.83350455322187,"lng":-0.1865851879119873,"neighborhood":"Wish","city_fetched":"Brighton,UK","state":"Brighton and Hove","country":"United Kingdom","canonicalUrl":"https://foursquare.com/v/the-stoneham/4ca77ac0d971b1f7e4a90ae1","categoryId":"4bf58dd8d48988d11b941735","category":"Pub","checkinsCount":821,"usersCount":324,"tipCount":16,"visitsCount":1093,"url":"http://www.thestoneham.co.uk","tier":"","message":"","currency":"","rating":6.4},{"name":"Bar Valentino","phone":"+441273727766","address":"7 New Rd","lat":50.82308996386821,"lng":-0.13959997936761484,"neighborhood":"Central Brighton","city_fetched":"Brighton,UK","state":"Brighton and Hove","country":"United Kingdom","canonicalUrl":"https://foursquare.com/v/bar-valentino/4b981e20f964a520a82d35e3","categoryId":"4bf58dd8d48988d11e941735","category":"Cocktail Bar","checkinsCount":378,"usersCount":215,"tipCount":10,"visitsCount":380,"url":"http://www.elmexicano.co.uk/bar-valentino-cocktail-bar","tier":"","message":"","currency":"","rating":6.4},{"name":"The Stag - Shepherd Neame","phone":"+441273609676","address":"33 Upper Bedford Street","lat":50.82055706512647,"lng":-0.12582242488861084,"neighborhood":"Kemptown","city_fetched":"Brighton,UK","country":"United Kingdom","canonicalUrl":"https://foursquare.com/v/the-stag--shepherd-neame/4e687980b3ad5d919751756c","categoryId":"4bf58dd8d48988d11b941735","category":"Pub","checkinsCount":8,"usersCount":7,"tipCount":0,"visitsCount":8,"url":"http://www.shepherdneame.co.uk","tier":"","message":"","currency":"","rating":6.4},{"name":"R Bar","phone":"+441273606064","address":"5-7 Marine Parade","lat":50.819823654034835,"lng":-0.13584787237168838,"neighborhood":"Kemptown","city_fetched":"Brighton,UK","state":"Brighton and Hove","country":"United Kingdom","canonicalUrl":"https://foursquare.com/v/r-bar/4bcb566dfb84c9b668a11e3e","categoryId":"4bf58dd8d48988d1d8941735","category":"Gay Bar","checkinsCount":586,"usersCount":253,"tipCount":2,"visitsCount":589,"url":"http://www.revenge.co.uk","tier":"","message":"","currency":"","rating":6.4},{"name":"Verano Lounge","phone":"+441273205424","twitter":"thelounges","address":"95 Western Road","lat":50.824826424330986,"lng":-0.15201939928506322,"neighborhood":"Montpelier","city_fetched":"Brighton,UK","state":"Brighton and Hove","country":"United Kingdom","canonicalUrl":"https://foursquare.com/v/verano-lounge/53343bfd498ebe201b651017","categoryId":"4bf58dd8d48988d121941735","category":"Lounge","checkinsCount":294,"usersCount":189,"tipCount":13,"visitsCount":319,"url":"http://theloungers.co.uk","tier":"","message":"","currency":"","rating":6.4},{"name":"Molly Malone's","phone":"+441273822555","address":"57 West St","lat":50.82269207222859,"lng":-0.14387369155883786,"neighborhood":"The Lanes","city_fetched":"Brighton,UK","state":"Brighton and Hove","country":"United Kingdom","canonicalUrl":"https://foursquare.com/v/molly-malones/4eb67f33e5fa17fc87374113","categoryId":"4bf58dd8d48988d11b941735","category":"Pub","checkinsCount":609,"usersCount":454,"tipCount":12,"visitsCount":623,"url":"http://www.mollymalonesbrighton.co.uk","tier":"","message":"","currency":"","rating":6.3},{"name":"Blue Lagoon Sports Bar","phone":"+441273413402","address":"330 Kingsway","lat":50.82840083664796,"lng":-0.2000866975305471,"neighborhood":"Wish","city_fetched":"Brighton,UK","state":"Brighton and Hove","country":"United Kingdom","canonicalUrl":"https://foursquare.com/v/blue-lagoon-sports-bar/4d14f7ec1356a0937529cd82","categoryId":"4bf58dd8d48988d11d941735","category":"Sports Bar","checkinsCount":81,"usersCount":53,"tipCount":4,"visitsCount":82,"url":"http://www.brightonbnb.co.uk","tier":"","message":"","currency":"","rating":6.3},{"name":"East Slope Bar","address":"University of Sussex","lat":50.869373,"lng":-0.088239,"neighborhood":"University of Sussex","city_fetched":"Brighton,UK","state":"East Sussex","country":"United Kingdom","canonicalUrl":"https://foursquare.com/v/east-slope-bar/4c039b9af56c2d7fa3121d66","categoryId":"4bf58dd8d48988d116941735","category":"Bar","checkinsCount":873,"usersCount":351,"tipCount":12,"visitsCount":1191,"tier":1,"message":"Cheap","currency":"£","rating":6.3},{"name":"The Fiddler's Elbow","phone":"+441273325850","address":"11-12 Boyces St","lat":50.82227,"lng":-0.143482,"neighborhood":"The Lanes","city_fetched":"Brighton,UK","state":"Brighton and Hove","country":"United Kingdom","canonicalUrl":"https://foursquare.com/v/the-fiddlers-elbow/4b5b26a8f964a520bbe628e3","categoryId":"4bf58dd8d48988d11b941735","category":"Pub","checkinsCount":657,"usersCount":466,"tipCount":10,"visitsCount":719,"tier":"","message":"","currency":"","rating":6.3},{"name":"The Post And Telegraph (Wetherspoon)","phone":"+441273827540","twitter":"jdwtweet","address":"155-158 North St.","lat":50.823226006437764,"lng":-0.1404142561563668,"neighborhood":"North Laine","city_fetched":"Brighton,UK","state":"Brighton and Hove","country":"United Kingdom","canonicalUrl":"https://foursquare.com/v/the-post-and-telegraph-wetherspoon/4d063c6d0e49721e1f317a7f","categoryId":"4bf58dd8d48988d11b941735","category":"Pub","checkinsCount":1746,"usersCount":1176,"tipCount":22,"visitsCount":2054,"url":"http://www.jdwetherspoon.co.uk","tier":1,"message":"Cheap","currency":"£","rating":6.3},{"name":"Royal Sovereign","address":"66 Preston St","lat":50.82370561707409,"lng":-0.1508360450202089,"neighborhood":"Central Brighton","city_fetched":"Brighton,UK","state":"Brighton and Hove","country":"United Kingdom","canonicalUrl":"https://foursquare.com/v/royal-sovereign/4b5df089f964a520fd7429e3","categoryId":"4bf58dd8d48988d11b941735","category":"Pub","checkinsCount":579,"usersCount":297,"tipCount":15,"visitsCount":583,"url":"http://www.royalsovereign.pub","tier":"","message":"","currency":"","rating":6.3},{"name":"Doctor Brightons","phone":"+441273208113","twitter":"waynedurant007","address":"16 - 17 Kings Road","lat":50.81993060655431,"lng":-0.14003326632037139,"neighborhood":"The Lanes","city_fetched":"Brighton,UK","state":"Brighton and Hove","country":"United Kingdom","canonicalUrl":"https://foursquare.com/v/doctor-brightons/4dbdd7831e72b351cad4722b","categoryId":"4bf58dd8d48988d1d8941735","category":"Gay Bar","checkinsCount":330,"usersCount":197,"tipCount":13,"visitsCount":330,"url":"http://www.doctorbrightons.co.uk","tier":"","message":"","currency":"","rating":6.3},{"name":"Poison Ivy","phone":"+441273204076","address":"129 St James St","lat":50.821585750344944,"lng":-0.13604920606849455,"city_fetched":"Brighton,UK","state":"Brighton and Hove","country":"United Kingdom","canonicalUrl":"https://foursquare.com/v/poison-ivy/4d87c34b4757721eca198169","categoryId":"4bf58dd8d48988d1d8941735","category":"Gay Bar","checkinsCount":478,"usersCount":128,"tipCount":12,"visitsCount":487,"url":"http://www.thepoisonivy.co.uk","tier":"","message":"","currency":"","rating":6.3},{"name":"The Mash Tun","phone":"+441273684951","address":"1 Church St","lat":50.823985,"lng":-0.139087,"neighborhood":"Central Brighton","city_fetched":"Brighton,UK","state":"Brighton and Hove","country":"United Kingdom","canonicalUrl":"https://foursquare.com/v/the-mash-tun/4b058845f964a52029bb22e3","categoryId":"4bf58dd8d48988d11b941735","category":"Pub","checkinsCount":1391,"usersCount":873,"tipCount":15,"visitsCount":1401,"tier":"","message":"","currency":"","rating":6.3},{"name":"The Fountain Head","phone":"+441273628091","twitter":"fountainheadpub","address":"101-103 North Rd","lat":50.82546434591956,"lng":-0.13726405109133194,"neighborhood":"North Laine","city_fetched":"Brighton,UK","state":"Brighton and Hove","country":"United Kingdom","canonicalUrl":"https://foursquare.com/v/the-fountain-head/4b05c7a5f964a52015e322e3","categoryId":"4bf58dd8d48988d11b941735","category":"Pub","checkinsCount":1218,"usersCount":703,"tipCount":15,"visitsCount":1234,"url":"http://www.drinkinbrighton.co.uk/fountain-head","tier":"","message":"","currency":"","rating":6.2},{"name":"The Marine Tavern","phone":"+441273681284","address":"13 Broad St","lat":50.820783,"lng":-0.134655,"neighborhood":"Kemptown","city_fetched":"Brighton,UK","state":"Brighton and Hove","country":"United Kingdom","canonicalUrl":"https://foursquare.com/v/the-marine-tavern/4b058846f964a5207cbb22e3","categoryId":"4bf58dd8d48988d1d8941735","category":"Gay Bar","checkinsCount":298,"usersCount":96,"tipCount":3,"visitsCount":298,"url":"http://www.marinetavern.co.uk","tier":"","message":"","currency":"","rating":6.2},{"name":"St George's Inn","phone":"+441273694265","twitter":"saintgeorgespub","address":"33 Sudeley St","lat":50.81815800208461,"lng":-0.11734752993098041,"city_fetched":"Brighton,UK","state":"Brighton and Hove","country":"United Kingdom","canonicalUrl":"https://foursquare.com/v/st-georges-inn/4df9eeb3d22d964c6b9b568e","categoryId":"4bf58dd8d48988d11b941735","category":"Pub","checkinsCount":151,"usersCount":82,"tipCount":6,"visitsCount":172,"url":"http://www.drinkinbrighton.co.uk/saint-georges","tier":"","message":"","currency":"","rating":6.2},{"name":"Patterns","phone":"+441273606906","twitter":"patternsbtn","address":"10 Marine Parade","lat":50.81999740124575,"lng":-0.1352203145387326,"neighborhood":"Kemptown","city_fetched":"Brighton,UK","state":"Brighton and Hove","country":"United Kingdom","canonicalUrl":"https://foursquare.com/v/patterns/4b058846f964a520b8bb22e3","categoryId":"4bf58dd8d48988d11f941735","category":"Nightclub","checkinsCount":726,"usersCount":518,"tipCount":11,"visitsCount":747,"url":"http://patternsbrighton.com","tier":"","message":"","currency":"","rating":6.2},{"name":"Regency Tavern - Shepherd Neame","phone":"+441273325652","address":"32/34 Russell Square","lat":50.82291573399011,"lng":-0.14885187149047852,"neighborhood":"Central Brighton","city_fetched":"Brighton,UK","country":"United Kingdom","canonicalUrl":"https://foursquare.com/v/regency-tavern--shepherd-neame/4b2e6d7bf964a520fadf24e3","categoryId":"4bf58dd8d48988d11b941735","category":"Pub","checkinsCount":218,"usersCount":134,"tipCount":4,"visitsCount":220,"url":"http://www.shepherdneame.co.uk","tier":"","message":"","currency":"","rating":6.2},{"name":"Dig In The Ribs","phone":"+441273325275","lat":50.82419874561024,"lng":-0.15072581299616628,"neighborhood":"Central Brighton","city_fetched":"Brighton,UK","state":"Brighton and Hove","country":"United Kingdom","canonicalUrl":"https://foursquare.com/v/dig-in-the-ribs/4b058845f964a5202dbb22e3","categoryId":"4bf58dd8d48988d11e941735","category":"Cocktail Bar","checkinsCount":58,"usersCount":57,"tipCount":4,"visitsCount":58,"url":"http://www.digintheribs.co.uk","tier":"","message":"","currency":"","rating":6.2},{"name":"Waggon and Horses","phone":"+441273602752","address":"109 Church St","lat":50.824181,"lng":-0.13898,"neighborhood":"North Laine","city_fetched":"Brighton,UK","state":"Brighton and Hove","country":"United Kingdom","canonicalUrl":"https://foursquare.com/v/waggon-and-horses/4b058845f964a5206dbb22e3","categoryId":"4bf58dd8d48988d11b941735","category":"Pub","checkinsCount":1253,"usersCount":735,"tipCount":5,"visitsCount":1282,"tier":"","message":"","currency":"","rating":6.2},{"name":"The Bedford Tavern","phone":"+441273739495","address":"30 Western St","lat":50.82341507505361,"lng":-0.1557243537991924,"neighborhood":"Brunswick and Adelaide","city_fetched":"Brighton,UK","state":"Brighton and Hove","country":"United Kingdom","canonicalUrl":"https://foursquare.com/v/the-bedford-tavern/4bb8f13c314e952150f5489d","categoryId":"4bf58dd8d48988d1d8941735","category":"Gay Bar","checkinsCount":130,"usersCount":87,"tipCount":4,"visitsCount":162,"tier":"","message":"","currency":"","rating":6.1},{"name":"Devils Dyke Inn","phone":"+441273857256","address":"Dyke Rd.","lat":50.88549211660664,"lng":-0.2121734619140625,"city_fetched":"Brighton,UK","state":"Brighton and Hove","country":"United Kingdom","canonicalUrl":"https://foursquare.com/v/devils-dyke-inn/4c0e8ebed64c0f473064285d","categoryId":"4bf58dd8d48988d116941735","category":"Bar","checkinsCount":408,"usersCount":280,"tipCount":11,"visitsCount":410,"tier":"","message":"","currency":"","rating":6.1},{"name":"The Hanover","phone":"+441273679902","address":"242 Queen's Park Rd","lat":50.828896,"lng":-0.122725,"city_fetched":"Brighton,UK","state":"Brighton and Hove","country":"United Kingdom","canonicalUrl":"https://foursquare.com/v/the-hanover/4bf013bbc8d920a1fe619430","categoryId":"4bf58dd8d48988d11b941735","category":"Pub","checkinsCount":250,"usersCount":147,"tipCount":1,"visitsCount":298,"url":"http://www.hanoverbrighton.co.uk","tier":"","message":"","currency":"","rating":6.1},{"name":"The Prince George","phone":"+441273681055","address":"5 Trafalgar St","lat":50.827974568681,"lng":-0.1362342795784775,"city_fetched":"Brighton,UK","state":"Brighton and Hove","country":"United Kingdom","canonicalUrl":"https://foursquare.com/v/the-prince-george/4b058845f964a52027bb22e3","categoryId":"4bf58dd8d48988d11b941735","category":"Pub","checkinsCount":940,"usersCount":475,"tipCount":17,"visitsCount":986,"url":"http://www.princegeorgebrighton.co.uk","tier":"","message":"","currency":"","rating":6.1},{"name":"The Royal Pavilion Tavern","phone":"+441273735819","address":"7-8 Castle Sq","lat":50.821537588232275,"lng":-0.13827511244314525,"neighborhood":"Central Brighton","city_fetched":"Brighton,UK","state":"Brighton and Hove","country":"United Kingdom","canonicalUrl":"https://foursquare.com/v/the-royal-pavilion-tavern/4bd1f6d5caff9521a9bfd1f0","categoryId":"4bf58dd8d48988d11b941735","category":"Pub","checkinsCount":978,"usersCount":514,"tipCount":11,"visitsCount":1051,"url":"https://www.theroyalpaviliontavernbrighton.co.uk","tier":"","message":"","currency":"","rating":6.1},{"name":"The Iron Duke Pub, Guesthouse, Thai Kitchen & Theatre","phone":"+441273734806","twitter":"irondukebtn","address":"3 Waterloo Street","lat":50.8234477735718,"lng":-0.15719890594482422,"neighborhood":"Brunswick and Adelaide","city_fetched":"Brighton,UK","state":"Brighton and Hove","country":"United Kingdom","canonicalUrl":"https://foursquare.com/v/the-iron-duke-pub-guesthouse-thai-kitchen--theatre/4b2bcc85f964a52034bb24e3","categoryId":"4bf58dd8d48988d11b941735","category":"Pub","checkinsCount":321,"usersCount":90,"tipCount":7,"visitsCount":335,"tier":"","message":"","currency":"","rating":6.1},{"name":"Duke Of Norfolk","phone":"+441273733245","twitter":"norfolk_pub","address":"114 Western Rd","lat":50.825218,"lng":-0.155258,"neighborhood":"Brunswick and Adelaide","city_fetched":"Brighton,UK","state":"Brighton and Hove","country":"United Kingdom","canonicalUrl":"https://foursquare.com/v/duke-of-norfolk/4be33fa11dd22d7fae2096bd","categoryId":"4bf58dd8d48988d11b941735","category":"Pub","checkinsCount":314,"usersCount":195,"tipCount":7,"visitsCount":315,"url":"https://www.drinkinbrighton.co.uk/norfolk","tier":"","message":"","currency":"","rating":6.1},{"name":"Duke Of Wellington","address":"70 Upper Gloucester Rd","lat":50.827533,"lng":-0.143099,"neighborhood":"Seven Dials","city_fetched":"Brighton,UK","state":"Brighton and Hove","country":"United Kingdom","canonicalUrl":"https://foursquare.com/v/duke-of-wellington/4bde0dfaffdec928ee8fe7a1","categoryId":"4bf58dd8d48988d116941735","category":"Bar","checkinsCount":174,"usersCount":70,"tipCount":4,"visitsCount":185,"tier":"","message":"","currency":"","rating":6.1},{"name":"The Barley Mow","address":"St George's Rd","lat":50.81854903540672,"lng":-0.12191342540343468,"neighborhood":"Kemptown","city_fetched":"Brighton,UK","state":"Brighton and Hove","country":"United Kingdom","canonicalUrl":"https://foursquare.com/v/the-barley-mow/4b0ee7bef964a520915c23e3","categoryId":"4bf58dd8d48988d11b941735","category":"Pub","checkinsCount":356,"usersCount":144,"tipCount":11,"visitsCount":362,"tier":"","message":"","currency":"","rating":6.1},{"name":"The West Quay (Wetherspoon)","phone":"+441273645780","twitter":"jdwtweet","address":"Brighton Marina Village","lat":50.812067775948414,"lng":-0.10354892099389557,"city_fetched":"Brighton,UK","state":"Brighton and Hove","country":"United Kingdom","canonicalUrl":"https://foursquare.com/v/the-west-quay-wetherspoon/4bf925aeb182c9b61776785a","categoryId":"4bf58dd8d48988d11b941735","category":"Pub","checkinsCount":2035,"usersCount":723,"tipCount":16,"visitsCount":2088,"url":"http://www.jdwetherspoon.co.uk","tier":"","message":"","currency":"","rating":6.1},{"name":"The Palmeira","phone":"+441273720641","address":"70-71 Cromwell Rd","lat":50.83199285062455,"lng":-0.15996571176822508,"neighborhood":"Wilbury","city_fetched":"Brighton,UK","state":"Brighton and Hove","country":"United Kingdom","canonicalUrl":"https://foursquare.com/v/the-palmeira/4bdeef15e75c0f47a650c903","categoryId":"4bf58dd8d48988d11b941735","category":"Pub","checkinsCount":415,"usersCount":268,"tipCount":5,"visitsCount":702,"tier":"","message":"","currency":"","rating":6},{"name":"A BAR","phone":"+441273688825","address":"11-12 Marine Parade","lat":50.819957566666666,"lng":-0.134966,"neighborhood":"Kemptown","city_fetched":"Brighton,UK","state":"Brighton and Hove","country":"United Kingdom","canonicalUrl":"https://foursquare.com/v/a-bar/4d457dd57e2e548158026b8f","categoryId":"4bf58dd8d48988d116941735","category":"Bar","checkinsCount":318,"usersCount":143,"tipCount":5,"visitsCount":319,"tier":"","message":"","currency":"","rating":6},{"name":"The Master Mariner","phone":"+441273818563","twitter":"mastermariner_","address":"24 Marina Sq.","lat":50.813161339929344,"lng":-0.10110614865442387,"city_fetched":"Brighton,UK","state":"Brighton and Hove","country":"United Kingdom","canonicalUrl":"https://foursquare.com/v/the-master-mariner/4c39c5d40a71c9b6acfa42c9","categoryId":"4bf58dd8d48988d11b941735","category":"Pub","checkinsCount":357,"usersCount":236,"tipCount":6,"visitsCount":381,"url":"http://www.mastermarinerpub.co.uk","tier":"","message":"","currency":"","rating":6},{"name":"Boutique Brighton","phone":"+441273327607","twitter":"boutique_bn1","address":"2 Boyces St","lat":50.822251983799,"lng":-0.14372075880368904,"neighborhood":"The Lanes","city_fetched":"Brighton,UK","state":"Brighton and Hove","country":"United Kingdom","canonicalUrl":"https://foursquare.com/v/boutique-brighton/513bf342e4b0cc27a5e77364","categoryId":"4bf58dd8d48988d11f941735","category":"Nightclub","checkinsCount":145,"usersCount":86,"tipCount":1,"visitsCount":145,"url":"http://www.boutiqueclubbrighton.com","tier":"","message":"","currency":"","rating":5.9},{"name":"The Cricketer's Pub","address":"Eaton Rd","lat":50.829902,"lng":-0.164783,"neighborhood":"Wilbury","city_fetched":"Brighton,UK","state":"Brighton and Hove","country":"United Kingdom","canonicalUrl":"https://foursquare.com/v/the-cricketers-pub/4b9e8b83f964a520a7ed36e3","categoryId":"4bf58dd8d48988d11b941735","category":"Pub","checkinsCount":205,"usersCount":156,"tipCount":5,"visitsCount":271,"tier":"","message":"","currency":"","rating":5.9},{"name":"The Bright Helm (Wetherspoon)","phone":"+441273224690","address":"20-22a West St.","lat":50.82245473919873,"lng":-0.14406988733963122,"neighborhood":"The Lanes","city_fetched":"Brighton,UK","state":"Brighton and Hove","country":"United Kingdom","canonicalUrl":"https://foursquare.com/v/the-bright-helm-wetherspoon/4bdd4c1bf219c9b625591210","categoryId":"4bf58dd8d48988d11b941735","category":"Pub","checkinsCount":1842,"usersCount":1303,"tipCount":15,"visitsCount":2028,"url":"http://www.jdwetherspoon.co.uk","tier":1,"message":"Cheap","currency":"£","rating":5.9},{"name":"Neighbourhood","phone":"+441273673891","address":"101 St James St","lat":50.82058451443838,"lng":-0.13359274936283488,"neighborhood":"Kemptown","city_fetched":"Brighton,UK","state":"Brighton and Hove","country":"United Kingdom","canonicalUrl":"https://foursquare.com/v/neighbourhood/4fccb283e4b09443503caeb5","categoryId":"4bf58dd8d48988d116941735","category":"Bar","checkinsCount":783,"usersCount":255,"tipCount":10,"visitsCount":796,"tier":"","message":"","currency":"","rating":5.9},{"name":"The Market Inn","phone":"+441273329483","address":"1 Market St","lat":50.821734293542825,"lng":-0.13918936963814374,"neighborhood":"The Lanes","city_fetched":"Brighton,UK","state":"Brighton and Hove","country":"United Kingdom","canonicalUrl":"https://foursquare.com/v/the-market-inn/4bbf5d3030c99c74cf0b5511","categoryId":"4bf58dd8d48988d116941735","category":"Bar","checkinsCount":364,"usersCount":195,"tipCount":3,"visitsCount":413,"tier":2,"message":"Moderate","currency":"£","rating":5.9},{"name":"Above Audio","address":"Marine Parade","lat":50.819959,"lng":-0.135148,"neighborhood":"Kemptown","city_fetched":"Brighton,UK","state":"Brighton and Hove","country":"United Kingdom","canonicalUrl":"https://foursquare.com/v/above-audio/4beec949d355a5937c500b60","categoryId":"4bf58dd8d48988d116941735","category":"Bar","checkinsCount":426,"usersCount":250,"tipCount":4,"visitsCount":429,"tier":"","message":"","currency":"","rating":5.9},{"name":"The Pull and Pump","address":"1-2 Clarence Gardens","lat":50.823878,"lng":-0.148222,"neighborhood":"Central Brighton","city_fetched":"Brighton,UK","state":"Brighton and Hove","country":"United Kingdom","canonicalUrl":"https://foursquare.com/v/the-pull-and-pump/4b058845f964a5205ebb22e3","categoryId":"4bf58dd8d48988d11b941735","category":"Pub","checkinsCount":486,"usersCount":297,"tipCount":9,"visitsCount":523,"tier":"","message":"","currency":"","rating":5.9},{"name":"Yates's","phone":"+441273731117","address":"59 West St","lat":50.82242998715164,"lng":-0.14371100627483835,"neighborhood":"The Lanes","city_fetched":"Brighton,UK","state":"Brighton and Hove","country":"United Kingdom","canonicalUrl":"https://foursquare.com/v/yatess/4b899744f964a5206f4432e3","categoryId":"4bf58dd8d48988d11b941735","category":"Pub","checkinsCount":917,"usersCount":601,"tipCount":5,"visitsCount":936,"url":"http://www.weareyates.co.uk/brighton/","tier":"","message":"","currency":"","rating":5.9},{"name":"The Zone","phone":"+441273682249","twitter":"zone_bar","address":"33 St James St","lat":50.820577418306044,"lng":-0.13351952262468145,"city_fetched":"Brighton,UK","state":"Brighton and Hove","country":"United Kingdom","canonicalUrl":"https://foursquare.com/v/the-zone/4c266010136d20a1fe3fe561","categoryId":"4bf58dd8d48988d1d8941735","category":"Gay Bar","checkinsCount":301,"usersCount":68,"tipCount":2,"visitsCount":304,"url":"http://www.zonebar.co.uk","tier":"","message":"","currency":"","rating":5.8},{"name":"Stanmer Park Tavern","phone":"+441273936001","address":"292 Ditchling Rd","lat":50.84343449599101,"lng":-0.1344528661855805,"city_fetched":"Brighton,UK","state":"Brighton and Hove","country":"United Kingdom","canonicalUrl":"https://foursquare.com/v/stanmer-park-tavern/4bd1ec65462cb7133331db07","categoryId":"4bf58dd8d48988d11b941735","category":"Pub","checkinsCount":434,"usersCount":105,"tipCount":1,"visitsCount":510,"tier":"","message":"","currency":"","rating":5.8},{"name":"Lola Lo","phone":"+441273777904","address":"75-79 East St.","lat":50.819985655056556,"lng":-0.139164170085393,"neighborhood":"The Lanes","city_fetched":"Brighton,UK","state":"Brighton and Hove","country":"United Kingdom","canonicalUrl":"https://foursquare.com/v/lola-lo/4c7ff965d92ea0939ba13372","categoryId":"4bf58dd8d48988d116941735","category":"Bar","checkinsCount":221,"usersCount":172,"tipCount":3,"visitsCount":222,"url":"http://www.lolalobrighton.com","tier":"","message":"","currency":"","rating":5.8},{"name":"The Cliftonville Inn (Wetherspoon)","phone":"+441273726969","address":"98-101 George St.","lat":50.828605033915345,"lng":-0.17404645537522162,"neighborhood":"Central Hove","city_fetched":"Brighton,UK","state":"Brighton and Hove","country":"United Kingdom","canonicalUrl":"https://foursquare.com/v/the-cliftonville-inn-wetherspoon/4c87ab38821e9eb029cd8d89","categoryId":"4bf58dd8d48988d11b941735","category":"Pub","checkinsCount":318,"usersCount":159,"tipCount":2,"visitsCount":342,"url":"http://www.jdwetherspoon.co.uk","tier":"","message":"","currency":"","rating":5.7},{"name":"Breeze","twitter":"breezebrasserie","address":"98 Trafalgar St","lat":50.82800455225424,"lng":-0.13662696891932583,"neighborhood":"North Laine","city_fetched":"Brighton,UK","state":"Brighton and Hove","country":"United Kingdom","canonicalUrl":"https://foursquare.com/v/breeze/4cb9901c0180721e22c49461","categoryId":"4bf58dd8d48988d116941735","category":"Bar","checkinsCount":193,"usersCount":177,"tipCount":5,"visitsCount":194,"url":"http://www.breezebrasserie.co.uk","tier":"","message":"","currency":"","rating":5.7},{"name":"Walmer Castle","address":"95 Queen's Park Rd.","lat":50.82605973573135,"lng":-0.12730293682966676,"city_fetched":"Brighton,UK","state":"Brighton and Hove","country":"United Kingdom","canonicalUrl":"https://foursquare.com/v/walmer-castle/4ba65a41f964a5206c4939e3","categoryId":"4bf58dd8d48988d11b941735","category":"Pub","checkinsCount":80,"usersCount":57,"tipCount":7,"visitsCount":82,"tier":"","message":"","currency":"","rating":5.7},{"name":"Shuffle Bar & Kitchen","address":"27 York Place","lat":50.82917415242985,"lng":-0.1354830472342313,"city_fetched":"Brighton,UK","state":"Brighton and Hove","country":"United Kingdom","canonicalUrl":"https://foursquare.com/v/shuffle-bar--kitchen/52f6c692498edc93e27ae2a1","categoryId":"4bf58dd8d48988d116941735","category":"Bar","checkinsCount":112,"usersCount":81,"tipCount":4,"visitsCount":114,"tier":"","message":"","currency":"","rating":5.7},{"name":"William IV","phone":"+441273683365","address":"4 Church St.","lat":50.82424256162273,"lng":-0.13980813546016885,"neighborhood":"North Laine","city_fetched":"Brighton,UK","state":"Brighton and Hove","country":"United Kingdom","canonicalUrl":"https://foursquare.com/v/william-iv/4b058845f964a5206cbb22e3","categoryId":"4bf58dd8d48988d11b941735","category":"Pub","checkinsCount":159,"usersCount":146,"tipCount":3,"visitsCount":159,"tier":"","message":"","currency":"","rating":5.7},{"name":"All Bar One","phone":"+441273207593","twitter":"allbarone","address":"2-3 Pavilion Buildings","lat":50.82213181863582,"lng":-0.13835722163245362,"neighborhood":"Central Brighton","city_fetched":"Brighton,UK","state":"Brighton and Hove","country":"United Kingdom","canonicalUrl":"https://foursquare.com/v/all-bar-one/4d4861eec3e5a35dde469d4f","categoryId":"4bf58dd8d48988d116941735","category":"Bar","checkinsCount":812,"usersCount":554,"tipCount":11,"visitsCount":816,"url":"http://www.allbarone.co.uk/national-search/south-east/all-bar-one-brighton","tier":"","message":"","currency":"","rating":5.7},{"name":"The Globe","phone":"+441273770685","twitter":"globebrighton","address":"Middle St","lat":50.82062741185144,"lng":-0.1433485484008456,"neighborhood":"The Lanes","city_fetched":"Brighton,UK","state":"Brighton and Hove","country":"United Kingdom","canonicalUrl":"https://foursquare.com/v/the-globe/4bf866845ec320a106bc88d3","categoryId":"4bf58dd8d48988d116941735","category":"Bar","checkinsCount":594,"usersCount":406,"tipCount":21,"visitsCount":654,"url":"http://www.drinkinbrighton.co.uk/globe","tier":"","message":"","currency":"","rating":5.7},{"name":"Sticky Mike's Frog Bar","phone":"+441273749465","twitter":"stickymikes","address":"9-12 Middle St","lat":50.82126710092661,"lng":-0.1434081207638518,"neighborhood":"The Lanes","city_fetched":"Brighton,UK","state":"Brighton and Hove","country":"United Kingdom","canonicalUrl":"https://foursquare.com/v/sticky-mikes-frog-bar/4e47292eb61c03d0cd16dbde","categoryId":"4bf58dd8d48988d118941735","category":"Dive Bar","checkinsCount":570,"usersCount":349,"tipCount":10,"visitsCount":583,"url":"http://www.drinkinbrighton.co.uk/stickymikesfrogbar","tier":"","message":"","currency":"","rating":5.7},{"name":"The Mucky Duck","phone":"+441273601450","address":"7-9 Manchester St","lat":50.8207185569133,"lng":-0.13554320367260594,"neighborhood":"Kemptown","city_fetched":"Brighton,UK","state":"Brighton and Hove","country":"United Kingdom","canonicalUrl":"https://foursquare.com/v/the-mucky-duck/4de135e7c65bcc724f5364aa","categoryId":"4bf58dd8d48988d11b941735","category":"Pub","checkinsCount":426,"usersCount":295,"tipCount":7,"visitsCount":456,"url":"http://www.themuckyduckbrighton.co.uk","tier":"","message":"","currency":"","rating":5.6},{"name":"Riki Tik","phone":"+441273683844","address":"18 Bond St","lat":50.824214,"lng":-0.140022,"neighborhood":"North Laine","city_fetched":"Brighton,UK","state":"Brighton and Hove","country":"United Kingdom","canonicalUrl":"https://foursquare.com/v/riki-tik/4b058845f964a52045bb22e3","categoryId":"4bf58dd8d48988d11e941735","category":"Cocktail Bar","checkinsCount":237,"usersCount":187,"tipCount":9,"visitsCount":237,"tier":"","message":"","currency":"","rating":5.6},{"name":"Park View","phone":"+441273541663","address":"71 Preston Drove","lat":50.844267849999994,"lng":-0.145061,"neighborhood":"Surrenden","city_fetched":"Brighton,UK","state":"Brighton and Hove","country":"United Kingdom","canonicalUrl":"https://foursquare.com/v/park-view/4b1f84aef964a520a92624e3","categoryId":"4bf58dd8d48988d11b941735","category":"Pub","checkinsCount":688,"usersCount":401,"tipCount":13,"visitsCount":901,"url":"https://www.theparkviewbrighton.co.uk","tier":"","message":"","currency":"","rating":5.6},{"name":"The Caroline of Brunswick","phone":"+441273624434","address":"39 Ditchling Rd","lat":50.83057233795922,"lng":-0.1342675967993951,"city_fetched":"Brighton,UK","state":"Brighton and Hove","country":"United Kingdom","canonicalUrl":"https://foursquare.com/v/the-caroline-of-brunswick/4be9c3ee62c0c928540ce0d4","categoryId":"4bf58dd8d48988d11b941735","category":"Pub","checkinsCount":616,"usersCount":239,"tipCount":8,"visitsCount":635,"tier":"","message":"","currency":"","rating":5.6},{"name":"The Royal Oak","address":"St James St","lat":50.8205391611088,"lng":-0.13207943792825833,"neighborhood":"Kemptown","city_fetched":"Brighton,UK","state":"Brighton and Hove","country":"United Kingdom","canonicalUrl":"https://foursquare.com/v/the-royal-oak/4b128119f964a5205b8a23e3","categoryId":"4bf58dd8d48988d11b941735","category":"Pub","checkinsCount":250,"usersCount":133,"tipCount":5,"visitsCount":250,"tier":"","message":"","currency":"","rating":5.6},{"name":"The Quadrant","address":"Queens Rd.","lat":50.823941,"lng":-0.143355,"neighborhood":"North Laine","city_fetched":"Brighton,UK","state":"Brighton and Hove","country":"United Kingdom","canonicalUrl":"https://foursquare.com/v/the-quadrant/4b217f12f964a520c53c24e3","categoryId":"4bf58dd8d48988d11b941735","category":"Pub","checkinsCount":515,"usersCount":338,"tipCount":5,"visitsCount":526,"tier":"","message":"","currency":"","rating":5.6},{"name":"The Gladstone","phone":"+448721486085","address":"123 Lewes Rd.","lat":50.83686151100306,"lng":-0.12496963503721426,"city_fetched":"Brighton,UK","state":"Brighton and Hove","country":"United Kingdom","canonicalUrl":"https://foursquare.com/v/the-gladstone/4cd711aa94848cfa9fbef0b1","categoryId":"4bf58dd8d48988d11b941735","category":"Pub","checkinsCount":613,"usersCount":127,"tipCount":6,"visitsCount":619,"tier":"","message":"","currency":"","rating":5.5},{"name":"Mistys Cocktail Bar","phone":"+441273220302","address":"116 Church Rd","lat":50.82794693263451,"lng":-0.17256208237486337,"neighborhood":"Central Hove","city_fetched":"Brighton,UK","state":"Brighton and Hove","country":"United Kingdom","canonicalUrl":"https://foursquare.com/v/mistys-cocktail-bar/4d2e20e590cb236a62de6178","categoryId":"4bf58dd8d48988d11e941735","category":"Cocktail Bar","checkinsCount":289,"usersCount":128,"tipCount":6,"visitsCount":289,"url":"http://www.mistysbar.co.uk","tier":"","message":"","currency":"","rating":5.5},{"name":"Pitcher And Piano","phone":"+441273749780","twitter":"pandpbrighton","address":"1- 5 King's Rd","lat":50.81970779561489,"lng":-0.13936102751029403,"neighborhood":"The Lanes","city_fetched":"Brighton,UK","state":"Brighton and Hove","country":"United Kingdom","canonicalUrl":"https://foursquare.com/v/pitcher-and-piano/4c6da359a437224b15a82db1","categoryId":"4bf58dd8d48988d116941735","category":"Bar","checkinsCount":626,"usersCount":538,"tipCount":7,"visitsCount":680,"url":"http://www.pitcherandpiano.com","tier":"","message":"","currency":"","rating":5.5},{"name":"Buddies Brighton","address":"46-48 Kings Road","lat":50.820394,"lng":-0.143139,"neighborhood":"The Lanes","city_fetched":"Brighton,UK","state":"Brighton and Hove","country":"United Kingdom","canonicalUrl":"https://foursquare.com/v/buddies-brighton/4b06ec72f964a5202ff322e3","categoryId":"4bf58dd8d48988d11b941735","category":"Pub","checkinsCount":535,"usersCount":409,"tipCount":14,"visitsCount":538,"tier":"","message":"","currency":"","rating":5.5},{"name":"Grand Central","phone":"+441273329086","address":"29-30 Surrey St","lat":50.8285475906215,"lng":-0.14217853546142578,"neighborhood":"Seven Dials","city_fetched":"Brighton,UK","state":"Brighton and Hove","country":"United Kingdom","canonicalUrl":"https://foursquare.com/v/grand-central/4ba50386f964a52079d038e3","categoryId":"4bf58dd8d48988d11b941735","category":"Pub","checkinsCount":549,"usersCount":381,"tipCount":7,"visitsCount":550,"tier":"","message":"","currency":"","rating":5.5},{"name":"The Blind Busker","phone":"+441273749110","address":"72 Church Rd.","lat":50.827315,"lng":-0.16732692718505374,"neighborhood":"Central Hove","city_fetched":"Brighton,UK","state":"Brighton and Hove","country":"United Kingdom","canonicalUrl":"https://foursquare.com/v/the-blind-busker/4b8d1f25f964a52004e932e3","categoryId":"4bf58dd8d48988d11b941735","category":"Pub","checkinsCount":410,"usersCount":245,"tipCount":8,"visitsCount":412,"tier":"","message":"","currency":"","rating":5.4},{"name":"The Sussex Arms","address":"33 East St","lat":50.82134317108743,"lng":-0.1392388221385836,"neighborhood":"The Lanes","city_fetched":"Brighton,UK","state":"Brighton and Hove","country":"United Kingdom","canonicalUrl":"https://foursquare.com/v/the-sussex-arms/4b058845f964a52070bb22e3","categoryId":"4bf58dd8d48988d11b941735","category":"Pub","checkinsCount":460,"usersCount":377,"tipCount":9,"visitsCount":463,"tier":"","message":"","currency":"","rating":5.4},{"name":"Victoria's Bar","address":"Brighton Pier","lat":50.816338,"lng":-0.136875,"neighborhood":"Central Brighton","city_fetched":"Brighton,UK","state":"Brighton and Hove","country":"United Kingdom","canonicalUrl":"https://foursquare.com/v/victorias-bar/4c39d02f93db0f4761f72392","categoryId":"4bf58dd8d48988d116941735","category":"Bar","checkinsCount":351,"usersCount":314,"tipCount":3,"visitsCount":351,"tier":"","message":"","currency":"","rating":5.4},{"name":"The Sportsman","address":"Withdean Rd","lat":50.85267527588391,"lng":-0.15884472000103628,"neighborhood":"Withdean","city_fetched":"Brighton,UK","state":"Brighton and Hove","country":"United Kingdom","canonicalUrl":"https://foursquare.com/v/the-sportsman/4ce2f23f18028cfae161b9f7","categoryId":"4bf58dd8d48988d116941735","category":"Bar","checkinsCount":212,"usersCount":85,"tipCount":6,"visitsCount":220,"tier":"","message":"","currency":"","rating":5.4},{"name":"The Railway Bell","phone":"+441273326730","address":"26-28 Surrey St","lat":50.82851144818983,"lng":-0.14173419004226362,"neighborhood":"North Laine","city_fetched":"Brighton,UK","state":"Brighton and Hove","country":"United Kingdom","canonicalUrl":"https://foursquare.com/v/the-railway-bell/4d458b7e2e326ea8772defa6","categoryId":"4bf58dd8d48988d11b941735","category":"Pub","checkinsCount":400,"usersCount":225,"tipCount":1,"visitsCount":401,"url":"http://www.railwaybellbrighton.com","tier":"","message":"","currency":"","rating":5.3},{"name":"Funkyfish Club & Bar","phone":"+441273698331","twitter":"funkyfishclub","address":"19-23 Marine Parade","lat":50.819818262156545,"lng":-0.13404607772827148,"neighborhood":"Kemptown","city_fetched":"Brighton,UK","state":"Brighton and Hove","country":"United Kingdom","canonicalUrl":"https://foursquare.com/v/funkyfish-club--bar/52a7421f11d2234ab9417aa0","categoryId":"4bf58dd8d48988d11f941735","category":"Nightclub","checkinsCount":140,"usersCount":110,"tipCount":7,"visitsCount":140,"url":"http://www.funkyfishclub.co.uk","tier":"","message":"","currency":"","rating":5.1}]