[{"name":"Small Bar","phone":"+447709449708","twitter":"smallbarbristol","address":"31 King St","lat":51.45176307617852,"lng":-2.5948851315450527,"neighborhood":"Old City","city_fetched":"Bristol,UK","country":"United Kingdom","canonicalUrl":"https://foursquare.com/v/small-bar/529f788f11d2b09b2b26b7cd","categoryId":"4bf58dd8d48988d11b941735","category":"Pub","checkinsCount":1823,"usersCount":754,"tipCount":33,"visitsCount":2250,"url":"http://www.smallbarbristol.com","tier":3,"message":"Expensive","currency":"£","rating":9.2},{"name":"Barley Mow","phone":"+441179304709","twitter":"barleymowbris","address":"39 Barton Rd","lat":51.453344,"lng":-2.577395,"city_fetched":"Bristol,UK","state":"Bristol","country":"United Kingdom","canonicalUrl":"https://foursquare.com/v/barley-mow/4b9bbc9ef964a5206b1f36e3","categoryId":"4bf58dd8d48988d11b941735","category":"Pub","checkinsCount":718,"usersCount":331,"tipCount":21,"visitsCount":969,"url":"http://www.barleymowbristol.com","tier":"","message":"","currency":"","rating":9.2},{"name":"BrewDog Bristol","phone":"+441179279258","twitter":"brewdog","address":"58 Baldwin St","lat":51.45355897296786,"lng":-2.5924408435821533,"neighborhood":"Old City","city_fetched":"Bristol,UK","state":"Bristol","country":"United Kingdom","canonicalUrl":"https://foursquare.com/v/brewdog-bristol/508add75e4b019412bc59629","categoryId":"56aa371ce4b08b9a8d57356c","category":"Beer Bar","checkinsCount":3217,"usersCount":1416,"tipCount":37,"visitsCount":3940,"url":"http://www.brewdog.com","tier":3,"message":"Expensive","currency":"£","rating":9},{"name":"The Grain Barge","phone":"+441179299347","twitter":"grainbarge","address":"Mardyke Wharf, Hotwells Rd","lat":51.4494270474678,"lng":-2.6123160123825073,"neighborhood":"Hotwells","city_fetched":"Bristol,UK","country":"United Kingdom","canonicalUrl":"https://foursquare.com/v/the-grain-barge/4b7ae84df964a5204a452fe3","categoryId":"4bf58dd8d48988d116941735","category":"Bar","checkinsCount":1308,"usersCount":914,"tipCount":18,"visitsCount":1604,"url":"http://www.grainbarge.co.uk","tier":2,"message":"Moderate","currency":"£","rating":9},{"name":"Bag O Nails","phone":"+441179406776","address":"141 St Georges Rd","lat":51.450937763310364,"lng":-2.6078892335579864,"neighborhood":"Hotwells","city_fetched":"Bristol,UK","state":"Bristol","country":"United Kingdom","canonicalUrl":"https://foursquare.com/v/bag-o-nails/4b058837f964a520fcb822e3","categoryId":"4bf58dd8d48988d11b941735","category":"Pub","checkinsCount":689,"usersCount":353,"tipCount":12,"visitsCount":944,"url":"http://www.bagonails.org.uk","tier":"","message":"","currency":"","rating":8.8},{"name":"The Old Bookshop","phone":"+441173738907","twitter":"theoldbookshop","address":"65 North St","lat":51.44085197611425,"lng":-2.604390837814443,"neighborhood":"Southville","city_fetched":"Bristol,UK","state":"Bristol","country":"United Kingdom","canonicalUrl":"https://foursquare.com/v/the-old-bookshop/4eca94340aaf9c3ccfeefc94","categoryId":"4bf58dd8d48988d116941735","category":"Bar","checkinsCount":408,"usersCount":229,"tipCount":6,"visitsCount":490,"url":"http://www.theoldbookshop.co.uk","tier":"","message":"","currency":"","rating":8.8},{"name":"The Canteen","phone":"+441179232017","twitter":"inthecanteen","address":"80 Stokes Croft","lat":51.462838,"lng":-2.589958,"city_fetched":"Bristol,UK","country":"United Kingdom","canonicalUrl":"https://foursquare.com/v/the-canteen/4b6459a8f964a52084ac2ae3","categoryId":"4bf58dd8d48988d116941735","category":"Bar","checkinsCount":1728,"usersCount":1033,"tipCount":23,"visitsCount":2050,"url":"http://www.canteenbristol.co.uk","tier":1,"message":"Cheap","currency":"£","rating":8.8},{"name":"Beerd","phone":"+441179743567","twitter":"beerdbristol","address":"157-159 St Michael's Hill","lat":51.4612512885275,"lng":-2.602234058319309,"city_fetched":"Bristol,UK","state":"Bristol","country":"United Kingdom","canonicalUrl":"https://foursquare.com/v/beerd/4ef374a8e300e92b9ee6c944","categoryId":"4bf58dd8d48988d116941735","category":"Bar","checkinsCount":578,"usersCount":411,"tipCount":11,"visitsCount":958,"url":"http://www.beerdbristol.com","tier":"","message":"","currency":"","rating":8.7},{"name":"Hillgrove Porter Stores","phone":"+441179444780","address":"53 Hillgrove Street North","lat":51.46301014375717,"lng":-2.5926827094337574,"city_fetched":"Bristol,UK","country":"United Kingdom","canonicalUrl":"https://foursquare.com/v/hillgrove-porter-stores/4c72d9048ffc9521e39d0864","categoryId":"4bf58dd8d48988d11b941735","category":"Pub","checkinsCount":380,"usersCount":176,"tipCount":5,"visitsCount":461,"tier":"","message":"","currency":"","rating":8.7},{"name":"The Volunteer Tavern","phone":"+441179558498","twitter":"volunteertavern","address":"9 New St","lat":51.45771073465814,"lng":-2.5820935673592293,"city_fetched":"Bristol,UK","state":"Bristol","country":"United Kingdom","canonicalUrl":"https://foursquare.com/v/the-volunteer-tavern/4ee1332177c8f9d38901adf1","categoryId":"4bf58dd8d48988d11b941735","category":"Pub","checkinsCount":552,"usersCount":267,"tipCount":4,"visitsCount":732,"url":"http://volunteertavern.co.uk","tier":"","message":"","currency":"","rating":8.6},{"name":"Red Light","address":"1 Unity St","lat":51.45321729663401,"lng":-2.600744983635977,"city_fetched":"Bristol,UK","state":"Bristol","country":"United Kingdom","canonicalUrl":"https://foursquare.com/v/red-light/526b06a511d22f623bb54546","categoryId":"4bf58dd8d48988d11e941735","category":"Cocktail Bar","checkinsCount":88,"usersCount":78,"tipCount":5,"visitsCount":88,"tier":"","message":"","currency":"","rating":8.6},{"name":"The Milk Thistle","phone":"+441179294429","twitter":"themilkthistle","address":"Quay Head House","lat":51.455052932348636,"lng":-2.5962746828001095,"neighborhood":"Broadmead","city_fetched":"Bristol,UK","country":"United Kingdom","canonicalUrl":"https://foursquare.com/v/the-milk-thistle/4e629c3a45ddda3529a84e3a","categoryId":"4bf58dd8d48988d11e941735","category":"Cocktail Bar","checkinsCount":471,"usersCount":335,"tipCount":19,"visitsCount":495,"tier":"","message":"","currency":"","rating":8.5},{"name":"Haus Bar","phone":"+441179466081","address":"52 Upper Belgrave Rd, Clifton","lat":51.470598,"lng":-2.616221,"city_fetched":"Bristol,UK","country":"United Kingdom","canonicalUrl":"https://foursquare.com/v/haus-bar/4bfe272f55539c74e5cbbcf3","categoryId":"4bf58dd8d48988d116941735","category":"Bar","checkinsCount":134,"usersCount":129,"tipCount":9,"visitsCount":158,"tier":"","message":"","currency":"","rating":8.5},{"name":"The Famous Royal Navy Volunteer","phone":"+441173169237","twitter":"tfrnv","address":"17-18 King St","lat":51.45167527447778,"lng":-2.5945643017792763,"neighborhood":"Old City","city_fetched":"Bristol,UK","state":"Bristol","country":"United Kingdom","canonicalUrl":"https://foursquare.com/v/the-famous-royal-navy-volunteer/4b058837f964a520edb822e3","categoryId":"4bf58dd8d48988d11b941735","category":"Pub","checkinsCount":1030,"usersCount":400,"tipCount":17,"visitsCount":1175,"url":"http://www.navyvolunteer.co.uk","tier":3,"message":"Expensive","currency":"£","rating":8.5},{"name":"BBB - Bristol Bear Bar","twitter":"bristolbearbar","address":"2 West St","lat":51.45646967435448,"lng":-2.579850817804582,"neighborhood":"Old Market, Bristol, Bristol","city_fetched":"Bristol,UK","state":"Bristol","country":"United Kingdom","canonicalUrl":"https://foursquare.com/v/bbb--bristol-bear-bar/4bb7b1157421a59324e4c040","categoryId":"4bf58dd8d48988d1d8941735","category":"Gay Bar","checkinsCount":636,"usersCount":137,"tipCount":5,"visitsCount":681,"url":"http://bristolbearbar.co.uk","tier":2,"message":"Moderate","currency":"£","rating":8.4},{"name":"Be at One","phone":"+441179294323","address":"55 Queens Road","lat":51.456475,"lng":-2.606703,"city_fetched":"Bristol,UK","state":"Bristol","country":"United Kingdom","canonicalUrl":"https://foursquare.com/v/be-at-one/5308fc4b11d229bd1fe429f1","categoryId":"4bf58dd8d48988d11e941735","category":"Cocktail Bar","checkinsCount":111,"usersCount":68,"tipCount":4,"visitsCount":115,"tier":"","message":"","currency":"","rating":8.4},{"name":"The Deco Lounge","phone":"+441173732688","twitter":"loungedeco","address":"50 Cotham Hill","lat":51.463634,"lng":-2.607338,"neighborhood":"Cotham","city_fetched":"Bristol,UK","state":"Bristol","country":"United Kingdom","canonicalUrl":"https://foursquare.com/v/the-deco-lounge/4b058838f964a52016b922e3","categoryId":"4bf58dd8d48988d121941735","category":"Lounge","checkinsCount":613,"usersCount":370,"tipCount":8,"visitsCount":758,"url":"http://www.thelounges.co.uk","tier":"","message":"","currency":"","rating":8.4},{"name":"The Gloucester Old Spot","phone":"+441179247693","twitter":"oldspotbristol","address":"138-140, Kellaway Avenue","lat":51.48386817769606,"lng":-2.59808134074426,"neighborhood":"Bishopston","city_fetched":"Bristol,UK","state":"Bristol","country":"United Kingdom","canonicalUrl":"https://foursquare.com/v/the-gloucester-old-spot/4ba6281cf964a520c53739e3","categoryId":"4bf58dd8d48988d11b941735","category":"Pub","checkinsCount":52,"usersCount":87,"tipCount":4,"visitsCount":130,"url":"http://www.theoldspotbristol.co.uk","tier":"","message":"","currency":"","rating":8.4},{"name":"The Green Man","phone":"+441179258062","twitter":"greenmanbs2","address":"21 Alfred Pl","lat":51.461147,"lng":-2.599010225,"neighborhood":"Kingsdown, Bristol, Bristol","city_fetched":"Bristol,UK","state":"Bristol","country":"United Kingdom","canonicalUrl":"https://foursquare.com/v/the-green-man/4b2e69d2f964a520bedf24e3","categoryId":"4bf58dd8d48988d11b941735","category":"Pub","checkinsCount":180,"usersCount":96,"tipCount":5,"visitsCount":212,"url":"http://www.dawkinsales.com/page31.html","tier":"","message":"","currency":"","rating":8.4},{"name":"The Crofter's Rights","twitter":"crofters_rights","address":"117-119 Stokes Croft","lat":51.46391388729227,"lng":-2.589855194091797,"city_fetched":"Bristol,UK","country":"United Kingdom","canonicalUrl":"https://foursquare.com/v/the-crofters-rights/51f3c96b2fc653cf5902ec13","categoryId":"4bf58dd8d48988d11b941735","category":"Pub","checkinsCount":412,"usersCount":244,"tipCount":12,"visitsCount":484,"url":"http://www.croftersrights.co.uk","tier":2,"message":"Moderate","currency":"£","rating":8.3},{"name":"The Old Market Assembly","twitter":"omabristol","address":"25 West Street, Old Market","lat":51.45682577996268,"lng":-2.5790629403318883,"city_fetched":"Bristol,UK","state":"Bristol","country":"United Kingdom","canonicalUrl":"https://foursquare.com/v/the-old-market-assembly/5658dfd7498ea630649e7086","categoryId":"4bf58dd8d48988d116941735","category":"Bar","checkinsCount":151,"usersCount":103,"tipCount":3,"visitsCount":226,"url":"http://www.oldmarketassembly.co.uk","tier":"","message":"","currency":"","rating":8.3},{"name":"The Beer Emporium","phone":"+441173790333","address":"15 King St","lat":51.451951531704566,"lng":-2.5942669699316006,"neighborhood":"Old City","city_fetched":"Bristol,UK","state":"Bristol","country":"United Kingdom","canonicalUrl":"https://foursquare.com/v/the-beer-emporium/51df1e1b498ea66bb8c31d2f","categoryId":"4bf58dd8d48988d11b941735","category":"Pub","checkinsCount":1400,"usersCount":536,"tipCount":26,"visitsCount":1472,"url":"http://thebeeremporium.net","tier":3,"message":"Expensive","currency":"£","rating":8.3},{"name":"Rose of Denmark","phone":"+448721077077","address":"6 Dowry Place","lat":51.44951396884501,"lng":-2.6210975646972656,"neighborhood":"Hotwells","city_fetched":"Bristol,UK","country":"United Kingdom","canonicalUrl":"https://foursquare.com/v/rose-of-denmark/4bdd6a2a89ca76b068755d5e","categoryId":"4bf58dd8d48988d11b941735","category":"Pub","checkinsCount":152,"usersCount":123,"tipCount":4,"visitsCount":185,"tier":"","message":"","currency":"","rating":8.3},{"name":"Cosy Club","twitter":"cosyclubbristol","address":"32 Corn Street","lat":51.45413577876983,"lng":-2.5953303948374162,"neighborhood":"Broadmead","city_fetched":"Bristol,UK","state":"Bristol","country":"United Kingdom","canonicalUrl":"https://foursquare.com/v/cosy-club/5399e2f0498e67ef85fcc74e","categoryId":"4bf58dd8d48988d121941735","category":"Lounge","checkinsCount":363,"usersCount":248,"tipCount":13,"visitsCount":437,"url":"http://www.cosyclub.co.uk/bristol","tier":"","message":"","currency":"","rating":8.2},{"name":"The Spotted Cow","phone":"+441179634433","address":"139 North Street","lat":51.44001365777441,"lng":-2.6080124471413173,"neighborhood":"Bedminster","city_fetched":"Bristol,UK","state":"Bristol","country":"United Kingdom","canonicalUrl":"https://foursquare.com/v/the-spotted-cow/4bbf70bdb083a5937471a3e9","categoryId":"4bf58dd8d48988d11b941735","category":"Pub","checkinsCount":809,"usersCount":412,"tipCount":22,"visitsCount":1019,"tier":"","message":"","currency":"","rating":8.2},{"name":"The Cornubia","phone":"+441179254415","address":"142 Temple St","lat":51.45263319550696,"lng":-2.5876267141658786,"city_fetched":"Bristol,UK","state":"Bristol","country":"United Kingdom","canonicalUrl":"https://foursquare.com/v/the-cornubia/4c36e0d1c44a95210f913d52","categoryId":"4bf58dd8d48988d11b941735","category":"Pub","checkinsCount":617,"usersCount":281,"tipCount":9,"visitsCount":728,"url":"http://thecornubia.co.uk","tier":"","message":"","currency":"","rating":8.1},{"name":"Hyde & Co","phone":"+441179297007","twitter":"hydeandco","address":"2 The Basement","lat":51.45574513177949,"lng":-2.606678009033203,"city_fetched":"Bristol,UK","state":"Bristol","country":"United Kingdom","canonicalUrl":"https://foursquare.com/v/hyde--co/4bc8dc14937ca593809ba492","categoryId":"4bf58dd8d48988d11e941735","category":"Cocktail Bar","checkinsCount":216,"usersCount":159,"tipCount":5,"visitsCount":217,"tier":"","message":"","currency":"","rating":8.1},{"name":"The Urban Standard","address":"Gloucester Road","lat":51.471356989710706,"lng":-2.5929245476830465,"city_fetched":"Bristol,UK","state":"Bristol","country":"United Kingdom","canonicalUrl":"https://foursquare.com/v/the-urban-standard/52ed1fee498eb4e8bcaf47c3","categoryId":"4bf58dd8d48988d116941735","category":"Bar","checkinsCount":179,"usersCount":102,"tipCount":6,"visitsCount":199,"url":"http://www.theurbanstandard.co.uk","tier":"","message":"","currency":"","rating":8},{"name":"The Mardyke","phone":"+441179077499","address":"128 Hotwell Rd.","lat":51.44964769371756,"lng":-2.6131367683410645,"neighborhood":"Clifton","city_fetched":"Bristol,UK","state":"Bristol","country":"United Kingdom","canonicalUrl":"https://foursquare.com/v/the-mardyke/4bcb8757b6c49c741b6f9291","categoryId":"4bf58dd8d48988d11b941735","category":"Pub","checkinsCount":1630,"usersCount":101,"tipCount":4,"visitsCount":1677,"tier":"","message":"","currency":"","rating":8},{"name":"Yia Mass","phone":"+441179298676","address":"67 Park St.","lat":51.45496070749214,"lng":-2.6032898018055235,"city_fetched":"Bristol,UK","country":"United Kingdom","canonicalUrl":"https://foursquare.com/v/yia-mass/4c0ab822340720a1f7f68693","categoryId":"4bf58dd8d48988d11f941735","category":"Nightclub","checkinsCount":344,"usersCount":167,"tipCount":3,"visitsCount":354,"tier":"","message":"","currency":"","rating":8},{"name":"The Christmas Steps","phone":"+441179253077","address":"2 Christmas Steps","lat":51.456056704530475,"lng":-2.5963503408924082,"neighborhood":"Broadmead","city_fetched":"Bristol,UK","state":"Bristol","country":"United Kingdom","canonicalUrl":"https://foursquare.com/v/the-christmas-steps/53889b47498e382b6f937679","categoryId":"4bf58dd8d48988d116941735","category":"Bar","checkinsCount":172,"usersCount":148,"tipCount":2,"visitsCount":226,"url":"http://www.thechristmassteps.com","tier":"","message":"","currency":"","rating":8},{"name":"The Portcullis","phone":"+441179085536","address":"Wellington terrace","lat":51.45293891429901,"lng":-2.6238655,"neighborhood":"Clifton Village","city_fetched":"Bristol,UK","state":"Bristol","country":"United Kingdom","canonicalUrl":"https://foursquare.com/v/the-portcullis/4b6b288df964a52088f62be3","categoryId":"4bf58dd8d48988d11b941735","category":"Pub","checkinsCount":267,"usersCount":123,"tipCount":3,"visitsCount":277,"tier":"","message":"","currency":"","rating":8},{"name":"Pranj's Bar","twitter":"pranjsbar_bs1","address":"41 Corn Street","lat":51.4543133371046,"lng":-2.594577278206735,"neighborhood":"Broadmead","city_fetched":"Bristol,UK","country":"United Kingdom","canonicalUrl":"https://foursquare.com/pranjsbar_bs1","categoryId":"4bf58dd8d48988d11d941735","category":"Sports Bar","checkinsCount":186,"usersCount":96,"tipCount":5,"visitsCount":190,"url":"http://www.pranjsbar.co.uk","tier":"","message":"","currency":"","rating":7.9},{"name":"Moor Beer Company","phone":"+441179414460","twitter":"drinkmoorbeer","address":"Days Road","lat":51.45251681614599,"lng":-2.5738017485688274,"city_fetched":"Bristol,UK","state":"Bristol","country":"United Kingdom","canonicalUrl":"https://foursquare.com/v/moor-beer-company/5478bc1c498e625c55d72080","categoryId":"50327c8591d4c4b30a586d5d","category":"Brewery","checkinsCount":173,"usersCount":123,"tipCount":1,"visitsCount":242,"url":"http://moorbeer.co.uk","tier":"","message":"","currency":"","rating":7.9},{"name":"The Windmill","phone":"+441179635440","address":"14 Windmill Hill","lat":51.439547,"lng":-2.594421,"city_fetched":"Bristol,UK","state":"Bristol","country":"United Kingdom","canonicalUrl":"https://foursquare.com/v/the-windmill/4b82cd42f964a520e3e530e3","categoryId":"4bf58dd8d48988d11b941735","category":"Pub","checkinsCount":426,"usersCount":164,"tipCount":14,"visitsCount":545,"url":"http://www.barwarsltd.com/the-windmill/","tier":"","message":"","currency":"","rating":7.9},{"name":"Queenshilling","phone":"+441179277070","twitter":"queenshilling","address":"9 Frogmore St","lat":51.45373967101062,"lng":-2.6008232460489324,"city_fetched":"Bristol,UK","country":"United Kingdom","canonicalUrl":"https://foursquare.com/v/queenshilling/4b058838f964a5203cb922e3","categoryId":"4bf58dd8d48988d1d8941735","category":"Gay Bar","checkinsCount":253,"usersCount":160,"tipCount":3,"visitsCount":254,"url":"http://www.queenshilling.com","tier":"","message":"","currency":"","rating":7.9},{"name":"The Victoria Park","phone":"+441173306043","address":"Raymend Road","lat":51.43827942267332,"lng":-2.589870147858101,"city_fetched":"Bristol,UK","state":"Bristol","country":"United Kingdom","canonicalUrl":"https://foursquare.com/v/the-victoria-park/4c8e674bd68c6dcbc705fca1","categoryId":"4bf58dd8d48988d11b941735","category":"Pub","checkinsCount":484,"usersCount":212,"tipCount":9,"visitsCount":644,"url":"http://www.thevictoriapark.co.uk","tier":"","message":"","currency":"","rating":7.9},{"name":"The Bell","phone":"+441179096612","twitter":"bellstokescroft","address":"18 Hillgrove St","lat":51.462468,"lng":-2.591086,"neighborhood":"Stokes Croft","city_fetched":"Bristol,UK","state":"Bristol","country":"United Kingdom","canonicalUrl":"https://foursquare.com/v/the-bell/4d769d5d0dbb6dcb56d2ed6f","categoryId":"4bf58dd8d48988d11b941735","category":"Pub","checkinsCount":331,"usersCount":147,"tipCount":6,"visitsCount":367,"url":"http://www.bell.butcombe.com","tier":"","message":"","currency":"","rating":7.9},{"name":"The Cottage Inn","phone":"+441179215256","twitter":"cottagebristol","address":"Baltic Wharf","lat":51.447013,"lng":-2.615895,"city_fetched":"Bristol,UK","country":"United Kingdom","canonicalUrl":"https://foursquare.com/v/the-cottage-inn/4b058836f964a520cbb822e3","categoryId":"4bf58dd8d48988d11b941735","category":"Pub","checkinsCount":689,"usersCount":529,"tipCount":11,"visitsCount":926,"url":"http://www.cottage.butcombe.com","tier":"","message":"","currency":"","rating":7.9},{"name":"The Annexe Inn","phone":"+441179493931","address":"Seymour Rd","lat":51.47937169455247,"lng":-2.5865641236305237,"neighborhood":"Bishopston","city_fetched":"Bristol,UK","state":"Bristol","country":"United Kingdom","canonicalUrl":"https://foursquare.com/v/the-annexe-inn/4c40b565cc410f474d0eaa61","categoryId":"4bf58dd8d48988d116941735","category":"Bar","checkinsCount":138,"usersCount":45,"tipCount":3,"visitsCount":158,"url":"http://the-annexe.co.uk","tier":"","message":"","currency":"","rating":7.9},{"name":"Kongs of King Street","phone":"+441179257877","twitter":"kongsbristol","address":"13-15 King Street","lat":51.45188909343393,"lng":-2.594343603988707,"neighborhood":"Old City","city_fetched":"Bristol,UK","state":"Bristol","country":"United Kingdom","canonicalUrl":"https://foursquare.com/v/kongs-of-king-street/541b3e88498ebd85fa61f1c9","categoryId":"4bf58dd8d48988d116941735","category":"Bar","checkinsCount":359,"usersCount":227,"tipCount":8,"visitsCount":443,"url":"http://www.kongs-bristol.com","tier":"","message":"","currency":"","rating":7.9},{"name":"Hope and Anchor","address":"38 Jacob's Wells Rd.","lat":51.45320068474537,"lng":-2.6098873282130954,"city_fetched":"Bristol,UK","country":"United Kingdom","canonicalUrl":"https://foursquare.com/v/hope-and-anchor/4b058836f964a520a3b822e3","categoryId":"4bf58dd8d48988d117941735","category":"Beer Garden","checkinsCount":352,"usersCount":310,"tipCount":13,"visitsCount":519,"tier":"","message":"","currency":"","rating":7.9},{"name":"Nettle & Rye","address":"16 King's Rd","lat":51.45553321623287,"lng":-2.6190010428773576,"neighborhood":"Clifton Village","city_fetched":"Bristol,UK","state":"Bristol","country":"United Kingdom","canonicalUrl":"https://foursquare.com/v/nettle--rye/56324647498e6bc227576430","categoryId":"4bf58dd8d48988d11b941735","category":"Pub","checkinsCount":73,"usersCount":57,"tipCount":0,"visitsCount":83,"tier":"","message":"","currency":"","rating":7.8},{"name":"The Apple","phone":"+441179253500","twitter":"appleciderco","address":"Welsh Back","lat":51.45197331905365,"lng":-2.592376470565796,"neighborhood":"Old City","city_fetched":"Bristol,UK","state":"Bristol","country":"United Kingdom","canonicalUrl":"https://foursquare.com/v/the-apple/4b058838f964a52027b922e3","categoryId":"4bf58dd8d48988d116941735","category":"Bar","checkinsCount":1952,"usersCount":1307,"tipCount":33,"visitsCount":2163,"url":"http://www.applecider.co.uk","tier":"","message":"","currency":"","rating":7.8},{"name":"No.1 Harbourside","phone":"+441179291100","twitter":"no1harbourside","address":"1 Canons Rd","lat":51.45212618448778,"lng":-2.597522652844545,"neighborhood":"Harbourside","city_fetched":"Bristol,UK","state":"Bristol","country":"United Kingdom","canonicalUrl":"https://foursquare.com/v/no1-harbourside/4e593b5962e1de72f6ef0d38","categoryId":"4bf58dd8d48988d116941735","category":"Bar","checkinsCount":1956,"usersCount":1036,"tipCount":25,"visitsCount":2052,"url":"http://no1harbourside.co.uk","tier":2,"message":"Moderate","currency":"£","rating":7.8},{"name":"The Kings Arms","phone":"+441179735922","twitter":"kingsarmsx","address":"168 Whiteladies Rd","lat":51.4700227863687,"lng":-2.615175247192383,"city_fetched":"Bristol,UK","state":"Bristol","country":"United Kingdom","canonicalUrl":"https://foursquare.com/v/the-kings-arms/4bac9090f964a52075fb3ae3","categoryId":"4bf58dd8d48988d11b941735","category":"Pub","checkinsCount":329,"usersCount":254,"tipCount":7,"visitsCount":412,"tier":2,"message":"Moderate","currency":"£","rating":7.7},{"name":"Hare on the Hill","address":"41 Thomas St. North","lat":51.463732,"lng":-2.591603994369507,"city_fetched":"Bristol,UK","state":"Bristol","country":"United Kingdom","canonicalUrl":"https://foursquare.com/v/hare-on-the-hill/4b058836f964a520b8b822e3","categoryId":"4bf58dd8d48988d11b941735","category":"Pub","checkinsCount":176,"usersCount":105,"tipCount":3,"visitsCount":196,"tier":"","message":"","currency":"","rating":7.7},{"name":"The Full Moon","phone":"+441179245007","twitter":"fmbackpackers","address":"1 North St","lat":51.46036255893158,"lng":-2.590448287308634,"neighborhood":"Stokes Croft","city_fetched":"Bristol,UK","state":"Bristol","country":"United Kingdom","canonicalUrl":"https://foursquare.com/v/the-full-moon/4e3d8eab18a83d5b2845d860","categoryId":"4bf58dd8d48988d11b941735","category":"Pub","checkinsCount":172,"usersCount":177,"tipCount":0,"visitsCount":260,"url":"http://www.fmbristol.co.uk","tier":"","message":"","currency":"","rating":7.7},{"name":"Nova","lat":51.45333658977812,"lng":-2.5939564995488205,"neighborhood":"Old City","city_fetched":"Bristol,UK","state":"Bristol","country":"United Kingdom","canonicalUrl":"https://foursquare.com/v/nova/53ea892e498eef14e3b8908d","categoryId":"4bf58dd8d48988d119941735","category":"Hookah Bar","checkinsCount":150,"usersCount":93,"tipCount":0,"visitsCount":168,"tier":"","message":"","currency":"","rating":7.7},{"name":"Seven Stars","phone":"+441179272845","twitter":"7starsbristol","address":"1 Thomas Ln","lat":51.45236522188773,"lng":-2.5898323709543485,"neighborhood":"Redcliffe, Bristol, Bristol","city_fetched":"Bristol,UK","state":"Bristol","country":"United Kingdom","canonicalUrl":"https://foursquare.com/v/seven-stars/4b9fe02cf964a5209d4637e3","categoryId":"4bf58dd8d48988d11b941735","category":"Pub","checkinsCount":3052,"usersCount":359,"tipCount":8,"visitsCount":3337,"url":"http://www.7stars.co.uk","tier":"","message":"","currency":"","rating":7.7},{"name":"The Tinto Lounge","phone":"+441179420526","twitter":"tintolounge","address":"344-346 Gloucester Rd","lat":51.482971,"lng":-2.5872664199999997,"neighborhood":"Bishopston","city_fetched":"Bristol,UK","state":"Bristol","country":"United Kingdom","canonicalUrl":"https://foursquare.com/v/the-tinto-lounge/4b058837f964a52002b922e3","categoryId":"4bf58dd8d48988d121941735","category":"Lounge","checkinsCount":491,"usersCount":309,"tipCount":13,"visitsCount":599,"url":"http://www.thelounges.co.uk","tier":"","message":"","currency":"","rating":7.7},{"name":"The Victoria","phone":"+441179745675","twitter":"victoriabs8","address":"2 Southleigh Road","lat":51.45969763534692,"lng":-2.611019412926113,"city_fetched":"Bristol,UK","state":"Bristol","country":"United Kingdom","canonicalUrl":"https://foursquare.com/v/the-victoria/4b058836f964a520b0b822e3","categoryId":"4bf58dd8d48988d11b941735","category":"Pub","checkinsCount":213,"usersCount":80,"tipCount":6,"visitsCount":215,"tier":"","message":"","currency":"","rating":7.7},{"name":"Rileys Sports Bar and Bingo Club","phone":"+441179294295","twitter":"rileysbristol","address":"15-19 Queen's Rd.","lat":51.456045049788564,"lng":-2.605106114767076,"city_fetched":"Bristol,UK","state":"Bristol","country":"United Kingdom","canonicalUrl":"https://foursquare.com/rileysbristol","categoryId":"4bf58dd8d48988d11d941735","category":"Sports Bar","checkinsCount":245,"usersCount":152,"tipCount":4,"visitsCount":249,"url":"http://www.rileys.co.uk","tier":"","message":"","currency":"","rating":7.6},{"name":"The Hare","lat":51.4409509353828,"lng":-2.603830744037684,"neighborhood":"Southville","city_fetched":"Bristol,UK","country":"United Kingdom","canonicalUrl":"https://foursquare.com/v/the-hare/4f84a8afe4b00286096845bb","categoryId":"4bf58dd8d48988d117941735","category":"Beer Garden","checkinsCount":224,"usersCount":77,"tipCount":3,"visitsCount":235,"tier":"","message":"","currency":"","rating":7.6},{"name":"Shore Bar","phone":"+441179230333","address":"Narrow Quay","lat":51.450072267592084,"lng":-2.597247362136841,"neighborhood":"Old City","city_fetched":"Bristol,UK","country":"United Kingdom","canonicalUrl":"https://foursquare.com/v/shore-bar/4bf6c308b1a7a593c2a8d65b","categoryId":"4bf58dd8d48988d116941735","category":"Bar","checkinsCount":201,"usersCount":117,"tipCount":2,"visitsCount":204,"tier":"","message":"","currency":"","rating":7.6},{"name":"The Woods","phone":"+441179250890","address":"1 Park Street Ave","lat":51.455431,"lng":-2.603294,"city_fetched":"Bristol,UK","state":"Bristol","country":"United Kingdom","canonicalUrl":"https://foursquare.com/v/the-woods/4b4e4734f964a520dbe726e3","categoryId":"4bf58dd8d48988d11e941735","category":"Cocktail Bar","checkinsCount":575,"usersCount":347,"tipCount":7,"visitsCount":582,"tier":"","message":"","currency":"","rating":7.6},{"name":"The Shakespeare Tavern","phone":"+441179297695","twitter":"shakespearestav","address":"68 Prince St","lat":51.44967443864507,"lng":-2.59702205657959,"neighborhood":"Old City","city_fetched":"Bristol,UK","country":"United Kingdom","canonicalUrl":"https://foursquare.com/v/the-shakespeare-tavern/4baa5023f964a520e65d3ae3","categoryId":"4bf58dd8d48988d11b941735","category":"Pub","checkinsCount":496,"usersCount":302,"tipCount":8,"visitsCount":500,"url":"http://gkpubs.co.uk/pubs-in-bristol/shakespeare-pub/","tier":"","message":"","currency":"","rating":7.6},{"name":"Three Tuns","phone":"+441179070689","twitter":"arborales","address":"78 Saint George's Rd","lat":51.45126039485661,"lng":-2.605017506082269,"city_fetched":"Bristol,UK","state":"Bristol","country":"United Kingdom","canonicalUrl":"https://foursquare.com/v/three-tuns/4bba47703db7b713e21d239a","categoryId":"4bf58dd8d48988d11b941735","category":"Pub","checkinsCount":807,"usersCount":332,"tipCount":16,"visitsCount":908,"url":"http://www.arborales.co.uk","tier":"","message":"","currency":"","rating":7.6},{"name":"Yurt Lush","twitter":"yurtlush","lat":51.451237291707116,"lng":-2.5817077360791245,"city_fetched":"Bristol,UK","country":"United Kingdom","canonicalUrl":"https://foursquare.com/v/yurt-lush/51e02a94498ed1df5dbe77ac","categoryId":"4bf58dd8d48988d121941735","category":"Lounge","checkinsCount":244,"usersCount":156,"tipCount":5,"visitsCount":247,"tier":"","message":"","currency":"","rating":7.6},{"name":"Beese's Riverside Bar & Tea Gardens","phone":"+441179777412","twitter":"beeses","address":"Wyndham Crescent","lat":51.4444137442144,"lng":-2.535545825958252,"city_fetched":"Bristol,UK","state":"Bristol","country":"United Kingdom","canonicalUrl":"https://foursquare.com/v/beeses-riverside-bar--tea-gardens/4bd1d1319854d13a4144fa4d","categoryId":"4bf58dd8d48988d116941735","category":"Bar","checkinsCount":258,"usersCount":185,"tipCount":4,"visitsCount":353,"url":"http://www.beeses.co.uk","tier":"","message":"","currency":"","rating":7.6},{"name":"The Love Inn","phone":"+441179232565","address":"68 Stokes Croft","lat":51.46314351054583,"lng":-2.589993470245706,"city_fetched":"Bristol,UK","state":"Bristol","country":"United Kingdom","canonicalUrl":"https://foursquare.com/v/the-love-inn/52f575eb498ed7e06d19256b","categoryId":"4bf58dd8d48988d123941735","category":"Wine Bar","checkinsCount":104,"usersCount":75,"tipCount":4,"visitsCount":106,"url":"http://www.theloveinn.com","tier":"","message":"","currency":"","rating":7.6},{"name":"The Lounge","phone":"+441179637340","twitter":"originallounge","address":"227-231 North St","lat":51.441298,"lng":-2.612088,"neighborhood":"Southville","city_fetched":"Bristol,UK","state":"Bristol","country":"United Kingdom","canonicalUrl":"https://foursquare.com/v/the-lounge/4b659450f964a52028f52ae3","categoryId":"4bf58dd8d48988d121941735","category":"Lounge","checkinsCount":793,"usersCount":363,"tipCount":16,"visitsCount":879,"url":"http://thelounges.co.uk/lounges/lounge","tier":"","message":"","currency":"","rating":7.6},{"name":"Quinton House","phone":"+441179093857","address":"2 Park Pl","lat":51.45694147,"lng":-2.60901753,"city_fetched":"Bristol,UK","state":"Bristol","country":"United Kingdom","canonicalUrl":"https://foursquare.com/v/quinton-house/4cd44f3694848cfadcd9deb1","categoryId":"4bf58dd8d48988d11b941735","category":"Pub","checkinsCount":253,"usersCount":70,"tipCount":2,"visitsCount":266,"url":"http://quintonhousebristol.co.uk","tier":"","message":"","currency":"","rating":7.5},{"name":"The Kensington Arms","address":"Stanley Rd","lat":51.467201,"lng":-2.603288,"neighborhood":"Cotham","city_fetched":"Bristol,UK","country":"United Kingdom","canonicalUrl":"https://foursquare.com/v/the-kensington-arms/4b4e730df964a52021ee26e3","categoryId":"4bf58dd8d48988d11b941735","category":"Pub","checkinsCount":404,"usersCount":188,"tipCount":8,"visitsCount":475,"tier":"","message":"","currency":"","rating":7.5},{"name":"The Lazy Dog","phone":"+441179244809","address":"112 Ashley Down Rd","lat":51.48154325386849,"lng":-2.5831174850463867,"neighborhood":"Bishopston","city_fetched":"Bristol,UK","state":"Bristol","country":"United Kingdom","canonicalUrl":"https://foursquare.com/v/the-lazy-dog/4bdb18e5a6fdef3bbb121547","categoryId":"4bf58dd8d48988d11b941735","category":"Pub","checkinsCount":379,"usersCount":199,"tipCount":7,"visitsCount":479,"url":"http://www.barwarsltd.com/the-lazy-dog","tier":"","message":"","currency":"","rating":7.5},{"name":"The Mall","address":"The Mall","lat":51.4564609,"lng":-2.62165,"neighborhood":"Clifton Village","city_fetched":"Bristol,UK","country":"United Kingdom","canonicalUrl":"https://foursquare.com/v/the-mall/4b058837f964a520f5b822e3","categoryId":"4bf58dd8d48988d11b941735","category":"Pub","checkinsCount":571,"usersCount":498,"tipCount":15,"visitsCount":714,"tier":"","message":"","currency":"","rating":7.5},{"name":"Brigstow Bar & Kitchen","phone":"+441173250898","twitter":"brigstowbar","address":"Millenium Promenade","lat":51.449443,"lng":-2.605993,"neighborhood":"Harbourside","city_fetched":"Bristol,UK","state":"Bristol","country":"United Kingdom","canonicalUrl":"https://foursquare.com/v/brigstow-bar--kitchen/54033eb1498ede8bd372383a","categoryId":"4bf58dd8d48988d116941735","category":"Bar","checkinsCount":80,"usersCount":55,"tipCount":4,"visitsCount":101,"url":"http://brigstowbarandkitchen.co.uk","tier":"","message":"","currency":"","rating":7.5},{"name":"King Street Brew House","phone":"+441174058948","twitter":"kingstbrew","address":"Welsh Back","lat":51.45209312104295,"lng":-2.5928653582516477,"neighborhood":"Old City","city_fetched":"Bristol,UK","state":"Bristol","country":"United Kingdom","canonicalUrl":"https://foursquare.com/v/king-street-brew-house/56e1897f498e6ba95ca5225f","categoryId":"50327c8591d4c4b30a586d5d","category":"Brewery","checkinsCount":190,"usersCount":166,"tipCount":4,"visitsCount":241,"url":"http://www.kingstreetbrewhouse.co.uk","tier":"","message":"","currency":"","rating":7.5},{"name":"The Pipe & Slippers","phone":"+441179427711","twitter":"thepipeslippers","address":"118 Cheltenham Rd","lat":51.464642,"lng":-2.589846,"neighborhood":"Montpelier","city_fetched":"Bristol,UK","state":"Bristol","country":"United Kingdom","canonicalUrl":"https://foursquare.com/v/the-pipe--slippers/4b4c4b61f964a52099b026e3","categoryId":"4bf58dd8d48988d11b941735","category":"Pub","checkinsCount":385,"usersCount":218,"tipCount":11,"visitsCount":391,"url":"http://www.barwarsltd.com/the-pipe-and-slippers","tier":"","message":"","currency":"","rating":7.5},{"name":"The Golden Guinea","phone":"+441179872034","address":"19 Guinea St","lat":51.4473937,"lng":-2.592735,"city_fetched":"Bristol,UK","state":"Bristol","country":"United Kingdom","canonicalUrl":"https://foursquare.com/v/the-golden-guinea/4c20fe21132f0f471094a796","categoryId":"4bf58dd8d48988d11b941735","category":"Pub","checkinsCount":315,"usersCount":139,"tipCount":4,"visitsCount":319,"url":"http://www.thegoldenguinea.co.uk","tier":"","message":"","currency":"","rating":7.5},{"name":"The Greenbank","address":"Easton","lat":51.467837,"lng":-2.561265,"neighborhood":"Easton","city_fetched":"Bristol,UK","state":"Bristol","country":"United Kingdom","canonicalUrl":"https://foursquare.com/v/the-greenbank/4bf9a5b35317a59302a4017f","categoryId":"4bf58dd8d48988d11b941735","category":"Pub","checkinsCount":111,"usersCount":123,"tipCount":3,"visitsCount":273,"tier":"","message":"","currency":"","rating":7.5},{"name":"Llandoger Trow (Brewers Fayre)","phone":"+441179261650","twitter":"brewersfayre","address":"King St","lat":51.45194101432549,"lng":-2.593095302581787,"neighborhood":"Old City","city_fetched":"Bristol,UK","state":"Bristol","country":"United Kingdom","canonicalUrl":"https://foursquare.com/v/llandoger-trow-brewers-fayre/4b058836f964a520c0b822e3","categoryId":"4bf58dd8d48988d11b941735","category":"Pub","checkinsCount":722,"usersCount":522,"tipCount":7,"visitsCount":729,"url":"http://www.brewersfayre.co.uk/pub-restaurant/Bristol/Llandoger-Trow-Bristol.html","tier":"","message":"","currency":"","rating":7.4},{"name":"The Gallimaufry","phone":"+441179427319","address":"26-28 The Promenade, Gloucester Rd.","lat":51.471587,"lng":-2.592574,"city_fetched":"Bristol,UK","country":"United Kingdom","canonicalUrl":"https://foursquare.com/v/the-gallimaufry/4f7dd633e4b01995c022956e","categoryId":"4bf58dd8d48988d116941735","category":"Bar","checkinsCount":476,"usersCount":331,"tipCount":6,"visitsCount":656,"tier":"","message":"","currency":"","rating":7.4},{"name":"Highbury Vaults","phone":"+441179733203","twitter":"youngspubs","address":"164 St Michael's Hill","lat":51.46150588989258,"lng":-2.602184,"city_fetched":"Bristol,UK","country":"United Kingdom","canonicalUrl":"https://foursquare.com/v/highbury-vaults/4b058836f964a5209db822e3","categoryId":"4bf58dd8d48988d11b941735","category":"Pub","checkinsCount":518,"usersCount":263,"tipCount":6,"visitsCount":577,"url":"http://www.youngs.co.uk/pubs/highbury-vaults","tier":"","message":"","currency":"","rating":7.4},{"name":"The Clifton","phone":"+441179741967","twitter":"the_clifton1","address":"16 Regent St","lat":51.45411020649449,"lng":-2.618062202333551,"neighborhood":"Clifton Village","city_fetched":"Bristol,UK","state":"Bristol","country":"United Kingdom","canonicalUrl":"https://foursquare.com/v/the-clifton/4be6748f910020a1e25dd414","categoryId":"4bf58dd8d48988d116941735","category":"Bar","checkinsCount":367,"usersCount":262,"tipCount":6,"visitsCount":372,"url":"http://www.thecliftonbristol.co.uk","tier":"","message":"","currency":"","rating":7.4},{"name":"The Lansdown","phone":"+441179734949","address":"8 Clifton Rd.","lat":51.454585308783656,"lng":-2.6137422667948544,"neighborhood":"Clifton Village","city_fetched":"Bristol,UK","country":"United Kingdom","canonicalUrl":"https://foursquare.com/v/the-lansdown/4ba531b3f964a52032ea38e3","categoryId":"4bf58dd8d48988d11b941735","category":"Pub","checkinsCount":432,"usersCount":301,"tipCount":11,"visitsCount":549,"tier":"","message":"","currency":"","rating":7.4},{"name":"The Ostrich Inn","phone":"+441179273774","twitter":"theostrichbris","address":"Lower Guinea St","lat":51.44780516624451,"lng":-2.594153,"neighborhood":"Redcliffe","city_fetched":"Bristol,UK","country":"United Kingdom","canonicalUrl":"https://foursquare.com/v/the-ostrich-inn/4b058836f964a520cdb822e3","categoryId":"4bf58dd8d48988d11b941735","category":"Pub","checkinsCount":598,"usersCount":392,"tipCount":7,"visitsCount":724,"url":"https://www.sabrain.com/pubs-and-hotels/the-south-west/the-ostrich","tier":"","message":"","currency":"","rating":7.3},{"name":"The Rummer Hotel","phone":"+441179290111","twitter":"therummer","address":"All Saints Lane","lat":51.45428,"lng":-2.593049,"neighborhood":"Broadmead","city_fetched":"Bristol,UK","country":"United Kingdom","canonicalUrl":"https://foursquare.com/therummer","categoryId":"4bf58dd8d48988d116941735","category":"Bar","checkinsCount":729,"usersCount":292,"tipCount":18,"visitsCount":732,"url":"http://therummer.net","tier":"","message":"","currency":"","rating":7.3},{"name":"Somerset House Clifton","lat":51.45477547225499,"lng":-2.619574499247594,"neighborhood":"Clifton Village","city_fetched":"Bristol,UK","country":"United Kingdom","canonicalUrl":"https://foursquare.com/v/somerset-house-clifton/4bc097bc461576b0b2567a32","categoryId":"4bf58dd8d48988d116941735","category":"Bar","checkinsCount":101,"usersCount":76,"tipCount":1,"visitsCount":102,"tier":"","message":"","currency":"","rating":7.3},{"name":"The Lion","address":"Church Ln, Clifton Wood","lat":51.449623325230924,"lng":-2.6132426514526084,"neighborhood":"Clifton","city_fetched":"Bristol,UK","country":"United Kingdom","canonicalUrl":"https://foursquare.com/v/the-lion/4bcb7fe7b6c49c74505e9291","categoryId":"4bf58dd8d48988d11b941735","category":"Pub","checkinsCount":142,"usersCount":86,"tipCount":0,"visitsCount":175,"tier":"","message":"","currency":"","rating":7.3},{"name":"Gryphon","lat":51.4557379,"lng":-2.597499,"neighborhood":"Broadmead","city_fetched":"Bristol,UK","country":"United Kingdom","canonicalUrl":"https://foursquare.com/v/gryphon/4cc9efa47965b60c1472828a","categoryId":"4bf58dd8d48988d11b941735","category":"Pub","checkinsCount":354,"usersCount":151,"tipCount":4,"visitsCount":362,"tier":"","message":"","currency":"","rating":7.3},{"name":"Under The Stars","phone":"+441179298392","address":"Canon's Rd","lat":51.4519047,"lng":-2.59763796,"neighborhood":"Old City","city_fetched":"Bristol,UK","country":"United Kingdom","canonicalUrl":"https://foursquare.com/v/under-the-stars/4c1d2b08b9f876b0032a7d46","categoryId":"4bf58dd8d48988d116941735","category":"Bar","checkinsCount":472,"usersCount":308,"tipCount":12,"visitsCount":476,"url":"http://www.underthestarsbar.co.uk","tier":"","message":"","currency":"","rating":7.3},{"name":"The Star and Dove","address":"75-78 St. Luke's Rd","lat":51.441442,"lng":-2.58228265,"neighborhood":"Totterdown","city_fetched":"Bristol,UK","state":"Bristol","country":"United Kingdom","canonicalUrl":"https://foursquare.com/v/the-star-and-dove/4bc726790050b7132317b83b","categoryId":"4bf58dd8d48988d11b941735","category":"Pub","checkinsCount":481,"usersCount":212,"tipCount":11,"visitsCount":599,"tier":"","message":"","currency":"","rating":7.3},{"name":"Aqua","address":"Welsh Back","lat":51.452467,"lng":-2.592468,"neighborhood":"Old City","city_fetched":"Bristol,UK","state":"Bristol","country":"United Kingdom","canonicalUrl":"https://foursquare.com/v/aqua/4b058836f964a520d1b822e3","categoryId":"4bf58dd8d48988d123941735","category":"Wine Bar","checkinsCount":435,"usersCount":298,"tipCount":12,"visitsCount":441,"url":"http://aqua-restaurant.com","tier":"","message":"","currency":"","rating":7.3},{"name":"The Pump House","phone":"+441179272229","twitter":"pumphsebristol","address":"Merchants Rd","lat":51.448273,"lng":-2.617971,"neighborhood":"Hotwells","city_fetched":"Bristol,UK","state":"Bristol","country":"United Kingdom","canonicalUrl":"https://foursquare.com/v/the-pump-house/4b9b7ff2f964a5204f0b36e3","categoryId":"4bf58dd8d48988d11b941735","category":"Pub","checkinsCount":638,"usersCount":674,"tipCount":18,"visitsCount":1012,"url":"http://www.the-pumphouse.com","tier":"","message":"","currency":"","rating":7.3},{"name":"The Bank Tavern","phone":"+448721077077","address":"8 John St","lat":51.45612452329709,"lng":-2.593948245048523,"neighborhood":"Broadmead","city_fetched":"Bristol,UK","country":"United Kingdom","canonicalUrl":"https://foursquare.com/v/the-bank-tavern/4bace7f0f964a520fd173be3","categoryId":"4bf58dd8d48988d11b941735","category":"Pub","checkinsCount":561,"usersCount":221,"tipCount":6,"visitsCount":611,"tier":"","message":"","currency":"","rating":7.3},{"name":"The Royal Oak","phone":"+441179892522","address":"385 Gloucester Rd. N","lat":51.483360602493576,"lng":-2.586808204650879,"neighborhood":"Bishopston","city_fetched":"Bristol,UK","state":"Bristol","country":"United Kingdom","canonicalUrl":"https://foursquare.com/v/the-royal-oak/4bf8509c4a67c928903325cf","categoryId":"4bf58dd8d48988d11b941735","category":"Pub","checkinsCount":291,"usersCount":159,"tipCount":4,"visitsCount":300,"url":"http://www.theroyaloakbristol.co.uk","tier":"","message":"","currency":"","rating":7.3},{"name":"The Duke of York","phone":"+441179413677","address":"2 Jubilee Rd.","lat":51.46718242,"lng":-2.575828,"city_fetched":"Bristol,UK","state":"Bristol","country":"United Kingdom","canonicalUrl":"https://foursquare.com/v/the-duke-of-york/4c48893e0f5aa593a8938176","categoryId":"4bf58dd8d48988d11b941735","category":"Pub","checkinsCount":348,"usersCount":95,"tipCount":6,"visitsCount":382,"tier":"","message":"","currency":"","rating":7.3},{"name":"The Cambridge Arms","phone":"+441179739786","address":"30 Coldharbour Rd","lat":51.47400582926133,"lng":-2.6105403900146484,"city_fetched":"Bristol,UK","state":"Bristol","country":"United Kingdom","canonicalUrl":"https://foursquare.com/v/the-cambridge-arms/4b058837f964a520e0b822e3","categoryId":"4bf58dd8d48988d11b941735","category":"Pub","checkinsCount":310,"usersCount":139,"tipCount":7,"visitsCount":360,"tier":"","message":"","currency":"","rating":7.2},{"name":"The Shakespeare","phone":"+441179733909","address":"Lower Redland Rd","lat":51.47041586666666,"lng":-2.6065792162462373,"neighborhood":"Cotham","city_fetched":"Bristol,UK","state":"Bristol","country":"United Kingdom","canonicalUrl":"https://foursquare.com/v/the-shakespeare/4c79620493ef236aa761af0f","categoryId":"4bf58dd8d48988d11b941735","category":"Pub","checkinsCount":79,"usersCount":93,"tipCount":4,"visitsCount":172,"url":"http://theshakespearebristol.co.uk","tier":"","message":"","currency":"","rating":7.2},{"name":"Porto Lounge","phone":"+441179024567","twitter":"porto_lounge","address":"765 Fishponds Road","lat":51.48151986839586,"lng":-2.5281402468681335,"city_fetched":"Bristol,UK","state":"Bristol","country":"United Kingdom","canonicalUrl":"https://foursquare.com/v/porto-lounge/4bc373f92a89ef3b7e0cf588","categoryId":"4bf58dd8d48988d121941735","category":"Lounge","checkinsCount":564,"usersCount":259,"tipCount":10,"visitsCount":632,"url":"http://www.thelounges.co.uk","tier":"","message":"","currency":"","rating":7.2},{"name":"The Library","phone":"+441172396585","twitter":"208thelibrary","address":"208 Cheltenham Rd","lat":51.46931625600068,"lng":-2.5932607774608174,"city_fetched":"Bristol,UK","state":"Bristol","country":"United Kingdom","canonicalUrl":"https://foursquare.com/v/the-library/53b6b3f7498e28001d6bf87b","categoryId":"4bf58dd8d48988d123941735","category":"Wine Bar","checkinsCount":94,"usersCount":50,"tipCount":6,"visitsCount":127,"url":"http://www.thelibrarybarbristol.co.uk","tier":"","message":"","currency":"","rating":7.2},{"name":"The Vittoria","address":"57 Whiteladies Rd","lat":51.462035809021074,"lng":-2.6086916762124135,"city_fetched":"Bristol,UK","state":"Bristol","country":"United Kingdom","canonicalUrl":"https://foursquare.com/v/the-vittoria/4b9a71bbf964a520e0b535e3","categoryId":"4bf58dd8d48988d11b941735","category":"Pub","checkinsCount":130,"usersCount":76,"tipCount":4,"visitsCount":132,"tier":"","message":"","currency":"","rating":7.2},{"name":"Nova Scotia","phone":"+441179297994","address":"1 Nova Scotia Pl.","lat":51.447365,"lng":-2.618319,"city_fetched":"Bristol,UK","country":"United Kingdom","canonicalUrl":"https://foursquare.com/v/nova-scotia/4b058837f964a520e9b822e3","categoryId":"4bf58dd8d48988d11b941735","category":"Pub","checkinsCount":191,"usersCount":126,"tipCount":5,"visitsCount":201,"url":"http://www.novascotiahotel.co.uk","tier":"","message":"","currency":"","rating":7.2},{"name":"The Bridge Inn","address":"Passage St","lat":51.45420320166785,"lng":-2.5859592740962927,"neighborhood":"Broadmead","city_fetched":"Bristol,UK","state":"Bristol","country":"United Kingdom","canonicalUrl":"https://foursquare.com/v/the-bridge-inn/4c19167598f4a593248bfff5","categoryId":"4bf58dd8d48988d11b941735","category":"Pub","checkinsCount":449,"usersCount":208,"tipCount":4,"visitsCount":608,"url":"http://www.bridgeinnbristol.co.uk","tier":"","message":"","currency":"","rating":7.2},{"name":"The Old Fish Market","phone":"+441179211515","address":"59-63 Baldwin St","lat":51.45355847881328,"lng":-2.5929247561654654,"neighborhood":"Old City","city_fetched":"Bristol,UK","state":"Bristol","country":"United Kingdom","canonicalUrl":"https://foursquare.com/v/the-old-fish-market/4b058837f964a520e8b822e3","categoryId":"4bf58dd8d48988d11b941735","category":"Pub","checkinsCount":1359,"usersCount":525,"tipCount":11,"visitsCount":1418,"url":"http://www.oldfishmarket.co.uk","tier":"","message":"","currency":"","rating":7.2},{"name":"Mr Wolf's","phone":"+441179290897","twitter":"mrwolfsbristol","address":"32 St Nicholas St","lat":51.45361597639289,"lng":-2.5947334620188416,"neighborhood":"Broadmead","city_fetched":"Bristol,UK","state":"Bristol","country":"United Kingdom","canonicalUrl":"https://foursquare.com/v/mr-wolfs/4b734e0ef964a5207ea72de3","categoryId":"4bf58dd8d48988d11f941735","category":"Nightclub","checkinsCount":626,"usersCount":354,"tipCount":8,"visitsCount":642,"url":"https://mrwolfs.com","tier":"","message":"","currency":"","rating":7.1},{"name":"Seamus O'Donnells","phone":"+441179251283","address":"13 St Nicolas St.","lat":51.453799742089636,"lng":-2.593427918857102,"neighborhood":"Broadmead","city_fetched":"Bristol,UK","state":"Bristol","country":"United Kingdom","canonicalUrl":"https://foursquare.com/v/seamus-odonnells/4c4a0a7ff7b49c742440cac1","categoryId":"4bf58dd8d48988d11b941735","category":"Pub","checkinsCount":302,"usersCount":161,"tipCount":4,"visitsCount":303,"tier":"","message":"","currency":"","rating":7.1},{"name":"Mbargo","phone":"+441179253256","twitter":"mbargobristol","address":"38-40 Triangle W","lat":51.45655951500927,"lng":-2.6078633423387774,"city_fetched":"Bristol,UK","country":"United Kingdom","canonicalUrl":"https://foursquare.com/v/mbargo/4c5c9c2b94fd0f47c731c945","categoryId":"4bf58dd8d48988d116941735","category":"Bar","checkinsCount":402,"usersCount":237,"tipCount":1,"visitsCount":405,"url":"http://mbargobristol.co.uk","tier":"","message":"","currency":"","rating":7.1},{"name":"Inn on the Green","phone":"+441179521391","address":"2 Filton Rd","lat":51.494483602918436,"lng":-2.5818729400634766,"neighborhood":"Horfield","city_fetched":"Bristol,UK","country":"United Kingdom","canonicalUrl":"https://foursquare.com/v/inn-on-the-green/4ba8e5b5f964a52028f839e3","categoryId":"4bf58dd8d48988d11b941735","category":"Pub","checkinsCount":604,"usersCount":274,"tipCount":4,"visitsCount":791,"url":"http://www.theinnonthegreen.org","tier":"","message":"","currency":"","rating":7.1},{"name":"The Phoenix","phone":"+441173290076","address":"1 Wellington Buildings, Champion Sq","lat":51.458472,"lng":-2.58331,"city_fetched":"Bristol,UK","country":"United Kingdom","canonicalUrl":"https://foursquare.com/v/the-phoenix/4d8108451013236a7a8d9335","categoryId":"4bf58dd8d48988d11b941735","category":"Pub","checkinsCount":285,"usersCount":124,"tipCount":7,"visitsCount":289,"url":"http://phoenixbristol.com","tier":"","message":"","currency":"","rating":7.1},{"name":"Bocabar","phone":"+441179728838","address":"Paintworks, Bath Rd","lat":51.443057,"lng":-2.5682814,"city_fetched":"Bristol,UK","state":"Bristol","country":"United Kingdom","canonicalUrl":"https://foursquare.com/v/bocabar/4bfaab734a67c928879428cf","categoryId":"4bf58dd8d48988d116941735","category":"Bar","checkinsCount":740,"usersCount":375,"tipCount":20,"visitsCount":816,"url":"http://bristol.bocabar.co.uk","tier":"","message":"","currency":"","rating":7.1},{"name":"Illusions Magic Bar","phone":"+441179093405","twitter":"magicbar","address":"2 Byron Pl.","lat":51.455940677581026,"lng":-2.6071473956108093,"city_fetched":"Bristol,UK","state":"Bristol","country":"United Kingdom","canonicalUrl":"https://foursquare.com/v/illusions-magic-bar/4ba3ff82f964a5200c7638e3","categoryId":"4bf58dd8d48988d116941735","category":"Bar","checkinsCount":214,"usersCount":163,"tipCount":2,"visitsCount":215,"url":"http://www.smokeandmirrorsbar.co.uk","tier":"","message":"","currency":"","rating":7.1},{"name":"Grupo Lounge","phone":"+441179500279","twitter":"grupo_lounge","address":"8 Canford Ln","lat":51.49300069297842,"lng":-2.6194989681243896,"neighborhood":"Westbury-on-Trym","city_fetched":"Bristol,UK","state":"Bristol","country":"United Kingdom","canonicalUrl":"https://foursquare.com/v/grupo-lounge/50f88146e412b7334286794d","categoryId":"4bf58dd8d48988d121941735","category":"Lounge","checkinsCount":113,"usersCount":60,"tipCount":2,"visitsCount":115,"url":"http://www.thelounges.co.uk","tier":"","message":"","currency":"","rating":7},{"name":"The Coronation Tap","address":"8 Sion Place","lat":51.45537065532503,"lng":-2.6222364243104903,"neighborhood":"Clifton Village","city_fetched":"Bristol,UK","state":"Bristol","country":"United Kingdom","canonicalUrl":"https://foursquare.com/v/the-coronation-tap/4b058836f964a52099b822e3","categoryId":"4bf58dd8d48988d11b941735","category":"Pub","checkinsCount":231,"usersCount":188,"tipCount":11,"visitsCount":234,"tier":"","message":"","currency":"","rating":7},{"name":"The Hobgoblin","phone":"+441179429534","address":"69 - 71 Gloucester Rd.","lat":51.47200265610594,"lng":-2.591787725687027,"city_fetched":"Bristol,UK","state":"Bristol","country":"United Kingdom","canonicalUrl":"https://foursquare.com/v/the-hobgoblin/4e4ac2ff1fc7a73d0db4a3de","categoryId":"4bf58dd8d48988d11b941735","category":"Pub","checkinsCount":229,"usersCount":127,"tipCount":4,"visitsCount":243,"tier":"","message":"","currency":"","rating":7},{"name":"The Palace Hotel","phone":"+441179557095","address":"1 West St.","lat":51.45650725427617,"lng":-2.57991224527359,"city_fetched":"Bristol,UK","state":"Bristol","country":"United Kingdom","canonicalUrl":"https://foursquare.com/v/the-palace-hotel/4be5d0a12468c92886990043","categoryId":"4bf58dd8d48988d1d8941735","category":"Gay Bar","checkinsCount":353,"usersCount":79,"tipCount":1,"visitsCount":355,"tier":"","message":"","currency":"","rating":7},{"name":"Banco Lounge","phone":"+441179086010","twitter":"bancolounge","address":"107 Wells Rd","lat":51.441764,"lng":-2.577753,"neighborhood":"Totterdown","city_fetched":"Bristol,UK","state":"Bristol","country":"United Kingdom","canonicalUrl":"https://foursquare.com/v/banco-lounge/4b0f02c2f964a5201f5e23e3","categoryId":"4bf58dd8d48988d121941735","category":"Lounge","checkinsCount":527,"usersCount":200,"tipCount":7,"visitsCount":590,"url":"http://www.thelounges.co.uk","tier":"","message":"","currency":"","rating":7},{"name":"The Urban Wood","address":"90 Colston St","lat":51.45708882368231,"lng":-2.5972788771581494,"neighborhood":"Broadmead","city_fetched":"Bristol,UK","country":"United Kingdom","canonicalUrl":"https://foursquare.com/v/the-urban-wood/4cb0c5fababebfb76316a3ab","categoryId":"4bf58dd8d48988d11b941735","category":"Pub","checkinsCount":139,"usersCount":91,"tipCount":5,"visitsCount":139,"tier":"","message":"","currency":"","rating":6.9},{"name":"Browns","phone":"+441179304777","address":"38 Queens Rd","lat":51.456240176460035,"lng":-2.605836676158183,"neighborhood":"St. Michael's","city_fetched":"Bristol,UK","state":"Bristol","country":"United Kingdom","canonicalUrl":"https://foursquare.com/v/browns/4b058836f964a520b4b822e3","categoryId":"4bf58dd8d48988d116941735","category":"Bar","checkinsCount":1294,"usersCount":1031,"tipCount":15,"visitsCount":1505,"tier":"","message":"","currency":"","rating":6.9},{"name":"The Hatchet","phone":"+441179294118","address":"27 Frogmore St","lat":51.45404043693024,"lng":-2.6002345802970295,"city_fetched":"Bristol,UK","state":"Bristol","country":"United Kingdom","canonicalUrl":"https://foursquare.com/v/the-hatchet/4b058836f964a520a5b822e3","categoryId":"4bf58dd8d48988d11b941735","category":"Pub","checkinsCount":1498,"usersCount":749,"tipCount":9,"visitsCount":1573,"url":"http://www.thehatchet.co.uk","tier":"","message":"","currency":"","rating":6.9},{"name":"The Cross Hands","address":"1 Staple Hill Road","lat":51.48197087182523,"lng":-2.5228214263916016,"city_fetched":"Bristol,UK","state":"Bristol","country":"United Kingdom","canonicalUrl":"https://foursquare.com/v/the-cross-hands/4b54bbebf964a5208dc927e3","categoryId":"4bf58dd8d48988d11b941735","category":"Pub","checkinsCount":202,"usersCount":105,"tipCount":7,"visitsCount":210,"tier":"","message":"","currency":"","rating":6.9},{"name":"The Golden Lion","phone":"+441179246449","address":"244 Gloucester Rd.","lat":51.479906,"lng":-2.589363,"neighborhood":"Bishopston","city_fetched":"Bristol,UK","country":"United Kingdom","canonicalUrl":"https://foursquare.com/v/the-golden-lion/4b75bc8ff964a520dc202ee3","categoryId":"4bf58dd8d48988d11b941735","category":"Pub","checkinsCount":224,"usersCount":145,"tipCount":7,"visitsCount":226,"url":"http://www.goldenlionbristol.co.uk","tier":"","message":"","currency":"","rating":6.9},{"name":"The Blue Lagoon Cafe Bar","phone":"+441179427471","address":"20 Gloucester Rd","lat":51.47135941671112,"lng":-2.5928163528442383,"city_fetched":"Bristol,UK","state":"Bristol","country":"United Kingdom","canonicalUrl":"https://foursquare.com/v/the-blue-lagoon-cafe-bar/4c65b9cbb80abe9a171acbe5","categoryId":"4bf58dd8d48988d116941735","category":"Bar","checkinsCount":302,"usersCount":212,"tipCount":6,"visitsCount":304,"tier":"","message":"","currency":"","rating":6.9},{"name":"Bird in Hand","address":"58 High St.","lat":51.405281708693835,"lng":-2.4509540967795314,"city_fetched":"Bristol,UK","state":"Bristol","country":"United Kingdom","canonicalUrl":"https://foursquare.com/v/bird-in-hand/4bd93092e914a59343ed55fa","categoryId":"4bf58dd8d48988d117941735","category":"Beer Garden","checkinsCount":124,"usersCount":111,"tipCount":1,"visitsCount":159,"tier":"","message":"","currency":"","rating":6.9},{"name":"All In One","phone":"+441179265622","address":"44 Park St.","lat":51.45427585773159,"lng":-2.602470371826251,"city_fetched":"Bristol,UK","state":"Bristol","country":"United Kingdom","canonicalUrl":"https://foursquare.com/v/all-in-one/4c38f30c2c8020a168d58b00","categoryId":"4bf58dd8d48988d116941735","category":"Bar","checkinsCount":355,"usersCount":179,"tipCount":3,"visitsCount":355,"url":"http://www.allinonebristol.co.uk","tier":"","message":"","currency":"","rating":6.8},{"name":"Antix","phone":"+441179251139","twitter":"antix_bristol","address":"44 Park St.","lat":51.454315,"lng":-2.602622,"city_fetched":"Bristol,UK","state":"Bristol","country":"United Kingdom","canonicalUrl":"https://foursquare.com/v/antix/4b058838f964a5202eb922e3","categoryId":"4bf58dd8d48988d116941735","category":"Bar","checkinsCount":231,"usersCount":140,"tipCount":7,"visitsCount":231,"url":"http://barantix.com","tier":"","message":"","currency":"","rating":6.8},{"name":"Kingsdown Wine Vaults","address":"Kingsdown Vaults, 29-31 Kingsdown parade","lat":51.46162785263824,"lng":-2.596464157104492,"city_fetched":"Bristol,UK","country":"United Kingdom","canonicalUrl":"https://foursquare.com/v/kingsdown-wine-vaults/4be7122b910020a127fcd414","categoryId":"4bf58dd8d48988d11b941735","category":"Pub","checkinsCount":128,"usersCount":69,"tipCount":7,"visitsCount":131,"tier":"","message":"","currency":"","rating":6.8},{"name":"Clifton Wine Bar","phone":"+441179732069","twitter":"cliftonwinebar","address":"4 Richmond Terrace","lat":51.456132,"lng":-2.6139477374999998,"city_fetched":"Bristol,UK","state":"Bristol","country":"United Kingdom","canonicalUrl":"https://foursquare.com/v/clifton-wine-bar/4b058837f964a520fbb822e3","categoryId":"4bf58dd8d48988d123941735","category":"Wine Bar","checkinsCount":299,"usersCount":187,"tipCount":2,"visitsCount":329,"url":"http://www.cliftonwinebar.co.uk","tier":"","message":"","currency":"","rating":6.8},{"name":"Brace & Browns","lat":51.461545,"lng":-2.608457,"city_fetched":"Bristol,UK","state":"Bristol","country":"United Kingdom","canonicalUrl":"https://foursquare.com/v/brace--browns/4de92d7dfa76fd1168b3c815","categoryId":"4bf58dd8d48988d123941735","category":"Wine Bar","checkinsCount":148,"usersCount":104,"tipCount":7,"visitsCount":148,"tier":"","message":"","currency":"","rating":6.8},{"name":"No. 51 Stokes Croft","phone":"+441179148048","twitter":"51stokescroft","address":"51 Stokes Croft","lat":51.46219937203747,"lng":-2.5903326272964478,"neighborhood":"Stokes Croft","city_fetched":"Bristol,UK","state":"Bristol","country":"United Kingdom","canonicalUrl":"https://foursquare.com/v/no-51-stokes-croft/4daa280d93a04642f079b673","categoryId":"4bf58dd8d48988d116941735","category":"Bar","checkinsCount":427,"usersCount":288,"tipCount":4,"visitsCount":520,"url":"http://51stokescroft.com","tier":"","message":"","currency":"","rating":6.8},{"name":"Rope Walk, Bedminster Parade","address":"Bedminster Parade","lat":51.44491818646548,"lng":-2.5925482528123247,"neighborhood":"Southville","city_fetched":"Bristol,UK","state":"Bristol","country":"United Kingdom","canonicalUrl":"https://foursquare.com/v/rope-walk-bedminster-parade/4fa7d531e4b0419377a07ff3","categoryId":"4bf58dd8d48988d11b941735","category":"Pub","checkinsCount":147,"usersCount":44,"tipCount":6,"visitsCount":158,"tier":"","message":"","currency":"","rating":6.8},{"name":"The Eastfield Inn","phone":"+441179499908","address":"Henleaze Road","lat":51.48921001215129,"lng":-2.6086586132444607,"neighborhood":"Henleaze","city_fetched":"Bristol,UK","state":"Bristol","country":"United Kingdom","canonicalUrl":"https://foursquare.com/v/the-eastfield-inn/4cea8e77fe90a35dac6d4e0e","categoryId":"4bf58dd8d48988d11b941735","category":"Pub","checkinsCount":67,"usersCount":68,"tipCount":2,"visitsCount":113,"tier":"","message":"","currency":"","rating":6.8},{"name":"The W G Grace (Wetherspoon)","phone":"+441179469780","twitter":"jdwtweets","address":"71-73 Whiteladies Rd","lat":51.46279762151911,"lng":-2.6088345050811768,"neighborhood":"Cotham","city_fetched":"Bristol,UK","state":"Bristol","country":"United Kingdom","canonicalUrl":"https://foursquare.com/v/the-w-g-grace-wetherspoon/502680aae4b00bbc79f56398","categoryId":"4bf58dd8d48988d11b941735","category":"Pub","checkinsCount":432,"usersCount":310,"tipCount":8,"visitsCount":644,"url":"http://www.jdwetherspoon.co.uk","tier":2,"message":"Moderate","currency":"£","rating":6.8},{"name":"White Lion Bar","address":"Sion Hill","lat":51.453398516820904,"lng":-2.625260353088379,"neighborhood":"Clifton Village","city_fetched":"Bristol,UK","state":"Bristol","country":"United Kingdom","canonicalUrl":"https://foursquare.com/v/white-lion-bar/4b058837f964a520dfb822e3","categoryId":"4bf58dd8d48988d116941735","category":"Bar","checkinsCount":996,"usersCount":701,"tipCount":13,"visitsCount":1018,"tier":"","message":"","currency":"","rating":6.7},{"name":"The Old Stillage","phone":"+441179394079","address":"147 Church Road, Redfield","lat":51.45869828557546,"lng":-2.558087110519409,"neighborhood":"Easton","city_fetched":"Bristol,UK","country":"United Kingdom","canonicalUrl":"https://foursquare.com/v/the-old-stillage/4c5db4f27f661b8de4214c1c","categoryId":"4bf58dd8d48988d11b941735","category":"Pub","checkinsCount":233,"usersCount":91,"tipCount":2,"visitsCount":360,"tier":"","message":"","currency":"","rating":6.7},{"name":"The Farm","phone":"+441179442384","address":"Hopetoun Rd.","lat":51.474355,"lng":-2.578096389770508,"city_fetched":"Bristol,UK","state":"Bristol","country":"United Kingdom","canonicalUrl":"https://foursquare.com/v/the-farm/4b058837f964a520e7b822e3","categoryId":"4bf58dd8d48988d117941735","category":"Beer Garden","checkinsCount":187,"usersCount":118,"tipCount":3,"visitsCount":195,"url":"http://thefarmpub.weebly.com","tier":"","message":"","currency":"","rating":6.7},{"name":"Revolution","phone":"+441179304335","address":"19-21 St. Nicholas St","lat":51.453657,"lng":-2.59363,"neighborhood":"Broadmead","city_fetched":"Bristol,UK","state":"Bristol","country":"United Kingdom","canonicalUrl":"https://foursquare.com/v/revolution/4b058837f964a520ffb822e3","categoryId":"4bf58dd8d48988d11e941735","category":"Cocktail Bar","checkinsCount":1026,"usersCount":533,"tipCount":16,"visitsCount":1049,"url":"http://www.revolution-bars.co.uk/bristol","tier":"","message":"","currency":"","rating":6.6},{"name":"The Albion Public House and Dining Rooms","phone":"+441179733522","twitter":"albionclifton","address":"Boyces Ave.","lat":51.455082823713724,"lng":-2.617932695208765,"neighborhood":"Clifton Village","city_fetched":"Bristol,UK","state":"Bristol","country":"United Kingdom","canonicalUrl":"https://foursquare.com/v/the-albion-public-house-and-dining-rooms/4b05883df964a520fbb922e3","categoryId":"4bf58dd8d48988d11b941735","category":"Pub","checkinsCount":449,"usersCount":350,"tipCount":5,"visitsCount":515,"url":"http://www.thealbionclifton.co.uk","tier":"","message":"","currency":"","rating":6.6},{"name":"Horts","phone":"+441179252520","twitter":"hortsbristol","address":"49 Broad St","lat":51.455614486780284,"lng":-2.5939976290145057,"neighborhood":"Broadmead","city_fetched":"Bristol,UK","country":"United Kingdom","canonicalUrl":"https://foursquare.com/v/horts/4b058837f964a520fab822e3","categoryId":"4bf58dd8d48988d116941735","category":"Bar","checkinsCount":616,"usersCount":266,"tipCount":7,"visitsCount":637,"url":"http://www.hortsbristol.com","tier":"","message":"","currency":"","rating":6.6},{"name":"The Prince of Wales","phone":"+441179245552","address":"5 Gloucester Rd","lat":51.470526,"lng":-2.5934056,"city_fetched":"Bristol,UK","state":"Bristol","country":"United Kingdom","canonicalUrl":"https://foursquare.com/v/the-prince-of-wales/4b058837f964a520d3b822e3","categoryId":"4bf58dd8d48988d11b941735","category":"Pub","checkinsCount":585,"usersCount":365,"tipCount":4,"visitsCount":701,"url":"http://www.powbristol.co.uk","tier":"","message":"","currency":"","rating":6.6},{"name":"Colston Yard","phone":"+441173763232","address":"Colston St","lat":51.457154,"lng":-2.597304,"neighborhood":"St. Michael's","city_fetched":"Bristol,UK","country":"United Kingdom","canonicalUrl":"https://foursquare.com/v/colston-yard/4b6b2f74f964a5203ff82be3","categoryId":"4bf58dd8d48988d11b941735","category":"Pub","checkinsCount":616,"usersCount":350,"tipCount":4,"visitsCount":677,"tier":"","message":"","currency":"","rating":6.6},{"name":"Dristi's Shisha Bar","phone":"+441179238788","twitter":"dristisbar","address":"40 - 44 St Pauls Road","lat":51.45925939178085,"lng":-2.611050832209165,"city_fetched":"Bristol,UK","state":"Bristol","country":"United Kingdom","canonicalUrl":"https://foursquare.com/v/dristis-shisha-bar/4f466028e4b02a6146637234","categoryId":"4bf58dd8d48988d119941735","category":"Hookah Bar","checkinsCount":196,"usersCount":57,"tipCount":1,"visitsCount":202,"url":"http://www.dristis.co.uk","tier":"","message":"","currency":"","rating":6.6},{"name":"North Street Standard","lat":51.441298,"lng":-2.602362,"neighborhood":"Bedminster","city_fetched":"Bristol,UK","country":"United Kingdom","canonicalUrl":"https://foursquare.com/v/north-street-standard/5543f46c498ec77cb19de0f1","categoryId":"4bf58dd8d48988d116941735","category":"Bar","checkinsCount":152,"usersCount":138,"tipCount":8,"visitsCount":272,"tier":"","message":"","currency":"","rating":6.6},{"name":"O'Neills","phone":"+441179458891","twitter":"londonirishpubs","address":"14-24 Baldwin Street","lat":51.453391264655835,"lng":-2.5958467301737316,"neighborhood":"Broadmead","city_fetched":"Bristol,UK","country":"United Kingdom","canonicalUrl":"https://foursquare.com/v/oneills/4ee61a462da504839760f8bf","categoryId":"4bf58dd8d48988d11b941735","category":"Pub","checkinsCount":48,"usersCount":37,"tipCount":0,"visitsCount":48,"url":"http://www.londonirishpubs.co.uk","tier":"","message":"","currency":"","rating":6.5},{"name":"University of Bristol Students' Union","phone":"+441179545800","twitter":"ubunews","address":"Queens Rd.","lat":51.4568949959258,"lng":-2.6131153106689453,"city_fetched":"Bristol,UK","country":"United Kingdom","canonicalUrl":"https://foursquare.com/v/university-of-bristol-students-union/4bd5921a5631c9b62740a430","categoryId":"4bf58dd8d48988d116941735","category":"Bar","checkinsCount":816,"usersCount":521,"tipCount":3,"visitsCount":1227,"url":"http://www.ubu.org.uk","tier":"","message":"","currency":"","rating":6.5},{"name":"The Thunderbolt","phone":"+441173738947","address":"124 Bath Rd.","lat":51.44250808742263,"lng":-2.5743117936097333,"neighborhood":"Totterdown","city_fetched":"Bristol,UK","state":"Bristol","country":"United Kingdom","canonicalUrl":"https://foursquare.com/v/the-thunderbolt/4b058838f964a52035b922e3","categoryId":"4bf58dd8d48988d116941735","category":"Bar","checkinsCount":111,"usersCount":92,"tipCount":2,"visitsCount":138,"url":"http://www.thethunderbolt.net","tier":"","message":"","currency":"","rating":6.5},{"name":"King's Head","phone":"+441179277860","address":"60 Victoria St","lat":51.45181398208697,"lng":-2.5873661041259766,"city_fetched":"Bristol,UK","state":"Bristol","country":"United Kingdom","canonicalUrl":"https://foursquare.com/v/kings-head/4c2cf95b76a7ef3b35a5deb8","categoryId":"4bf58dd8d48988d11b941735","category":"Pub","checkinsCount":225,"usersCount":140,"tipCount":3,"visitsCount":227,"tier":"","message":"","currency":"","rating":6.5},{"name":"Alter Ego","phone":"+447789968053","address":"77 Whiteladies Rd.","lat":51.463024887423074,"lng":-2.608855962753296,"neighborhood":"Cotham","city_fetched":"Bristol,UK","state":"Bristol","country":"United Kingdom","canonicalUrl":"https://foursquare.com/v/alter-ego/4b4b20a9f964a520c09226e3","categoryId":"4bf58dd8d48988d116941735","category":"Bar","checkinsCount":241,"usersCount":140,"tipCount":3,"visitsCount":243,"url":"http://www.alteregobar.co.uk","tier":"","message":"","currency":"","rating":6.5},{"name":"King William","phone":"+441179268672","address":"20 King St","lat":51.451611,"lng":-2.5948436,"neighborhood":"Old City","city_fetched":"Bristol,UK","state":"Bristol","country":"United Kingdom","canonicalUrl":"https://foursquare.com/v/king-william/4b16bfe3f964a520e7bc23e3","categoryId":"4bf58dd8d48988d11b941735","category":"Pub","checkinsCount":828,"usersCount":417,"tipCount":13,"visitsCount":839,"tier":"","message":"","currency":"","rating":6.4},{"name":"The Steam Crane","phone":"+441179231656","twitter":"thesteamcrane","address":"4-6 North St","lat":51.44149076219407,"lng":-2.601685523550259,"neighborhood":"Southville","city_fetched":"Bristol,UK","country":"United Kingdom","canonicalUrl":"https://foursquare.com/v/the-steam-crane/52d6dec1498e55d5a0bdd6c5","categoryId":"4bf58dd8d48988d11b941735","category":"Pub","checkinsCount":130,"usersCount":92,"tipCount":5,"visitsCount":158,"url":"http://www.thesteamcrane.co.uk","tier":"","message":"","currency":"","rating":6.4},{"name":"The Van Dyck Forum  (Wetherspoon)","phone":"+441179651337","address":"748-756 Fishponds Rd","lat":51.479698815197445,"lng":-2.5304127581859306,"city_fetched":"Bristol,UK","country":"United Kingdom","canonicalUrl":"https://foursquare.com/v/the-van-dyck-forum--wetherspoon/4c87aa81821e9eb07ccc8d89","categoryId":"4bf58dd8d48988d11b941735","category":"Pub","checkinsCount":1115,"usersCount":211,"tipCount":7,"visitsCount":1186,"url":"http://www.jdwetherspoon.co.uk","tier":"","message":"","currency":"","rating":6.4},{"name":"Strawberry Thief","phone":"+441179256925","address":"26 Broad St","lat":51.45568002829403,"lng":-2.594528396318003,"neighborhood":"Broadmead","city_fetched":"Bristol,UK","state":"Bristol","country":"United Kingdom","canonicalUrl":"https://foursquare.com/v/strawberry-thief/54650025498ec8d48e3e45ef","categoryId":"4bf58dd8d48988d116941735","category":"Bar","checkinsCount":182,"usersCount":68,"tipCount":3,"visitsCount":187,"url":"http://www.strawberrythiefbar.com","tier":"","message":"","currency":"","rating":6.4},{"name":"Smoke & Mirrors","phone":"+441179290362","twitter":"magicbar","address":"8 Denmark St.","lat":51.452857,"lng":-2.598824,"city_fetched":"Bristol,UK","state":"Bristol","country":"United Kingdom","canonicalUrl":"https://foursquare.com/v/smoke--mirrors/508ae17be4b0bfcf987f61db","categoryId":"4bf58dd8d48988d116941735","category":"Bar","checkinsCount":97,"usersCount":68,"tipCount":1,"visitsCount":98,"url":"http://www.smokeandmirrorsbar.co.uk","tier":"","message":"","currency":"","rating":6.4},{"name":"The Hole In The Wall","phone":"+441179265967","address":"2 The Grove","lat":51.449455,"lng":-2.593472,"neighborhood":"Old City","city_fetched":"Bristol,UK","state":"Bristol","country":"United Kingdom","canonicalUrl":"https://foursquare.com/v/the-hole-in-the-wall/4b058837f964a520eeb822e3","categoryId":"4bf58dd8d48988d11b941735","category":"Pub","checkinsCount":949,"usersCount":631,"tipCount":12,"visitsCount":997,"url":"http://www.theholeinthewallbristol.co.uk","tier":"","message":"","currency":"","rating":6.3},{"name":"The Knights Templar (Wetherspoon)","phone":"+441179308710","address":"1 The Sq","lat":51.45074422289912,"lng":-2.582259178161621,"city_fetched":"Bristol,UK","country":"United Kingdom","canonicalUrl":"https://foursquare.com/v/the-knights-templar-wetherspoon/4b06a3b4f964a5200dee22e3","categoryId":"4bf58dd8d48988d11b941735","category":"Pub","checkinsCount":2109,"usersCount":834,"tipCount":12,"visitsCount":2195,"url":"http://www.jdwetherspoon.co.uk","tier":1,"message":"Cheap","currency":"£","rating":6.3},{"name":"The Anchor","phone":"+441179241769","address":"323 Gloucester Rd.","lat":51.481523,"lng":-2.58785293,"neighborhood":"Bishopston","city_fetched":"Bristol,UK","state":"Bristol","country":"United Kingdom","canonicalUrl":"https://foursquare.com/v/the-anchor/4b780597f964a52069b22ee3","categoryId":"4bf58dd8d48988d11b941735","category":"Pub","checkinsCount":382,"usersCount":228,"tipCount":4,"visitsCount":463,"url":"http://www.the1440.co.uk","tier":"","message":"","currency":"","rating":6.3},{"name":"Hen & Chicken","address":"210 North St.","lat":51.44075845220194,"lng":-2.6108429038085705,"neighborhood":"Southville","city_fetched":"Bristol,UK","state":"Bristol","country":"United Kingdom","canonicalUrl":"https://foursquare.com/v/hen--chicken/4b92a554f964a5203a0d34e3","categoryId":"4bf58dd8d48988d11b941735","category":"Pub","checkinsCount":642,"usersCount":328,"tipCount":13,"visitsCount":667,"tier":"","message":"","currency":"","rating":6.3},{"name":"The Penny Farthing","address":"115 Whiteladies Rd.","lat":51.464252,"lng":-2.609487,"neighborhood":"Cotham","city_fetched":"Bristol,UK","country":"United Kingdom","canonicalUrl":"https://foursquare.com/v/the-penny-farthing/4b058836f964a520c1b822e3","categoryId":"4bf58dd8d48988d11b941735","category":"Pub","checkinsCount":272,"usersCount":158,"tipCount":2,"visitsCount":278,"tier":"","message":"","currency":"","rating":6.3},{"name":"The Mothers Ruin","twitter":"themothersruin","address":"7-9 St Nicholas St","lat":51.45396011086776,"lng":-2.5932133197784424,"neighborhood":"Broadmead","city_fetched":"Bristol,UK","state":"Bristol","country":"United Kingdom","canonicalUrl":"https://foursquare.com/v/the-mothers-ruin/4b6dd7baf964a520da942ce3","categoryId":"4bf58dd8d48988d116941735","category":"Bar","checkinsCount":689,"usersCount":272,"tipCount":7,"visitsCount":691,"url":"http://www.mothersruinbristol.co.uk","tier":"","message":"","currency":"","rating":6.3},{"name":"The White Bear","address":"133 St Michael's Hill","lat":51.460518,"lng":-2.60147,"city_fetched":"Bristol,UK","country":"United Kingdom","canonicalUrl":"https://foursquare.com/v/the-white-bear/4b058836f964a520bab822e3","categoryId":"4bf58dd8d48988d116941735","category":"Bar","checkinsCount":388,"usersCount":230,"tipCount":6,"visitsCount":425,"tier":"","message":"","currency":"","rating":6.2},{"name":"The Assembly","address":"East Street","lat":51.44144326772598,"lng":-2.5986460318020463,"neighborhood":"Southville","city_fetched":"Bristol,UK","country":"United Kingdom","canonicalUrl":"https://foursquare.com/v/the-assembly/4c81546947cc224bfd3c7b9f","categoryId":"4bf58dd8d48988d11b941735","category":"Pub","checkinsCount":356,"usersCount":93,"tipCount":6,"visitsCount":409,"tier":"","message":"","currency":"","rating":6.2},{"name":"The Royal","phone":"+441275846464","address":"Pier Road , Portishead , BS20 9HG","lat":51.49421641550111,"lng":-2.7579867839813232,"city_fetched":"Bristol,UK","state":"Bristol","country":"United Kingdom","canonicalUrl":"https://foursquare.com/v/the-royal/4b06404ef964a52013ea22e3","categoryId":"4bf58dd8d48988d11b941735","category":"Pub","checkinsCount":376,"usersCount":153,"tipCount":2,"visitsCount":408,"tier":"","message":"","currency":"","rating":6.2},{"name":"OMG","address":"Frog Lane","lat":51.45327156094758,"lng":-2.6013953740500466,"city_fetched":"Bristol,UK","state":"Bristol","country":"United Kingdom","canonicalUrl":"https://foursquare.com/v/omg/4d0024384f56b60ceb57a037","categoryId":"4bf58dd8d48988d1d8941735","category":"Gay Bar","checkinsCount":340,"usersCount":161,"tipCount":3,"visitsCount":344,"tier":"","message":"","currency":"","rating":6.2},{"name":"Bristol Fashion Beefeater","phone":"+441179298953","twitter":"beefeatergrill","address":"The Haymarket","lat":51.45884928887725,"lng":-2.5916447914013427,"neighborhood":"Broadmead","city_fetched":"Bristol,UK","country":"United Kingdom","canonicalUrl":"https://foursquare.com/v/bristol-fashion-beefeater/4c444891fb6eb7139f6b4e4a","categoryId":"4bf58dd8d48988d11b941735","category":"Pub","checkinsCount":404,"usersCount":283,"tipCount":6,"visitsCount":411,"url":"http://www.beefeater.co.uk/steak-restaurant/Bristol/Bristol-Fashion.html","tier":"","message":"","currency":"","rating":6.2},{"name":"Her Majesty's Secret Service","twitter":"hmss_cocktails","address":"Whiteladies Gate","lat":51.46460463129435,"lng":-2.6106861413420908,"city_fetched":"Bristol,UK","state":"Bristol","country":"United Kingdom","canonicalUrl":"https://foursquare.com/v/her-majestys-secret-service/55bfe176498e5996e7ce1d46","categoryId":"4bf58dd8d48988d11a941735","category":"Other Nightlife","checkinsCount":35,"usersCount":22,"tipCount":2,"visitsCount":42,"tier":"","message":"","currency":"","rating":6.1},{"name":"PRYZM","phone":"+448452932860","twitter":"pryzmbristol","address":"South Buildings","lat":51.45028288151361,"lng":-2.5991785526275635,"neighborhood":"Harbourside","city_fetched":"Bristol,UK","state":"Bristol","country":"United Kingdom","canonicalUrl":"https://foursquare.com/v/pryzm/5226318b2fc66799cf4be7c5","categoryId":"4bf58dd8d48988d11f941735","category":"Nightclub","checkinsCount":562,"usersCount":354,"tipCount":6,"visitsCount":645,"url":"http://t.co/IXnmYiCfEP","tier":"","message":"","currency":"","rating":6.1},{"name":"Beefeater","phone":"+441179564755","twitter":"beefeatergrill","address":"200-202 Westerleigh Rd","lat":51.49838268502255,"lng":-2.4803721339607527,"city_fetched":"Bristol,UK","state":"Bristol","country":"United Kingdom","canonicalUrl":"https://foursquare.com/v/beefeater/4ccc6cd472106dcb14e39b99","categoryId":"4bf58dd8d48988d11b941735","category":"Pub","checkinsCount":434,"usersCount":221,"tipCount":3,"visitsCount":508,"url":"http://www.beefeater.co.uk/steak-restaurant/Bristol/Emersons-Green.html","tier":"","message":"","currency":"","rating":6.1},{"name":"Java","phone":"+441179304561","twitter":"java_bristol","address":"9 Park St","lat":51.453345031313276,"lng":-2.6016005873680115,"city_fetched":"Bristol,UK","state":"Bristol","country":"United Kingdom","canonicalUrl":"https://foursquare.com/v/java/4bb791c653649c745fe445fb","categoryId":"4bf58dd8d48988d116941735","category":"Bar","checkinsCount":278,"usersCount":154,"tipCount":4,"visitsCount":279,"url":"http://www.javabristol.co.uk","tier":"","message":"","currency":"","rating":6.1},{"name":"Greenhouse","phone":"+441179276426","twitter":"greenhousebris","address":"37 College Green","lat":51.45260626911656,"lng":-2.5995772975930955,"city_fetched":"Bristol,UK","state":"Bristol","country":"United Kingdom","canonicalUrl":"https://foursquare.com/v/greenhouse/4b96bd95f964a5208ae134e3","categoryId":"4bf58dd8d48988d11b941735","category":"Pub","checkinsCount":588,"usersCount":352,"tipCount":5,"visitsCount":605,"url":"http://www.the1440.co.uk","tier":"","message":"","currency":"","rating":6},{"name":"Pitcher & Piano","phone":"+441179299652","twitter":"pandpbristol","address":"V Shed, Canon's Rd","lat":51.450121962681095,"lng":-2.5982164661614675,"neighborhood":"Harbourside","city_fetched":"Bristol,UK","state":"Bristol","country":"United Kingdom","canonicalUrl":"https://foursquare.com/v/pitcher--piano/4b76cbdef964a520c05f2ee3","categoryId":"4bf58dd8d48988d116941735","category":"Bar","checkinsCount":1515,"usersCount":1102,"tipCount":23,"visitsCount":1554,"url":"http://www.pitcherandpiano.com","tier":"","message":"","currency":"","rating":6},{"name":"The Commercial Rooms (Wetherspoon)","phone":"+441179279681","address":"43-45 Corn St","lat":51.454458993377095,"lng":-2.5945184886893964,"neighborhood":"Broadmead","city_fetched":"Bristol,UK","country":"United Kingdom","canonicalUrl":"https://foursquare.com/v/the-commercial-rooms-wetherspoon/4b058836f964a520b9b822e3","categoryId":"4bf58dd8d48988d11b941735","category":"Pub","checkinsCount":2389,"usersCount":1007,"tipCount":20,"visitsCount":2534,"url":"http://www.jdwetherspoon.co.uk","tier":"","message":"","currency":"","rating":6},{"name":"White Lion","lat":51.45521658481239,"lng":-2.596247455987006,"neighborhood":"Broadmead","city_fetched":"Bristol,UK","country":"United Kingdom","canonicalUrl":"https://foursquare.com/v/white-lion/4ccc7b5b54f0b1f746d116ca","categoryId":"4bf58dd8d48988d116941735","category":"Bar","checkinsCount":197,"usersCount":140,"tipCount":4,"visitsCount":216,"tier":"","message":"","currency":"","rating":6},{"name":"Old Market Tavern","phone":"+441179226123","address":"29-30 Old Market St","lat":51.45613106634712,"lng":-2.5822393070123284,"city_fetched":"Bristol,UK","country":"United Kingdom","canonicalUrl":"https://foursquare.com/v/old-market-tavern/4b058836f964a520c2b822e3","categoryId":"4bf58dd8d48988d11b941735","category":"Pub","checkinsCount":794,"usersCount":144,"tipCount":8,"visitsCount":805,"url":"http://www.omtbristol.co.uk","tier":"","message":"","currency":"","rating":6},{"name":"The Brass Pig","phone":"+441173294471","twitter":"thebrasspig","address":"1 Clifton Heights","lat":51.45627995591576,"lng":-2.6082658767700195,"city_fetched":"Bristol,UK","state":"Bristol","country":"United Kingdom","canonicalUrl":"https://foursquare.com/v/the-brass-pig/4cb0d86e75ebb60c8f50c8ad","categoryId":"4bf58dd8d48988d116941735","category":"Bar","checkinsCount":371,"usersCount":297,"tipCount":11,"visitsCount":411,"url":"http://www.thebrasspig.co.uk","tier":"","message":"","currency":"","rating":5.9},{"name":"All Bar One","address":"45 Corn Street","lat":51.454427,"lng":-2.594239,"neighborhood":"Broadmead","city_fetched":"Bristol,UK","state":"Bristol","country":"United Kingdom","canonicalUrl":"https://foursquare.com/v/all-bar-one/4b058837f964a520d8b822e3","categoryId":"4bf58dd8d48988d116941735","category":"Bar","checkinsCount":241,"usersCount":163,"tipCount":4,"visitsCount":241,"tier":"","message":"","currency":"","rating":5.9},{"name":"The Lamb & Lion","lat":51.37993675152943,"lng":-2.3604578596056123,"city_fetched":"Bristol,UK","state":"Bath and North East Somerset","country":"United Kingdom","canonicalUrl":"https://foursquare.com/v/the-lamb--lion/4c068f2ccf8c76b00fac3a65","categoryId":"4bf58dd8d48988d11b941735","category":"Pub","checkinsCount":450,"usersCount":366,"tipCount":9,"visitsCount":508,"tier":"","message":"","currency":"","rating":5.9},{"name":"V-Shed (Wetherspoon)","phone":"+441179529950","address":"The Waterfront","lat":51.44987741817896,"lng":-2.5983320906753726,"neighborhood":"Harbourside","city_fetched":"Bristol,UK","country":"United Kingdom","canonicalUrl":"https://foursquare.com/v/vshed-wetherspoon/4bd5cd6b7b1876b04c628b86","categoryId":"4bf58dd8d48988d11b941735","category":"Pub","checkinsCount":1686,"usersCount":914,"tipCount":12,"visitsCount":1691,"url":"http://www.jdwetherspoon.co.uk","tier":"","message":"","currency":"","rating":5.9},{"name":"Lakota","phone":"+441179426208","address":"6 Upper York St.","lat":51.46142,"lng":-2.589603066444397,"neighborhood":"Stokes Croft","city_fetched":"Bristol,UK","state":"Bristol","country":"United Kingdom","canonicalUrl":"https://foursquare.com/v/lakota/4b058839f964a5204ab922e3","categoryId":"4bf58dd8d48988d11f941735","category":"Nightclub","checkinsCount":152,"usersCount":146,"tipCount":5,"visitsCount":181,"url":"http://www.lakota.co.uk","tier":"","message":"","currency":"","rating":5.9},{"name":"Agora","phone":"+441179294888","address":"55 Park St.","lat":51.45455846835137,"lng":-2.60301411151886,"city_fetched":"Bristol,UK","state":"Bristol","country":"United Kingdom","canonicalUrl":"https://foursquare.com/v/agora/4b4e6a00f964a520d8ec26e3","categoryId":"4bf58dd8d48988d116941735","category":"Bar","checkinsCount":307,"usersCount":191,"tipCount":1,"visitsCount":311,"tier":"","message":"","currency":"","rating":5.9},{"name":"The White Harte","phone":"+441179292490","address":"54-58 Park Row","lat":51.45558540381093,"lng":-2.6028718394111263,"city_fetched":"Bristol,UK","state":"Bristol","country":"United Kingdom","canonicalUrl":"https://foursquare.com/v/the-white-harte/4b927ec6f964a52030fe33e3","categoryId":"4bf58dd8d48988d116941735","category":"Bar","checkinsCount":862,"usersCount":472,"tipCount":8,"visitsCount":902,"url":"http://www.screampubs.co.uk/thewhitehartebristol","tier":"","message":"","currency":"","rating":5.8},{"name":"Molloys","phone":"+441179458891","address":"18 Baldwin St.","lat":51.4533757106405,"lng":-2.5955695678117,"neighborhood":"Broadmead","city_fetched":"Bristol,UK","state":"Bristol","country":"United Kingdom","canonicalUrl":"https://foursquare.com/v/molloys/4d4ef9fd8af6721e0fe41588","categoryId":"4bf58dd8d48988d11b941735","category":"Pub","checkinsCount":456,"usersCount":254,"tipCount":3,"visitsCount":469,"tier":"","message":"","currency":"","rating":5.8},{"name":"Stag and Hounds","twitter":"stagandhounds","address":"74 Old Market St","lat":51.45559609869832,"lng":-2.5830612034409013,"city_fetched":"Bristol,UK","country":"United Kingdom","canonicalUrl":"https://foursquare.com/v/stag-and-hounds/4c4a9eeb5609c9b635d5ef8f","categoryId":"4bf58dd8d48988d11b941735","category":"Pub","checkinsCount":442,"usersCount":253,"tipCount":4,"visitsCount":488,"url":"http://www.stagandhoundsbristol.co.uk","tier":"","message":"","currency":"","rating":5.8},{"name":"The Cider Press","phone":"+441179892471","twitter":"scream_pubs","address":"86-90 Gloucester Rd","lat":51.47435329904413,"lng":-2.5915375271529686,"city_fetched":"Bristol,UK","state":"Bristol","country":"United Kingdom","canonicalUrl":"https://foursquare.com/v/the-cider-press/4f244e38e4b04f6e690ddc7a","categoryId":"4bf58dd8d48988d116941735","category":"Bar","checkinsCount":308,"usersCount":151,"tipCount":4,"visitsCount":323,"url":"http://www.screampubs.co.uk/theciderpressbristol/","tier":"","message":"","currency":"","rating":5.8},{"name":"SWX","phone":"+441179450325","twitter":"syndicateclub","address":"15 Nelson St","lat":51.456701125512716,"lng":-2.592194080352783,"neighborhood":"Broadmead","city_fetched":"Bristol,UK","country":"United Kingdom","canonicalUrl":"https://foursquare.com/v/swx/4b058839f964a52052b922e3","categoryId":"4bf58dd8d48988d11f941735","category":"Nightclub","checkinsCount":960,"usersCount":556,"tipCount":7,"visitsCount":1101,"url":"http://swxbristol.com","tier":"","message":"","currency":"","rating":5.7},{"name":"The Berkeley (Wetherspoon)","phone":"+441179279550","twitter":"jdwtweet","address":"15-19 Queens Rd","lat":51.455845411782356,"lng":-2.605186700820923,"city_fetched":"Bristol,UK","country":"United Kingdom","canonicalUrl":"https://foursquare.com/v/the-berkeley-wetherspoon/4c87aa7c821e9eb07acc8d89","categoryId":"4bf58dd8d48988d11b941735","category":"Pub","checkinsCount":1407,"usersCount":708,"tipCount":12,"visitsCount":1434,"url":"http://www.jdwetherspoon.co.uk","tier":"","message":"","currency":"","rating":5.7},{"name":"Slug and Lettuce","phone":"+441179253993","twitter":"slugharbourside","address":"Explore Ln","lat":51.4499804472367,"lng":-2.60097566225333,"neighborhood":"Harbourside","city_fetched":"Bristol,UK","state":"Bristol","country":"United Kingdom","canonicalUrl":"https://foursquare.com/v/slug-and-lettuce/53c93316498eff10bca07408","categoryId":"4bf58dd8d48988d116941735","category":"Bar","checkinsCount":137,"usersCount":93,"tipCount":2,"visitsCount":141,"url":"http://www.slugandlettuce.co.uk/slug-bristol-harbourside/","tier":"","message":"","currency":"","rating":5.7},{"name":"Slug and Lettuce","phone":"+441179529900","address":"26-28 Saint Nicholas St.","lat":51.45385371481233,"lng":-2.5939754845122627,"neighborhood":"Broadmead","city_fetched":"Bristol,UK","country":"United Kingdom","canonicalUrl":"https://foursquare.com/v/slug-and-lettuce/4b058836f964a520bbb822e3","categoryId":"4bf58dd8d48988d11b941735","category":"Pub","checkinsCount":590,"usersCount":379,"tipCount":10,"visitsCount":594,"tier":"","message":"","currency":"","rating":5.7},{"name":"The Bay Horse","phone":"+441179258287","address":"1 Lewin's Mead","lat":51.457852,"lng":-2.5930297,"neighborhood":"Broadmead","city_fetched":"Bristol,UK","country":"United Kingdom","canonicalUrl":"https://foursquare.com/v/the-bay-horse/4bca18b168f976b0a4a15e83","categoryId":"4bf58dd8d48988d11b941735","category":"Pub","checkinsCount":434,"usersCount":295,"tipCount":8,"visitsCount":453,"url":"http://www.originalpubco.com","tier":"","message":"","currency":"","rating":5.6},{"name":"Copper Jacks","phone":"+441179276762","address":"30 Clare Street","lat":51.45407485961914,"lng":-2.595165252685547,"neighborhood":"Broadmead","city_fetched":"Bristol,UK","state":"Bristol","country":"United Kingdom","canonicalUrl":"https://foursquare.com/v/copper-jacks/521d0f9d498e3a6bbcb985e5","categoryId":"4bf58dd8d48988d116941735","category":"Bar","checkinsCount":56,"usersCount":47,"tipCount":3,"visitsCount":56,"tier":"","message":"","currency":"","rating":5.6},{"name":"The Orchard Inn","lat":51.447482,"lng":-2.609373,"city_fetched":"Bristol,UK","country":"United Kingdom","canonicalUrl":"https://foursquare.com/v/the-orchard-inn/4bf8457b5317a5938e85ff7e","categoryId":"4bf58dd8d48988d11b941735","category":"Pub","checkinsCount":165,"usersCount":102,"tipCount":2,"visitsCount":181,"tier":"","message":"","currency":"","rating":5.6},{"name":"The Elbow Room","phone":"+441179300242","twitter":"elbow__room","address":"64 Park St","lat":51.45479580350486,"lng":-2.6029014587402344,"city_fetched":"Bristol,UK","state":"Bristol","country":"United Kingdom","canonicalUrl":"https://foursquare.com/v/the-elbow-room/4b058837f964a520f3b822e3","categoryId":"4bf58dd8d48988d11d941735","category":"Sports Bar","checkinsCount":229,"usersCount":179,"tipCount":4,"visitsCount":229,"url":"http://theelbowroom.co.uk","tier":"","message":"","currency":"","rating":5.6},{"name":"Roo Bar","phone":"+441179237204","address":"Whiteladies Gate","lat":51.46450975254823,"lng":-2.6117169128534474,"city_fetched":"Bristol,UK","state":"Bristol","country":"United Kingdom","canonicalUrl":"https://foursquare.com/v/roo-bar/4b058836f964a520c5b822e3","categoryId":"4bf58dd8d48988d11b941735","category":"Pub","checkinsCount":475,"usersCount":227,"tipCount":7,"visitsCount":520,"url":"http://www.originalpubco.com","tier":"","message":"","currency":"","rating":5.6},{"name":"The Drawbridge","phone":"+441179298391","address":"14 St Augustines Parade","lat":51.45327148863797,"lng":-2.5980091094970703,"city_fetched":"Bristol,UK","state":"Bristol","country":"United Kingdom","canonicalUrl":"https://foursquare.com/v/the-drawbridge/4bd5ff76637ba593606ff770","categoryId":"4bf58dd8d48988d11b941735","category":"Pub","checkinsCount":381,"usersCount":276,"tipCount":6,"visitsCount":381,"url":"http://www.originalpubco.com","tier":"","message":"","currency":"","rating":5.5},{"name":"Bar Humbug","phone":"+441179040061","address":"89 Whiteladies Rd.","lat":51.4634923,"lng":-2.6092636,"city_fetched":"Bristol,UK","state":"Bristol","country":"United Kingdom","canonicalUrl":"https://foursquare.com/v/bar-humbug/4b058837f964a520e2b822e3","categoryId":"4bf58dd8d48988d116941735","category":"Bar","checkinsCount":145,"usersCount":100,"tipCount":3,"visitsCount":146,"url":"http://www.barhumbug.co.uk","tier":"","message":"","currency":"","rating":5.5},{"name":"Mackenzies","phone":"+441179225496","address":"Canon's Rd, Harbourside","lat":51.45110693503947,"lng":-2.5978947600095403,"neighborhood":"Harbourside","city_fetched":"Bristol,UK","country":"United Kingdom","canonicalUrl":"https://foursquare.com/v/mackenzies/4c1645ee7f7f2d7f1cafe368","categoryId":"4bf58dd8d48988d116941735","category":"Bar","checkinsCount":682,"usersCount":576,"tipCount":18,"visitsCount":704,"url":"http://www.mackenzies.co.uk","tier":"","message":"","currency":"","rating":5.5},{"name":"The Crown","phone":"+441179349996","address":"10th All Saints Ln","lat":51.454115648887864,"lng":-2.5929511598869706,"neighborhood":"Broadmead","city_fetched":"Bristol,UK","country":"United Kingdom","canonicalUrl":"https://foursquare.com/v/the-crown/4b6b2506f964a520a6f52be3","categoryId":"4bf58dd8d48988d11b941735","category":"Pub","checkinsCount":773,"usersCount":297,"tipCount":6,"visitsCount":779,"tier":"","message":"","currency":"","rating":5.5},{"name":"St Georges Hall (Wetherspoon)","phone":"+441179551488","address":"203 Church Rd","lat":51.45923977790989,"lng":-2.555145693450889,"neighborhood":"Easton","city_fetched":"Bristol,UK","state":"Bristol","country":"United Kingdom","canonicalUrl":"https://foursquare.com/v/st-georges-hall-wetherspoon/4c87aa7c821e9eb079cc8d89","categoryId":"4bf58dd8d48988d11b941735","category":"Pub","checkinsCount":585,"usersCount":198,"tipCount":5,"visitsCount":760,"url":"http://www.jdwetherspoon.co.uk","tier":"","message":"","currency":"","rating":5.5},{"name":"Ye Shakespeare","address":"78 Victoria St","lat":51.4515495300293,"lng":-2.587391,"city_fetched":"Bristol,UK","state":"Bristol","country":"United Kingdom","canonicalUrl":"https://foursquare.com/v/ye-shakespeare/4b51b865f964a5207f5327e3","categoryId":"50327c8591d4c4b30a586d5d","category":"Brewery","checkinsCount":212,"usersCount":145,"tipCount":3,"visitsCount":212,"tier":"","message":"","currency":"","rating":5.5},{"name":"The Folly Inn","phone":"+441179573961","address":"Westerleigh Road","lat":51.50166367816012,"lng":-2.4791336059570312,"city_fetched":"Bristol,UK","state":"Bristol","country":"United Kingdom","canonicalUrl":"https://foursquare.com/v/the-folly-inn/4be91851e1b39521154b21c1","categoryId":"4bf58dd8d48988d11b941735","category":"Pub","checkinsCount":103,"usersCount":59,"tipCount":3,"visitsCount":110,"tier":"","message":"","currency":"","rating":5.5},{"name":"Brunel Bar & Kitchen","address":"Bristol Airport","lat":51.38626,"lng":-2.71063,"city_fetched":"Bristol,UK","state":"Bristol","country":"United Kingdom","canonicalUrl":"https://foursquare.com/v/brunel-bar--kitchen/5515b36a498ec1fbae77fb4d","categoryId":"4bf58dd8d48988d116941735","category":"Bar","checkinsCount":76,"usersCount":68,"tipCount":2,"visitsCount":77,"url":"http://www.bristolairport.co.uk/at-the-airport/shop-and-eat/brunel-bar-and-kitchen","tier":"","message":"","currency":"","rating":5.4},{"name":"The Bristol Ram","phone":"+441179268654","address":"32 Park St.","lat":51.453961,"lng":-2.601889,"city_fetched":"Bristol,UK","state":"Bristol","country":"United Kingdom","canonicalUrl":"https://foursquare.com/v/the-bristol-ram/4b058836f964a520cfb822e3","categoryId":"4bf58dd8d48988d11b941735","category":"Pub","checkinsCount":486,"usersCount":319,"tipCount":8,"visitsCount":506,"url":"http://www.bristolram.com","tier":"","message":"","currency":"","rating":5.4},{"name":"Bierkeller","phone":"+441179268514","twitter":"bs1bierkeller","address":"All Saints' St","lat":51.45615142236272,"lng":-2.592409034629494,"neighborhood":"Broadmead","city_fetched":"Bristol,UK","state":"Bristol","country":"United Kingdom","canonicalUrl":"https://foursquare.com/v/bierkeller/4b058838f964a52026b922e3","categoryId":"4bf58dd8d48988d11f941735","category":"Nightclub","checkinsCount":256,"usersCount":156,"tipCount":7,"visitsCount":257,"url":"http://www.bristolbierkeller.co.uk","tier":"","message":"","currency":"","rating":5.4},{"name":"The Goods Yard","lat":51.451108,"lng":-2.58161,"city_fetched":"Bristol,UK","country":"United Kingdom","canonicalUrl":"https://foursquare.com/v/the-goods-yard/51b8e679498ed3000c78d976","categoryId":"4bf58dd8d48988d117941735","category":"Beer Garden","checkinsCount":102,"usersCount":60,"tipCount":3,"visitsCount":104,"tier":"","message":"","currency":"","rating":5.4},{"name":"The Bishops Tavern","phone":"+441179445169","address":"225-229 Cheltenham Rd","lat":51.46983480675136,"lng":-2.593572672979565,"city_fetched":"Bristol,UK","state":"Bristol","country":"United Kingdom","canonicalUrl":"https://foursquare.com/v/the-bishops-tavern/4b8139b5f964a5202a9b30e3","categoryId":"4bf58dd8d48988d11b941735","category":"Pub","checkinsCount":284,"usersCount":141,"tipCount":3,"visitsCount":288,"url":"http://gkpubs.co.uk","tier":"","message":"","currency":"","rating":5.3},{"name":"Bsb waterside","phone":"+441179220382","address":"U Shed","lat":51.45056322667005,"lng":-2.597737391624527,"neighborhood":"Harbourside","city_fetched":"Bristol,UK","state":"Bristol","country":"United Kingdom","canonicalUrl":"https://foursquare.com/v/bsb-waterside/4caf5be0c5e6a1cd632dccf6","categoryId":"4bf58dd8d48988d116941735","category":"Bar","checkinsCount":506,"usersCount":369,"tipCount":6,"visitsCount":513,"url":"http://www.bsbbars.co.uk","tier":"","message":"","currency":"","rating":5.3},{"name":"Reflex","phone":"+441179458891","twitter":"reflexbristol","address":"16-24 Baldwin St","lat":51.453224688691975,"lng":-2.5953805446624756,"neighborhood":"Old City","city_fetched":"Bristol,UK","state":"Bristol","country":"United Kingdom","canonicalUrl":"https://foursquare.com/v/reflex/4bd4529741b9ef3b80b901e6","categoryId":"4bf58dd8d48988d11f941735","category":"Nightclub","checkinsCount":87,"usersCount":75,"tipCount":4,"visitsCount":87,"url":"http://www.reflexbristol.co.uk","tier":"","message":"","currency":"","rating":5.2},{"name":"Zoom","phone":"+441179297328","address":"41-43 Baldwin St","lat":51.45333757219125,"lng":-2.5939402555740436,"neighborhood":"Old City","city_fetched":"Bristol,UK","state":"Bristol","country":"United Kingdom","canonicalUrl":"https://foursquare.com/v/zoom/4c1bd4ceb306c92876dc62b7","categoryId":"4bf58dd8d48988d116941735","category":"Bar","checkinsCount":243,"usersCount":120,"tipCount":3,"visitsCount":245,"tier":"","message":"","currency":"","rating":5.2},{"name":"The Robert Fitzharding (Wetherspoon)","phone":"+441179662757","address":"24 Cannon St","lat":51.4409485378493,"lng":-2.6009963225986557,"neighborhood":"Bedminster","city_fetched":"Bristol,UK","state":"Bristol","country":"United Kingdom","canonicalUrl":"https://foursquare.com/v/the-robert-fitzharding-wetherspoon/4c3836ac1e06d13a2e66773e","categoryId":"4bf58dd8d48988d11b941735","category":"Pub","checkinsCount":1597,"usersCount":229,"tipCount":4,"visitsCount":1703,"url":"http://www.jdwetherspoon.co.uk","tier":"","message":"","currency":"","rating":5.1},{"name":"Bent","address":"Frogmore St.","lat":51.453421893698035,"lng":-2.6007961446584114,"city_fetched":"Bristol,UK","state":"Bristol","country":"United Kingdom","canonicalUrl":"https://foursquare.com/v/bent/4e084f88d22d658532aaf5b6","categoryId":"4bf58dd8d48988d116941735","category":"Bar","checkinsCount":168,"usersCount":84,"tipCount":1,"visitsCount":170,"tier":"","message":"","currency":"","rating":5.1}]