[{"name":"Bridge Inn","phone":"+441313331320","address":"27 Baird Rd","lat":55.92313664860313,"lng":-3.3791716551403495,"neighborhood":"Ratho","city_fetched":"Broxburn,UK","state":"Midlothian","country":"United Kingdom","canonicalUrl":"https://foursquare.com/v/bridge-inn/4bbf8940abf4952183cfbd93","categoryId":"4bf58dd8d48988d11b941735","category":"Pub","checkinsCount":619,"usersCount":313,"tipCount":6,"visitsCount":782,"tier":"","message":"","currency":"","rating":7.8},{"name":"Club Earth","phone":"+441506435222","address":"Almondside","lat":55.88691340894151,"lng":-3.510603904724121,"city_fetched":"Broxburn,UK","state":"West Lothian","country":"United Kingdom","canonicalUrl":"https://foursquare.com/v/club-earth/4ba42880f964a520818738e3","categoryId":"4bf58dd8d48988d11f941735","category":"Nightclub","checkinsCount":103,"usersCount":43,"tipCount":3,"visitsCount":117,"tier":"","message":"","currency":"","rating":6.6},{"name":"Deer Park Beefeater","phone":"+441506439202","twitter":"beefeatergrill","address":"Deer Park Av","lat":55.91522028114076,"lng":-3.5262361696605886,"city_fetched":"Broxburn,UK","state":"West Lothian","country":"United Kingdom","canonicalUrl":"https://foursquare.com/v/deer-park-beefeater/4ba374cff964a520913e38e3","categoryId":"4bf58dd8d48988d11b941735","category":"Pub","checkinsCount":289,"usersCount":160,"tipCount":1,"visitsCount":326,"url":"http://www.beefeater.co.uk","tier":"","message":"","currency":"","rating":5.6}]