[{"name":"The Angel at Burford","phone":"+441993822714","address":"14 Witney St.","lat":51.807592919015136,"lng":-1.6357265618322083,"city_fetched":"Burford","state":"Oxfordshire","country":"United Kingdom","canonicalUrl":"https://foursquare.com/v/the-angel-at-burford/4bd72e71304fce72612f33ab","category":"Pub","checkinsCount":44,"usersCount":45,"tipCount":2,"visitsCount":52,"url":"http://www.theangelatburford.co.uk","tier":"","message":"","currency":"","rating":7.7},{"name":"The Highway Inn","phone":"+441993823661","twitter":"highwayinnhotel","address":"117 High St","lat":51.807064,"lng":-1.636857,"city_fetched":"Burford","state":"Oxfordshire","country":"United Kingdom","canonicalUrl":"https://foursquare.com/v/the-highway-inn/4c4af0d7f7cc1b8d8eb1253f","category":"Pub","checkinsCount":99,"usersCount":77,"tipCount":6,"visitsCount":100,"url":"http://www.thehighwayinn.co.uk","tier":"","message":"","currency":"","rating":7.5},{"name":"Cotswold Arms","phone":"+441993822227","twitter":"cotswoldarms","address":"46 High St","lat":51.80879443108227,"lng":-1.636298,"city_fetched":"Burford","state":"Oxfordshire","country":"United Kingdom","canonicalUrl":"https://foursquare.com/v/cotswold-arms/4c6e8d711bc49521641a2869","category":"Pub","checkinsCount":152,"usersCount":140,"tipCount":3,"visitsCount":168,"url":"http://www.cotswoldarms.co.uk","tier":"","message":"","currency":"","rating":6.3},{"name":"The Mermaid Inn","address":"78 High St","lat":51.808168,"lng":-1.63661,"city_fetched":"Burford","state":"Oxfordshire","country":"United Kingdom","canonicalUrl":"https://foursquare.com/v/the-mermaid-inn/4c4af123c668e21ed3265bf9","category":"Pub","checkinsCount":128,"usersCount":118,"tipCount":5,"visitsCount":131,"tier":"","message":"","currency":"","rating":5.7},{"name":"The Golden Pheasant Inn","phone":"+441993823223","address":"91 High St","lat":51.80794857583574,"lng":-1.6364371417092,"city_fetched":"Burford","state":"Oxfordshire","country":"United Kingdom","canonicalUrl":"https://foursquare.com/v/the-golden-pheasant-inn/4dc056971e72dd48b206728f","category":"Pub","checkinsCount":62,"usersCount":58,"tipCount":4,"visitsCount":62,"url":"http://www.goldenpheasantburford.com","tier":"","message":"","currency":"","rating":5.6}]