[{"name":"Quench","phone":"+441444253332","twitter":"quenchbar","address":"2-4 Church Rd","lat":50.95477544517914,"lng":-0.12850815560604167,"city_fetched":"Burgess Hill","state":"West Sussex","country":"United Kingdom","canonicalUrl":"https://foursquare.com/v/quench/4b524f69f964a520747627e3","category":"Bar","checkinsCount":1180,"usersCount":138,"tipCount":8,"visitsCount":1318,"url":"http://www.quenchbar.co.uk","tier":"","message":"","currency":"","rating":7.7},{"name":"The Six Gold Martlets (Wetherspoon)","phone":"+441444231250","address":"49-51 Church Walk","lat":50.95564311702413,"lng":-0.13096076074322976,"city_fetched":"Burgess Hill","state":"West Sussex","country":"United Kingdom","canonicalUrl":"https://foursquare.com/v/the-six-gold-martlets-wetherspoon/535d4a9d498ef304aa830a15","category":"Gastropub","checkinsCount":230,"usersCount":62,"tipCount":4,"visitsCount":276,"tier":"","message":"","currency":"","rating":6.7},{"name":"The Oak Barn","address":"Cuckfield Road","lat":50.969470488771705,"lng":-0.14118156228023154,"city_fetched":"Burgess Hill","state":"West Sussex","country":"United Kingdom","canonicalUrl":"https://foursquare.com/v/the-oak-barn/4ce91efb0f196dcbecef49ae","category":"Pub","checkinsCount":99,"usersCount":98,"tipCount":2,"visitsCount":151,"tier":"","message":"","currency":"","rating":6.5},{"name":"The Railway","phone":"+441444247474","address":"Station Rd","lat":50.95422685561118,"lng":-0.1275594349097993,"city_fetched":"Burgess Hill","state":"West Sussex","country":"United Kingdom","canonicalUrl":"https://foursquare.com/v/the-railway/4b52426df964a520537327e3","category":"Pub","checkinsCount":789,"usersCount":173,"tipCount":10,"visitsCount":849,"url":"http://www.gkflamegrill.co.uk","tier":"","message":"","currency":"","rating":5.8}]