[{"name":"Rich's Farmhouse Cider","address":"Mill House","lat":51.21887187891004,"lng":-2.9364669352311275,"city_fetched":"Burnham-on-Sea,UK","state":"Somerset","country":"United Kingdom","canonicalUrl":"https://foursquare.com/v/richs-farmhouse-cider/4e846a36f790d5a6f99397ad","categoryId":"50327c8591d4c4b30a586d5d","category":"Brewery","checkinsCount":94,"usersCount":62,"tipCount":7,"visitsCount":104,"tier":"","message":"","currency":"","rating":8.1},{"name":"Admirals Table","phone":"+441278685671","lat":51.163025,"lng":-2.987408,"city_fetched":"Burnham-on-Sea,UK","state":"Somerset","country":"United Kingdom","canonicalUrl":"https://foursquare.com/v/admirals-table/4bdedb63fe0e62b5a3000606","categoryId":"4bf58dd8d48988d116941735","category":"Bar","checkinsCount":143,"usersCount":82,"tipCount":5,"visitsCount":161,"url":"http://www.admiralstablepubbridgwater.co.uk","tier":"","message":"","currency":"","rating":7.6},{"name":"The Beachcomber Inn","phone":"+448719511000","address":"Warren Rd","lat":51.30169107734087,"lng":-3.0094722417070954,"city_fetched":"Burnham-on-Sea,UK","state":"Somerset","country":"United Kingdom","canonicalUrl":"https://foursquare.com/v/the-beachcomber-inn/4db17cb4a86e63d2116bcd2b","categoryId":"4bf58dd8d48988d11b941735","category":"Pub","checkinsCount":77,"usersCount":49,"tipCount":2,"visitsCount":109,"tier":"","message":"","currency":"","rating":7},{"name":"The Reeds Arms (Wetherspoon)","phone":"+441278764060","address":"1 Pier St","lat":51.23430658591684,"lng":-2.998988628387451,"city_fetched":"Burnham-on-Sea,UK","state":"Somerset","country":"United Kingdom","canonicalUrl":"https://foursquare.com/v/the-reeds-arms-wetherspoon/4c87aa86821e9eb082cc8d89","categoryId":"4bf58dd8d48988d11b941735","category":"Pub","checkinsCount":610,"usersCount":193,"tipCount":6,"visitsCount":629,"url":"http://www.jdwetherspoon.co.uk","tier":"","message":"","currency":"","rating":6.9},{"name":"The Bower Inn","address":"Bower Lane","lat":51.13299663474042,"lng":-2.972335664121235,"city_fetched":"Burnham-on-Sea,UK","state":"Somerset","country":"United Kingdom","canonicalUrl":"https://foursquare.com/v/the-bower-inn/4d987fc3c19fb60cf06eaf65","categoryId":"4bf58dd8d48988d11b941735","category":"Pub","checkinsCount":67,"usersCount":48,"tipCount":3,"visitsCount":80,"tier":"","message":"","currency":"","rating":6.8},{"name":"Krackers Bar","phone":"+441278751023","address":"South Rd., Brean","lat":51.287165124124,"lng":-3.011007788850533,"city_fetched":"Burnham-on-Sea,UK","state":"Somerset","country":"United Kingdom","canonicalUrl":"https://foursquare.com/v/krackers-bar/4cf4132e1d18a143edcc63ec","categoryId":"4bf58dd8d48988d120941735","category":"Karaoke Bar","checkinsCount":107,"usersCount":69,"tipCount":2,"visitsCount":136,"tier":"","message":"","currency":"","rating":6.7},{"name":"Bonds Wine Bar","phone":"+441934635747","address":"18 Walliscote Rd","lat":51.346260673585455,"lng":-2.976111603457223,"city_fetched":"Burnham-on-Sea,UK","state":"North Somerset","country":"United Kingdom","canonicalUrl":"https://foursquare.com/v/bonds-wine-bar/4bae4865f964a520f89c3be3","categoryId":"4bf58dd8d48988d123941735","category":"Wine Bar","checkinsCount":166,"usersCount":46,"tipCount":6,"visitsCount":169,"url":"http://www.bondswinebar.com","tier":"","message":"","currency":"","rating":6.6},{"name":"The Carnival Inn  (Wetherspoon)","phone":"+441278726180","address":"37 St Mary St.","lat":51.12741893551187,"lng":-3.003930960202851,"city_fetched":"Burnham-on-Sea,UK","state":"Somerset","country":"United Kingdom","canonicalUrl":"https://foursquare.com/v/the-carnival-inn--wetherspoon/4c87aa76821e9eb074cc8d89","categoryId":"4bf58dd8d48988d11b941735","category":"Pub","checkinsCount":918,"usersCount":140,"tipCount":3,"visitsCount":942,"url":"http://www.jdwetherspoon.co.uk","tier":"","message":"","currency":"","rating":6.4},{"name":"The Dunstan","phone":"+441278784343","address":"8-10 Love Ln.","lat":51.238613,"lng":-2.99318,"city_fetched":"Burnham-on-Sea,UK","state":"Somerset","country":"United Kingdom","canonicalUrl":"https://foursquare.com/v/the-dunstan/4bc74bf992b376b0b96c4f3a","categoryId":"4bf58dd8d48988d11b941735","category":"Pub","checkinsCount":132,"usersCount":62,"tipCount":4,"visitsCount":175,"tier":"","message":"","currency":"","rating":6.3},{"name":"Cabot Court Hotel (Wetherspoon)","phone":"+441934427930","twitter":"jdwtweet","address":"Knightstone Rd","lat":51.35040093628007,"lng":-2.9824093625121386,"city_fetched":"Burnham-on-Sea,UK","state":"North Somerset","country":"United Kingdom","canonicalUrl":"https://foursquare.com/v/cabot-court-hotel-wetherspoon/4e07585aaeb74c39910f90e0","categoryId":"4bf58dd8d48988d11b941735","category":"Pub","checkinsCount":782,"usersCount":425,"tipCount":15,"visitsCount":959,"url":"http://www.jdwetherspoon.co.uk","tier":"","message":"","currency":"","rating":6.3},{"name":"Brewers Fayre","phone":"+441278440550","address":"Express Park","lat":51.1458820462858,"lng":-2.9915284712552603,"city_fetched":"Burnham-on-Sea,UK","state":"Somerset","country":"United Kingdom","canonicalUrl":"https://foursquare.com/v/brewers-fayre/4c529e622d51952106734390","categoryId":"4bf58dd8d48988d11b941735","category":"Pub","checkinsCount":221,"usersCount":108,"tipCount":1,"visitsCount":249,"tier":"","message":"","currency":"","rating":6},{"name":"Catherines Inn","phone":"+441934812275","address":"Bleadon Rd","lat":51.30848506643978,"lng":-2.957823651091722,"city_fetched":"Burnham-on-Sea,UK","state":"North Somerset","country":"United Kingdom","canonicalUrl":"https://foursquare.com/v/catherines-inn/4c9f2c6a542b224b1efefa9f","categoryId":"4bf58dd8d48988d11b941735","category":"Pub","checkinsCount":103,"usersCount":68,"tipCount":3,"visitsCount":122,"url":"http://www.catherinesinn-somerset.co.uk","tier":"","message":"","currency":"","rating":5.6},{"name":"The Cornhill","phone":"+441278429292","address":"6-7 Cornhill","lat":51.128159249825245,"lng":-3.0037728071536516,"city_fetched":"Burnham-on-Sea,UK","state":"Somerset","country":"United Kingdom","canonicalUrl":"https://foursquare.com/v/the-cornhill/4bd6c07b6798ef3b7985658d","categoryId":"4bf58dd8d48988d116941735","category":"Bar","checkinsCount":185,"usersCount":87,"tipCount":2,"visitsCount":186,"tier":"","message":"","currency":"","rating":5.6},{"name":"DB's","address":"49 Oxford St","lat":51.34635583030212,"lng":-2.9771971909301924,"city_fetched":"Burnham-on-Sea,UK","state":"North Somerset","country":"United Kingdom","canonicalUrl":"https://foursquare.com/v/dbs/4bec815c976ac928881e610b","categoryId":"4bf58dd8d48988d116941735","category":"Bar","checkinsCount":229,"usersCount":51,"tipCount":5,"visitsCount":231,"tier":"","message":"","currency":"","rating":5.6},{"name":"The Dragon Inn (Wetherspoon)","phone":"+441934621304","address":"15 Meadow St","lat":51.347939,"lng":-2.977913,"city_fetched":"Burnham-on-Sea,UK","state":"North Somerset","country":"United Kingdom","canonicalUrl":"https://foursquare.com/v/the-dragon-inn-wetherspoon/4beec0d43686c9b6fee2246e","categoryId":"4bf58dd8d48988d11b941735","category":"Pub","checkinsCount":964,"usersCount":237,"tipCount":12,"visitsCount":1025,"url":"http://www.jdwetherspoon.co.uk","tier":"","message":"","currency":"","rating":5.5},{"name":"Yates's","phone":"+441934413206","address":"12 - 20 Regent's St","lat":51.347643,"lng":-2.979869842529297,"city_fetched":"Burnham-on-Sea,UK","state":"North Somerset","country":"United Kingdom","canonicalUrl":"https://foursquare.com/v/yatess/4c78109cdbaa76b0698e124b","categoryId":"4bf58dd8d48988d116941735","category":"Bar","checkinsCount":228,"usersCount":117,"tipCount":9,"visitsCount":228,"url":"http://www.weareyates.co.uk/weston","tier":"","message":"","currency":"","rating":5.3},{"name":"The Pavilion (Beefeater)","phone":"+441934622625","twitter":"beefeater","address":"Hutton Moor Rd","lat":51.34393562115549,"lng":-2.9496948191544647,"city_fetched":"Burnham-on-Sea,UK","state":"North Somerset","country":"United Kingdom","canonicalUrl":"https://foursquare.com/v/the-pavilion-beefeater/4c04ac0e0d0e0f479649049a","categoryId":"4bf58dd8d48988d11b941735","category":"Pub","checkinsCount":333,"usersCount":155,"tipCount":14,"visitsCount":371,"url":"http://www.beefeater.co.uk/steak-restaurant/Somerset/Pavilion-Weston-Super-Mare.html","tier":"","message":"","currency":"","rating":5}]