[{"name":"White Bear","address":"Gisburn Road","lat":53.853371338548946,"lng":-2.2149254945928503,"city_fetched":"Burnley","state":"Lancashire","country":"United Kingdom","canonicalUrl":"https://foursquare.com/v/white-bear/4bc0e2fcb492d13ad718a560","category":"Pub","checkinsCount":97,"usersCount":61,"tipCount":0,"visitsCount":113,"tier":"","message":"","currency":"","rating":7.4},{"name":"Sanctuary Burnley","phone":"+441282459595","address":"Cow lane","lat":53.78901555813945,"lng":-2.246532440185547,"city_fetched":"Burnley","state":"Lancashire","country":"United Kingdom","canonicalUrl":"https://foursquare.com/v/sanctuary-burnley/4c5dc3947f661b8d96544c1c","category":"Bar","checkinsCount":1800,"usersCount":83,"tipCount":14,"visitsCount":2026,"tier":"","message":"","currency":"","rating":7.4},{"name":"The Thatch and Thistle","twitter":"lancashireroads","address":"Scotland Rd","lat":53.843303626625854,"lng":-2.22052100463581,"city_fetched":"Burnley","state":"Lancashire","country":"United Kingdom","canonicalUrl":"https://foursquare.com/v/the-thatch-and-thistle/4b368deff964a520da3725e3","category":"Pub","checkinsCount":531,"usersCount":151,"tipCount":10,"visitsCount":612,"tier":"","message":"","currency":"","rating":7.3},{"name":"Sycamore Farm","address":"1 Empire way","lat":53.79001063919773,"lng":-2.2856712341308594,"city_fetched":"Burnley","state":"Lancashire","country":"United Kingdom","canonicalUrl":"https://foursquare.com/v/sycamore-farm/4c505f8438b0be9aaf1b6bfd","category":"Gastropub","checkinsCount":777,"usersCount":289,"tipCount":27,"visitsCount":968,"tier":"","message":"","currency":"","rating":6.9},{"name":"Ye Old Sparrowhawk, Fence","phone":"+441282603035","twitter":"thesparrowtweet","address":"152 Wheatley Lane Road","lat":53.842999433873594,"lng":-2.2445234656333923,"city_fetched":"Burnley","state":"Lancashire","country":"United Kingdom","canonicalUrl":"https://foursquare.com/v/ye-old-sparrowhawk-fence/4ba615e0f964a520893239e3","category":"Pub","checkinsCount":114,"usersCount":79,"tipCount":9,"visitsCount":134,"url":"http://www.thesparrowhawk.co.uk","tier":"","message":"","currency":"","rating":6.8},{"name":"The Wallace Hartley (Wetherspoon)","phone":"+441282857990","address":"35-37 Church St.","lat":53.8567129,"lng":-2.1706092000000003,"city_fetched":"Burnley","state":"Lancashire","country":"United Kingdom","canonicalUrl":"https://foursquare.com/v/the-wallace-hartley-wetherspoon/4b6dd9daf964a520a8952ce3","category":"Pub","checkinsCount":488,"usersCount":102,"tipCount":0,"visitsCount":506,"url":"http://www.jdwetherspoon.co.uk","tier":"","message":"","currency":"","rating":6.6},{"name":"Pendle Inn","phone":"+441282614808","twitter":"pendleinn","address":"The Bullion","lat":53.85936153222957,"lng":-2.272612314217722,"city_fetched":"Burnley","state":"Lancashire","country":"United Kingdom","canonicalUrl":"https://foursquare.com/v/pendle-inn/4bc20356f8219c747318b410","category":"Pub","checkinsCount":110,"usersCount":50,"tipCount":1,"visitsCount":127,"url":"http://www.pendle-inn.co.uk","tier":"","message":"","currency":"","rating":6.6},{"name":"Brewers Fayre","phone":"+448701977045","address":"Queen Victoria Road","lat":53.796611,"lng":-2.23345578,"city_fetched":"Burnley","state":"Lancashire","country":"United Kingdom","canonicalUrl":"https://foursquare.com/v/brewers-fayre/4c4eeb2efa9d95213abb6c0a","category":"Pub","checkinsCount":156,"usersCount":70,"tipCount":7,"visitsCount":159,"tier":"","message":"","currency":"","rating":6.2},{"name":"The Brun Lea (Wetherspoon)","phone":"+441282463700","address":"31-39 Manchester Rd.","lat":53.78800323664691,"lng":-2.243784122507233,"city_fetched":"Burnley","state":"Lancashire","country":"United Kingdom","canonicalUrl":"https://foursquare.com/v/the-brun-lea-wetherspoon/4bc0f97bb492d13aa34aa560","category":"Pub","checkinsCount":452,"usersCount":197,"tipCount":5,"visitsCount":494,"url":"http://www.jdwetherspoon.co.uk","tier":"","message":"","currency":"","rating":6.1},{"name":"Hollywood Star","phone":"+441282439521","twitter":"fayreandsquare","address":"Manchester Rd","lat":53.78548600335803,"lng":-2.247356140098902,"city_fetched":"Burnley","state":"Lancashire","country":"United Kingdom","canonicalUrl":"https://foursquare.com/v/hollywood-star/4f75c7bee4b0488590811bf2","category":"Pub","checkinsCount":67,"usersCount":26,"tipCount":2,"visitsCount":67,"url":"http://www.fayreandsquare.com","tier":"","message":"","currency":"","rating":5.9},{"name":"Walkabout","phone":"+441282455714","twitter":"burnleywalkie","address":"10-14 Hammerton St","lat":53.78902003,"lng":-2.245218,"city_fetched":"Burnley","country":"United Kingdom","canonicalUrl":"https://foursquare.com/v/walkabout/4c13c211a9c220a1664b569d","category":"Australian Restaurant","checkinsCount":973,"usersCount":84,"tipCount":8,"visitsCount":999,"url":"http://walkaboutbars.com","tier":"","message":"","currency":"","rating":5.7},{"name":"The Boot Inn (Wetherspoon)","phone":"+441282463720","address":"18 St. James St","lat":53.788807514658814,"lng":-2.2407298819066312,"city_fetched":"Burnley","state":"Lancashire","country":"United Kingdom","canonicalUrl":"https://foursquare.com/v/the-boot-inn-wetherspoon/4d4945ab5129a35d9eb137ac","category":"Pub","checkinsCount":411,"usersCount":150,"tipCount":13,"visitsCount":429,"url":"http://www.jdwetherspoon.co.uk","tier":"","message":"","currency":"","rating":5.3}]