[{"name":"The Coopers Tavern","address":"43 Cross Street","lat":52.80465,"lng":-1.637526,"city_fetched":"Burton upon Trent,UK","state":"Staffordshire","country":"United Kingdom","canonicalUrl":"https://foursquare.com/v/the-coopers-tavern/4c1e4b17b306c9288aca66b7","categoryId":"4bf58dd8d48988d11b941735","category":"Pub","checkinsCount":267,"usersCount":135,"tipCount":11,"visitsCount":309,"tier":"","message":"","currency":"","rating":8.5},{"name":"The Albion","address":"Shobnall Road","lat":52.80909036100271,"lng":-1.6626140242001306,"city_fetched":"Burton upon Trent,UK","state":"Staffordshire","country":"United Kingdom","canonicalUrl":"https://foursquare.com/v/the-albion/4c52ce1ad797e21e2ea7147e","categoryId":"4bf58dd8d48988d11b941735","category":"Pub","checkinsCount":102,"usersCount":66,"tipCount":3,"visitsCount":106,"tier":"","message":"","currency":"","rating":7.9},{"name":"Burton Bridge Brewery","twitter":"bridge_brewer","address":"24 Bridge St","lat":52.806865,"lng":-1.6254723072052002,"city_fetched":"Burton upon Trent,UK","state":"Staffordshire","country":"United Kingdom","canonicalUrl":"https://foursquare.com/v/burton-bridge-brewery/4bb5e94946d4a593af6ec5c0","categoryId":"50327c8591d4c4b30a586d5d","category":"Brewery","checkinsCount":175,"usersCount":81,"tipCount":0,"visitsCount":176,"url":"http://www.burtonbridgebrewery.co.uk","tier":"","message":"","currency":"","rating":7.8},{"name":"The Jinnie Inn","phone":"+441283812155","address":"177 Station Road","lat":52.84708867,"lng":-1.63702893,"city_fetched":"Burton upon Trent,UK","state":"Staffordshire","country":"United Kingdom","canonicalUrl":"https://foursquare.com/v/the-jinnie-inn/4c2aefa9197e95219996628d","categoryId":"4bf58dd8d48988d11b941735","category":"Pub","checkinsCount":156,"usersCount":50,"tipCount":5,"visitsCount":167,"tier":"","message":"","currency":"","rating":7.5},{"name":"Devonshire Arms","phone":"+441283562392","address":"86 Station Street","lat":52.805349345337454,"lng":-1.637810468673706,"city_fetched":"Burton upon Trent,UK","state":"Staffordshire","country":"United Kingdom","canonicalUrl":"https://foursquare.com/v/devonshire-arms/4bdd3028be5120a1586efe70","categoryId":"4bf58dd8d48988d11b941735","category":"Pub","checkinsCount":224,"usersCount":93,"tipCount":4,"visitsCount":236,"tier":"","message":"","currency":"","rating":7.5},{"name":"The Dragon","phone":"+441283702327","twitter":"thedragonbar","address":"11 The Green","lat":52.854157,"lng":-1.564024,"city_fetched":"Burton upon Trent,UK","state":"Derbyshire","country":"United Kingdom","canonicalUrl":"https://foursquare.com/v/the-dragon/4c4894d60f5aa59358bd8176","categoryId":"4bf58dd8d48988d11b941735","category":"Pub","checkinsCount":217,"usersCount":147,"tipCount":6,"visitsCount":286,"url":"http://thedragonatwillington.co.uk","tier":"","message":"","currency":"","rating":7.4},{"name":"The Brewery Tap","lat":52.808135747909546,"lng":-1.6327571868896484,"city_fetched":"Burton upon Trent,UK","state":"Staffordshire","country":"United Kingdom","canonicalUrl":"https://foursquare.com/v/the-brewery-tap/4db0557afa8ca4b3e9e1097a","categoryId":"4bf58dd8d48988d11b941735","category":"Pub","checkinsCount":102,"usersCount":96,"tipCount":1,"visitsCount":112,"tier":"","message":"","currency":"","rating":7.2},{"name":"Spread Eagle","phone":"+441283813004","address":"Church Road","lat":52.846378924004696,"lng":-1.650694512546679,"city_fetched":"Burton upon Trent,UK","state":"Staffordshire","country":"United Kingdom","canonicalUrl":"https://foursquare.com/v/spread-eagle/4c04022ef423a5935301d116","categoryId":"4bf58dd8d48988d11b941735","category":"Pub","checkinsCount":179,"usersCount":112,"tipCount":3,"visitsCount":254,"url":"http://www.vintageinn.co.uk/restaurants/midlands/thespreadeaglerolleston","tier":"","message":"","currency":"","rating":7.2},{"name":"The Lord Burton's (Wetherspoon)","phone":"+441283517587","address":"154 High St","lat":52.802997916818036,"lng":-1.6294092479132012,"city_fetched":"Burton upon Trent,UK","state":"Staffordshire","country":"United Kingdom","canonicalUrl":"https://foursquare.com/v/the-lord-burtons-wetherspoon/4ba38b84f964a520164638e3","categoryId":"4bf58dd8d48988d11b941735","category":"Pub","checkinsCount":716,"usersCount":325,"tipCount":6,"visitsCount":854,"url":"http://www.jdwetherspoon.co.uk","tier":"","message":"","currency":"","rating":6.4},{"name":"The Corner House","phone":"+441283542321","address":"2nd Ave.","lat":52.7952767,"lng":-1.6680592302899386,"city_fetched":"Burton upon Trent,UK","state":"Staffordshire","country":"United Kingdom","canonicalUrl":"https://foursquare.com/v/the-corner-house/4bbf6e73b083a593fd6ca3e9","categoryId":"4bf58dd8d48988d11b941735","category":"Pub","checkinsCount":239,"usersCount":127,"tipCount":6,"visitsCount":270,"tier":"","message":"","currency":"","rating":6.4},{"name":"Green Man","phone":"+441283702377","address":"1 Canal Bridge","lat":52.85360389,"lng":-1.564997,"city_fetched":"Burton upon Trent,UK","state":"Derbyshire","country":"United Kingdom","canonicalUrl":"https://foursquare.com/v/green-man/4c7d5344d6543704cd08c0a2","categoryId":"4bf58dd8d48988d11b941735","category":"Pub","checkinsCount":72,"usersCount":31,"tipCount":5,"visitsCount":75,"url":"http://greenmanwillington.co.uk","tier":"","message":"","currency":"","rating":6.2},{"name":"The Waterfront","phone":"+441283711500","address":"Barton Marina","lat":52.760315,"lng":-1.708073,"city_fetched":"Burton upon Trent,UK","state":"Staffordshire","country":"United Kingdom","canonicalUrl":"https://foursquare.com/v/the-waterfront/4bf819875317a593ad2aff7e","categoryId":"4bf58dd8d48988d11b941735","category":"Pub","checkinsCount":284,"usersCount":211,"tipCount":15,"visitsCount":345,"tier":"","message":"","currency":"","rating":6.1},{"name":"Millhouse","address":"Clays Lane","lat":52.82949962600498,"lng":-1.6190444958845698,"city_fetched":"Burton upon Trent,UK","state":"Staffordshire","country":"United Kingdom","canonicalUrl":"https://foursquare.com/v/millhouse/4c58242b12f0d13a57a308ad","categoryId":"4bf58dd8d48988d11b941735","category":"Pub","checkinsCount":191,"usersCount":109,"tipCount":2,"visitsCount":222,"tier":"","message":"","currency":"","rating":5.9},{"name":"The Chesterfield Arms","phone":"+441283211606","address":"Ashby Rd E","lat":52.79121438811634,"lng":-1.5679308772087097,"city_fetched":"Burton upon Trent,UK","state":"Derbyshire","country":"United Kingdom","canonicalUrl":"https://foursquare.com/v/the-chesterfield-arms/4c34a6463896e21ea5deeb90","categoryId":"4bf58dd8d48988d11b941735","category":"Pub","checkinsCount":127,"usersCount":78,"tipCount":6,"visitsCount":154,"tier":"","message":"","currency":"","rating":5.8},{"name":"The Elms","address":"Elms Rd","lat":52.80158570375077,"lng":-1.6213610353884755,"city_fetched":"Burton upon Trent,UK","state":"Staffordshire","country":"United Kingdom","canonicalUrl":"https://foursquare.com/v/the-elms/4d861c9481fdb1f7c2d61ec0","categoryId":"4bf58dd8d48988d11b941735","category":"Pub","checkinsCount":68,"usersCount":31,"tipCount":4,"visitsCount":75,"tier":"","message":"","currency":"","rating":5.8},{"name":"Stanhope Arms","phone":"+441283217954","address":"82 Ashby Rd. East","lat":52.79489386665588,"lng":-1.5790941974393398,"city_fetched":"Burton upon Trent,UK","state":"Staffordshire","country":"United Kingdom","canonicalUrl":"https://foursquare.com/v/stanhope-arms/4c7d053009b29c745f3be63c","categoryId":"4bf58dd8d48988d116941735","category":"Bar","checkinsCount":156,"usersCount":79,"tipCount":3,"visitsCount":182,"tier":"","message":"","currency":"","rating":5.5},{"name":"Sir Nigel Gresley (Wetherspoon)","phone":"+441283227560","address":"Civic Way","lat":52.773608550134206,"lng":-1.5577876214260815,"city_fetched":"Burton upon Trent,UK","state":"Derbyshire","country":"United Kingdom","canonicalUrl":"https://foursquare.com/v/sir-nigel-gresley-wetherspoon/4c4f3e35a7351b8dd444ca92","categoryId":"4bf58dd8d48988d11b941735","category":"Pub","checkinsCount":243,"usersCount":67,"tipCount":6,"visitsCount":249,"url":"http://www.jdwetherspoon.co.uk","tier":1,"message":"Cheap","currency":"Â£","rating":5.3}]