[{"name":"Buxton Brewery Tap House","phone":"+441298214085","twitter":"buxtontaphouse","address":"George St","lat":53.25912465373561,"lng":-1.9152185003757423,"city_fetched":"Buxton,UK","state":"Derbyshire","country":"United Kingdom","canonicalUrl":"https://foursquare.com/v/buxton-brewery-tap-house/523349b911d243a3646616d6","categoryId":"4bf58dd8d48988d116941735","category":"Bar","checkinsCount":316,"usersCount":161,"tipCount":10,"visitsCount":337,"url":"http://www.buxtonbrewery.co.uk/tap/","tier":"","message":"","currency":"","rating":8.8},{"name":"The Railway","phone":"+44129871435","address":"22 Bridge St","lat":53.25972163,"lng":-1.90764784,"city_fetched":"Buxton,UK","state":"Derbyshire","country":"United Kingdom","canonicalUrl":"https://foursquare.com/v/the-railway/4bdb1a623904a59381c5489e","categoryId":"4bf58dd8d48988d11b941735","category":"Pub","checkinsCount":183,"usersCount":127,"tipCount":2,"visitsCount":197,"tier":"","message":"","currency":"","rating":8.4},{"name":"The Wye Bridge House (Wetherspoon)","phone":"+44129870932","address":"Fairfield Rd","lat":53.25949,"lng":-1.905519,"city_fetched":"Buxton,UK","state":"Derbyshire","country":"United Kingdom","canonicalUrl":"https://foursquare.com/v/the-wye-bridge-house-wetherspoon/4c87aa8b821e9eb086cc8d89","categoryId":"4bf58dd8d48988d11b941735","category":"Pub","checkinsCount":736,"usersCount":233,"tipCount":11,"visitsCount":863,"url":"http://www.jdwetherspoon.co.uk","tier":"","message":"","currency":"","rating":7.7},{"name":"Cheshire Cheese","phone":"+441298212453","address":"37 High St","lat":53.25417228854587,"lng":-1.9150644787639115,"city_fetched":"Buxton,UK","state":"Derbyshire","country":"United Kingdom","canonicalUrl":"https://foursquare.com/v/cheshire-cheese/4d2400702ac6f04d45e13145","categoryId":"4bf58dd8d48988d11b941735","category":"Pub","checkinsCount":102,"usersCount":80,"tipCount":4,"visitsCount":125,"url":"http://www.titanicbrewery.co.uk/p/our-pubs/Cheshire%20Cheese.html","tier":"","message":"","currency":"","rating":7.4},{"name":"The Old Club House","twitter":"oldclubhouse","address":"3 Water St","lat":53.258595881976206,"lng":-1.9165367579536918,"city_fetched":"Buxton,UK","state":"Derbyshire","country":"United Kingdom","canonicalUrl":"https://foursquare.com/v/the-old-club-house/4c0a56b7009a0f474129e9bf","categoryId":"4bf58dd8d48988d11b941735","category":"Pub","checkinsCount":233,"usersCount":167,"tipCount":2,"visitsCount":236,"tier":"","message":"","currency":"","rating":7.4},{"name":"Monk Bar","twitter":"maniatmonk","address":"8 Cavendish Circus","lat":53.2596562188068,"lng":-1.9148541382857587,"city_fetched":"Buxton,UK","state":"Derbyshire","country":"United Kingdom","canonicalUrl":"https://foursquare.com/v/monk-bar/4c9923cfeaa5a143641ac1e4","categoryId":"4bf58dd8d48988d11e941735","category":"Cocktail Bar","checkinsCount":128,"usersCount":60,"tipCount":5,"visitsCount":128,"tier":"","message":"","currency":"","rating":6.7},{"name":"Queens Head","phone":"+44129823841","address":"High St","lat":53.254745,"lng":-1.915679,"city_fetched":"Buxton,UK","state":"Derbyshire","country":"United Kingdom","canonicalUrl":"https://foursquare.com/v/queens-head/4c7a92ecbd346dcb5ad5f8ef","categoryId":"4bf58dd8d48988d11b941735","category":"Pub","checkinsCount":85,"usersCount":45,"tipCount":2,"visitsCount":85,"tier":"","message":"","currency":"","rating":5.8}]