[{"name":"The Old Cottage","phone":"+442920765961","address":"Cherry Orchard Rd","lat":51.54534409346299,"lng":-3.1870459281216403,"neighborhood":"Llanishen","city_fetched":"Caerphilly,UK","state":"Cardiff","country":"United Kingdom","canonicalUrl":"https://foursquare.com/v/the-old-cottage/4c5ec8f8857ca593d674d0cb","categoryId":"4bf58dd8d48988d11b941735","category":"Pub","checkinsCount":263,"usersCount":143,"tipCount":7,"visitsCount":381,"tier":"","message":"","currency":"","rating":8},{"name":"Gwaelod y Garth Inn","phone":"+442920810408","address":"Main Rd","lat":51.547371817470484,"lng":-3.2768606028354523,"neighborhood":"Pentyrch","city_fetched":"Caerphilly,UK","state":"Cardiff","country":"United Kingdom","canonicalUrl":"https://foursquare.com/v/gwaelod-y-garth-inn/4befe8fa3a002d7f4d7885a4","categoryId":"4bf58dd8d48988d11b941735","category":"Pub","checkinsCount":182,"usersCount":128,"tipCount":5,"visitsCount":231,"tier":"","message":"","currency":"","rating":8},{"name":"Ty Mawr","address":"Graig Rd.","lat":51.55071171210745,"lng":-3.1794261932373047,"city_fetched":"Caerphilly,UK","state":"Cardiff","country":"United Kingdom","canonicalUrl":"https://foursquare.com/v/ty-mawr/4be4240b2457a59378c9a915","categoryId":"4bf58dd8d48988d11b941735","category":"Pub","checkinsCount":291,"usersCount":179,"tipCount":6,"visitsCount":350,"tier":"","message":"","currency":"","rating":7.7},{"name":"Traveller's Rest","phone":"+442920859021","address":"Caerphilly Road","lat":51.55161738395691,"lng":-3.2151317596435547,"neighborhood":"Lisvane","city_fetched":"Caerphilly,UK","country":"United Kingdom","canonicalUrl":"https://foursquare.com/v/travellers-rest/4b6aac80f964a520a6db2be3","categoryId":"4bf58dd8d48988d11b941735","category":"Pub","checkinsCount":210,"usersCount":132,"tipCount":2,"visitsCount":244,"tier":"","message":"","currency":"","rating":7.6},{"name":"The Plough","phone":"+442920623017","address":"1 Merthyr Road","lat":51.51312778632754,"lng":-3.219730477785988,"neighborhood":"North Cardiff","city_fetched":"Caerphilly,UK","state":"Cardiff","country":"United Kingdom","canonicalUrl":"https://foursquare.com/v/the-plough/4b5b172ff964a5202be328e3","categoryId":"4bf58dd8d48988d11b941735","category":"Pub","checkinsCount":301,"usersCount":120,"tipCount":7,"visitsCount":305,"tier":"","message":"","currency":"","rating":6.9},{"name":"The Black Griffin","phone":"+442920747399","address":"Church Rd.","lat":51.54044485244169,"lng":-3.167481209242968,"neighborhood":"Lisvane","city_fetched":"Caerphilly,UK","country":"United Kingdom","canonicalUrl":"https://foursquare.com/v/the-black-griffin/4be0635098f2a593e712c25a","categoryId":"4bf58dd8d48988d11b941735","category":"Pub","checkinsCount":124,"usersCount":68,"tipCount":4,"visitsCount":147,"tier":"","message":"","currency":"","rating":6.7},{"name":"Hollybush Inn","phone":"+442920625037","address":"Pendywallt Road","lat":51.52161150034922,"lng":-3.2336585501893684,"neighborhood":"Coryton","city_fetched":"Caerphilly,UK","state":"Cardiff","country":"United Kingdom","canonicalUrl":"https://foursquare.com/v/hollybush-inn/4c06b64992a4ef3b3d1ab0f1","categoryId":"4bf58dd8d48988d11b941735","category":"Pub","checkinsCount":270,"usersCount":138,"tipCount":7,"visitsCount":356,"tier":"","message":"","currency":"","rating":6.4},{"name":"The Deri Inn","address":"Wennalt Road","lat":51.5281935941852,"lng":-3.2181634878436975,"neighborhood":"Rhiwbina","city_fetched":"Caerphilly,UK","state":"Cardiff","country":"United Kingdom","canonicalUrl":"https://foursquare.com/v/the-deri-inn/4c1b2fb8e9c4ef3b849745aa","categoryId":"4bf58dd8d48988d11b941735","category":"Pub","checkinsCount":356,"usersCount":134,"tipCount":5,"visitsCount":369,"tier":"","message":"","currency":"","rating":6.4},{"name":"The Malcolm Uphill (Wetherspoon)","phone":"+442920760720","twitter":"jdwtweet","address":"87-91 Cardiff Rd","lat":51.57221529637877,"lng":-3.2199811935424805,"city_fetched":"Caerphilly,UK","country":"United Kingdom","canonicalUrl":"https://foursquare.com/v/the-malcolm-uphill-wetherspoon/4e934fe0f790648dade9cba8","categoryId":"4bf58dd8d48988d11b941735","category":"Pub","checkinsCount":711,"usersCount":177,"tipCount":2,"visitsCount":832,"url":"http://www.jdwetherspoon.co.uk","tier":"","message":"","currency":"","rating":6.3},{"name":"Fox & Hounds (Whitchurch)","phone":"+442920693377","address":"Old Church Road, Whitchurch","lat":51.515965,"lng":-3.218252,"neighborhood":"North Cardiff","city_fetched":"Caerphilly,UK","state":"Cardiff","country":"United Kingdom","canonicalUrl":"https://foursquare.com/v/fox--hounds-whitchurch/4c1a9af93b2ab71301003325","categoryId":"4bf58dd8d48988d11b941735","category":"Pub","checkinsCount":221,"usersCount":112,"tipCount":2,"visitsCount":262,"tier":"","message":"","currency":"","rating":6.2},{"name":"Crossways Brewers Fayre","phone":"+442920888850","address":"Crossways Business Park","lat":51.58791,"lng":-3.209548,"city_fetched":"Caerphilly,UK","state":"Caerphilly County Borough","country":"United Kingdom","canonicalUrl":"https://foursquare.com/v/crossways-brewers-fayre/4c4ef0fffa9d9521eb6e6f0a","categoryId":"4bf58dd8d48988d11b941735","category":"Pub","checkinsCount":150,"usersCount":95,"tipCount":1,"visitsCount":162,"tier":"","message":"","currency":"","rating":6.2},{"name":"Butchers Arms","address":"Heol Y Felin","lat":51.52489932759941,"lng":-3.209381103515625,"city_fetched":"Caerphilly,UK","state":"Cardiff","country":"United Kingdom","canonicalUrl":"https://foursquare.com/v/butchers-arms/4c02cd239a7920a1f500cf79","categoryId":"4bf58dd8d48988d11b941735","category":"Pub","checkinsCount":208,"usersCount":82,"tipCount":1,"visitsCount":245,"tier":"","message":"","currency":"","rating":6.1},{"name":"The Cedar Tree","phone":"+442920867049","address":"Corbetts Ln","lat":51.59274892636199,"lng":-3.226332664489746,"city_fetched":"Caerphilly,UK","country":"United Kingdom","canonicalUrl":"https://foursquare.com/v/the-cedar-tree/4bf16a5a5f8520a1f1a4c07f","categoryId":"4bf58dd8d48988d11b941735","category":"Pub","checkinsCount":152,"usersCount":117,"tipCount":6,"visitsCount":179,"tier":"","message":"","currency":"","rating":5.9},{"name":"Legacy Cardiff International Hotel","lat":51.528825,"lng":-3.241703,"neighborhood":"North Cardiff","city_fetched":"Caerphilly,UK","country":"United Kingdom","canonicalUrl":"https://foursquare.com/v/legacy-cardiff-international-hotel/4e2096d3b0fbdf9ba7a10322","categoryId":"4bf58dd8d48988d1d5941735","category":"Hotel Bar","checkinsCount":139,"usersCount":57,"tipCount":5,"visitsCount":139,"tier":"","message":"","currency":"","rating":5.3},{"name":"The Courthouse","address":"21-25 Cardiff Rd","lat":51.57475964246592,"lng":-3.2202529643619635,"city_fetched":"Caerphilly,UK","state":"Caerphilly County Borough","country":"United Kingdom","canonicalUrl":"https://foursquare.com/v/the-courthouse/4c331d5c452620a17b02230f","categoryId":"4bf58dd8d48988d11b941735","category":"Pub","checkinsCount":169,"usersCount":97,"tipCount":6,"visitsCount":169,"tier":"","message":"","currency":"","rating":5.2}]