[{"name":"Pint Shop","phone":"+441223352293","twitter":"pintshop","address":"10 Peas Hill","lat":52.204204159269985,"lng":0.11900693178176878,"city_fetched":"Cambridge,UK","state":"Cambridgeshire","country":"United Kingdom","canonicalUrl":"https://foursquare.com/v/pint-shop/5272a9a511d267caa8d006e3","categoryId":"4bf58dd8d48988d116941735","category":"Bar","checkinsCount":952,"usersCount":609,"tipCount":47,"visitsCount":1040,"url":"http://www.pintshop.co.uk","tier":"","message":"","currency":"","rating":9.4},{"name":"The Free Press","phone":"+441223368337","address":"7 Prospect Row","lat":52.204716,"lng":0.130282,"city_fetched":"Cambridge,UK","state":"Cambridgeshire","country":"United Kingdom","canonicalUrl":"https://foursquare.com/v/the-free-press/4ba4e049f964a520debd38e3","categoryId":"4bf58dd8d48988d11b941735","category":"Pub","checkinsCount":740,"usersCount":426,"tipCount":25,"visitsCount":894,"url":"http://www.freepresspub.com","tier":"","message":"","currency":"","rating":8.5},{"name":"Cambridge Blue","phone":"+441223471680","address":"85-87 Gwydir Street","lat":52.202386,"lng":0.139107,"city_fetched":"Cambridge,UK","state":"Cambridgeshire","country":"United Kingdom","canonicalUrl":"https://foursquare.com/v/cambridge-blue/4aef4c1af964a52059d721e3","categoryId":"4bf58dd8d48988d11b941735","category":"Pub","checkinsCount":1238,"usersCount":882,"tipCount":34,"visitsCount":1809,"tier":2,"message":"Moderate","currency":"£","rating":8.3},{"name":"The Old Bicycle Shop","phone":"+441223859909","twitter":"oldbicycleshop","address":"104 Regent St","lat":52.199525688633486,"lng":0.12696504592895508,"city_fetched":"Cambridge,UK","state":"Cambridgeshire","country":"United Kingdom","canonicalUrl":"https://foursquare.com/v/the-old-bicycle-shop/572a6f73cd10f33f09b56ec1","categoryId":"4bf58dd8d48988d116941735","category":"Bar","checkinsCount":94,"usersCount":90,"tipCount":5,"visitsCount":118,"url":"http://oldbicycleshop.com","tier":"","message":"","currency":"","rating":8.3},{"name":"The Cambridge Brewhouse","phone":"+441223855185","twitter":"thecambrewhouse","address":"1 King Street","lat":52.207429156859,"lng":0.12221217155456543,"city_fetched":"Cambridge,UK","state":"Cambridgeshire","country":"United Kingdom","canonicalUrl":"https://foursquare.com/v/the-cambridge-brewhouse/511d4de8e4b07b8925ac3a82","categoryId":"4bf58dd8d48988d11b941735","category":"Pub","checkinsCount":1280,"usersCount":1121,"tipCount":41,"visitsCount":1802,"tier":2,"message":"Moderate","currency":"£","rating":8.2},{"name":"The Mill Pub","phone":"+441223357026","twitter":"themillcam","address":"14 Mill Lane","lat":52.20150497525112,"lng":0.1160430908203125,"city_fetched":"Cambridge,UK","state":"Cambridgeshire","country":"United Kingdom","canonicalUrl":"https://foursquare.com/v/the-mill-pub/4bd57ee8637ba593f56cf670","categoryId":"4bf58dd8d48988d11b941735","category":"Pub","checkinsCount":1014,"usersCount":799,"tipCount":17,"visitsCount":1099,"url":"http://themillpubcambridge.co.uk","tier":"","message":"","currency":"","rating":8.2},{"name":"12a","address":"12a Market Hill","lat":52.205545,"lng":0.11916224285714284,"city_fetched":"Cambridge,UK","state":"Cambridgeshire","country":"United Kingdom","canonicalUrl":"https://foursquare.com/v/12a/4cee9de18604a1cde609f9c0","categoryId":"4bf58dd8d48988d121941735","category":"Lounge","checkinsCount":150,"usersCount":84,"tipCount":3,"visitsCount":153,"tier":"","message":"","currency":"","rating":8.2},{"name":"The Eagle","phone":"+441223505020","address":"8 Benet St","lat":52.20400361652176,"lng":0.11801719665527344,"city_fetched":"Cambridge,UK","state":"Cambridgeshire","country":"United Kingdom","canonicalUrl":"https://foursquare.com/v/the-eagle/4b8032a4f964a5207f5b30e3","categoryId":"4bf58dd8d48988d11b941735","category":"Pub","checkinsCount":4125,"usersCount":3776,"tipCount":61,"visitsCount":4877,"url":"http://gkpubs.co.uk/pubs-in-cambridge/eagle-pub/","tier":2,"message":"Moderate","currency":"£","rating":8.2},{"name":"The Granta","phone":"+441223505016","address":"14 Newnham Terrace","lat":52.199705,"lng":0.113912,"city_fetched":"Cambridge,UK","state":"Cambridgeshire","country":"United Kingdom","canonicalUrl":"https://foursquare.com/v/the-granta/4b93ba8cf964a520cf4e34e3","categoryId":"4bf58dd8d48988d11b941735","category":"Pub","checkinsCount":823,"usersCount":989,"tipCount":18,"visitsCount":1320,"tier":"","message":"","currency":"","rating":8.1},{"name":"Kingston Arms Freehouse","phone":"+441223319414","twitter":"kingstonarms","address":"33 Kingston Street","lat":52.200263299999996,"lng":0.1397607,"city_fetched":"Cambridge,UK","state":"Cambridgeshire","country":"United Kingdom","canonicalUrl":"https://foursquare.com/v/kingston-arms-freehouse/4ae3606df964a5203b9421e3","categoryId":"4bf58dd8d48988d11b941735","category":"Pub","checkinsCount":957,"usersCount":575,"tipCount":23,"visitsCount":1202,"url":"http://www.kingston-arms.co.uk","tier":"","message":"","currency":"","rating":8.1},{"name":"John Barleycorn Inn Cambridge","address":"Moorfield Road, Duxford","lat":52.09440284058928,"lng":0.1588572000411984,"city_fetched":"Cambridge,UK","state":"Cambridgeshire","country":"United Kingdom","canonicalUrl":"https://foursquare.com/v/john-barleycorn-inn-cambridge/4be074a04c55b6519870eab7","categoryId":"4bf58dd8d48988d11b941735","category":"Pub","checkinsCount":86,"usersCount":79,"tipCount":2,"visitsCount":145,"tier":"","message":"","currency":"","rating":8.1},{"name":"The Old Spring","phone":"+441223357228","address":"1 Ferry Path","lat":52.214515765442975,"lng":0.1279726897147415,"city_fetched":"Cambridge,UK","state":"Cambridgeshire","country":"United Kingdom","canonicalUrl":"https://foursquare.com/v/the-old-spring/4bc85aa32f94d13adf62137f","categoryId":"4bf58dd8d48988d11b941735","category":"Pub","checkinsCount":713,"usersCount":429,"tipCount":16,"visitsCount":921,"tier":"","message":"","currency":"","rating":8},{"name":"Hopbine","phone":"+441223367204","address":"11-12 Fair St","lat":52.20712014582303,"lng":0.1293790340423584,"city_fetched":"Cambridge,UK","state":"Cambridgeshire","country":"United Kingdom","canonicalUrl":"https://foursquare.com/v/hopbine/4e63e7371495676d565ff68a","categoryId":"4bf58dd8d48988d116941735","category":"Bar","checkinsCount":471,"usersCount":325,"tipCount":11,"visitsCount":623,"url":"http://www.thehopbine.co.uk","tier":"","message":"","currency":"","rating":7.8},{"name":"Carpenters Arms","phone":"+441223367050","address":"182-186 Victoria Rd","lat":52.21567602054677,"lng":0.1142244235263248,"city_fetched":"Cambridge,UK","state":"Cambridgeshire","country":"United Kingdom","canonicalUrl":"https://foursquare.com/v/carpenters-arms/4e1dd299887794dc24958b89","categoryId":"4bf58dd8d48988d11b941735","category":"Pub","checkinsCount":108,"usersCount":94,"tipCount":2,"visitsCount":211,"url":"http://www.carpentersarmscambridge.co.uk","tier":"","message":"","currency":"","rating":7.7},{"name":"Flying Pig","phone":"+441223354623","address":"Hills Rd","lat":52.19451441370291,"lng":0.13189526550245903,"city_fetched":"Cambridge,UK","state":"Cambridgeshire","country":"United Kingdom","canonicalUrl":"https://foursquare.com/v/flying-pig/4b26b752f964a520f17f24e3","categoryId":"4bf58dd8d48988d11b941735","category":"Pub","checkinsCount":976,"usersCount":550,"tipCount":14,"visitsCount":1338,"tier":"","message":"","currency":"","rating":7.6},{"name":"Grain & Hop Store","twitter":"grainhopcam","address":"69-76 Regent Street","lat":52.200887384836584,"lng":0.12686253745912895,"city_fetched":"Cambridge,UK","state":"Cambridgeshire","country":"United Kingdom","canonicalUrl":"https://foursquare.com/v/grain--hop-store/550213a0498efaa2f67467ad","categoryId":"4bf58dd8d48988d11b941735","category":"Pub","checkinsCount":279,"usersCount":219,"tipCount":4,"visitsCount":346,"tier":"","message":"","currency":"","rating":7.6},{"name":"196 Mill Road","address":"196 Mill Road","lat":52.197827,"lng":0.144223,"city_fetched":"Cambridge,UK","state":"Cambridgeshire","country":"United Kingdom","canonicalUrl":"https://foursquare.com/v/196-mill-road/4feb5fb3e4b070f5744a1d02","categoryId":"4bf58dd8d48988d116941735","category":"Bar","checkinsCount":119,"usersCount":74,"tipCount":5,"visitsCount":122,"tier":"","message":"","currency":"","rating":7.6},{"name":"The Haymakers","phone":"+441223311077","twitter":"haymakerscam","address":"54 High St, Chesterton","lat":52.217474917578414,"lng":0.13939567167625017,"city_fetched":"Cambridge,UK","state":"Cambridgeshire","country":"United Kingdom","canonicalUrl":"https://foursquare.com/v/the-haymakers/517a5e67498ea1b6fc5abe02","categoryId":"4bf58dd8d48988d11b941735","category":"Pub","checkinsCount":775,"usersCount":335,"tipCount":27,"visitsCount":1087,"url":"https://www.individualpubs.co.uk/haymakers/","tier":"","message":"","currency":"","rating":7.6},{"name":"Duke of Cambridge","address":"Cambridge","lat":52.204942,"lng":0.133343,"city_fetched":"Cambridge,UK","country":"United Kingdom","canonicalUrl":"https://foursquare.com/v/duke-of-cambridge/533f178d498e791f08b920a5","categoryId":"4bf58dd8d48988d11b941735","category":"Pub","checkinsCount":76,"usersCount":54,"tipCount":2,"visitsCount":76,"tier":"","message":"","currency":"","rating":7.6},{"name":"Lagona Shisha","lat":52.201126,"lng":0.13359815,"city_fetched":"Cambridge,UK","state":"Cambridgeshire","country":"United Kingdom","canonicalUrl":"https://foursquare.com/v/lagona-shisha/57891b64498e19416e43f71d","categoryId":"4bf58dd8d48988d119941735","category":"Hookah Bar","checkinsCount":39,"usersCount":43,"tipCount":1,"visitsCount":93,"tier":"","message":"","currency":"","rating":7.6},{"name":"The Maypole","phone":"+441223364620","address":"20A Portugal Place","lat":52.209641638001614,"lng":0.119441,"city_fetched":"Cambridge,UK","state":"Cambridgeshire","country":"United Kingdom","canonicalUrl":"https://foursquare.com/v/the-maypole/4b194647f964a52054da23e3","categoryId":"4bf58dd8d48988d11b941735","category":"Pub","checkinsCount":1404,"usersCount":993,"tipCount":20,"visitsCount":1956,"tier":2,"message":"Moderate","currency":"£","rating":7.5},{"name":"Fort St. George","phone":"+441223354327","address":"Midsummer Common","lat":52.21236646721231,"lng":0.12772679328918457,"city_fetched":"Cambridge,UK","state":"Cambridgeshire","country":"United Kingdom","canonicalUrl":"https://foursquare.com/v/fort-st-george/4b5c7297f964a520513029e3","categoryId":"4bf58dd8d48988d11b941735","category":"Pub","checkinsCount":1054,"usersCount":835,"tipCount":20,"visitsCount":1613,"tier":"","message":"","currency":"","rating":7.4},{"name":"The Cricketers","phone":"+441223305544","address":"18 Melbourne Place","lat":52.20460852960012,"lng":0.1295185089111328,"city_fetched":"Cambridge,UK","state":"Cambridgeshire","country":"United Kingdom","canonicalUrl":"https://foursquare.com/v/the-cricketers/4b918523f964a5208ec233e3","categoryId":"4bf58dd8d48988d11b941735","category":"Pub","checkinsCount":117,"usersCount":62,"tipCount":4,"visitsCount":118,"tier":"","message":"","currency":"","rating":7.4},{"name":"The Green Man","phone":"+441223844903","address":"55 Trumpington High St.","lat":52.17649693320421,"lng":0.11329238689249385,"city_fetched":"Cambridge,UK","state":"Cambridgeshire","country":"United Kingdom","canonicalUrl":"https://foursquare.com/v/the-green-man/4ceaad3f0f196dcb214453ae","categoryId":"4bf58dd8d48988d11b941735","category":"Pub","checkinsCount":219,"usersCount":207,"tipCount":5,"visitsCount":290,"url":"http://www.thegreenmantrumpington.com","tier":"","message":"","currency":"","rating":7.4},{"name":"Champion Of The Thames","address":"68 King St.","lat":52.20726855067278,"lng":0.124501,"city_fetched":"Cambridge,UK","state":"Cambridgeshire","country":"United Kingdom","canonicalUrl":"https://foursquare.com/v/champion-of-the-thames/4bd1f3c2462cb713d642db07","categoryId":"4bf58dd8d48988d11b941735","category":"Pub","checkinsCount":221,"usersCount":140,"tipCount":6,"visitsCount":223,"tier":"","message":"","currency":"","rating":7.4},{"name":"Castle Inn","phone":"+441223353194","address":"38 Castle St.","lat":52.21195805872779,"lng":0.11354997754096985,"city_fetched":"Cambridge,UK","state":"Cambridgeshire","country":"United Kingdom","canonicalUrl":"https://foursquare.com/v/castle-inn/4b7d1a74f964a520b1ae2fe3","categoryId":"4bf58dd8d48988d11b941735","category":"Pub","checkinsCount":1059,"usersCount":564,"tipCount":18,"visitsCount":1325,"tier":2,"message":"Moderate","currency":"£","rating":7.4},{"name":"Salisbury Arms","phone":"+441223576363","address":"76 Tenison Rd","lat":52.19826419,"lng":0.135185597464,"city_fetched":"Cambridge,UK","state":"Cambridgeshire","country":"United Kingdom","canonicalUrl":"https://foursquare.com/v/salisbury-arms/4b083970f964a520ad0623e3","categoryId":"4bf58dd8d48988d11b941735","category":"Pub","checkinsCount":519,"usersCount":320,"tipCount":7,"visitsCount":685,"url":"http://www.salisburyarmscambridge.co.uk","tier":"","message":"","currency":"","rating":7.4},{"name":"The Mitre","phone":"+441223358403","address":"17 Bridge St.","lat":52.208816,"lng":0.11825134419291518,"city_fetched":"Cambridge,UK","state":"Cambridgeshire","country":"United Kingdom","canonicalUrl":"https://foursquare.com/v/the-mitre/4b71a701f964a520cd532de3","categoryId":"4bf58dd8d48988d11b941735","category":"Pub","checkinsCount":907,"usersCount":735,"tipCount":11,"visitsCount":965,"url":"http://www.nicholsonspubs.co.uk/themitrecambridge/","tier":"","message":"","currency":"","rating":7.3},{"name":"The Tram Depot","phone":"+441223324553","address":"5 Dover St.","lat":52.20455592878976,"lng":0.13290882110595703,"city_fetched":"Cambridge,UK","state":"Cambridgeshire","country":"United Kingdom","canonicalUrl":"https://foursquare.com/v/the-tram-depot/4b4b9245f964a520a2a026e3","categoryId":"4bf58dd8d48988d11b941735","category":"Pub","checkinsCount":790,"usersCount":525,"tipCount":10,"visitsCount":904,"tier":"","message":"","currency":"","rating":7.3},{"name":"The Blue Moon","phone":"+441223500238","address":"2 Norfolk Street","lat":52.20477948180373,"lng":0.13657808303833008,"city_fetched":"Cambridge,UK","state":"Cambridgeshire","country":"United Kingdom","canonicalUrl":"https://foursquare.com/v/the-blue-moon/52c492c811d2230ad2d4d46f","categoryId":"4bf58dd8d48988d11b941735","category":"Pub","checkinsCount":97,"usersCount":142,"tipCount":4,"visitsCount":204,"tier":"","message":"","currency":"","rating":7.3},{"name":"The Punter","phone":"+441223363322","address":"3 Pound Hill","lat":52.210547376191386,"lng":0.113243412237161,"city_fetched":"Cambridge,UK","state":"Cambridgeshire","country":"United Kingdom","canonicalUrl":"https://foursquare.com/v/the-punter/4b9c1fa1f964a520874c36e3","categoryId":"4bf58dd8d48988d11b941735","category":"Pub","checkinsCount":520,"usersCount":449,"tipCount":20,"visitsCount":698,"tier":"","message":"","currency":"","rating":7.2},{"name":"The Red Bull Pub & Pizza","phone":"+441223300943","address":"11 Barton Road, Newnham","lat":52.19652399263872,"lng":0.10882096804367153,"city_fetched":"Cambridge,UK","state":"Cambridgeshire","country":"United Kingdom","canonicalUrl":"https://foursquare.com/v/the-red-bull-pub--pizza/4b7017a9f964a520c4062de3","categoryId":"4bf58dd8d48988d11b941735","category":"Pub","checkinsCount":305,"usersCount":180,"tipCount":7,"visitsCount":396,"url":"http://www.theredbull.net/index.php","tier":"","message":"","currency":"","rating":7.2},{"name":"The Alexandra Arms","phone":"+441223324441","twitter":"thealexcb1","address":"22 Gwydir St","lat":52.20387160778046,"lng":0.139336,"city_fetched":"Cambridge,UK","state":"Cambridgeshire","country":"United Kingdom","canonicalUrl":"https://foursquare.com/v/the-alexandra-arms/4bf98124508c0f474e5b3f31","categoryId":"4bf58dd8d48988d11b941735","category":"Pub","checkinsCount":376,"usersCount":203,"tipCount":14,"visitsCount":484,"url":"http://thealexcambridge.com","tier":"","message":"","currency":"","rating":7.1},{"name":"The Prince Regent","phone":"+441223505030","address":"91 Regent St","lat":52.20003915,"lng":0.1271367073059045,"city_fetched":"Cambridge,UK","state":"Cambridgeshire","country":"United Kingdom","canonicalUrl":"https://foursquare.com/v/the-prince-regent/4bf1777b6bfe0f47a5c4d838","categoryId":"4bf58dd8d48988d11b941735","category":"Pub","checkinsCount":954,"usersCount":760,"tipCount":11,"visitsCount":1142,"tier":"","message":"","currency":"","rating":7.1},{"name":"The Royal standard","phone":"+441223569065","address":"292 Mill road","lat":52.19714278721285,"lng":0.14995463788423002,"city_fetched":"Cambridge,UK","state":"Cambridgeshire","country":"United Kingdom","canonicalUrl":"https://foursquare.com/v/the-royal-standard/563a7a88cd1081144317f4ef","categoryId":"4bf58dd8d48988d11b941735","category":"Pub","checkinsCount":54,"usersCount":64,"tipCount":1,"visitsCount":123,"tier":"","message":"","currency":"","rating":7.1},{"name":"The Ancient Shepherds","phone":"+441223293280","address":"High Street, Fen Ditton","lat":52.22025582,"lng":0.17248873,"city_fetched":"Cambridge,UK","state":"Cambridgeshire","country":"United Kingdom","canonicalUrl":"https://foursquare.com/v/the-ancient-shepherds/4c1cb93863750f47b6f4b667","categoryId":"4bf58dd8d48988d11b941735","category":"Pub","checkinsCount":89,"usersCount":58,"tipCount":5,"visitsCount":120,"tier":"","message":"","currency":"","rating":7.1},{"name":"The Pickerel Inn","address":"Bridge St.","lat":52.2098856654733,"lng":0.11630148167336153,"city_fetched":"Cambridge,UK","state":"Cambridgeshire","country":"United Kingdom","canonicalUrl":"https://foursquare.com/v/the-pickerel-inn/4bd1eb6a9854d13a8387fa4d","categoryId":"4bf58dd8d48988d11b941735","category":"Pub","checkinsCount":671,"usersCount":500,"tipCount":13,"visitsCount":745,"tier":"","message":"","currency":"","rating":7.1},{"name":"The Devonshire Arms","phone":"+441223316610","address":"Devonshire Road","lat":52.198944,"lng":0.13905035,"city_fetched":"Cambridge,UK","state":"Cambridgeshire","country":"United Kingdom","canonicalUrl":"https://foursquare.com/v/the-devonshire-arms/4b7ead56f964a520a5f82fe3","categoryId":"4bf58dd8d48988d11b941735","category":"Pub","checkinsCount":893,"usersCount":400,"tipCount":19,"visitsCount":1040,"url":"https://www.individualpubs.co.uk/devonshire/","tier":"","message":"","currency":"","rating":7.1},{"name":"The Regal (Wetherspoon)","phone":"+441223366459","address":"38-39 St. Andrews St.","lat":52.202772673498394,"lng":0.12404612605875132,"city_fetched":"Cambridge,UK","state":"Cambridgeshire","country":"United Kingdom","canonicalUrl":"https://foursquare.com/v/the-regal-wetherspoon/4b97a914f964a5202f0e35e3","categoryId":"4bf58dd8d48988d11b941735","category":"Pub","checkinsCount":5222,"usersCount":2265,"tipCount":29,"visitsCount":5907,"url":"http://www.jdwetherspoon.co.uk","tier":1,"message":"Cheap","currency":"£","rating":7.1},{"name":"Ta Bouche","phone":"+441223462277","address":"10-15 Market Passage","lat":52.20630487234976,"lng":0.12028634548187256,"city_fetched":"Cambridge,UK","state":"Cambridgeshire","country":"United Kingdom","canonicalUrl":"https://foursquare.com/v/ta-bouche/4b98166df964a520722b35e3","categoryId":"4bf58dd8d48988d11e941735","category":"Cocktail Bar","checkinsCount":682,"usersCount":433,"tipCount":14,"visitsCount":708,"tier":"","message":"","currency":"","rating":7},{"name":"Portland Arms","phone":"+441223357268","twitter":"theportlandarms","address":"129 Chesterton Rd","lat":52.2144240657243,"lng":0.12461543083190918,"city_fetched":"Cambridge,UK","state":"Cambridgeshire","country":"United Kingdom","canonicalUrl":"https://foursquare.com/theportlandarms","categoryId":"4bf58dd8d48988d11b941735","category":"Pub","checkinsCount":801,"usersCount":424,"tipCount":8,"visitsCount":1068,"url":"http://www.theportlandarms.co.uk","tier":"","message":"","currency":"","rating":6.9},{"name":"The Anchor","phone":"+441223353554","twitter":"anchorcambridge","address":"12 Silver St, Newnham","lat":52.201802,"lng":0.115558,"city_fetched":"Cambridge,UK","state":"Cambridgeshire","country":"United Kingdom","canonicalUrl":"https://foursquare.com/v/the-anchor/4b8a6eeef964a5209b6c32e3","categoryId":"4bf58dd8d48988d11b941735","category":"Pub","checkinsCount":1753,"usersCount":1484,"tipCount":32,"visitsCount":2063,"url":"http://www.anchorcambridge.co.uk","tier":"","message":"","currency":"","rating":6.9},{"name":"Ballare","phone":"+441223364222","address":"Heidelburg Gardens","lat":52.205229293781585,"lng":0.1210671977578538,"city_fetched":"Cambridge,UK","state":"Cambridgeshire","country":"United Kingdom","canonicalUrl":"https://foursquare.com/v/ballare/4bdb6a9e63c5c9b6aee42768","categoryId":"4bf58dd8d48988d116941735","category":"Bar","checkinsCount":1784,"usersCount":847,"tipCount":4,"visitsCount":1971,"url":"http://www.ballare.co.uk","tier":"","message":"","currency":"","rating":6.9},{"name":"The Snug","address":"67 Lensfield Road","lat":52.198039,"lng":0.12298,"city_fetched":"Cambridge,UK","state":"Cambridgeshire","country":"United Kingdom","canonicalUrl":"https://foursquare.com/v/the-snug/4bba12dc53649c74f89348fb","categoryId":"4bf58dd8d48988d116941735","category":"Bar","checkinsCount":381,"usersCount":234,"tipCount":16,"visitsCount":399,"tier":"","message":"","currency":"","rating":6.9},{"name":"Hidden Rooms","phone":"+441223514777","twitter":"hiddenrooms","address":"7B Jesus Lane","lat":52.2081063437415,"lng":0.11973381042480469,"city_fetched":"Cambridge,UK","state":"Cambridgeshire","country":"United Kingdom","canonicalUrl":"https://foursquare.com/v/hidden-rooms/4ba2a520f964a5202b0c38e3","categoryId":"4bf58dd8d48988d11e941735","category":"Cocktail Bar","checkinsCount":137,"usersCount":104,"tipCount":4,"visitsCount":137,"url":"http://www.hiddenrooms.co.uk","tier":"","message":"","currency":"","rating":6.9},{"name":"The Elm Tree","address":"Orchard Street","lat":52.205203899999994,"lng":0.12951314449310303,"city_fetched":"Cambridge,UK","state":"Cambridgeshire","country":"United Kingdom","canonicalUrl":"https://foursquare.com/v/the-elm-tree/4be199b958102d7f63f64156","categoryId":"4bf58dd8d48988d11b941735","category":"Pub","checkinsCount":404,"usersCount":280,"tipCount":14,"visitsCount":460,"tier":"","message":"","currency":"","rating":6.8},{"name":"King Street Run","phone":"+441223328900","address":"86 King Street","lat":52.20710699636958,"lng":0.12516260147094727,"city_fetched":"Cambridge,UK","state":"Cambridgeshire","country":"United Kingdom","canonicalUrl":"https://foursquare.com/v/king-street-run/4c129829a5eb76b00a78beb7","categoryId":"4bf58dd8d48988d11b941735","category":"Pub","checkinsCount":263,"usersCount":160,"tipCount":7,"visitsCount":272,"tier":"","message":"","currency":"","rating":6.8},{"name":"Revolution","phone":"+441223364895","twitter":"revolutionbars","address":"3-8 Downing St.","lat":52.2034403,"lng":0.12317,"city_fetched":"Cambridge,UK","state":"Cambridgeshire","country":"United Kingdom","canonicalUrl":"https://foursquare.com/v/revolution/4ba376a2f964a5203d3f38e3","categoryId":"4bf58dd8d48988d11e941735","category":"Cocktail Bar","checkinsCount":2057,"usersCount":1383,"tipCount":27,"visitsCount":2166,"url":"http://www.revolution-bars.co.uk/cambridge","tier":2,"message":"Moderate","currency":"£","rating":6.8},{"name":"Clarendon Arms","twitter":"clarendon_arms","address":"35-36 Clarendon St","lat":52.204722,"lng":0.127584,"city_fetched":"Cambridge,UK","state":"Cambridgeshire","country":"United Kingdom","canonicalUrl":"https://foursquare.com/v/clarendon-arms/4b802962f964a520085830e3","categoryId":"4bf58dd8d48988d11b941735","category":"Pub","checkinsCount":136,"usersCount":102,"tipCount":6,"visitsCount":143,"tier":"","message":"","currency":"","rating":6.8},{"name":"Earl Of Beaconsfield","lat":52.198431,"lng":0.142248,"city_fetched":"Cambridge,UK","state":"Cambridgeshire","country":"United Kingdom","canonicalUrl":"https://foursquare.com/v/earl-of-beaconsfield/4d44493c1ed56dcb1a88ad54","categoryId":"4bf58dd8d48988d11b941735","category":"Pub","checkinsCount":223,"usersCount":127,"tipCount":3,"visitsCount":233,"tier":"","message":"","currency":"","rating":6.8},{"name":"The Brook","phone":"+441223566929","address":"25 Brookfields","lat":52.19610375677067,"lng":0.15511280445874162,"city_fetched":"Cambridge,UK","state":"Cambridgeshire","country":"United Kingdom","canonicalUrl":"https://foursquare.com/v/the-brook/4d4c5a2f190ba09309e91fa5","categoryId":"4bf58dd8d48988d11b941735","category":"Pub","checkinsCount":140,"usersCount":69,"tipCount":1,"visitsCount":149,"tier":"","message":"","currency":"","rating":6.8},{"name":"The Carlton Arms","lat":52.2221147,"lng":0.11895626921474647,"city_fetched":"Cambridge,UK","state":"Cambridgeshire","country":"United Kingdom","canonicalUrl":"https://foursquare.com/v/the-carlton-arms/4e3991bc18a8d2fcc62d5720","categoryId":"4bf58dd8d48988d11b941735","category":"Pub","checkinsCount":149,"usersCount":92,"tipCount":2,"visitsCount":221,"tier":"","message":"","currency":"","rating":6.7},{"name":"The Snug","phone":"+441223367888","twitter":"thesnugbar","address":"170 East Rd","lat":52.205338,"lng":0.13399779796600342,"city_fetched":"Cambridge,UK","state":"Cambridgeshire","country":"United Kingdom","canonicalUrl":"https://foursquare.com/v/the-snug/4b51f5a6f964a520905d27e3","categoryId":"4bf58dd8d48988d11e941735","category":"Cocktail Bar","checkinsCount":462,"usersCount":273,"tipCount":11,"visitsCount":483,"url":"http://www.thesnugbar.co.uk/cambridge-grafton/","tier":"","message":"","currency":"","rating":6.6},{"name":"The Alma","phone":"+441223316722","address":"26 Russell Ct.","lat":52.19601199117444,"lng":0.12545160949230194,"city_fetched":"Cambridge,UK","state":"Cambridgeshire","country":"United Kingdom","canonicalUrl":"https://foursquare.com/v/the-alma/4b87d75ff964a520adce31e3","categoryId":"4bf58dd8d48988d11b941735","category":"Pub","checkinsCount":223,"usersCount":126,"tipCount":1,"visitsCount":268,"tier":"","message":"","currency":"","rating":6.5},{"name":"Green Dragon","address":"1-47 Water St","lat":52.217726,"lng":0.14558494091033936,"city_fetched":"Cambridge,UK","state":"Cambridgeshire","country":"United Kingdom","canonicalUrl":"https://foursquare.com/v/green-dragon/4b5f13cbf964a520e8a429e3","categoryId":"4bf58dd8d48988d117941735","category":"Beer Garden","checkinsCount":509,"usersCount":288,"tipCount":6,"visitsCount":681,"tier":"","message":"","currency":"","rating":6.4},{"name":"Lola Lo","twitter":"lolalocam","address":"1-6 Corn Exchange St.","lat":52.20447802725558,"lng":0.12014587641169186,"city_fetched":"Cambridge,UK","state":"Cambridgeshire","country":"United Kingdom","canonicalUrl":"https://foursquare.com/v/lola-lo/4dfd3495c65b31579b3133c8","categoryId":"4bf58dd8d48988d11f941735","category":"Nightclub","checkinsCount":1132,"usersCount":641,"tipCount":5,"visitsCount":1180,"url":"http://www.lolalocambridge.com","tier":"","message":"","currency":"","rating":6.4},{"name":"The George Inn","phone":"+441223833800","address":"High St, Babraham","lat":52.13081359863281,"lng":0.2097422,"city_fetched":"Cambridge,UK","state":"Cambridgeshire","country":"United Kingdom","canonicalUrl":"https://foursquare.com/v/the-george-inn/4bd195ab9854d13a9fbff94d","categoryId":"4bf58dd8d48988d11b941735","category":"Pub","checkinsCount":56,"usersCount":52,"tipCount":4,"visitsCount":84,"url":"http://www.thegeorgebabraham.co.uk","tier":"","message":"","currency":"","rating":6.3},{"name":"The Empress","phone":"+441223247236","address":"72 Thoday Street","lat":52.19911873340607,"lng":0.147392,"city_fetched":"Cambridge,UK","state":"Cambridgeshire","country":"United Kingdom","canonicalUrl":"https://foursquare.com/v/the-empress/4b7efa32f964a520cb0d30e3","categoryId":"4bf58dd8d48988d11b941735","category":"Pub","checkinsCount":539,"usersCount":322,"tipCount":15,"visitsCount":729,"url":"http://theempresspubcambridge.com","tier":"","message":"","currency":"","rating":6.3},{"name":"The Panton Arms","address":"Panton Street","lat":52.1963369,"lng":0.125077,"city_fetched":"Cambridge,UK","state":"Cambridgeshire","country":"United Kingdom","canonicalUrl":"https://foursquare.com/v/the-panton-arms/4b65c094f964a5207dfd2ae3","categoryId":"4bf58dd8d48988d11b941735","category":"Pub","checkinsCount":257,"usersCount":171,"tipCount":2,"visitsCount":300,"tier":"","message":"","currency":"","rating":6.2},{"name":"Hotel Felix","phone":"+441223277977","address":"Whitehouse Lane Huntington Road","lat":52.22448036017443,"lng":0.09425883011776777,"city_fetched":"Cambridge,UK","state":"Cambridgeshire","country":"United Kingdom","canonicalUrl":"https://foursquare.com/v/hotel-felix/4d471e344e5d370491730994","categoryId":"4bf58dd8d48988d1d5941735","category":"Hotel Bar","checkinsCount":294,"usersCount":244,"tipCount":5,"visitsCount":389,"tier":"","message":"","currency":"","rating":6.2},{"name":"The Baron Of Beef","address":"19 Bridge Street","lat":52.20896,"lng":0.1181994,"city_fetched":"Cambridge,UK","state":"Cambridgeshire","country":"United Kingdom","canonicalUrl":"https://foursquare.com/v/the-baron-of-beef/4c00f9419a950f47675b08c6","categoryId":"4bf58dd8d48988d11b941735","category":"Pub","checkinsCount":733,"usersCount":586,"tipCount":10,"visitsCount":755,"tier":"","message":"","currency":"","rating":6.2},{"name":"White Swan","address":"107 - 109 Mill Road","lat":52.199411388126435,"lng":0.1392165447344328,"city_fetched":"Cambridge,UK","state":"Cambridgeshire","country":"United Kingdom","canonicalUrl":"https://foursquare.com/v/white-swan/4ae38768f964a520409621e3","categoryId":"4bf58dd8d48988d11b941735","category":"Pub","checkinsCount":438,"usersCount":234,"tipCount":2,"visitsCount":448,"tier":"","message":"","currency":"","rating":6.1},{"name":"The Great Northern","address":"Station Road","lat":52.1949289321532,"lng":0.13170719146728516,"city_fetched":"Cambridge,UK","state":"Cambridgeshire","country":"United Kingdom","canonicalUrl":"https://foursquare.com/v/the-great-northern/4b0c54b1f964a5204a3b23e3","categoryId":"4bf58dd8d48988d11b941735","category":"Pub","checkinsCount":106,"usersCount":83,"tipCount":4,"visitsCount":106,"tier":"","message":"","currency":"","rating":6},{"name":"The Boathouse","phone":"+441223460905","address":"14 Chesterton Rd","lat":52.2137061765451,"lng":0.12361818306718106,"city_fetched":"Cambridge,UK","state":"Cambridgeshire","country":"United Kingdom","canonicalUrl":"https://foursquare.com/v/the-boathouse/4bfadb91565f76b0acc404db","categoryId":"4bf58dd8d48988d11b941735","category":"Pub","checkinsCount":843,"usersCount":515,"tipCount":6,"visitsCount":999,"tier":"","message":"","currency":"","rating":6},{"name":"B Bar","address":"Market Street","lat":52.20636580025421,"lng":0.12001824784794533,"city_fetched":"Cambridge,UK","state":"Cambridgeshire","country":"United Kingdom","canonicalUrl":"https://foursquare.com/v/b-bar/4c016053716bc9b606bdbb55","categoryId":"4bf58dd8d48988d116941735","category":"Bar","checkinsCount":197,"usersCount":123,"tipCount":4,"visitsCount":197,"tier":"","message":"","currency":"","rating":6},{"name":"St Radegund","address":"129 King St.","lat":52.207621335983276,"lng":0.12665,"city_fetched":"Cambridge,UK","state":"Cambridgeshire","country":"United Kingdom","canonicalUrl":"https://foursquare.com/v/st-radegund/4b520cf4f964a520266427e3","categoryId":"4bf58dd8d48988d11b941735","category":"Pub","checkinsCount":199,"usersCount":156,"tipCount":5,"visitsCount":204,"tier":"","message":"","currency":"","rating":5.9},{"name":"The Dobbler's Inn","address":"Sturton St","lat":52.205432,"lng":0.140017,"city_fetched":"Cambridge,UK","state":"Cambridgeshire","country":"United Kingdom","canonicalUrl":"https://foursquare.com/v/the-dobblers-inn/4c27ad32c11dc9b6c1022b24","categoryId":"4bf58dd8d48988d11b941735","category":"Pub","checkinsCount":158,"usersCount":83,"tipCount":4,"visitsCount":199,"tier":"","message":"","currency":"","rating":5.8},{"name":"Sir Isaac Newton","phone":"+441223305555","address":"84 Castle St","lat":52.213510027316524,"lng":0.11219003405213702,"city_fetched":"Cambridge,UK","state":"Cambridgeshire","country":"United Kingdom","canonicalUrl":"https://foursquare.com/v/sir-isaac-newton/4b7d9c25f964a52093c92fe3","categoryId":"4bf58dd8d48988d11b941735","category":"Pub","checkinsCount":795,"usersCount":223,"tipCount":6,"visitsCount":854,"url":"http://www.sirisaacnewton-cambridge.co.uk","tier":"","message":"","currency":"","rating":5.8},{"name":"Milton Arms","address":"Milton Road","lat":52.222668528556824,"lng":0.1366374,"city_fetched":"Cambridge,UK","state":"Cambridgeshire","country":"United Kingdom","canonicalUrl":"https://foursquare.com/v/milton-arms/4b93983af964a520904934e3","categoryId":"4bf58dd8d48988d11b941735","category":"Pub","checkinsCount":367,"usersCount":202,"tipCount":9,"visitsCount":469,"tier":"","message":"","currency":"","rating":5.7},{"name":"La Raza","address":"4 Rose Crescent","lat":52.20610585,"lng":0.118762,"city_fetched":"Cambridge,UK","state":"Cambridgeshire","country":"United Kingdom","canonicalUrl":"https://foursquare.com/v/la-raza/4bec831c9a7bd13a9a358868","categoryId":"4bf58dd8d48988d116941735","category":"Bar","checkinsCount":242,"usersCount":189,"tipCount":9,"visitsCount":244,"url":"http://www.laraza.co.uk","tier":"","message":"","currency":"","rating":5.7},{"name":"Earl of Derby","address":"129 Hills Rd","lat":52.19196083289386,"lng":0.13415679015258014,"city_fetched":"Cambridge,UK","state":"Cambridgeshire","country":"United Kingdom","canonicalUrl":"https://foursquare.com/v/earl-of-derby/4b8816c0f964a520ffde31e3","categoryId":"4bf58dd8d48988d11b941735","category":"Pub","checkinsCount":595,"usersCount":418,"tipCount":7,"visitsCount":719,"tier":"","message":"","currency":"","rating":5.7},{"name":"The Fountain","phone":"+441223366540","address":"12 Regent street","lat":52.202056542507286,"lng":0.1249378081984142,"city_fetched":"Cambridge,UK","state":"Cambridgeshire","country":"United Kingdom","canonicalUrl":"https://foursquare.com/v/the-fountain/4bbb7671c585a5932344b6b7","categoryId":"4bf58dd8d48988d116941735","category":"Bar","checkinsCount":667,"usersCount":444,"tipCount":9,"visitsCount":714,"url":"http://www.thefountain.co.uk","tier":"","message":"","currency":"","rating":5.7},{"name":"The Fez Club","phone":"+441223519224","address":"15 Market Passage","lat":52.20634494867085,"lng":0.12022899493812035,"city_fetched":"Cambridge,UK","state":"Cambridgeshire","country":"United Kingdom","canonicalUrl":"https://foursquare.com/v/the-fez-club/4bdcecc93904a5935443509e","categoryId":"4bf58dd8d48988d11f941735","category":"Nightclub","checkinsCount":501,"usersCount":362,"tipCount":0,"visitsCount":505,"url":"http://www.cambridgefez.com","tier":"","message":"","currency":"","rating":5.6},{"name":"All Bar One","phone":"+441223371081","address":"36 St Andrew's St","lat":52.20316741454029,"lng":0.12378891716468282,"city_fetched":"Cambridge,UK","state":"Cambridgeshire","country":"United Kingdom","canonicalUrl":"https://foursquare.com/v/all-bar-one/4b64b71ff964a52093ca2ae3","categoryId":"4bf58dd8d48988d123941735","category":"Wine Bar","checkinsCount":688,"usersCount":489,"tipCount":11,"visitsCount":697,"url":"http://www.allbarone.co.uk/all-bar-one-cambridge/","tier":"","message":"","currency":"","rating":5.6},{"name":"The Bath House","address":"3 Benet Street","lat":52.2040506,"lng":0.118537,"city_fetched":"Cambridge,UK","state":"Cambridgeshire","country":"United Kingdom","canonicalUrl":"https://foursquare.com/v/the-bath-house/4b98154ef964a5201a2b35e3","categoryId":"4bf58dd8d48988d11b941735","category":"Pub","checkinsCount":781,"usersCount":496,"tipCount":12,"visitsCount":790,"tier":"","message":"","currency":"","rating":5.5},{"name":"The Rock","address":"200 Cherry Hinton Rd","lat":52.18751800527834,"lng":0.14675349628435533,"city_fetched":"Cambridge,UK","state":"Cambridgeshire","country":"United Kingdom","canonicalUrl":"https://foursquare.com/v/the-rock/4c1012d46b7e2d7f3f0c2735","categoryId":"4bf58dd8d48988d11b941735","category":"Pub","checkinsCount":468,"usersCount":237,"tipCount":4,"visitsCount":539,"tier":"","message":"","currency":"","rating":5.5},{"name":"Travellers Rest (Beefeater)","phone":"+441223276182","twitter":"beefeatergrill","address":"Huntingdon Road","lat":52.22228229045868,"lng":0.09382472,"city_fetched":"Cambridge,UK","state":"Cambridgeshire","country":"United Kingdom","canonicalUrl":"https://foursquare.com/v/travellers-rest-beefeater/4b9a8f7df964a52043c135e3","categoryId":"4bf58dd8d48988d11b941735","category":"Pub","checkinsCount":203,"usersCount":172,"tipCount":2,"visitsCount":287,"url":"http://www.beefeater.co.uk","tier":"","message":"","currency":"","rating":5.4},{"name":"Bar Room Bar @ The Cow","phone":"+441223308871","address":"Corn Exchange St.","lat":52.20445730210252,"lng":0.11970698833465576,"city_fetched":"Cambridge,UK","state":"Cambridgeshire","country":"United Kingdom","canonicalUrl":"https://foursquare.com/v/bar-room-bar--the-cow/4b0993b6f964a520c01923e3","categoryId":"4bf58dd8d48988d11b941735","category":"Pub","checkinsCount":482,"usersCount":294,"tipCount":12,"visitsCount":483,"url":"http://www.barroombar.com/wherewelive/index.php?view=bar&display=cambridge","tier":"","message":"","currency":"","rating":5.3},{"name":"The Castle","address":"37 St Andrews Street","lat":52.203026,"lng":0.124006,"city_fetched":"Cambridge,UK","state":"Cambridgeshire","country":"United Kingdom","canonicalUrl":"https://foursquare.com/v/the-castle/4b745937f964a520e7d62de3","categoryId":"4bf58dd8d48988d116941735","category":"Bar","checkinsCount":270,"usersCount":221,"tipCount":11,"visitsCount":270,"tier":"","message":"","currency":"","rating":5.2},{"name":"The Loco","phone":"+441223502315","address":"44 Mill Rd","lat":52.200826686417045,"lng":0.13507968643700244,"city_fetched":"Cambridge,UK","state":"Cambridgeshire","country":"United Kingdom","canonicalUrl":"https://foursquare.com/v/the-loco/52ba0580498e2548b09d0148","categoryId":"4bf58dd8d48988d116941735","category":"Bar","checkinsCount":40,"usersCount":36,"tipCount":2,"visitsCount":40,"tier":"","message":"","currency":"","rating":5.1},{"name":"The Golden Hind","phone":"+441223420816","address":"355 Milton Rd","lat":52.227857303016805,"lng":0.1456293022591096,"city_fetched":"Cambridge,UK","state":"Cambridgeshire","country":"United Kingdom","canonicalUrl":"https://foursquare.com/v/the-golden-hind/4b99444df964a520ca6e35e3","categoryId":"4bf58dd8d48988d11b941735","category":"Pub","checkinsCount":721,"usersCount":386,"tipCount":10,"visitsCount":1003,"tier":"","message":"","currency":"","rating":5.1}]