[{"name":"The Barns Hotel","phone":"+441543469191","address":"Cocksparrow Ln. Huntington","lat":52.71512250508047,"lng":-2.043581450408197,"city_fetched":"Cannock,UK","state":"Staffordshire","country":"United Kingdom","canonicalUrl":"https://foursquare.com/v/the-barns-hotel/4bd7bd17304fce720ef733ab","categoryId":"4bf58dd8d48988d1d5941735","category":"Hotel Bar","checkinsCount":111,"usersCount":110,"tipCount":2,"visitsCount":172,"url":"http://www.thebarnshotel.co.uk","tier":"","message":"","currency":"","rating":7.9},{"name":"The Horns Inn (Slitting Mill/Rugeley)","phone":"+441889586000","address":"Slitting Mill Rd","lat":52.752637175866006,"lng":-1.9588985419437694,"city_fetched":"Cannock,UK","state":"Staffordshire","country":"United Kingdom","canonicalUrl":"https://foursquare.com/v/the-horns-inn-slitting-millrugeley/4cf520bc6195721e24ce55c1","categoryId":"4bf58dd8d48988d11b941735","category":"Pub","checkinsCount":156,"usersCount":46,"tipCount":3,"visitsCount":170,"tier":"","message":"","currency":"","rating":7.8},{"name":"Moreton Arms","lat":52.631606238276554,"lng":-2.124910430293684,"city_fetched":"Cannock,UK","state":"West Midlands","country":"United Kingdom","canonicalUrl":"https://foursquare.com/v/moreton-arms/4c81630dd4e23704dc5f5d88","categoryId":"4bf58dd8d48988d11b941735","category":"Pub","checkinsCount":289,"usersCount":79,"tipCount":2,"visitsCount":346,"tier":"","message":"","currency":"","rating":7.2},{"name":"Stumble Inn","phone":"+441543502077","address":"264 Walsall Road","lat":52.67425528554848,"lng":-2.024983275321318,"city_fetched":"Cannock,UK","state":"Staffordshire","country":"United Kingdom","canonicalUrl":"https://foursquare.com/v/stumble-inn/4b69c54ff964a52038b32be3","categoryId":"4bf58dd8d48988d11b941735","category":"Pub","checkinsCount":511,"usersCount":39,"tipCount":5,"visitsCount":525,"tier":"","message":"","currency":"","rating":7.2},{"name":"The Ash Tree","phone":"+441889578314","address":"Armitage Rd","lat":52.746510839598976,"lng":-1.909947395324707,"city_fetched":"Cannock,UK","state":"Staffordshire","country":"United Kingdom","canonicalUrl":"https://foursquare.com/v/the-ash-tree/4cd45abf122ba143fce424a1","categoryId":"4bf58dd8d48988d11b941735","category":"Pub","checkinsCount":101,"usersCount":74,"tipCount":1,"visitsCount":119,"tier":"","message":"","currency":"","rating":7},{"name":"The Plaza (Wetherspoon)","phone":"+441889586831","address":"Horsefair","lat":52.75747043134728,"lng":-1.9348382949829102,"city_fetched":"Cannock,UK","state":"Staffordshire","country":"United Kingdom","canonicalUrl":"https://foursquare.com/v/the-plaza-wetherspoon/4c487ea796abd13aaf897401","categoryId":"4bf58dd8d48988d11b941735","category":"Pub","checkinsCount":258,"usersCount":118,"tipCount":1,"visitsCount":321,"url":"http://www.jdwetherspoon.co.uk","tier":"","message":"","currency":"","rating":6.9},{"name":"Fox & Anchor","address":"Brewood Rd.","lat":52.652873,"lng":-2.128381,"city_fetched":"Cannock,UK","state":"Staffordshire","country":"United Kingdom","canonicalUrl":"https://foursquare.com/v/fox--anchor/4bb4d92c6444b7135abcf300","categoryId":"4bf58dd8d48988d11b941735","category":"Pub","checkinsCount":224,"usersCount":175,"tipCount":1,"visitsCount":313,"url":"http://www.vintageinn.co.uk/thefoxandanchorcrossgreen","tier":2,"message":"Moderate","currency":"Â£","rating":6.9},{"name":"The Wheatsheaf","phone":"+441922412304","lat":52.66127103259201,"lng":-2.05928905438669,"city_fetched":"Cannock,UK","state":"Staffordshire","country":"United Kingdom","canonicalUrl":"https://foursquare.com/v/the-wheatsheaf/4bd4418b41b9ef3b47a101e6","categoryId":"4bf58dd8d48988d11b941735","category":"Pub","checkinsCount":75,"usersCount":75,"tipCount":1,"visitsCount":120,"tier":"","message":"","currency":"","rating":6.8},{"name":"Tumbledown Farm","phone":"+441543500891","address":"Four Crosses Ln","lat":52.683399313049605,"lng":-2.0678924047110336,"city_fetched":"Cannock,UK","state":"Staffordshire","country":"United Kingdom","canonicalUrl":"https://foursquare.com/v/tumbledown-farm/4b5a08e5f964a52013a928e3","categoryId":"4bf58dd8d48988d11b941735","category":"Pub","checkinsCount":173,"usersCount":100,"tipCount":8,"visitsCount":203,"tier":"","message":"","currency":"","rating":6.8},{"name":"The Gatehouse","phone":"+441902426372","address":"Stafford Rd","lat":52.61025404696119,"lng":-2.1306081108769415,"city_fetched":"Cannock,UK","state":"West Midlands","country":"United Kingdom","canonicalUrl":"https://foursquare.com/v/the-gatehouse/50abc5eae4b050a200eb50b8","categoryId":"4bf58dd8d48988d11b941735","category":"Pub","checkinsCount":406,"usersCount":150,"tipCount":3,"visitsCount":496,"url":"http://www.hungryhorse.co.uk/pubs/gatehouse-wolverhampton","tier":"","message":"","currency":"","rating":6.6},{"name":"The Old Irish Harp","address":"Chester Road","lat":52.60359373905267,"lng":-1.8897908347590915,"city_fetched":"Cannock,UK","state":"Walsall","country":"United Kingdom","canonicalUrl":"https://foursquare.com/v/the-old-irish-harp/4da9d49d1e72c1ab9be59d4f","categoryId":"4bf58dd8d48988d11b941735","category":"Pub","checkinsCount":189,"usersCount":120,"tipCount":6,"visitsCount":244,"url":"http://www.oldirishharppub.co.uk","tier":"","message":"","currency":"","rating":6.5},{"name":"Hussey Arms","lat":52.6507344329806,"lng":-1.937985183222886,"city_fetched":"Cannock,UK","state":"Walsall","country":"United Kingdom","canonicalUrl":"https://foursquare.com/v/hussey-arms/4e5a68fac65bcd7cbe4114f6","categoryId":"4bf58dd8d48988d11b941735","category":"Pub","checkinsCount":124,"usersCount":96,"tipCount":3,"visitsCount":164,"tier":"","message":"","currency":"","rating":6.3},{"name":"The Lazy Hill","lat":52.61552753962337,"lng":-1.9149931367710338,"city_fetched":"Cannock,UK","country":"United Kingdom","canonicalUrl":"https://foursquare.com/v/the-lazy-hill/4c72e5760e23b1f713071fdc","categoryId":"4bf58dd8d48988d11b941735","category":"Pub","checkinsCount":72,"usersCount":38,"tipCount":5,"visitsCount":123,"tier":"","message":"","currency":"","rating":6.3},{"name":"Longford House (Beefeater)","phone":"+441543572721","twitter":"beefeater","address":"Watling St","lat":52.67978748392965,"lng":-2.049042399302528,"city_fetched":"Cannock,UK","state":"Staffordshire","country":"United Kingdom","canonicalUrl":"https://foursquare.com/v/longford-house-beefeater/4c3433c13896e21e3e38eb90","categoryId":"4bf58dd8d48988d11b941735","category":"Pub","checkinsCount":457,"usersCount":209,"tipCount":3,"visitsCount":534,"url":"http://www.beefeater.co.uk/steak-restaurant/Staffordshire/Longford-House-Wedges-Mills.html","tier":"","message":"","currency":"","rating":6.3},{"name":"The Linford Arms (Wetherspoon)","phone":"+441543469360","address":"79 Market Place","lat":52.68954635377324,"lng":-2.0324277877807617,"city_fetched":"Cannock,UK","state":"Staffordshire","country":"United Kingdom","canonicalUrl":"https://foursquare.com/v/the-linford-arms-wetherspoon/4b883f81f964a5204aea31e3","categoryId":"4bf58dd8d48988d11b941735","category":"Pub","checkinsCount":701,"usersCount":207,"tipCount":4,"visitsCount":741,"url":"http://www.jdwetherspoon.co.uk","tier":"","message":"","currency":"","rating":6.2},{"name":"The Avion (Wetherspoon)","address":"19 Anchor Road","lat":52.60352537836709,"lng":-1.919925734884348,"city_fetched":"Cannock,UK","state":"Walsall","country":"United Kingdom","canonicalUrl":"https://foursquare.com/v/the-avion-wetherspoon/51dc0f59498ed7fa0f1ffc54","categoryId":"4bf58dd8d48988d11b941735","category":"Pub","checkinsCount":442,"usersCount":88,"tipCount":5,"visitsCount":512,"tier":"","message":"","currency":"","rating":6.2},{"name":"The Littleton Arms","lat":52.724922,"lng":-2.116137,"city_fetched":"Cannock,UK","country":"United Kingdom","canonicalUrl":"https://foursquare.com/v/the-littleton-arms/4b6c229df964a5208a252ce3","categoryId":"4bf58dd8d48988d11b941735","category":"Pub","checkinsCount":189,"usersCount":117,"tipCount":7,"visitsCount":225,"tier":"","message":"","currency":"","rating":6.1},{"name":"Chase Gate Pub","address":"Wolverhampton Road","lat":52.6743909685524,"lng":-2.049786647047525,"city_fetched":"Cannock,UK","state":"Staffordshire","country":"United Kingdom","canonicalUrl":"https://foursquare.com/v/chase-gate-pub/4c01108fde3376b05b31f9a4","categoryId":"4bf58dd8d48988d11b941735","category":"Pub","checkinsCount":135,"usersCount":110,"tipCount":6,"visitsCount":147,"tier":"","message":"","currency":"","rating":6},{"name":"Spread Eagle","address":"Watling St.","lat":52.69374715894531,"lng":-2.1320074796676636,"city_fetched":"Cannock,UK","state":"Staffordshire","country":"United Kingdom","canonicalUrl":"https://foursquare.com/v/spread-eagle/4c6ee3272930bfb74aeaf180","categoryId":"4bf58dd8d48988d11b941735","category":"Pub","checkinsCount":286,"usersCount":226,"tipCount":4,"visitsCount":361,"tier":"","message":"","currency":"","rating":5.8},{"name":"Barley Mow","address":"28 Main Road","lat":52.78854126848961,"lng":-2.0427703857421875,"city_fetched":"Cannock,UK","state":"Staffordshire","country":"United Kingdom","canonicalUrl":"https://foursquare.com/v/barley-mow/4b5c749ff964a520bb3029e3","categoryId":"4bf58dd8d48988d11b941735","category":"Pub","checkinsCount":173,"usersCount":98,"tipCount":4,"visitsCount":178,"tier":"","message":"","currency":"","rating":5.8},{"name":"The New Pear Tree","address":"Pear Tree Lane","lat":52.61676601456072,"lng":-2.095493698007108,"city_fetched":"Cannock,UK","state":"West Midlands","country":"United Kingdom","canonicalUrl":"https://foursquare.com/v/the-new-pear-tree/4c56e835a31176b05869d0bc","categoryId":"4bf58dd8d48988d11b941735","category":"Pub","checkinsCount":145,"usersCount":81,"tipCount":5,"visitsCount":187,"tier":"","message":"","currency":"","rating":5.7},{"name":"Bar Sport","phone":"+441543503859","twitter":"barsport","address":"85-87 High Green Town Centre, Cannock Ws11 1bj, United Kingdom","lat":52.68953814299157,"lng":-2.03279579218982,"city_fetched":"Cannock,UK","state":"Staffordshire","country":"United Kingdom","canonicalUrl":"https://foursquare.com/v/bar-sport/4b05882af964a520d2b522e3","categoryId":"4bf58dd8d48988d11d941735","category":"Sports Bar","checkinsCount":171,"usersCount":85,"tipCount":4,"visitsCount":175,"url":"http://www.barsport.co.uk","tier":"","message":"","currency":"","rating":5.6},{"name":"Smithys Forge Sizzler Pub","address":"Lichfield Road","lat":52.64890214414158,"lng":-1.9343537480589894,"city_fetched":"Cannock,UK","state":"Walsall","country":"United Kingdom","canonicalUrl":"https://foursquare.com/v/smithys-forge-sizzler-pub/4b69d30af964a5207eb62be3","categoryId":"4bf58dd8d48988d11b941735","category":"Pub","checkinsCount":107,"usersCount":55,"tipCount":5,"visitsCount":112,"tier":"","message":"","currency":"","rating":5.2}]