[{"name":"The Dolphin","phone":"+441227455963","address":"17 St Radigunds St","lat":51.28265547451978,"lng":1.0814881324768066,"city_fetched":"Canterbury","state":"Kent","country":"United Kingdom","canonicalUrl":"https://foursquare.com/v/the-dolphin/4be16e695541d13a80a28266","category":"Pub","checkinsCount":542,"usersCount":360,"tipCount":13,"visitsCount":679,"tier":"","message":"","currency":"","rating":8.6},{"name":"The Millers Arms - Shepherd Neame","phone":"+441227456057","address":"2 Mill Ln","lat":51.28243569986752,"lng":1.0804608464241028,"city_fetched":"Canterbury","state":"Kent","country":"United Kingdom","canonicalUrl":"https://foursquare.com/v/the-millers-arms--shepherd-neame/4bc77cac93bdeee1706f37ae","category":"Pub","checkinsCount":307,"usersCount":164,"tipCount":7,"visitsCount":332,"url":"http://www.shepherdneame.co.uk","tier":"","message":"","currency":"","rating":8.6},{"name":"The Shakespeare","phone":"+441227463252","address":"5 Butchery Lane","lat":51.27891664655322,"lng":1.0813040047084648,"city_fetched":"Canterbury","state":"Kent","country":"United Kingdom","canonicalUrl":"https://foursquare.com/v/the-shakespeare/523dddaa11d2e08b0dc29004","category":"Gastropub","checkinsCount":319,"usersCount":240,"tipCount":12,"visitsCount":334,"url":"http://www.shakespearecanterbury.com","tier":"","message":"","currency":"","rating":8.2},{"name":"The Pound","address":"1 Pound Ln","lat":51.28174869721129,"lng":1.075868013332642,"city_fetched":"Canterbury","state":"Kent","country":"United Kingdom","canonicalUrl":"https://foursquare.com/v/the-pound/54824972498e90fa402a1eb4","category":"Bar","checkinsCount":219,"usersCount":107,"tipCount":2,"visitsCount":229,"tier":"","message":"","currency":"","rating":8},{"name":"The Foundry","phone":"+441227455899","twitter":"foundrybrewpub","address":"White Horse Ln","lat":51.279051636731865,"lng":1.0788216536547457,"city_fetched":"Canterbury","state":"Kent","country":"United Kingdom","canonicalUrl":"https://foursquare.com/v/the-foundry/4e0609a362e100e58166b09d","category":"Brewery","checkinsCount":389,"usersCount":246,"tipCount":14,"visitsCount":406,"url":"http://www.thefoundrycanterbury.co.uk","tier":"","message":"","currency":"","rating":7.9},{"name":"The Cuban (Havana Club)","address":"41 High St","lat":51.27895952772972,"lng":1.0795688981995029,"city_fetched":"Canterbury","state":"Kent","country":"United Kingdom","canonicalUrl":"https://foursquare.com/v/the-cuban-havana-club/4d2399e38882a35de15d0d38","category":"Cocktail Bar","checkinsCount":1083,"usersCount":504,"tipCount":8,"visitsCount":1171,"url":"http://www.thecubancanterbury.com","tier":"","message":"","currency":"","rating":7.7},{"name":"Lady Luck Bar","phone":"+441227763298","address":"18 St. Peters St","lat":51.28077925,"lng":1.077127,"city_fetched":"Canterbury","state":"Kent","country":"United Kingdom","canonicalUrl":"https://foursquare.com/v/lady-luck-bar/4bed51b21d5576b066a3beea","category":"Cocktail Bar","checkinsCount":721,"usersCount":264,"tipCount":8,"visitsCount":724,"tier":"","message":"","currency":"","rating":7.7},{"name":"Unicorn St Dunstans","phone":"+441227463187","twitter":"unicorninn","address":"61 St. Dunstans St","lat":51.28283042214978,"lng":1.0729780691254236,"city_fetched":"Canterbury","state":"Kent","country":"United Kingdom","canonicalUrl":"https://foursquare.com/v/unicorn-st-dunstans/4c6e7b1d06ed6dcb8fb8a622","category":"Pub","checkinsCount":362,"usersCount":161,"tipCount":5,"visitsCount":434,"url":"http://www.unicorninn.com","tier":"","message":"","currency":"","rating":7.6},{"name":"The Penny Theatre","phone":"+441227812850","address":"30-31 Northgate","lat":51.28368890458758,"lng":1.085972785949707,"city_fetched":"Canterbury","state":"Kent","country":"United Kingdom","canonicalUrl":"https://foursquare.com/v/the-penny-theatre/4b5b5185f964a52030f428e3","category":"Pub","checkinsCount":688,"usersCount":317,"tipCount":14,"visitsCount":775,"tier":"","message":"","currency":"","rating":7.5},{"name":"The Ballroom","address":"Orange St.","lat":51.280486302550315,"lng":1.0802908321286535,"city_fetched":"Canterbury","state":"Kent","country":"United Kingdom","canonicalUrl":"https://foursquare.com/v/the-ballroom/4d14e805b15cb1f7296da421","category":"Bar","checkinsCount":247,"usersCount":146,"tipCount":2,"visitsCount":251,"tier":"","message":"","currency":"","rating":7.5},{"name":"The Bell & Crown","address":"10 - 11 Palace Street","lat":51.28097493504351,"lng":1.0815249656989592,"city_fetched":"Canterbury","state":"Kent","country":"United Kingdom","canonicalUrl":"https://foursquare.com/v/the-bell--crown/4cc4755606c254817be79647","category":"Pub","checkinsCount":305,"usersCount":134,"tipCount":1,"visitsCount":314,"tier":"","message":"","currency":"","rating":7.5},{"name":"The Old Buttermarket","lat":51.27914786338806,"lng":1.081173,"city_fetched":"Canterbury","country":"United Kingdom","canonicalUrl":"https://foursquare.com/v/the-old-buttermarket/4b6c7f8df964a520f03e2ce3","category":"Pub","checkinsCount":496,"usersCount":386,"tipCount":6,"visitsCount":496,"tier":"","message":"","currency":"","rating":7.5},{"name":"The Old Weavers House","phone":"+441227464660","address":"1-3 St. Peters Street","lat":51.280108,"lng":1.078441,"city_fetched":"Canterbury","state":"Kent","country":"United Kingdom","canonicalUrl":"https://foursquare.com/v/the-old-weavers-house/4c49fbda712ac928ecf9ca6a","category":"Gastropub","checkinsCount":286,"usersCount":251,"tipCount":19,"visitsCount":287,"url":"http://www.weaversrestaurant.co.uk","tier":2,"message":"Moderate","currency":"£","rating":7.4},{"name":"Marlowes","phone":"+441227462194","address":"55 St.Peters St.","lat":51.2802648,"lng":1.0778777,"city_fetched":"Canterbury","state":"Kent","country":"United Kingdom","canonicalUrl":"https://foursquare.com/v/marlowes/4c43474ccc410f4754faad61","category":"Gastropub","checkinsCount":124,"usersCount":104,"tipCount":4,"visitsCount":124,"url":"http://www.marlowesrestaurant.co.uk","tier":2,"message":"Moderate","currency":"£","rating":7.4},{"name":"Christ Church Students' Union","phone":"+441227782817","twitter":"christchurchsu","address":"41 St. George's Place","lat":51.2757206794689,"lng":1.0847530598048594,"city_fetched":"Canterbury","state":"Kent","country":"United Kingdom","canonicalUrl":"https://foursquare.com/v/christ-church-students-union/4d517c77529dcbffdb74dfc4","category":"Student Center","checkinsCount":539,"usersCount":102,"tipCount":16,"visitsCount":540,"url":"http://ccsu.co.uk","tier":"","message":"","currency":"","rating":7.3},{"name":"Black Griffin","phone":"+441227455255","address":"40 St Peters St","lat":51.28098448969816,"lng":1.0764777660369873,"city_fetched":"Canterbury","state":"Kent","country":"United Kingdom","canonicalUrl":"https://foursquare.com/v/black-griffin/4d039b2837036dcba4150bfb","category":"Pub","checkinsCount":419,"usersCount":251,"tipCount":4,"visitsCount":444,"tier":"","message":"","currency":"","rating":7.2},{"name":"Parrot - Shepherd Neame","phone":"+441227762355","address":"1-9 Church Lane","lat":51.28237027056945,"lng":1.0825663805007935,"city_fetched":"Canterbury","state":"Kent","country":"United Kingdom","canonicalUrl":"https://foursquare.com/v/parrot--shepherd-neame/4be16dab5541d13a59a28266","category":"Pub","checkinsCount":318,"usersCount":216,"tipCount":6,"visitsCount":321,"url":"http://www.shepherdneame.co.uk","tier":"","message":"","currency":"","rating":7.1},{"name":"The Old Brewery Tavern","twitter":"oldbrewerycant","address":"Stour St.","lat":51.27896908492354,"lng":1.0781457621059822,"city_fetched":"Canterbury","state":"Kent","country":"United Kingdom","canonicalUrl":"https://foursquare.com/v/the-old-brewery-tavern/4b3de126f964a520369725e3","category":"Nightclub","checkinsCount":435,"usersCount":363,"tipCount":11,"visitsCount":515,"url":"http://www.michaelcaines.com/taverns/canterbury","tier":"","message":"","currency":"","rating":6.9},{"name":"Club Chemistry","phone":"+441227462520","twitter":"clubchem","address":"15 Station Rd E","lat":51.27440518,"lng":1.0768854,"city_fetched":"Canterbury","state":"Kent","country":"United Kingdom","canonicalUrl":"https://foursquare.com/v/club-chemistry/4b7d059bf964a52043ac2fe3","category":"Nightclub","checkinsCount":668,"usersCount":315,"tipCount":11,"visitsCount":751,"url":"http://www.clubchemistry.co.uk","tier":"","message":"","currency":"","rating":6.9},{"name":"The Falstaff","phone":"+441227462138","twitter":"thefalstaff","address":"8-10 St Dunstan's St","lat":51.28197386482601,"lng":1.0751600009894917,"city_fetched":"Canterbury","state":"Kent","country":"United Kingdom","canonicalUrl":"https://foursquare.com/v/the-falstaff/4be4f43c5254d13a2a7c60e1","category":"Hotel","checkinsCount":261,"usersCount":166,"tipCount":6,"visitsCount":271,"tier":"","message":"","currency":"","rating":6.8},{"name":"The City Arms Inn","address":"7 Butchery lane","lat":51.278725,"lng":1.0813969373703003,"city_fetched":"Canterbury","state":"Kent","country":"United Kingdom","canonicalUrl":"https://foursquare.com/v/the-city-arms-inn/4c2bad3d57a9c9b6ec49f667","category":"Pub","checkinsCount":122,"usersCount":104,"tipCount":1,"visitsCount":123,"tier":"","message":"","currency":"","rating":6.8},{"name":"Picture House","phone":"+441227379157","address":"49a St Peter's St.","lat":51.28049,"lng":1.077335,"city_fetched":"Canterbury","state":"Kent","country":"United Kingdom","canonicalUrl":"https://foursquare.com/v/picture-house/4e7c6b2aa8095950a8e246fb","category":"Bar","checkinsCount":171,"usersCount":88,"tipCount":8,"visitsCount":171,"url":"http://picturehousecanterbury.com","tier":"","message":"","currency":"","rating":6.7},{"name":"The Monument - Shepherd Neame","phone":"+441227464963","address":"37 St Dunstans Street","lat":51.2839875212834,"lng":1.070941686630249,"city_fetched":"Canterbury","state":"Kent","country":"United Kingdom","canonicalUrl":"https://foursquare.com/v/the-monument--shepherd-neame/4c9cf4b87c096dcb477ac6d1","category":"Pub","checkinsCount":165,"usersCount":57,"tipCount":2,"visitsCount":166,"url":"http://www.shepherdneame.co.uk","tier":"","message":"","currency":"","rating":6.6},{"name":"The White Hart","address":"Castle Row","lat":51.275971368847415,"lng":1.07674855942789,"city_fetched":"Canterbury","state":"Kent","country":"United Kingdom","canonicalUrl":"https://foursquare.com/v/the-white-hart/4da3469cbf22a1431c98c4f8","category":"Pub","checkinsCount":136,"usersCount":89,"tipCount":4,"visitsCount":136,"url":"http://www.shepherdneame.co.uk","tier":"","message":"","currency":"","rating":6.6},{"name":"The Jolly Sailor","phone":"+441227768910","address":"75 Northgate","lat":51.28223941169366,"lng":1.0834836959838867,"city_fetched":"Canterbury","state":"Kent","country":"United Kingdom","canonicalUrl":"https://foursquare.com/v/the-jolly-sailor/4b2695cbf964a520ee7d24e3","category":"Pub","checkinsCount":328,"usersCount":111,"tipCount":6,"visitsCount":333,"tier":"","message":"","currency":"","rating":6.6},{"name":"Ye Olde Beverlie","phone":"+441227463974","address":"St. Stephens Green","lat":51.290717625257436,"lng":1.0776257514953613,"city_fetched":"Canterbury","state":"Kent","country":"United Kingdom","canonicalUrl":"https://foursquare.com/v/ye-olde-beverlie/4cb58f3955af224b5b24937e","category":"Pub","checkinsCount":151,"usersCount":101,"tipCount":3,"visitsCount":189,"url":"http://www.shepherdneame.co.uk","tier":"","message":"","currency":"","rating":6.4},{"name":"Casey's - Shepherd Neame","phone":"+441227463252","address":"Butchery Lane","lat":51.27888392856747,"lng":1.081681251525879,"city_fetched":"Canterbury","state":"Kent","country":"United Kingdom","canonicalUrl":"https://foursquare.com/v/caseys--shepherd-neame/4e244354814d32181a6f17c3","category":"Pub","checkinsCount":28,"usersCount":21,"tipCount":1,"visitsCount":28,"url":"http://www.shepherdneame.co.uk","tier":"","message":"","currency":"","rating":6.4},{"name":"Bramleys","phone":"+441227379933","address":"15 Orange St","lat":51.28052726559348,"lng":1.0802442326312176,"city_fetched":"Canterbury","state":"Kent","country":"United Kingdom","canonicalUrl":"https://foursquare.com/v/bramleys/4b8d94d2f964a520530233e3","category":"Bar","checkinsCount":238,"usersCount":127,"tipCount":8,"visitsCount":239,"tier":"","message":"","currency":"","rating":6.4},{"name":"The Thomas Ingoldsby (Wetherspoon)","phone":"+441227463339","address":"5-9 Burgate","lat":51.278161707842884,"lng":1.084369761916196,"city_fetched":"Canterbury","state":"Kent","country":"United Kingdom","canonicalUrl":"https://foursquare.com/v/the-thomas-ingoldsby-wetherspoon/4ba7fd4df964a5208bc439e3","category":"Pub","checkinsCount":1499,"usersCount":773,"tipCount":16,"visitsCount":1742,"url":"http://www.jdwetherspoon.co.uk","tier":"","message":"","currency":"","rating":6.3},{"name":"The West Gate Inn (Wetherspoon)","phone":"+441227464329","address":"1-3 North Lane","lat":51.28207835410399,"lng":1.075887680053711,"city_fetched":"Canterbury","state":"Kent","country":"United Kingdom","canonicalUrl":"https://foursquare.com/v/the-west-gate-inn-wetherspoon/4c87aa90821e9eb08acc8d89","category":"Pub","checkinsCount":1188,"usersCount":519,"tipCount":9,"visitsCount":1287,"url":"http://www.jdwetherspoon.co.uk","tier":"","message":"","currency":"","rating":6.1},{"name":"The Loft","phone":"+441227456515","address":"5-6 St. Margarets St","lat":51.277707584797525,"lng":1.0793838813100818,"city_fetched":"Canterbury","state":"Kent","country":"United Kingdom","canonicalUrl":"https://foursquare.com/v/the-loft/4c784233794e224bdb9b6128","category":"Cocktail Bar","checkinsCount":499,"usersCount":194,"tipCount":2,"visitsCount":572,"url":"http://www.loftbar.co.uk","tier":"","message":"","currency":"","rating":5.8},{"name":"The Bishops Finger - Shepherd Neame","phone":"+441227768915","address":"13 St. Dunstans St","lat":51.28205654417864,"lng":1.0748416185379028,"city_fetched":"Canterbury","state":"Kent","country":"United Kingdom","canonicalUrl":"https://foursquare.com/v/the-bishops-finger--shepherd-neame/4b427edef964a5200dd525e3","category":"Pub","checkinsCount":296,"usersCount":198,"tipCount":5,"visitsCount":298,"url":"http://www.shepherdneame.co.uk","tier":"","message":"","currency":"","rating":5.8},{"name":"Chill Nightclub","phone":"+441227761276","address":"11 St. Georges Place","lat":51.27634702062231,"lng":1.0847604274749756,"city_fetched":"Canterbury","state":"Kent","country":"United Kingdom","canonicalUrl":"https://foursquare.com/v/chill-nightclub/4ba97b1df964a520b8293ae3","category":"Nightclub","checkinsCount":362,"usersCount":193,"tipCount":4,"visitsCount":362,"url":"http://www.chill-nightclub.com","tier":"","message":"","currency":"","rating":5.7},{"name":"The Cricketers - Shepherd Neame","phone":"+441227464227","address":"14 St Peter's St.","lat":51.28068,"lng":1.077253,"city_fetched":"Canterbury","state":"Kent","country":"United Kingdom","canonicalUrl":"https://foursquare.com/v/the-cricketers--shepherd-neame/4bd898fe51170f47d4cb33e4","category":"Pub","checkinsCount":229,"usersCount":157,"tipCount":6,"visitsCount":231,"url":"http://www.shepherdneame.co.uk","tier":"","message":"","currency":"","rating":5.7},{"name":"The Three Tuns","lat":51.277561205554186,"lng":1.0784865973695865,"city_fetched":"Canterbury","state":"Kent","country":"United Kingdom","canonicalUrl":"https://foursquare.com/v/the-three-tuns/4bd64f22637ba593e41af870","category":"Pub","checkinsCount":219,"usersCount":122,"tipCount":4,"visitsCount":221,"tier":"","message":"","currency":"","rating":5.4}]