[{"name":"Milgi Lounge","phone":"+442920473150","address":"213 City Road","lat":51.49183036666667,"lng":-3.171353,"city_fetched":"Cardiff","state":"Cardiff","country":"United Kingdom","canonicalUrl":"https://foursquare.com/v/milgi-lounge/4b928477f964a5201f0034e3","category":"Lounge","checkinsCount":889,"usersCount":503,"tipCount":25,"visitsCount":1065,"url":"http://www.milgilounge.com","tier":"","message":"","currency":"","rating":9},{"name":"The City Arms","phone":"+442920641913","twitter":"cityarmscardiff","address":"10-12 Quay St","lat":51.47983944762412,"lng":-3.180933869449962,"neighborhood":"City Centre","city_fetched":"Cardiff","state":"Cardiff","country":"United Kingdom","canonicalUrl":"https://foursquare.com/v/the-city-arms/4bc8bc8014d7952163bc69e9","category":"Pub","checkinsCount":2946,"usersCount":643,"tipCount":24,"visitsCount":3000,"url":"http://www.thecityarmscardiff.com","tier":2,"message":"Moderate","currency":"£","rating":9},{"name":"Chapter Arts Centre","phone":"+442920304400","twitter":"chaptertweets","address":"Market Rd","lat":51.482973085700024,"lng":-3.2034158706665035,"neighborhood":"Canton","city_fetched":"Cardiff","country":"United Kingdom","canonicalUrl":"https://foursquare.com/chaptertweets","category":"Performing Arts Venue","checkinsCount":5550,"usersCount":1042,"tipCount":61,"visitsCount":6332,"url":"http://www.chapter.org","tier":"","message":"","currency":"","rating":8.9},{"name":"Urban Tap House","phone":"+442920399557","twitter":"urbantaphouse","address":"25 Westgate St","lat":51.479891207767245,"lng":-3.181193768978119,"neighborhood":"City Centre","city_fetched":"Cardiff","state":"Cardiff","country":"United Kingdom","canonicalUrl":"https://foursquare.com/v/urban-tap-house/5229e7dd049331b94a75425f","category":"Beer Bar","checkinsCount":2831,"usersCount":925,"tipCount":44,"visitsCount":3332,"url":"http://www.urbantaphouse.co.uk","tier":2,"message":"Moderate","currency":"£","rating":8.9},{"name":"Clwb Ifor Bach","phone":"+442920232199","twitter":"clwbiforbach","address":"11 Womanby St","lat":51.480352249908464,"lng":-3.181386888027191,"neighborhood":"City Centre","city_fetched":"Cardiff","country":"United Kingdom","canonicalUrl":"https://foursquare.com/v/clwb-ifor-bach/4b48767bf964a520ad4d26e3","category":"Music Venue","checkinsCount":1265,"usersCount":561,"tipCount":11,"visitsCount":1295,"url":"http://www.clwb.net","tier":"","message":"","currency":"","rating":8.8},{"name":"BrewDog Cardiff","phone":"+442920231684","twitter":"brewdog","address":"31 Westgate Street","lat":51.47872632965354,"lng":-3.1794007291515904,"neighborhood":"City Centre","city_fetched":"Cardiff","state":"Cardiff","country":"United Kingdom","canonicalUrl":"https://foursquare.com/v/brewdog-cardiff/53ce641d498e0eaa7ccd805c","category":"Beer Bar","checkinsCount":1409,"usersCount":436,"tipCount":23,"visitsCount":1589,"url":"http://www.brewdog.com","tier":"","message":"","currency":"","rating":8.7},{"name":"The Goat Major","phone":"+442920337161","twitter":"thegoatmajorpub","address":"33 High St","lat":51.4810788829523,"lng":-3.180568814277649,"neighborhood":"City Centre","city_fetched":"Cardiff","state":"Cardiff","country":"United Kingdom","canonicalUrl":"https://foursquare.com/v/the-goat-major/4b60a500f964a52005f229e3","category":"Pub","checkinsCount":1109,"usersCount":493,"tipCount":24,"visitsCount":1126,"url":"http://www.sabrain.com","tier":"","message":"","currency":"","rating":8.5},{"name":"Barocco","phone":"+442920413600","twitter":"baroccocardiff","address":"Wharton St","lat":51.479659043936415,"lng":-3.177509321607692,"neighborhood":"City Centre","city_fetched":"Cardiff","state":"Cardiff","country":"United Kingdom","canonicalUrl":"https://foursquare.com/v/barocco/4c26914c5c5ca593397146fe","category":"Bar","checkinsCount":539,"usersCount":354,"tipCount":8,"visitsCount":574,"url":"http://www.baroccocardiff.com","tier":"","message":"","currency":"","rating":8.3},{"name":"The Cambrian Tap","phone":"+442920644952","twitter":"thecambriantap","address":"51 St Mary Street","lat":51.47744303784965,"lng":-3.17707429241848,"neighborhood":"City Centre","city_fetched":"Cardiff","state":"Cardiff","country":"United Kingdom","canonicalUrl":"https://foursquare.com/v/the-cambrian-tap/55549744498e6b74407c5802","category":"Pub","checkinsCount":293,"usersCount":134,"tipCount":3,"visitsCount":337,"tier":"","message":"","currency":"","rating":8.3},{"name":"Rummer Tavern","phone":"+442920649871","address":"14 Duke St.","lat":51.481573425430234,"lng":-3.179320345607806,"neighborhood":"City Centre","city_fetched":"Cardiff","country":"United Kingdom","canonicalUrl":"https://foursquare.com/v/rummer-tavern/4b86b0a8f964a520869631e3","category":"Pub","checkinsCount":1527,"usersCount":453,"tipCount":15,"visitsCount":1575,"url":"http://www.therummertaverncardiff.co.uk","tier":"","message":"","currency":"","rating":8.2},{"name":"Pen & Wig","phone":"+442920371217","twitter":"pen_and_wig","address":"1 Park Grove","lat":51.48605147172216,"lng":-3.175104569260747,"neighborhood":"Cathays","city_fetched":"Cardiff","state":"Cardiff","country":"United Kingdom","canonicalUrl":"https://foursquare.com/v/pen--wig/4b537c52f964a520589f27e3","category":"Pub","checkinsCount":1793,"usersCount":661,"tipCount":24,"visitsCount":2009,"url":"http://www.penandwigcardiff.co.uk","tier":2,"message":"Moderate","currency":"£","rating":8.2},{"name":"Porter's Cardiff","phone":"+442921250666","twitter":"porterscardiff","address":"Harlech Court","lat":51.47819074529398,"lng":-3.1722071794167834,"neighborhood":"The Hayes","city_fetched":"Cardiff","state":"Cardiff","country":"United Kingdom","canonicalUrl":"https://foursquare.com/v/porters-cardiff/509299a5e4b054e683cf2a9c","category":"Bar","checkinsCount":613,"usersCount":283,"tipCount":9,"visitsCount":649,"url":"http://www.porterscardiff.com","tier":"","message":"","currency":"","rating":8.2},{"name":"Juno Lounge","phone":"+442920198990","twitter":"juno_lounge","address":"14 Wellfield Road","lat":51.494924419400874,"lng":-3.1656240150030417,"neighborhood":"Cardiff City Centre","city_fetched":"Cardiff","state":"Cardiff","country":"United Kingdom","canonicalUrl":"https://foursquare.com/v/juno-lounge/4b996d21f964a520b67a35e3","category":"Bar","checkinsCount":1160,"usersCount":425,"tipCount":23,"visitsCount":1361,"url":"http://thelounges.co.uk/lounges/juno-lounge/","tier":"","message":"","currency":"","rating":8.2},{"name":"Ty Mawr","address":"Graig Rd.","lat":51.55071171210745,"lng":-3.1794261932373047,"city_fetched":"Cardiff","state":"Cardiff","country":"United Kingdom","canonicalUrl":"https://foursquare.com/v/ty-mawr/4be4240b2457a59378c9a915","category":"Pub","checkinsCount":291,"usersCount":179,"tipCount":6,"visitsCount":350,"tier":"","message":"","currency":"","rating":8.1},{"name":"The Old Cottage","phone":"+442920765961","address":"Cherry Orchard Rd","lat":51.54534409346299,"lng":-3.1870459281216403,"neighborhood":"Llanishen","city_fetched":"Cardiff","state":"Cardiff","country":"United Kingdom","canonicalUrl":"https://foursquare.com/v/the-old-cottage/4c5ec8f8857ca593d674d0cb","category":"Pub","checkinsCount":263,"usersCount":143,"tipCount":7,"visitsCount":381,"tier":"","message":"","currency":"","rating":8.1},{"name":"Chapel 1877","phone":"+442920222020","twitter":"chapel1877bar","address":"Churchill Way","lat":51.48042073765504,"lng":-3.171830177307129,"neighborhood":"City Centre","city_fetched":"Cardiff","state":"Cardiff","country":"United Kingdom","canonicalUrl":"https://foursquare.com/v/chapel-1877/50b5184bd86c0f6ea2f9695c","category":"Bar","checkinsCount":488,"usersCount":424,"tipCount":8,"visitsCount":636,"url":"http://chapel1877.com","tier":"","message":"","currency":"","rating":8},{"name":"Bar Cwtch","address":"5 Bute Cresent","lat":51.464383,"lng":-3.165415,"neighborhood":"Mermaid Quay","city_fetched":"Cardiff","state":"Cardiff","country":"United Kingdom","canonicalUrl":"https://foursquare.com/v/bar-cwtch/4b96d654f964a520e6e734e3","category":"Bar","checkinsCount":261,"usersCount":155,"tipCount":8,"visitsCount":261,"tier":"","message":"","currency":"","rating":8},{"name":"Bar 44","twitter":"bar44cardiff","address":"15-23 Westgate St","lat":51.47998417032424,"lng":-3.1815012435123413,"neighborhood":"City Centre","city_fetched":"Cardiff","state":"Cardiff","country":"United Kingdom","canonicalUrl":"https://foursquare.com/v/bar-44/558983b0498ec950a0382862","category":"Tapas Restaurant","checkinsCount":85,"usersCount":51,"tipCount":4,"visitsCount":86,"url":"http://www.bar44.co.uk/cardiff/home","tier":"","message":"","currency":"","rating":8},{"name":"Lilo's Grill House and Juice Bar","address":"22 City Rd.","lat":51.487790268550306,"lng":-3.1670534367133505,"city_fetched":"Cardiff","state":"Cardiff","country":"United Kingdom","canonicalUrl":"https://foursquare.com/v/lilos-grill-house-and-juice-bar/4bf686c55e800f473674e7d4","category":"Middle Eastern Restaurant","checkinsCount":438,"usersCount":371,"tipCount":12,"visitsCount":611,"tier":"","message":"","currency":"","rating":8},{"name":"Buffalo Bar","phone":"+442920310312","twitter":"buffalocardiff","address":"11 Windsor Place","lat":51.48357440345281,"lng":-3.1733107566833496,"neighborhood":"City Centre","city_fetched":"Cardiff","country":"United Kingdom","canonicalUrl":"https://foursquare.com/v/buffalo-bar/4bc8b97914d79521f1b469e9","category":"Bar","checkinsCount":1908,"usersCount":809,"tipCount":19,"visitsCount":2051,"url":"http://buffalocardiff.co.uk","tier":2,"message":"Moderate","currency":"£","rating":7.9},{"name":"Live Lounge","address":"9 The Friary","lat":51.4824038255666,"lng":-3.1776479685119607,"neighborhood":"City Centre","city_fetched":"Cardiff","state":"Cardiff","country":"United Kingdom","canonicalUrl":"https://foursquare.com/v/live-lounge/4bb14d07f964a520b58a3ce3","category":"Rock Club","checkinsCount":1531,"usersCount":823,"tipCount":20,"visitsCount":1728,"tier":"","message":"","currency":"","rating":7.9},{"name":"Robin Hood","address":"16 Severn Grove","lat":51.48500327353604,"lng":-3.200038981819581,"neighborhood":"Pontcanna","city_fetched":"Cardiff","state":"Cardiff","country":"United Kingdom","canonicalUrl":"https://foursquare.com/v/robin-hood/4b802532f964a520555630e3","category":"Pub","checkinsCount":328,"usersCount":101,"tipCount":3,"visitsCount":342,"tier":"","message":"","currency":"","rating":7.9},{"name":"Pipes Beer","phone":"+447776382244","twitter":"pipesbeer","address":"183a Kings Rd","lat":51.48556665239519,"lng":-3.2000650499641994,"neighborhood":"Pontcanna","city_fetched":"Cardiff","state":"Cardiff","country":"United Kingdom","canonicalUrl":"https://foursquare.com/pipesbeer","category":"Brewery","checkinsCount":112,"usersCount":62,"tipCount":4,"visitsCount":115,"url":"http://www.pipesbeer.co.uk","tier":"","message":"","currency":"","rating":7.8},{"name":"10 Feet Tall","phone":"+442920228883","twitter":"10feettallcf","address":"11a-12 Church St","lat":51.480598470000004,"lng":-3.178759,"neighborhood":"City Centre","city_fetched":"Cardiff","state":"Cardiff","country":"United Kingdom","canonicalUrl":"https://foursquare.com/v/10-feet-tall/4b618af8f964a52084172ae3","category":"Bar","checkinsCount":1798,"usersCount":717,"tipCount":21,"visitsCount":1828,"url":"http://www.10feettallcardiff.com","tier":"","message":"","currency":"","rating":7.8},{"name":"The Albany","phone":"+442920311075","address":"105 Donald St","lat":51.49597314406712,"lng":-3.170757293701172,"neighborhood":"Cardiff City Centre","city_fetched":"Cardiff","state":"Cardiff","country":"United Kingdom","canonicalUrl":"https://foursquare.com/v/the-albany/4b6dbc7bf964a520f68a2ce3","category":"Pub","checkinsCount":782,"usersCount":197,"tipCount":14,"visitsCount":989,"tier":"","message":"","currency":"","rating":7.8},{"name":"The Black Lion","address":"Cardiff RD Llandaff","lat":51.49347229325556,"lng":-3.2194524288187267,"neighborhood":"Llandaff","city_fetched":"Cardiff","state":"Cardiff","country":"United Kingdom","canonicalUrl":"https://foursquare.com/v/the-black-lion/4d0d1fc13bbaa14347d03ada","category":"Pub","checkinsCount":208,"usersCount":68,"tipCount":6,"visitsCount":258,"url":"http://www.sabrain.com/blacklionllandaff","tier":"","message":"","currency":"","rating":7.8},{"name":"Gwaelod y Garth Inn","phone":"+442920810408","address":"Main Rd","lat":51.547371817470484,"lng":-3.2768606028354523,"neighborhood":"Pentyrch","city_fetched":"Cardiff","state":"Cardiff","country":"United Kingdom","canonicalUrl":"https://foursquare.com/v/gwaelod-y-garth-inn/4befe8fa3a002d7f4d7885a4","category":"Pub","checkinsCount":182,"usersCount":128,"tipCount":5,"visitsCount":231,"tier":"","message":"","currency":"","rating":7.8},{"name":"Revolucion de Cuba","phone":"+442920008444","twitter":"rumclubcardiff","address":"The Friary","lat":51.48287508065946,"lng":-3.178111231214092,"neighborhood":"City Centre","city_fetched":"Cardiff","state":"Cardiff","country":"United Kingdom","canonicalUrl":"https://foursquare.com/v/revolucion-de-cuba/4ebc5152775bbbe5d6f40dc7","category":"Bar","checkinsCount":797,"usersCount":435,"tipCount":12,"visitsCount":835,"url":"http://www.revoluciondecuba.com/bar/cardiff","tier":3,"message":"Expensive","currency":"£","rating":7.7},{"name":"Lab 22","address":"22 Caroline St.","lat":51.478295899177596,"lng":-3.1758534908294678,"neighborhood":"Old Brewery Quarter","city_fetched":"Cardiff","state":"Cardiff","country":"United Kingdom","canonicalUrl":"https://foursquare.com/v/lab-22/4f6221886d86426416f0747b","category":"Cocktail Bar","checkinsCount":246,"usersCount":117,"tipCount":9,"visitsCount":247,"tier":"","message":"","currency":"","rating":7.7},{"name":"Y Mochyn Du","phone":"+442920371599","twitter":"ymochyndu","address":"Sophia Cl","lat":51.48511106835356,"lng":-3.1914880871772766,"neighborhood":"South Cardiff","city_fetched":"Cardiff","state":"Cardiff","country":"United Kingdom","canonicalUrl":"https://foursquare.com/v/y-mochyn-du/4ba4cc6af964a520e3b538e3","category":"Pub","checkinsCount":1696,"usersCount":657,"tipCount":22,"visitsCount":1945,"url":"http://ymochyndu.com","tier":"","message":"","currency":"","rating":7.7},{"name":"The Mount Stuart (Wetherspoon)","phone":"+442920448000","twitter":"jdwtweet","address":"Stuart Place","lat":51.462568340266685,"lng":-3.1663029990319624,"neighborhood":"Mermaid Quay","city_fetched":"Cardiff","state":"Cardiff","country":"United Kingdom","canonicalUrl":"https://foursquare.com/v/the-mount-stuart-wetherspoon/51f2b483498ea41e78bb43b9","category":"Pub","checkinsCount":1370,"usersCount":713,"tipCount":20,"visitsCount":1638,"url":"http://www.jdwetherspoon.co.uk","tier":1,"message":"Cheap","currency":"£","rating":7.7},{"name":"The Dock","twitter":"thedockcardiff","address":"Mermaid Quay","lat":51.463039982950995,"lng":-3.165613619002035,"neighborhood":"Mermaid Quay","city_fetched":"Cardiff","country":"United Kingdom","canonicalUrl":"https://foursquare.com/v/the-dock/57165a6f498ecd3c9f8cf240","category":"Bar","checkinsCount":113,"usersCount":85,"tipCount":3,"visitsCount":116,"tier":"","message":"","currency":"","rating":7.6},{"name":"Cameo Club","address":"3 & 5 Pontcanna Street","lat":51.48633,"lng":-3.199745,"neighborhood":"Pontcanna","city_fetched":"Cardiff","state":"Cardiff","country":"United Kingdom","canonicalUrl":"https://foursquare.com/v/cameo-club/4b55d5e2f964a5201cf227e3","category":"Lounge","checkinsCount":341,"usersCount":120,"tipCount":6,"visitsCount":346,"tier":"","message":"","currency":"","rating":7.6},{"name":"Traveller's Rest","phone":"+442920859021","address":"Caerphilly Road","lat":51.55161738395691,"lng":-3.2151317596435547,"neighborhood":"Lisvane","city_fetched":"Cardiff","country":"United Kingdom","canonicalUrl":"https://foursquare.com/v/travellers-rest/4b6aac80f964a520a6db2be3","category":"Pub","checkinsCount":210,"usersCount":132,"tipCount":2,"visitsCount":244,"tier":"","message":"","currency":"","rating":7.6},{"name":"The Romilly","phone":"+442920256345","address":"69-71 Romilly Crescent, Pontcanna","lat":51.485395907217054,"lng":-3.203118528367417,"neighborhood":"Pontcanna","city_fetched":"Cardiff","state":"Cardiff","country":"United Kingdom","canonicalUrl":"https://foursquare.com/v/the-romilly/4b9767e5f964a520870235e3","category":"Pub","checkinsCount":1012,"usersCount":142,"tipCount":6,"visitsCount":1102,"tier":"","message":"","currency":"","rating":7.5},{"name":"The Gate","address":"Keppoch St","lat":51.491471,"lng":-3.168399,"city_fetched":"Cardiff","state":"Cardiff","country":"United Kingdom","canonicalUrl":"https://foursquare.com/v/the-gate/4b59fb9ff964a520a1a528e3","category":"Music Venue","checkinsCount":290,"usersCount":156,"tipCount":1,"visitsCount":303,"tier":"","message":"","currency":"","rating":7.5},{"name":"The Crwys","address":"Crwys Road","lat":51.49461051639304,"lng":-3.1766366958618164,"city_fetched":"Cardiff","state":"Cardiff","country":"United Kingdom","canonicalUrl":"https://foursquare.com/v/the-crwys/4beb0549a9900f4717441740","category":"Pub","checkinsCount":842,"usersCount":265,"tipCount":6,"visitsCount":937,"tier":"","message":"","currency":"","rating":7.4},{"name":"Turtle Bay","lat":51.479953744879246,"lng":-3.1794004302054444,"neighborhood":"City Centre","city_fetched":"Cardiff","country":"United Kingdom","canonicalUrl":"https://foursquare.com/v/turtle-bay/566b1bf0498ec471673beba5","category":"Cocktail Bar","checkinsCount":138,"usersCount":101,"tipCount":2,"visitsCount":177,"tier":"","message":"","currency":"","rating":7.4},{"name":"Bunkhouse","phone":"+442920228587","address":"93-94 St Mary St","lat":51.478442903769064,"lng":-3.1781387329101562,"neighborhood":"City Centre","city_fetched":"Cardiff","country":"United Kingdom","canonicalUrl":"https://foursquare.com/v/bunkhouse/4d8caa1bc1b1721e74dc0546","category":"Hostel","checkinsCount":794,"usersCount":372,"tipCount":8,"visitsCount":812,"tier":"","message":"","currency":"","rating":7.4},{"name":"Park House Club","phone":"+442920224343","twitter":"park_house_club","address":"Burges House","lat":51.484897274598914,"lng":-3.1754887104034424,"neighborhood":"Cathays","city_fetched":"Cardiff","country":"United Kingdom","canonicalUrl":"https://foursquare.com/v/park-house-club/4bf56c9a94af2d7f3cb33b72","category":"Restaurant","checkinsCount":96,"usersCount":54,"tipCount":5,"visitsCount":96,"url":"http://www.parkhouseclub.com","tier":1,"message":"Cheap","currency":"£","rating":7.4},{"name":"Laguna Kitchen and Bar","phone":"+442920111103","twitter":"parkplazacardif","address":"Park Plaza Hotel","lat":51.48394908629175,"lng":-3.176497602951285,"neighborhood":"City Centre","city_fetched":"Cardiff","country":"United Kingdom","canonicalUrl":"https://foursquare.com/v/laguna-kitchen-and-bar/4c5dc1207f661b8d074c4c1c","category":"Bar","checkinsCount":208,"usersCount":130,"tipCount":9,"visitsCount":208,"url":"http://www.lagunakitchenandbar.com","tier":"","message":"","currency":"","rating":7.4},{"name":"The Gravity Station","twitter":"thegravitystn","address":"The Moon Club Loft, Womanby Street,","lat":51.48019590447027,"lng":-3.1733777146399658,"neighborhood":"City Centre","city_fetched":"Cardiff","state":"Cardiff","country":"United Kingdom","canonicalUrl":"https://foursquare.com/v/the-gravity-station/531ca98b498eb849ea1490c5","category":"Liquor Store","checkinsCount":258,"usersCount":89,"tipCount":10,"visitsCount":262,"url":"http://www.thegravitystation.com","tier":"","message":"","currency":"","rating":7.3},{"name":"Base + Barley","twitter":"basebarleydiff","address":"115 Queen St","lat":51.48312459787631,"lng":-3.172832005251952,"neighborhood":"City Centre","city_fetched":"Cardiff","state":"Cardiff","country":"United Kingdom","canonicalUrl":"https://foursquare.com/v/base--barley/5510705f498efe6c6814ffb6","category":"Bar","checkinsCount":152,"usersCount":80,"tipCount":2,"visitsCount":159,"tier":"","message":"","currency":"","rating":7.3},{"name":"The Cricketers","phone":"+442920345102","twitter":"thecricketers66","address":"66 Cathedral Rd.","lat":51.48567070912861,"lng":-3.1939849161877283,"neighborhood":"South Cardiff","city_fetched":"Cardiff","country":"United Kingdom","canonicalUrl":"https://foursquare.com/v/the-cricketers/4c5b2c56fff99c74ad5124d3","category":"Gastropub","checkinsCount":593,"usersCount":275,"tipCount":9,"visitsCount":675,"url":"http://www.cricketerscardiff.co.uk","tier":"","message":"","currency":"","rating":7.3},{"name":"The Old Arcade","phone":"+442920217999","twitter":"theoldarcade","address":"14 Church St","lat":51.480507,"lng":-3.178932,"neighborhood":"City Centre","city_fetched":"Cardiff","state":"Cardiff","country":"United Kingdom","canonicalUrl":"https://foursquare.com/v/the-old-arcade/4bf540132d6295215e3d6058","category":"Pub","checkinsCount":643,"usersCount":367,"tipCount":9,"visitsCount":655,"url":"http://www.sabrain.com/oldarcade","tier":"","message":"","currency":"","rating":7.2},{"name":"The Old Market Tavern","lat":51.480563377783405,"lng":-3.1783127101269657,"neighborhood":"The Hayes","city_fetched":"Cardiff","country":"United Kingdom","canonicalUrl":"https://foursquare.com/v/the-old-market-tavern/54805b1c498e43ec6ea8a219","category":"Gastropub","checkinsCount":119,"usersCount":84,"tipCount":3,"visitsCount":128,"tier":"","message":"","currency":"","rating":7.2},{"name":"The Cornwall","address":"Cornwall St.","lat":51.47190921799411,"lng":-3.189734447168728,"neighborhood":"Grangetown","city_fetched":"Cardiff","country":"United Kingdom","canonicalUrl":"https://foursquare.com/v/the-cornwall/4bb1b86cf964a5204ea03ce3","category":"Pub","checkinsCount":151,"usersCount":55,"tipCount":3,"visitsCount":184,"tier":"","message":"","currency":"","rating":7.2},{"name":"Revolution Vodka Bar","phone":"+442920236689","twitter":"revolutionbars","address":"9-11 Castle St.","lat":51.4811999,"lng":-3.181181,"neighborhood":"Cathays","city_fetched":"Cardiff","state":"Cardiff","country":"United Kingdom","canonicalUrl":"https://foursquare.com/v/revolution-vodka-bar/4b4b358ff964a520859426e3","category":"Cocktail Bar","checkinsCount":1579,"usersCount":749,"tipCount":8,"visitsCount":1641,"url":"http://www.revolution-bars.co.uk","tier":"","message":"","currency":"","rating":7.2},{"name":"Zerodegrees","phone":"+442920229494","twitter":"zerodegreesbeer","address":"27 Westgate St","lat":51.47905430414589,"lng":-3.179672956466675,"neighborhood":"City Centre","city_fetched":"Cardiff","country":"United Kingdom","canonicalUrl":"https://foursquare.com/v/zerodegrees/4bf5c1285e800f47f025e6d4","category":"Brewery","checkinsCount":1669,"usersCount":816,"tipCount":26,"visitsCount":1741,"url":"http://www.zerodegrees.co.uk","tier":"","message":"","currency":"","rating":7.2},{"name":"The Discovery","phone":"+442920755015","address":"Celyn Ave.","lat":51.51461834694225,"lng":-3.1693196296691895,"neighborhood":"Cyncoed","city_fetched":"Cardiff","state":"Cardiff","country":"United Kingdom","canonicalUrl":"https://foursquare.com/v/the-discovery/4c1a876e55e4c9b671e44723","category":"Gastropub","checkinsCount":181,"usersCount":122,"tipCount":4,"visitsCount":295,"url":"http://knifeandforkfood.co.uk/discovery.htm","tier":"","message":"","currency":"","rating":7.2},{"name":"The Maltsters","phone":"+442920333096","twitter":"the_maltsters","address":"42-44 Cardiff Rd","lat":51.49333222225198,"lng":-3.2196694292851173,"city_fetched":"Cardiff","state":"Cardiff","country":"United Kingdom","canonicalUrl":"https://foursquare.com/v/the-maltsters/4bceeb46937ca593432daf92","category":"Pub","checkinsCount":378,"usersCount":213,"tipCount":9,"visitsCount":398,"url":"http://www.maltsterscardiff.co.uk","tier":"","message":"","currency":"","rating":7.1},{"name":"The Conway","phone":"+442920224373","twitter":"knifeforkfood","address":"58 Conway Rd","lat":51.48816264720098,"lng":-3.2033440952200816,"neighborhood":"Pontcanna","city_fetched":"Cardiff","state":"Cardiff","country":"United Kingdom","canonicalUrl":"https://foursquare.com/v/the-conway/4b9acca2f964a520dcd635e3","category":"Pub","checkinsCount":583,"usersCount":207,"tipCount":11,"visitsCount":707,"url":"http://knifeandforkfood.co.uk/conway","tier":"","message":"","currency":"","rating":7.1},{"name":"Hopbunker","twitter":"hopbunker","address":"Kingsway","lat":51.48191073829236,"lng":-3.1791365146636963,"neighborhood":"City Centre","city_fetched":"Cardiff","state":"Cardiff","country":"United Kingdom","canonicalUrl":"https://foursquare.com/v/hopbunker/557ac40f498ec3ab9948fd7a","category":"Beer Bar","checkinsCount":251,"usersCount":74,"tipCount":1,"visitsCount":252,"url":"http://hopcraftbrewing.blogspot.co.uk","tier":"","message":"","currency":"","rating":7.1},{"name":"The Waterguard","phone":"+442920499034","address":"Harbour Dr.","lat":51.46218934544303,"lng":-3.1617021560668945,"neighborhood":"Mermaid Quay","city_fetched":"Cardiff","country":"United Kingdom","canonicalUrl":"https://foursquare.com/v/the-waterguard/4b8ff5c2f964a520576c33e3","category":"Pub","checkinsCount":747,"usersCount":270,"tipCount":9,"visitsCount":779,"tier":"","message":"","currency":"","rating":7.1},{"name":"Locke and Remedy","phone":"+442921676982","twitter":"lockeandremedy","address":"Trinity Street","lat":51.480335240378785,"lng":-3.177374514509675,"neighborhood":"The Hayes","city_fetched":"Cardiff","state":"Cardiff","country":"United Kingdom","canonicalUrl":"https://foursquare.com/v/locke-and-remedy/55fd4a16498e521aca6c94d6","category":"Bar","checkinsCount":102,"usersCount":76,"tipCount":5,"visitsCount":107,"url":"http://lockeandremedy.com","tier":"","message":"","currency":"","rating":7},{"name":"Pear Tree Cafe Bar","phone":"+442920252042","twitter":"peartreecafebar","address":"Wellfield Rd.","lat":51.494204235578515,"lng":-3.1658106597561066,"neighborhood":"Cardiff City Centre","city_fetched":"Cardiff","country":"United Kingdom","canonicalUrl":"https://foursquare.com/v/pear-tree-cafe-bar/4ca07b977c096dcb410de7d1","category":"Café","checkinsCount":1107,"usersCount":399,"tipCount":19,"visitsCount":1205,"url":"http://www.peartreecafebar.co.uk","tier":"","message":"","currency":"","rating":7},{"name":"The Lansdowne Pub","phone":"+442920221312","twitter":"thelansdownepub","address":"71 Beda Road","lat":51.479485286371805,"lng":-3.2072997093200684,"neighborhood":"Canton","city_fetched":"Cardiff","state":"Cardiff","country":"United Kingdom","canonicalUrl":"https://foursquare.com/v/the-lansdowne-pub/50b361bdd86c8b721697990a","category":"Bar","checkinsCount":370,"usersCount":154,"tipCount":4,"visitsCount":501,"tier":"","message":"","currency":"","rating":7},{"name":"Miss Jones","phone":"+442920624000","twitter":"missjonescdf","address":"25-27 Merthyr Road","lat":51.51272212041476,"lng":-3.2194018363952637,"neighborhood":"North Cardiff","city_fetched":"Cardiff","state":"Cardiff","country":"United Kingdom","canonicalUrl":"https://foursquare.com/v/miss-jones/51efc2a38bbd14b4308c5696","category":"Cocktail Bar","checkinsCount":113,"usersCount":36,"tipCount":3,"visitsCount":118,"url":"http://www.missjonescardiff.co.uk","tier":"","message":"","currency":"","rating":7},{"name":"Bogiez Rock Bar & Nightclub","address":"Kingsway","lat":51.481815031420965,"lng":-3.179178208503749,"neighborhood":"City Centre","city_fetched":"Cardiff","country":"United Kingdom","canonicalUrl":"https://foursquare.com/v/bogiez-rock-bar--nightclub/4c2fb42366e40f476d6cc28b","category":"Rock Club","checkinsCount":467,"usersCount":127,"tipCount":11,"visitsCount":467,"url":"http://www.bogiez.com","tier":"","message":"","currency":"","rating":7},{"name":"The Glassworks","address":"4 Wharton St","lat":51.479453,"lng":-3.177803,"neighborhood":"City Centre","city_fetched":"Cardiff","state":"Cardiff","country":"United Kingdom","canonicalUrl":"https://foursquare.com/v/the-glassworks/4b17d6ecf964a520bdc823e3","category":"Bar","checkinsCount":408,"usersCount":237,"tipCount":10,"visitsCount":413,"url":"http://gkpubs.co.uk/pubs-in-cardiff/TheGlassworks-pub/","tier":"","message":"","currency":"","rating":6.8},{"name":"The Taf","address":"45-67 Park Pl","lat":51.488241,"lng":-3.1779341999999997,"neighborhood":"Cathays","city_fetched":"Cardiff","state":"Cardiff","country":"United Kingdom","canonicalUrl":"https://foursquare.com/v/the-taf/4b4cb1a3f964a52095ba26e3","category":"Pub","checkinsCount":849,"usersCount":237,"tipCount":3,"visitsCount":858,"tier":"","message":"","currency":"","rating":6.8}]