[{"name":"Buxton Brewery Tap House","phone":"+441298214085","twitter":"buxtontaphouse","address":"George St","lat":53.25912465373561,"lng":-1.9152185003757423,"city_fetched":"Chapel-en-le-Frith,UK","state":"Derbyshire","country":"United Kingdom","canonicalUrl":"https://foursquare.com/v/buxton-brewery-tap-house/523349b911d243a3646616d6","categoryId":"4bf58dd8d48988d116941735","category":"Bar","checkinsCount":316,"usersCount":161,"tipCount":10,"visitsCount":337,"url":"http://www.buxtonbrewery.co.uk/tap/","tier":"","message":"","currency":"","rating":8.8},{"name":"Sutton Hall","phone":"+441260253211","address":"Bullocks Ln","lat":53.24081057992004,"lng":-2.1128229835059082,"city_fetched":"Chapel-en-le-Frith,UK","state":"Cheshire","country":"United Kingdom","canonicalUrl":"https://foursquare.com/v/sutton-hall/4b63643ef964a52087762ae3","categoryId":"4bf58dd8d48988d11b941735","category":"Pub","checkinsCount":241,"usersCount":189,"tipCount":11,"visitsCount":373,"tier":"","message":"","currency":"","rating":8.7},{"name":"The Old Hall Inn","phone":"+441663750529","twitter":"oldhallinn","address":"Whitehough Place","lat":53.335091265814775,"lng":-1.9429707527160645,"city_fetched":"Chapel-en-le-Frith,UK","country":"United Kingdom","canonicalUrl":"https://foursquare.com/v/the-old-hall-inn/4c1a18caf551ef3bb1504768","categoryId":"4bf58dd8d48988d11b941735","category":"Pub","checkinsCount":153,"usersCount":106,"tipCount":9,"visitsCount":175,"tier":"","message":"","currency":"","rating":8.6},{"name":"The Railway","phone":"+44129871435","address":"22 Bridge St","lat":53.25972163,"lng":-1.90764784,"city_fetched":"Chapel-en-le-Frith,UK","state":"Derbyshire","country":"United Kingdom","canonicalUrl":"https://foursquare.com/v/the-railway/4bdb1a623904a59381c5489e","categoryId":"4bf58dd8d48988d11b941735","category":"Pub","checkinsCount":183,"usersCount":127,"tipCount":2,"visitsCount":197,"tier":"","message":"","currency":"","rating":8.4},{"name":"The Fletcher's Arms","phone":"+441613365555","twitter":"fletchersarms","address":"445 Stockport Rd","lat":53.444366,"lng":-2.115369,"city_fetched":"Chapel-en-le-Frith,UK","state":"Tameside","country":"United Kingdom","canonicalUrl":"https://foursquare.com/v/the-fletchers-arms/4c191bd7838020a11d37e561","categoryId":"4bf58dd8d48988d11b941735","category":"Pub","checkinsCount":173,"usersCount":97,"tipCount":3,"visitsCount":213,"url":"http://almond-pubs.co.uk/fletchers-arms","tier":"","message":"","currency":"","rating":8.3},{"name":"Hare and Hounds","address":"Werneth Low Road","lat":53.43067930543718,"lng":-2.064551355095997,"city_fetched":"Chapel-en-le-Frith,UK","state":"Tameside","country":"United Kingdom","canonicalUrl":"https://foursquare.com/v/hare-and-hounds/4bc1e228abf49521f58dc193","categoryId":"4bf58dd8d48988d11b941735","category":"Pub","checkinsCount":286,"usersCount":204,"tipCount":5,"visitsCount":372,"tier":"","message":"","currency":"","rating":8.2},{"name":"Redwillow","phone":"+441625503253","address":"32A Park Green","lat":53.25624197261421,"lng":-2.1231791940228733,"city_fetched":"Chapel-en-le-Frith,UK","state":"Cheshire","country":"United Kingdom","canonicalUrl":"https://foursquare.com/v/redwillow/52445706498ecd280cfd1b85","categoryId":"4bf58dd8d48988d116941735","category":"Bar","checkinsCount":194,"usersCount":100,"tipCount":8,"visitsCount":237,"url":"http://www.redwillowbar.com","tier":"","message":"","currency":"","rating":8.2},{"name":"Royal Oak","phone":"+44129883288","twitter":"royaloakhurdlow","address":"Tagg Ln","lat":53.19071041652344,"lng":-1.8121004104614258,"city_fetched":"Chapel-en-le-Frith,UK","state":"Derbyshire","country":"United Kingdom","canonicalUrl":"https://foursquare.com/v/royal-oak/4f86dc56e4b095775bd10e4b","categoryId":"4bf58dd8d48988d11b941735","category":"Pub","checkinsCount":63,"usersCount":70,"tipCount":5,"visitsCount":96,"url":"http://peakpub.co.uk","tier":"","message":"","currency":"","rating":8.2},{"name":"Packhorse Inn","lat":53.242339,"lng":-1.71644,"city_fetched":"Chapel-en-le-Frith,UK","country":"United Kingdom","canonicalUrl":"https://foursquare.com/v/packhorse-inn/4d616258865a224b6153b685","categoryId":"4bf58dd8d48988d11b941735","category":"Pub","checkinsCount":110,"usersCount":95,"tipCount":5,"visitsCount":135,"tier":"","message":"","currency":"","rating":8.1},{"name":"The Church Inn","phone":"+441614851897","twitter":"thechurchinn1","address":"90 Ravenoak Rd","lat":53.36761243181056,"lng":-2.1843247788206392,"neighborhood":"Cheadle Hulme South","city_fetched":"Chapel-en-le-Frith,UK","country":"United Kingdom","canonicalUrl":"https://foursquare.com/v/the-church-inn/4bb21f6df964a520deba3ce3","categoryId":"4bf58dd8d48988d11b941735","category":"Pub","checkinsCount":173,"usersCount":90,"tipCount":3,"visitsCount":249,"url":"http://churchinn.robinsonsbrewery.com","tier":"","message":"","currency":"","rating":8},{"name":"The Botanist","lat":53.302633,"lng":-2.236029,"city_fetched":"Chapel-en-le-Frith,UK","country":"United Kingdom","canonicalUrl":"https://foursquare.com/v/the-botanist/506f2be2498e1374724dd6e8","categoryId":"4bf58dd8d48988d11b941735","category":"Pub","checkinsCount":443,"usersCount":305,"tipCount":15,"visitsCount":618,"tier":"","message":"","currency":"","rating":7.9},{"name":"Pico Lounge","twitter":"picolounge","address":"Unit 3 & 4, Howard Town Shopping Park","lat":53.44240462933194,"lng":-1.9475054471028426,"city_fetched":"Chapel-en-le-Frith,UK","state":"Derbyshire","country":"United Kingdom","canonicalUrl":"https://foursquare.com/v/pico-lounge/52e3c2b811d2924c3e0edb8c","categoryId":"4bf58dd8d48988d116941735","category":"Bar","checkinsCount":103,"usersCount":73,"tipCount":1,"visitsCount":156,"tier":"","message":"","currency":"","rating":7.8},{"name":"Snow Goose","phone":"+441625619299","address":"52-54 Sunderland St","lat":53.257235,"lng":-2.122454,"city_fetched":"Chapel-en-le-Frith,UK","state":"Cheshire","country":"United Kingdom","canonicalUrl":"https://foursquare.com/v/snow-goose/4d8d17903bfef04d60e37886","categoryId":"4bf58dd8d48988d116941735","category":"Bar","checkinsCount":368,"usersCount":150,"tipCount":11,"visitsCount":376,"tier":"","message":"","currency":"","rating":7.8},{"name":"Thornbridge Riverside Brewery","lat":53.21966768490617,"lng":-1.6854593630891619,"city_fetched":"Chapel-en-le-Frith,UK","country":"United Kingdom","canonicalUrl":"https://foursquare.com/v/thornbridge-riverside-brewery/4d4975f39526b60c49b778ee","categoryId":"50327c8591d4c4b30a586d5d","category":"Brewery","checkinsCount":91,"usersCount":99,"tipCount":1,"visitsCount":164,"tier":"","message":"","currency":"","rating":7.7},{"name":"The Wye Bridge House (Wetherspoon)","phone":"+44129870932","address":"Fairfield Rd","lat":53.25949,"lng":-1.905519,"city_fetched":"Chapel-en-le-Frith,UK","state":"Derbyshire","country":"United Kingdom","canonicalUrl":"https://foursquare.com/v/the-wye-bridge-house-wetherspoon/4c87aa8b821e9eb086cc8d89","categoryId":"4bf58dd8d48988d11b941735","category":"Pub","checkinsCount":736,"usersCount":233,"tipCount":11,"visitsCount":863,"url":"http://www.jdwetherspoon.co.uk","tier":"","message":"","currency":"","rating":7.7},{"name":"The Vale Inn","phone":"+441625575147","address":"Adlington Rd","lat":53.299787,"lng":-2.104483,"city_fetched":"Chapel-en-le-Frith,UK","state":"Cheshire","country":"United Kingdom","canonicalUrl":"https://foursquare.com/v/the-vale-inn/4ca7a38344a8224b50750f40","categoryId":"4bf58dd8d48988d11b941735","category":"Pub","checkinsCount":154,"usersCount":104,"tipCount":4,"visitsCount":218,"tier":"","message":"","currency":"","rating":7.7},{"name":"The Sportsman Inn","address":"Kinder Road","lat":53.37739831660429,"lng":-1.9348651283721965,"city_fetched":"Chapel-en-le-Frith,UK","state":"Derbyshire","country":"United Kingdom","canonicalUrl":"https://foursquare.com/v/the-sportsman-inn/4e2ec7d345ddcf0f5c7b8fb9","categoryId":"4bf58dd8d48988d11b941735","category":"Pub","checkinsCount":47,"usersCount":32,"tipCount":3,"visitsCount":47,"tier":"","message":"","currency":"","rating":7.7},{"name":"Treacle Tap","phone":"+441625615938","twitter":"thetreacletap","address":"43 Sunderland St.","lat":53.257733,"lng":-2.122558,"city_fetched":"Chapel-en-le-Frith,UK","state":"Cheshire","country":"United Kingdom","canonicalUrl":"https://foursquare.com/v/treacle-tap/4d0f981771e8a1cdb7a07bbd","categoryId":"4bf58dd8d48988d116941735","category":"Bar","checkinsCount":249,"usersCount":120,"tipCount":3,"visitsCount":255,"url":"http://www.thetreacletap.co.uk","tier":"","message":"","currency":"","rating":7.7},{"name":"The Cheshire Cheese Inn","phone":"+441433620381","address":"Edale Rd.","lat":53.35339630272248,"lng":-1.7454421520233154,"neighborhood":"Hope Valley","city_fetched":"Chapel-en-le-Frith,UK","state":"Derbyshire","country":"United Kingdom","canonicalUrl":"https://foursquare.com/v/the-cheshire-cheese-inn/4c4f011e1b8e1b8dedcf1828","categoryId":"4bf58dd8d48988d11b941735","category":"Pub","checkinsCount":100,"usersCount":94,"tipCount":3,"visitsCount":136,"url":"http://www.thecheshirecheeseinn.co.uk","tier":"","message":"","currency":"","rating":7.6},{"name":"The Globe","phone":"+441457852417","address":"144 High St. W","lat":53.44355437502683,"lng":-1.956591010093689,"city_fetched":"Chapel-en-le-Frith,UK","state":"Derbyshire","country":"United Kingdom","canonicalUrl":"https://foursquare.com/v/the-globe/4bb759ff1344b713329b9e04","categoryId":"4bf58dd8d48988d11b941735","category":"Pub","checkinsCount":238,"usersCount":122,"tipCount":6,"visitsCount":306,"url":"http://www.globemusic.org","tier":"","message":"","currency":"","rating":7.5},{"name":"The Joshua Bradley","phone":"+441614066776","address":"Stockport Rd.","lat":53.43344729158494,"lng":-2.084149097948286,"city_fetched":"Chapel-en-le-Frith,UK","country":"United Kingdom","canonicalUrl":"https://foursquare.com/v/the-joshua-bradley/4bbb3340cf2fc9b6ec45a202","categoryId":"4bf58dd8d48988d116941735","category":"Bar","checkinsCount":244,"usersCount":161,"tipCount":4,"visitsCount":337,"tier":"","message":"","currency":"","rating":7.5},{"name":"Ladybower Inn","phone":"+441433651241","address":"Hope Valley","lat":53.375174872541734,"lng":-1.6939115524291992,"city_fetched":"Chapel-en-le-Frith,UK","state":"Derbyshire","country":"United Kingdom","canonicalUrl":"https://foursquare.com/v/ladybower-inn/4ce7fd42e1eeb60c7b6ea0ae","categoryId":"4bf58dd8d48988d11b941735","category":"Pub","checkinsCount":163,"usersCount":152,"tipCount":7,"visitsCount":216,"tier":"","message":"","currency":"","rating":7.5},{"name":"Cat & Fiddle Inn","address":"Cat and Fiddle Rd.","lat":53.24403144281008,"lng":-1.9996404647827148,"city_fetched":"Chapel-en-le-Frith,UK","state":"Derbyshire","country":"United Kingdom","canonicalUrl":"https://foursquare.com/v/cat--fiddle-inn/4bc73e6f0050b713c746b83b","categoryId":"4bf58dd8d48988d11b941735","category":"Pub","checkinsCount":379,"usersCount":235,"tipCount":6,"visitsCount":404,"tier":"","message":"","currency":"","rating":7.4},{"name":"The Old Nags Head Inn","phone":"+441433670291","address":"Grindsbrook Booth","lat":53.370604648714924,"lng":-1.8168747425079346,"city_fetched":"Chapel-en-le-Frith,UK","country":"United Kingdom","canonicalUrl":"https://foursquare.com/v/the-old-nags-head-inn/4bd9e1210ef39c745a9f1d2d","categoryId":"4bf58dd8d48988d11b941735","category":"Pub","checkinsCount":103,"usersCount":128,"tipCount":2,"visitsCount":137,"tier":"","message":"","currency":"","rating":7.4},{"name":"The Old Club House","twitter":"oldclubhouse","address":"3 Water St","lat":53.258595881976206,"lng":-1.9165367579536918,"city_fetched":"Chapel-en-le-Frith,UK","state":"Derbyshire","country":"United Kingdom","canonicalUrl":"https://foursquare.com/v/the-old-club-house/4c0a56b7009a0f474129e9bf","categoryId":"4bf58dd8d48988d11b941735","category":"Pub","checkinsCount":233,"usersCount":167,"tipCount":2,"visitsCount":236,"tier":"","message":"","currency":"","rating":7.4},{"name":"Cheshire Cheese","phone":"+441298212453","address":"37 High St","lat":53.25417228854587,"lng":-1.9150644787639115,"city_fetched":"Chapel-en-le-Frith,UK","state":"Derbyshire","country":"United Kingdom","canonicalUrl":"https://foursquare.com/v/cheshire-cheese/4d2400702ac6f04d45e13145","categoryId":"4bf58dd8d48988d11b941735","category":"Pub","checkinsCount":102,"usersCount":80,"tipCount":4,"visitsCount":125,"url":"http://www.titanicbrewery.co.uk/p/our-pubs/Cheshire%20Cheese.html","tier":"","message":"","currency":"","rating":7.4},{"name":"The Ring O'Bells","phone":"+441614272300","address":"130 Church Lane","lat":53.39157549876503,"lng":-2.061141634846495,"neighborhood":"Marple South","city_fetched":"Chapel-en-le-Frith,UK","state":"Cheshire","country":"United Kingdom","canonicalUrl":"https://foursquare.com/v/the-ring-obells/4bc9b712511f9521b115aec7","categoryId":"4bf58dd8d48988d11b941735","category":"Pub","checkinsCount":102,"usersCount":57,"tipCount":2,"visitsCount":107,"tier":"","message":"","currency":"","rating":7.3},{"name":"Puss In Boots","phone":"+441614565200","twitter":"pussinbootspub","address":"147 Nangreave Rd","lat":53.396905,"lng":-2.138642,"city_fetched":"Chapel-en-le-Frith,UK","state":"Cheshire","country":"United Kingdom","canonicalUrl":"https://foursquare.com/v/puss-in-boots/4d665331838654811bf8f653","categoryId":"4bf58dd8d48988d11b941735","category":"Pub","checkinsCount":219,"usersCount":143,"tipCount":4,"visitsCount":315,"url":"http://almond-pubs.co.uk/puss-in-boots","tier":"","message":"","currency":"","rating":7.3},{"name":"The Windmill","twitter":"windmilltweet","address":"Holehouse Lane","lat":53.30669403076172,"lng":-2.114666,"city_fetched":"Chapel-en-le-Frith,UK","state":"Cheshire","country":"United Kingdom","canonicalUrl":"https://foursquare.com/v/the-windmill/4c6c0b18a437224bda3529b1","categoryId":"4bf58dd8d48988d11b941735","category":"Pub","checkinsCount":153,"usersCount":116,"tipCount":6,"visitsCount":197,"tier":"","message":"","currency":"","rating":7.3},{"name":"The Ship Inn","phone":"+441625444888","twitter":"ship_styal","address":"Altrincham Rd","lat":53.348314,"lng":-2.243641,"city_fetched":"Chapel-en-le-Frith,UK","country":"United Kingdom","canonicalUrl":"https://foursquare.com/v/the-ship-inn/4bdec52de75c0f471cb1c803","categoryId":"4bf58dd8d48988d11b941735","category":"Pub","checkinsCount":147,"usersCount":104,"tipCount":6,"visitsCount":208,"url":"http://www.theshipstyal.co.uk","tier":"","message":"","currency":"","rating":7.3},{"name":"Yorkshire Bridge Inn","phone":"+441433651361","twitter":"yorkshirebridge","address":"Ashopton Road","lat":53.36248821079202,"lng":-1.6987409409757352,"city_fetched":"Chapel-en-le-Frith,UK","state":"Derbyshire","country":"United Kingdom","canonicalUrl":"https://foursquare.com/v/yorkshire-bridge-inn/4c0266f8f56c2d7fea551b66","categoryId":"4bf58dd8d48988d11b941735","category":"Pub","checkinsCount":240,"usersCount":211,"tipCount":6,"visitsCount":301,"tier":"","message":"","currency":"","rating":7.2},{"name":"The Carousel","phone":"+441614297453","address":"Reddish Rd.","lat":53.426996,"lng":-2.15432345867157,"city_fetched":"Chapel-en-le-Frith,UK","state":"Cheshire","country":"United Kingdom","canonicalUrl":"https://foursquare.com/v/the-carousel/4b48bb35f964a520825426e3","categoryId":"4bf58dd8d48988d11b941735","category":"Pub","checkinsCount":182,"usersCount":91,"tipCount":5,"visitsCount":230,"tier":"","message":"","currency":"","rating":7.2},{"name":"The Castle Inn","address":"Castle St","lat":53.214266,"lng":-1.673525,"city_fetched":"Chapel-en-le-Frith,UK","state":"Derbyshire","country":"United Kingdom","canonicalUrl":"https://foursquare.com/v/the-castle-inn/4bded169fe0e62b503f90506","categoryId":"4bf58dd8d48988d11b941735","category":"Pub","checkinsCount":184,"usersCount":156,"tipCount":4,"visitsCount":186,"tier":"","message":"","currency":"","rating":7.2},{"name":"The Bubble Room","phone":"+441614398949","address":"2-4 Ack La E","lat":53.35754096254208,"lng":-2.166500687599182,"neighborhood":"Bramhall South","city_fetched":"Chapel-en-le-Frith,UK","state":"Cheshire","country":"United Kingdom","canonicalUrl":"https://foursquare.com/v/the-bubble-room/4c82171f74d7b60cd4e87cd8","categoryId":"4bf58dd8d48988d116941735","category":"Bar","checkinsCount":201,"usersCount":114,"tipCount":2,"visitsCount":202,"tier":"","message":"","currency":"","rating":7.1},{"name":"Ye Olde Cheshire Cheese Inn","phone":"+441433620330","address":"How Ln.","lat":53.343938,"lng":-1.7730107333333331,"city_fetched":"Chapel-en-le-Frith,UK","state":"Derbyshire","country":"United Kingdom","canonicalUrl":"https://foursquare.com/v/ye-olde-cheshire-cheese-inn/4c4ebdc8d667d13af9f3e0a0","categoryId":"4bf58dd8d48988d11b941735","category":"Pub","checkinsCount":278,"usersCount":126,"tipCount":6,"visitsCount":283,"tier":"","message":"","currency":"","rating":7},{"name":"Ye Olde Nags Head","address":"Cross St","lat":53.343132,"lng":-1.775596,"city_fetched":"Chapel-en-le-Frith,UK","state":"Derbyshire","country":"United Kingdom","canonicalUrl":"https://foursquare.com/v/ye-olde-nags-head/4c7a6c582d3ba143612b91d0","categoryId":"4bf58dd8d48988d11b941735","category":"Pub","checkinsCount":148,"usersCount":94,"tipCount":13,"visitsCount":151,"tier":"","message":"","currency":"","rating":6.9},{"name":"The Kingfisher (Wetherspoon)","phone":"+441625870990","twitter":"jdwtweet","address":"London Rd. S.","lat":53.346494329726575,"lng":-2.1240944965724102,"city_fetched":"Chapel-en-le-Frith,UK","state":"Cheshire","country":"United Kingdom","canonicalUrl":"https://foursquare.com/v/the-kingfisher-wetherspoon/50d5c1b9e4b0487c3109d269","categoryId":"4bf58dd8d48988d11b941735","category":"Pub","checkinsCount":258,"usersCount":91,"tipCount":3,"visitsCount":278,"url":"http://www.jdwetherspoon.co.uk","tier":"","message":"","currency":"","rating":6.8},{"name":"The Castle","phone":"+441433620578","address":"Castle St","lat":53.34311856136093,"lng":-1.7765182256698608,"city_fetched":"Chapel-en-le-Frith,UK","state":"Derbyshire","country":"United Kingdom","canonicalUrl":"https://foursquare.com/v/the-castle/4c4ef007fb742d7f224d1c2f","categoryId":"4bf58dd8d48988d11b941735","category":"Pub","checkinsCount":215,"usersCount":188,"tipCount":11,"visitsCount":223,"url":"http://www.vintageinn.co.uk/content/vintage-inn/en/restaurants/midlands/thecastlecastleton","tier":"","message":"","currency":"","rating":6.8},{"name":"The Bulls Head","lat":53.345311808853495,"lng":-2.216497505965981,"city_fetched":"Chapel-en-le-Frith,UK","country":"United Kingdom","canonicalUrl":"https://foursquare.com/v/the-bulls-head/4c75dd442db5236a346ebe79","categoryId":"4bf58dd8d48988d11b941735","category":"Pub","checkinsCount":339,"usersCount":126,"tipCount":3,"visitsCount":379,"tier":"","message":"","currency":"","rating":6.8},{"name":"The Peacock Inn","phone":"+441629813635","address":"Bridge St","lat":53.21365,"lng":-1.673449,"city_fetched":"Chapel-en-le-Frith,UK","state":"Derbyshire","country":"United Kingdom","canonicalUrl":"https://foursquare.com/v/the-peacock-inn/4b644f44f964a520d8a92ae3","categoryId":"4bf58dd8d48988d11b941735","category":"Pub","checkinsCount":275,"usersCount":236,"tipCount":9,"visitsCount":284,"url":"http://www.peacockbakewell.com","tier":"","message":"","currency":"","rating":6.8},{"name":"Millstone Country Inn","phone":"+441433650258","address":"Sheffield Rd., Hope Valley","lat":53.323429,"lng":-1.640044,"city_fetched":"Chapel-en-le-Frith,UK","state":"Derbyshire","country":"United Kingdom","canonicalUrl":"https://foursquare.com/v/millstone-country-inn/4bdecda5fe0e62b535f60506","categoryId":"4bf58dd8d48988d11b941735","category":"Pub","checkinsCount":106,"usersCount":123,"tipCount":2,"visitsCount":149,"url":"http://www.millstone.co.uk","tier":"","message":"","currency":"","rating":6.7},{"name":"Monk Bar","twitter":"maniatmonk","address":"8 Cavendish Circus","lat":53.2596562188068,"lng":-1.9148541382857587,"city_fetched":"Chapel-en-le-Frith,UK","state":"Derbyshire","country":"United Kingdom","canonicalUrl":"https://foursquare.com/v/monk-bar/4c9923cfeaa5a143641ac1e4","categoryId":"4bf58dd8d48988d11e941735","category":"Cocktail Bar","checkinsCount":128,"usersCount":60,"tipCount":5,"visitsCount":128,"tier":"","message":"","currency":"","rating":6.7},{"name":"Wagon And Horses","address":"Mottram Road","lat":53.4665596834211,"lng":-2.0252964464542145,"city_fetched":"Chapel-en-le-Frith,UK","state":"Tameside","country":"United Kingdom","canonicalUrl":"https://foursquare.com/v/wagon-and-horses/4c704514d274b60c3a34d90d","categoryId":"4bf58dd8d48988d11b941735","category":"Pub","checkinsCount":93,"usersCount":73,"tipCount":3,"visitsCount":123,"tier":"","message":"","currency":"","rating":6.7},{"name":"Wizard Inn","phone":"+441625584000","address":"Macclesfield Rd.","lat":53.29257195329321,"lng":-2.212995556269652,"city_fetched":"Chapel-en-le-Frith,UK","state":"Cheshire","country":"United Kingdom","canonicalUrl":"https://foursquare.com/v/wizard-inn/4db1bdd41e729fcc5659363a","categoryId":"4bf58dd8d48988d11b941735","category":"Pub","checkinsCount":118,"usersCount":126,"tipCount":6,"visitsCount":145,"tier":"","message":"","currency":"","rating":6.6},{"name":"The Peaks Inn","address":"Castleton","lat":53.343803,"lng":-1.773829,"city_fetched":"Chapel-en-le-Frith,UK","state":"Derbyshire","country":"United Kingdom","canonicalUrl":"https://foursquare.com/v/the-peaks-inn/4c71501cd97fa143106ef8ca","categoryId":"4bf58dd8d48988d11b941735","category":"Pub","checkinsCount":131,"usersCount":61,"tipCount":4,"visitsCount":131,"tier":"","message":"","currency":"","rating":6.6},{"name":"The Old Hall","phone":"+441433620160","address":"Market Place","lat":53.348227,"lng":-1.741915,"city_fetched":"Chapel-en-le-Frith,UK","state":"Derbyshire","country":"United Kingdom","canonicalUrl":"https://foursquare.com/v/the-old-hall/4c4db5ef9efabe9aecb8f368","categoryId":"4bf58dd8d48988d11b941735","category":"Pub","checkinsCount":258,"usersCount":142,"tipCount":12,"visitsCount":283,"url":"http://www.oldhallhotelhope.com","tier":"","message":"","currency":"","rating":6.6},{"name":"Anglers Rest","phone":"+441433659317","twitter":"anglersbamford","address":"Bamford","lat":53.34955468216139,"lng":-1.6891163499882869,"city_fetched":"Chapel-en-le-Frith,UK","state":"Derbyshire","country":"United Kingdom","canonicalUrl":"https://foursquare.com/v/anglers-rest/4c1147be72caa593623f5da4","categoryId":"4bf58dd8d48988d11b941735","category":"Pub","checkinsCount":201,"usersCount":72,"tipCount":8,"visitsCount":226,"url":"http://www.anglers.rest","tier":"","message":"","currency":"","rating":6.6},{"name":"The Hartshead Inn","phone":"+441457835753","address":"Mossley Rd","lat":53.51260264705631,"lng":-2.0564329436550453,"city_fetched":"Chapel-en-le-Frith,UK","state":"Tameside","country":"United Kingdom","canonicalUrl":"https://foursquare.com/v/the-hartshead-inn/4c82943274d7b60c83cc81d8","categoryId":"4bf58dd8d48988d11b941735","category":"Pub","checkinsCount":167,"usersCount":102,"tipCount":6,"visitsCount":205,"tier":"","message":"","currency":"","rating":6.5},{"name":"The Boddingtons Arms","phone":"+448444889012","address":"Racecourse Rd","lat":53.32989867701462,"lng":-2.2516897131880365,"city_fetched":"Chapel-en-le-Frith,UK","state":"Cheshire","country":"United Kingdom","canonicalUrl":"https://foursquare.com/v/the-boddingtons-arms/4f6f5819e4b0d638a2c7206b","categoryId":"4bf58dd8d48988d11b941735","category":"Pub","checkinsCount":84,"usersCount":80,"tipCount":2,"visitsCount":115,"url":"http://www.greatbritishcarvery.co.uk/our-pubs/boddington-arms","tier":"","message":"","currency":"","rating":6.4},{"name":"Butley Ash","phone":"+441625824930","address":"London Rd","lat":53.29720337729953,"lng":-2.1376428306774597,"city_fetched":"Chapel-en-le-Frith,UK","state":"Cheshire","country":"United Kingdom","canonicalUrl":"https://foursquare.com/v/butley-ash/4ceeae9e8604a1cdc45df9c0","categoryId":"4bf58dd8d48988d11b941735","category":"Pub","checkinsCount":88,"usersCount":65,"tipCount":1,"visitsCount":112,"tier":"","message":"","currency":"","rating":6.4},{"name":"The Unicorn Pub","address":"102 Adlington Road","lat":53.330467,"lng":-2.19178897329,"city_fetched":"Chapel-en-le-Frith,UK","state":"Cheshire","country":"United Kingdom","canonicalUrl":"https://foursquare.com/v/the-unicorn-pub/4b9d26fef964a520589436e3","categoryId":"4bf58dd8d48988d116941735","category":"Bar","checkinsCount":156,"usersCount":90,"tipCount":6,"visitsCount":202,"tier":"","message":"","currency":"","rating":6.3},{"name":"The Rambler Inn","phone":"+441433670268","address":"Edale","lat":53.36546416123856,"lng":-1.8169069290161133,"city_fetched":"Chapel-en-le-Frith,UK","state":"Derbyshire","country":"United Kingdom","canonicalUrl":"https://foursquare.com/v/the-rambler-inn/4d22344e9822a0900fbbfeaf","categoryId":"4bf58dd8d48988d11b941735","category":"Pub","checkinsCount":214,"usersCount":163,"tipCount":8,"visitsCount":246,"url":"http://theramblerinn.com","tier":"","message":"","currency":"","rating":6.3},{"name":"The Smithy Fold (Wetherspoon)","phone":"+441457890070","twitter":"jdwtweet","address":"Howard Town Shopping Park","lat":53.44252954828391,"lng":-1.9489667837969624,"city_fetched":"Chapel-en-le-Frith,UK","state":"Derbyshire","country":"United Kingdom","canonicalUrl":"https://foursquare.com/v/the-smithy-fold-wetherspoon/51a32f8f498e45f58980198a","categoryId":"4bf58dd8d48988d11b941735","category":"Pub","checkinsCount":193,"usersCount":76,"tipCount":1,"visitsCount":210,"url":"http://www.jdwetherspoon.co.uk","tier":1,"message":"Cheap","currency":"Â£","rating":6.3},{"name":"The Norfolk Arms","address":"2 Town St","lat":53.40171,"lng":-2.053904,"city_fetched":"Chapel-en-le-Frith,UK","country":"United Kingdom","canonicalUrl":"https://foursquare.com/v/the-norfolk-arms/4fdba820e4b06737a95d9112","categoryId":"4bf58dd8d48988d11b941735","category":"Pub","checkinsCount":64,"usersCount":38,"tipCount":3,"visitsCount":71,"tier":"","message":"","currency":"","rating":6.3},{"name":"Red Lion","phone":"+441629812054","twitter":"redlionbakewell","address":"The Square","lat":53.21320288489849,"lng":-1.6750825087580872,"neighborhood":"Derbyshire","city_fetched":"Chapel-en-le-Frith,UK","state":"Derbyshire","country":"United Kingdom","canonicalUrl":"https://foursquare.com/v/red-lion/4bb08f92f964a520004c3ce3","categoryId":"4bf58dd8d48988d11b941735","category":"Pub","checkinsCount":203,"usersCount":164,"tipCount":4,"visitsCount":204,"url":"http://www.red-lion-bakewell.co.uk","tier":"","message":"","currency":"","rating":6.2},{"name":"The Society Rooms (Wetherspoon)","phone":"+441625507320","address":"Park Green","lat":53.25643672338472,"lng":-2.1243900060653687,"city_fetched":"Chapel-en-le-Frith,UK","state":"Cheshire","country":"United Kingdom","canonicalUrl":"https://foursquare.com/v/the-society-rooms-wetherspoon/4b378c52f964a5200d4225e3","categoryId":"4bf58dd8d48988d11b941735","category":"Pub","checkinsCount":778,"usersCount":235,"tipCount":3,"visitsCount":830,"url":"http://www.jdwetherspoon.co.uk","tier":"","message":"","currency":"","rating":6.1},{"name":"Scotsman's Pack Country Inn","address":"School Ln","lat":53.33191734157899,"lng":-1.6494297981262207,"city_fetched":"Chapel-en-le-Frith,UK","state":"Derbyshire","country":"United Kingdom","canonicalUrl":"https://foursquare.com/v/scotsmans-pack-country-inn/4c2f5fcf452620a1cd5a1d0f","categoryId":"4bf58dd8d48988d11b941735","category":"Pub","checkinsCount":125,"usersCount":137,"tipCount":2,"visitsCount":167,"tier":"","message":"","currency":"","rating":6},{"name":"The Wilfred Wood (Wetherspoon)","phone":"+441614192440","address":"204 London Rd.","lat":53.379508423017164,"lng":-2.1204860739736966,"neighborhood":"Hazel Grove","city_fetched":"Chapel-en-le-Frith,UK","state":"Stockport","country":"United Kingdom","canonicalUrl":"https://foursquare.com/v/the-wilfred-wood-wetherspoon/4c87aa25821e9eb02dcc8d89","categoryId":"4bf58dd8d48988d11b941735","category":"Pub","checkinsCount":711,"usersCount":260,"tipCount":7,"visitsCount":832,"url":"http://www.jdwetherspoon.co.uk","tier":"","message":"","currency":"","rating":6},{"name":"The Governors House","phone":"+441614884222","twitter":"greenekingpubs","address":"43 Ravenoak Rd","lat":53.3676471837495,"lng":-2.183554172515869,"neighborhood":"Bramhall South","city_fetched":"Chapel-en-le-Frith,UK","country":"United Kingdom","canonicalUrl":"https://foursquare.com/v/the-governors-house/4bf946094a67c928648c26cf","categoryId":"4bf58dd8d48988d11b941735","category":"Pub","checkinsCount":442,"usersCount":163,"tipCount":9,"visitsCount":516,"url":"http://gkpubs.co.uk/pubs-in-cheadle-hulme/governors-house-pub/","tier":"","message":"","currency":"","rating":5.9},{"name":"Napa","phone":"+441614398688","twitter":"napabramhall","address":"9-11 Bramhall La S","lat":53.357673,"lng":-2.165701099983925,"neighborhood":"Bramhall South","city_fetched":"Chapel-en-le-Frith,UK","state":"Stockport","country":"United Kingdom","canonicalUrl":"https://foursquare.com/v/napa/4bcde2818920b7138879a0dc","categoryId":"4bf58dd8d48988d116941735","category":"Bar","checkinsCount":189,"usersCount":104,"tipCount":5,"visitsCount":199,"tier":"","message":"","currency":"","rating":5.8},{"name":"Queens Head","phone":"+44129823841","address":"High St","lat":53.254745,"lng":-1.915679,"city_fetched":"Chapel-en-le-Frith,UK","state":"Derbyshire","country":"United Kingdom","canonicalUrl":"https://foursquare.com/v/queens-head/4c7a92ecbd346dcb5ad5f8ef","categoryId":"4bf58dd8d48988d11b941735","category":"Pub","checkinsCount":85,"usersCount":45,"tipCount":2,"visitsCount":85,"tier":"","message":"","currency":"","rating":5.8},{"name":"The Bubble Room","phone":"+441625583399","address":"47 London Road","lat":53.301665,"lng":-2.236107,"city_fetched":"Chapel-en-le-Frith,UK","state":"Cheshire","country":"United Kingdom","canonicalUrl":"https://foursquare.com/v/the-bubble-room/4b644a83f964a520bca82ae3","categoryId":"4bf58dd8d48988d123941735","category":"Wine Bar","checkinsCount":384,"usersCount":259,"tipCount":4,"visitsCount":505,"tier":"","message":"","currency":"","rating":5.7},{"name":"Revolution","address":"27 Alderley Road","lat":53.32547676573092,"lng":-2.23268449421319,"city_fetched":"Chapel-en-le-Frith,UK","state":"Cheshire","country":"United Kingdom","canonicalUrl":"https://foursquare.com/v/revolution/4b63555ff964a520d7722ae3","categoryId":"4bf58dd8d48988d116941735","category":"Bar","checkinsCount":473,"usersCount":229,"tipCount":10,"visitsCount":495,"tier":"","message":"","currency":"","rating":5.5},{"name":"Bamford Arms (Beefeater)","phone":"+441614802968","twitter":"beefeater","address":"Buxton Rd","lat":53.396346049884464,"lng":-2.1496344367151172,"city_fetched":"Chapel-en-le-Frith,UK","state":"Cheshire","country":"United Kingdom","canonicalUrl":"https://foursquare.com/v/bamford-arms-beefeater/4c36063618e72d7f991714f5","categoryId":"4bf58dd8d48988d11b941735","category":"Pub","checkinsCount":370,"usersCount":193,"tipCount":9,"visitsCount":489,"url":"http://www.beefeater.co.uk/steak-restaurant/Cheshire/Bamford-Arms-Heavily.html","tier":"","message":"","currency":"","rating":5.4},{"name":"Holin Hall Hotel","address":"Jackson La","lat":53.29192053781801,"lng":-2.100344665584114,"city_fetched":"Chapel-en-le-Frith,UK","state":"Cheshire","country":"United Kingdom","canonicalUrl":"https://foursquare.com/v/holin-hall-hotel/4bd72de4304fce72792e33ab","categoryId":"4bf58dd8d48988d1d5941735","category":"Hotel Bar","checkinsCount":204,"usersCount":119,"tipCount":2,"visitsCount":235,"tier":"","message":"","currency":"","rating":5.4},{"name":"Brewers Fayre","phone":"+448701977173","address":"Alphagate Drive","lat":53.45565578372822,"lng":-2.1346092224121094,"city_fetched":"Chapel-en-le-Frith,UK","state":"Tameside","country":"United Kingdom","canonicalUrl":"https://foursquare.com/v/brewers-fayre/4c447536429a0f47bdbb481e","categoryId":"4bf58dd8d48988d11b941735","category":"Pub","checkinsCount":249,"usersCount":167,"tipCount":7,"visitsCount":313,"tier":"","message":"","currency":"","rating":5.3},{"name":"Fallow Deer","phone":"+441298812346","address":"Foresters Way","lat":53.330572064527345,"lng":-1.9089799485931835,"city_fetched":"Chapel-en-le-Frith,UK","state":"Derbyshire","country":"United Kingdom","canonicalUrl":"https://foursquare.com/v/fallow-deer/4bf922f9b182c9b60e73785a","categoryId":"4bf58dd8d48988d11b941735","category":"Pub","checkinsCount":132,"usersCount":117,"tipCount":4,"visitsCount":184,"url":"http://www.fallowdeerpub.co.uk","tier":"","message":"","currency":"","rating":5.1},{"name":"Flying Horse","phone":"+441614376205","address":"1 Longstone Rd","lat":53.36867472381002,"lng":-2.2417721515594344,"city_fetched":"Chapel-en-le-Frith,UK","state":"Greater Manchester","country":"United Kingdom","canonicalUrl":"https://foursquare.com/v/flying-horse/528625fa11d2d71e1dc1cd8c","categoryId":"4bf58dd8d48988d11b941735","category":"Pub","checkinsCount":151,"usersCount":103,"tipCount":6,"visitsCount":203,"url":"http://www.hungryhorse.co.uk/pubs/flying-horse-stockport","tier":"","message":"","currency":"","rating":5.1},{"name":"Mottram Wood","phone":"+441613687164","lat":53.45374604900759,"lng":-2.025309879892431,"city_fetched":"Chapel-en-le-Frith,UK","country":"United Kingdom","canonicalUrl":"https://foursquare.com/v/mottram-wood/4c6fd2b9d97fa143bb01f4ca","categoryId":"4bf58dd8d48988d116941735","category":"Bar","checkinsCount":183,"usersCount":95,"tipCount":5,"visitsCount":198,"tier":"","message":"","currency":"","rating":5.1}]