[{"name":"Sheffield Tap","phone":"+441142737558","twitter":"sheffieldtap","address":"Sheffield Railway Station","lat":53.37870291447737,"lng":-1.4625438772557566,"neighborhood":"Central Sheffield","city_fetched":"Chapeltown,UK","country":"United Kingdom","canonicalUrl":"https://foursquare.com/v/sheffield-tap/4b4e33e7f964a52016e526e3","categoryId":"4bf58dd8d48988d11b941735","category":"Pub","checkinsCount":5063,"usersCount":1459,"tipCount":78,"visitsCount":5153,"url":"http://www.sheffieldtap.com","tier":2,"message":"Moderate","currency":"£","rating":9.1},{"name":"The Fat Cat","phone":"+441142494801","address":"23 Alma St","lat":53.38855947796067,"lng":-1.4717763662338257,"neighborhood":"Central Sheffield","city_fetched":"Chapeltown,UK","country":"United Kingdom","canonicalUrl":"https://foursquare.com/v/the-fat-cat/4b6db5c3f964a52096882ce3","categoryId":"4bf58dd8d48988d11b941735","category":"Pub","checkinsCount":2173,"usersCount":772,"tipCount":39,"visitsCount":2372,"url":"http://www.thefatcat.co.uk","tier":1,"message":"Cheap","currency":"£","rating":8.7},{"name":"Three Tuns","phone":"+441143276211","twitter":"real3tunssheff","address":"39 Silver Street Head","lat":53.38394909562404,"lng":-1.4714598655700684,"neighborhood":"Central Sheffield","city_fetched":"Chapeltown,UK","country":"United Kingdom","canonicalUrl":"https://foursquare.com/v/three-tuns/4b9103caf964a5201f9f33e3","categoryId":"4bf58dd8d48988d11b941735","category":"Pub","checkinsCount":1034,"usersCount":217,"tipCount":5,"visitsCount":1228,"url":"http://thethreetunssheffield.co.uk","tier":"","message":"","currency":"","rating":8.6},{"name":"The Shakespeare","phone":"+441142755959","twitter":"shakespearesshf","address":"146-148 Gibraltar St.","lat":53.38671986409586,"lng":-1.4715296030044556,"neighborhood":"Central Sheffield","city_fetched":"Chapeltown,UK","country":"United Kingdom","canonicalUrl":"https://foursquare.com/v/the-shakespeare/4e272d2262e14d5da15614b7","categoryId":"4bf58dd8d48988d11b941735","category":"Pub","checkinsCount":1324,"usersCount":450,"tipCount":19,"visitsCount":1545,"url":"http://www.shakespeares-sheffield.co.uk/shakespeare-pub-sheffield-yorkshire","tier":2,"message":"Moderate","currency":"£","rating":8.6},{"name":"Peddler Night Market","address":"92 Burton Road","lat":53.39248582351688,"lng":-1.476028353746214,"neighborhood":"Central Sheffield","city_fetched":"Chapeltown,UK","state":"Sheffield","country":"United Kingdom","canonicalUrl":"https://foursquare.com/v/peddler-night-market/54fa0228498eab354bd622c6","categoryId":"53e510b7498ebcb1801b55d4","category":"Night Market","checkinsCount":172,"usersCount":93,"tipCount":2,"visitsCount":205,"tier":"","message":"","currency":"","rating":8.5},{"name":"Old No.7","phone":"+441226244735","twitter":"oldno7barnsley","address":"7 Market Hill","lat":53.55321008463604,"lng":-1.4815098662359285,"city_fetched":"Chapeltown,UK","country":"United Kingdom","canonicalUrl":"https://foursquare.com/v/old-no7/4eaafb03b8f7a50de90bf3a1","categoryId":"4bf58dd8d48988d116941735","category":"Bar","checkinsCount":1107,"usersCount":183,"tipCount":16,"visitsCount":1230,"url":"http://www.oldno7barnsley.co.uk","tier":"","message":"","currency":"","rating":8.5},{"name":"The Blake Hotel","phone":"+441142339336","address":"53 Blake St","lat":53.39118434745451,"lng":-1.4917679724710893,"city_fetched":"Chapeltown,UK","country":"United Kingdom","canonicalUrl":"https://foursquare.com/v/the-blake-hotel/4d30bf975acfa35dfe34fccb","categoryId":"4bf58dd8d48988d11b941735","category":"Pub","checkinsCount":567,"usersCount":146,"tipCount":12,"visitsCount":644,"tier":"","message":"","currency":"","rating":8.4},{"name":"The Old House","phone":"+441142766002","twitter":"theoldhouse","address":"113-117 Devonshire St","lat":53.379386213257284,"lng":-1.4769744873046875,"neighborhood":"Central Sheffield","city_fetched":"Chapeltown,UK","country":"United Kingdom","canonicalUrl":"https://foursquare.com/v/the-old-house/4b642df9f964a520c6a22ae3","categoryId":"4bf58dd8d48988d116941735","category":"Bar","checkinsCount":2169,"usersCount":871,"tipCount":23,"visitsCount":2362,"url":"http://www.theoldhousesheffield.co.uk","tier":2,"message":"Moderate","currency":"£","rating":8.4},{"name":"Gardeners Rest","phone":"+441142724978","twitter":"gardeners_rest","address":"105 Neepsend Ln.","lat":53.3932915390278,"lng":-1.4786124920533055,"city_fetched":"Chapeltown,UK","country":"United Kingdom","canonicalUrl":"https://foursquare.com/v/gardeners-rest/4b93dc3bf964a520c05534e3","categoryId":"4bf58dd8d48988d11b941735","category":"Pub","checkinsCount":542,"usersCount":182,"tipCount":12,"visitsCount":621,"tier":"","message":"","currency":"","rating":8.3},{"name":"The Ship Inn Artisan Tap","phone":"+441142812204","address":"312 Shalesmoor","lat":53.38831617214221,"lng":-1.4763182737080467,"neighborhood":"Central Sheffield","city_fetched":"Chapeltown,UK","country":"United Kingdom","canonicalUrl":"https://foursquare.com/v/the-ship-inn-artisan-tap/4c2fa335452620a18be81d0f","categoryId":"4bf58dd8d48988d11b941735","category":"Pub","checkinsCount":268,"usersCount":132,"tipCount":2,"visitsCount":322,"tier":"","message":"","currency":"","rating":8.2},{"name":"Kelham Island Tavern","phone":"+441142722482","twitter":"thekelham","address":"62 Russell St","lat":53.38808918424071,"lng":-1.4722108840942383,"neighborhood":"Central Sheffield","city_fetched":"Chapeltown,UK","country":"United Kingdom","canonicalUrl":"https://foursquare.com/v/kelham-island-tavern/4b54bf78f964a52045ca27e3","categoryId":"4bf58dd8d48988d11b941735","category":"Pub","checkinsCount":1655,"usersCount":492,"tipCount":13,"visitsCount":1735,"tier":"","message":"","currency":"","rating":8.1},{"name":"The Nags Head Inn","phone":"+441142851202","address":"Stacey Bank","lat":53.412285859053014,"lng":-1.5666686029895553,"city_fetched":"Chapeltown,UK","state":"Sheffield","country":"United Kingdom","canonicalUrl":"https://foursquare.com/v/the-nags-head-inn/50266f9de4b07a366bf3770a","categoryId":"4bf58dd8d48988d11b941735","category":"Pub","checkinsCount":122,"usersCount":46,"tipCount":3,"visitsCount":140,"tier":"","message":"","currency":"","rating":8},{"name":"New Barrack Tavern","phone":"+441142324225","twitter":"newbarrack","address":"601 Penistone Rd","lat":53.40095451090074,"lng":-1.4908028600982695,"city_fetched":"Chapeltown,UK","country":"United Kingdom","canonicalUrl":"https://foursquare.com/v/new-barrack-tavern/4bdc6d50fed22d7f091b58c9","categoryId":"4bf58dd8d48988d11b941735","category":"Pub","checkinsCount":851,"usersCount":157,"tipCount":13,"visitsCount":978,"url":"http://www.newbarracktavern.com","tier":"","message":"","currency":"","rating":7.8},{"name":"Hallamshire House","phone":"+441142664466","twitter":"hallamshirehaus","address":"49-51 Commonside","lat":53.38609277755033,"lng":-1.4972305297851562,"city_fetched":"Chapeltown,UK","country":"United Kingdom","canonicalUrl":"https://foursquare.com/v/hallamshire-house/4bddbaa80ee3a5931b672eb0","categoryId":"4bf58dd8d48988d11b941735","category":"Pub","checkinsCount":878,"usersCount":195,"tipCount":7,"visitsCount":997,"url":"http://www.myhallamshire.co.uk","tier":"","message":"","currency":"","rating":7.8},{"name":"The Old Horns Inn","phone":"+441142851207","twitter":"theoldhornsinn","address":"High Bradfield","lat":53.4284225652251,"lng":-1.5978386500216544,"city_fetched":"Chapeltown,UK","country":"United Kingdom","canonicalUrl":"https://foursquare.com/v/the-old-horns-inn/4eb59533469073bbc637f7be","categoryId":"4bf58dd8d48988d11b941735","category":"Pub","checkinsCount":144,"usersCount":93,"tipCount":3,"visitsCount":180,"url":"http://www.theoldhorns.co.uk","tier":"","message":"","currency":"","rating":7.6},{"name":"The Station Hotel","phone":"+441909474108","address":"Carlton Rd.","lat":53.31067275143846,"lng":-1.1212921142578125,"city_fetched":"Chapeltown,UK","state":"Nottinghamshire","country":"United Kingdom","canonicalUrl":"https://foursquare.com/v/the-station-hotel/4e92cc2c754a50cc7daebd74","categoryId":"4bf58dd8d48988d1d5941735","category":"Hotel Bar","checkinsCount":233,"usersCount":39,"tipCount":4,"visitsCount":268,"tier":"","message":"","currency":"","rating":7.5},{"name":"Red Lion","phone":"+441142765852","address":"109 Charles St.","lat":53.3776966068245,"lng":-1.4671897888183594,"neighborhood":"Central Sheffield","city_fetched":"Chapeltown,UK","country":"United Kingdom","canonicalUrl":"https://foursquare.com/v/red-lion/4bc4e6dfe58e95211e23c9e1","categoryId":"4bf58dd8d48988d11b941735","category":"Pub","checkinsCount":690,"usersCount":228,"tipCount":2,"visitsCount":707,"tier":"","message":"","currency":"","rating":7.5},{"name":"Riverside","phone":"+441142724633","address":"1 Mowbray St.","lat":53.38926908799904,"lng":-1.4686664848463786,"neighborhood":"Central Sheffield","city_fetched":"Chapeltown,UK","country":"United Kingdom","canonicalUrl":"https://foursquare.com/v/riverside/4ba0d126f964a520a57f37e3","categoryId":"4bf58dd8d48988d11b941735","category":"Pub","checkinsCount":1001,"usersCount":548,"tipCount":15,"visitsCount":1269,"url":"http://www.riversidesheffield.co.uk","tier":"","message":"","currency":"","rating":7.5},{"name":"University Arms","phone":"+441142228969","address":"197 Brook Hill","lat":53.38163479595304,"lng":-1.4854475679471972,"city_fetched":"Chapeltown,UK","country":"United Kingdom","canonicalUrl":"https://foursquare.com/v/university-arms/4b883cd8f964a52099e931e3","categoryId":"4bf58dd8d48988d11b941735","category":"Pub","checkinsCount":945,"usersCount":344,"tipCount":6,"visitsCount":1071,"tier":"","message":"","currency":"","rating":7.5},{"name":"The Common Room","phone":"+441142808230","twitter":"commonroom","address":"127-129 Devonshire St","lat":53.37931581432767,"lng":-1.4772427082061768,"neighborhood":"Central Sheffield","city_fetched":"Chapeltown,UK","country":"United Kingdom","canonicalUrl":"https://foursquare.com/v/the-common-room/4b7d330df964a5206bb22fe3","categoryId":"4bf58dd8d48988d11d941735","category":"Sports Bar","checkinsCount":1825,"usersCount":731,"tipCount":20,"visitsCount":1857,"url":"http://www.common-room.co.uk","tier":"","message":"","currency":"","rating":7.3},{"name":"Dove & Rainbow","phone":"+441142721594","address":"Hartshead","lat":53.38354811943735,"lng":-1.4668473872595422,"neighborhood":"Central Sheffield","city_fetched":"Chapeltown,UK","country":"United Kingdom","canonicalUrl":"https://foursquare.com/v/dove--rainbow/4c0555c639d476b095ba32a7","categoryId":"4bf58dd8d48988d11b941735","category":"Pub","checkinsCount":690,"usersCount":175,"tipCount":8,"visitsCount":696,"url":"http://www.doveandrainbow.com","tier":"","message":"","currency":"","rating":7.3},{"name":"Old Red Lion","phone":"+441142468307","twitter":"oldredgreno","address":"210 Main Street","lat":53.44381841400833,"lng":-1.503632003935083,"neighborhood":"Grenoside","city_fetched":"Chapeltown,UK","state":"Sheffield","country":"United Kingdom","canonicalUrl":"https://foursquare.com/v/old-red-lion/4bc1c34fabf495213a6cc193","categoryId":"4bf58dd8d48988d11b941735","category":"Pub","checkinsCount":74,"usersCount":52,"tipCount":3,"visitsCount":211,"url":"http://www.redliongrenoside.co.uk","tier":"","message":"","currency":"","rating":7.2},{"name":"Fagan's","phone":"+441142728430","address":"69 Broad Lane","lat":53.383097737482146,"lng":-1.4764022266896657,"neighborhood":"Central Sheffield","city_fetched":"Chapeltown,UK","country":"United Kingdom","canonicalUrl":"https://foursquare.com/v/fagans/4b804dd4f964a520346630e3","categoryId":"4bf58dd8d48988d11b941735","category":"Pub","checkinsCount":249,"usersCount":156,"tipCount":6,"visitsCount":277,"tier":"","message":"","currency":"","rating":7.2},{"name":"Dog & Partridge","phone":"+441142706156","twitter":"thedogsheffield","address":"56 Trippet Lane","lat":53.38194609527173,"lng":-1.4743351936340332,"neighborhood":"Central Sheffield","city_fetched":"Chapeltown,UK","country":"United Kingdom","canonicalUrl":"https://foursquare.com/thedogsheffield","categoryId":"4bf58dd8d48988d11b941735","category":"Pub","checkinsCount":234,"usersCount":130,"tipCount":0,"visitsCount":272,"tier":"","message":"","currency":"","rating":7.2},{"name":"The Viper Rooms","phone":"+441142750934","twitter":"viper_rooms","address":"35 Carver Street","lat":53.38025499046729,"lng":-1.4737612009048462,"neighborhood":"Central Sheffield","city_fetched":"Chapeltown,UK","state":"Sheffield","country":"United Kingdom","canonicalUrl":"https://foursquare.com/v/the-viper-rooms/4e73cf5bb0fb9680327576f6","categoryId":"4bf58dd8d48988d11f941735","category":"Nightclub","checkinsCount":868,"usersCount":270,"tipCount":14,"visitsCount":914,"url":"http://www.theviperrooms.com","tier":"","message":"","currency":"","rating":7.1},{"name":"The Commercial","phone":"+441142469066","address":"107 Station Rd.","lat":53.46505338860069,"lng":-1.4647034014024694,"city_fetched":"Chapeltown,UK","country":"United Kingdom","canonicalUrl":"https://foursquare.com/v/the-commercial/4c87b01147cc224b0e52b39f","categoryId":"4bf58dd8d48988d11b941735","category":"Pub","checkinsCount":495,"usersCount":87,"tipCount":13,"visitsCount":539,"tier":"","message":"","currency":"","rating":7.1},{"name":"The Glasshouse","address":"Gateway Plaza","lat":53.553313073952566,"lng":-1.4869576792328782,"city_fetched":"Chapeltown,UK","country":"United Kingdom","canonicalUrl":"https://foursquare.com/v/the-glasshouse/4c40b2ed520fa5938678c8ac","categoryId":"4bf58dd8d48988d1d5941735","category":"Hotel Bar","checkinsCount":286,"usersCount":131,"tipCount":6,"visitsCount":299,"tier":"","message":"","currency":"","rating":7},{"name":"Rockingham Arms","phone":"+441226742075","twitter":"johnbarraspubs","address":"8 Main St","lat":53.478086,"lng":-1.416217,"city_fetched":"Chapeltown,UK","state":"Rotherham","country":"United Kingdom","canonicalUrl":"https://foursquare.com/v/rockingham-arms/4bd6e7671728986e8a2bb735","categoryId":"4bf58dd8d48988d11b941735","category":"Pub","checkinsCount":178,"usersCount":111,"tipCount":5,"visitsCount":241,"url":"http://www.therockinghamarms.com","tier":"","message":"","currency":"","rating":7},{"name":"The Hillsborough Hotel","phone":"+441142322100","address":"54-58 Langsett Road","lat":53.39469928362288,"lng":-1.4885804726563443,"city_fetched":"Chapeltown,UK","country":"United Kingdom","canonicalUrl":"https://foursquare.com/v/the-hillsborough-hotel/4b968c70f964a520ded334e3","categoryId":"4bf58dd8d48988d11b941735","category":"Pub","checkinsCount":560,"usersCount":197,"tipCount":8,"visitsCount":643,"url":"http://www.hillsborough-hotel.co.uk","tier":"","message":"","currency":"","rating":7},{"name":"Reflex","phone":"+441142536521","address":"18 Holly St.","lat":53.38108316382842,"lng":-1.4731440948117067,"neighborhood":"Central Sheffield","city_fetched":"Chapeltown,UK","country":"United Kingdom","canonicalUrl":"https://foursquare.com/v/reflex/4c5dd0767735c9b6053d9072","categoryId":"4bf58dd8d48988d11f941735","category":"Nightclub","checkinsCount":254,"usersCount":106,"tipCount":3,"visitsCount":254,"url":"http://www.reflexsheffield.co.uk","tier":"","message":"","currency":"","rating":7},{"name":"The Harlequin","phone":"+441142494181","twitter":"harlequinpub","address":"108 Nursery Street","lat":53.38847065896469,"lng":-1.46623378229871,"neighborhood":"Central Sheffield","city_fetched":"Chapeltown,UK","country":"United Kingdom","canonicalUrl":"https://foursquare.com/v/the-harlequin/4b82b7f7f964a5203ce030e3","categoryId":"4bf58dd8d48988d11b941735","category":"Pub","checkinsCount":751,"usersCount":274,"tipCount":18,"visitsCount":864,"tier":"","message":"","currency":"","rating":7},{"name":"Snafu","phone":"+441709836991","address":"22 - 30 high street","lat":53.43029893010578,"lng":-1.3563179969787598,"city_fetched":"Chapeltown,UK","country":"United Kingdom","canonicalUrl":"https://foursquare.com/v/snafu/4c6d8a50c52437043e7228eb","categoryId":"4bf58dd8d48988d116941735","category":"Bar","checkinsCount":509,"usersCount":64,"tipCount":6,"visitsCount":510,"url":"http://www.fubar-snafu.co.uk","tier":"","message":"","currency":"","rating":6.8},{"name":"The Bluebell Inn","phone":"+441709877664","address":"Manvers Way","lat":53.50879977868519,"lng":-1.3500738143920898,"city_fetched":"Chapeltown,UK","state":"Rotherham","country":"United Kingdom","canonicalUrl":"https://foursquare.com/v/the-bluebell-inn/4c6d44277bfe199cd8dedace","categoryId":"4bf58dd8d48988d11b941735","category":"Pub","checkinsCount":339,"usersCount":145,"tipCount":5,"visitsCount":421,"tier":"","message":"","currency":"","rating":6.7},{"name":"The Silkstone Inn (Wetherspoon)","phone":"+441226320860","address":"64 Market Street","lat":53.55087617085716,"lng":-1.4807200008691142,"city_fetched":"Chapeltown,UK","country":"United Kingdom","canonicalUrl":"https://foursquare.com/v/the-silkstone-inn-wetherspoon/4c87aa40821e9eb046cc8d89","categoryId":"4bf58dd8d48988d11b941735","category":"Pub","checkinsCount":401,"usersCount":115,"tipCount":4,"visitsCount":412,"url":"http://www.jdwetherspoon.co.uk","tier":"","message":"","currency":"","rating":6.7},{"name":"The Joseph Bramah (Wetherspoon)","phone":"+441226320890","address":"15 Market Hill","lat":53.5528291684254,"lng":-1.4820684806710371,"city_fetched":"Chapeltown,UK","country":"United Kingdom","canonicalUrl":"https://foursquare.com/v/the-joseph-bramah-wetherspoon/4c87aa40821e9eb045cc8d89","categoryId":"4bf58dd8d48988d11b941735","category":"Pub","checkinsCount":1084,"usersCount":298,"tipCount":14,"visitsCount":1149,"url":"http://www.jdwetherspoon.co.uk","tier":"","message":"","currency":"","rating":6.6},{"name":"The Cobden View Pub","address":"40 Cobden View Road","lat":53.384585,"lng":-1.502784,"neighborhood":"Crookes","city_fetched":"Chapeltown,UK","state":"Sheffield","country":"United Kingdom","canonicalUrl":"https://foursquare.com/v/the-cobden-view-pub/4b7b077cf964a520384d2fe3","categoryId":"4bf58dd8d48988d11b941735","category":"Pub","checkinsCount":208,"usersCount":85,"tipCount":5,"visitsCount":217,"tier":"","message":"","currency":"","rating":6.6},{"name":"Dam House","phone":"+441142668041","twitter":"damhousesheff","address":"Mushroom Lane","lat":53.382978273595455,"lng":-1.493773539166702,"city_fetched":"Chapeltown,UK","country":"United Kingdom","canonicalUrl":"https://foursquare.com/v/dam-house/4bc0742cabf49521263bbf93","categoryId":"4bf58dd8d48988d116941735","category":"Bar","checkinsCount":165,"usersCount":115,"tipCount":4,"visitsCount":176,"tier":"","message":"","currency":"","rating":6.6},{"name":"George And Dragon","phone":"+441226742440","address":"85 Main Street","lat":53.47934919537868,"lng":-1.4210806134870961,"city_fetched":"Chapeltown,UK","state":"Rotherham","country":"United Kingdom","canonicalUrl":"https://foursquare.com/v/george-and-dragon/4bf90c415efe2d7f02a56b34","categoryId":"4bf58dd8d48988d11b941735","category":"Pub","checkinsCount":174,"usersCount":107,"tipCount":4,"visitsCount":252,"url":"http://www.georgeanddragonwentworth.co.uk","tier":"","message":"","currency":"","rating":6.6},{"name":"The Rawson Spring (Wetherspoon)","phone":"+441142856200","address":"Langsett Rd","lat":53.40192068680452,"lng":-1.5003204345703125,"city_fetched":"Chapeltown,UK","country":"United Kingdom","canonicalUrl":"https://foursquare.com/v/the-rawson-spring-wetherspoon/4c87abf1821e9eb0cdcd8d89","categoryId":"4bf58dd8d48988d11b941735","category":"Pub","checkinsCount":1792,"usersCount":315,"tipCount":6,"visitsCount":1852,"url":"http://www.jdwetherspoon.co.uk","tier":"","message":"","currency":"","rating":6.5},{"name":"The Church House (Wetherspoon)","phone":"+441709879518","address":"Montgomery Sq.","lat":53.5023037627437,"lng":-1.3453296204129945,"city_fetched":"Chapeltown,UK","country":"United Kingdom","canonicalUrl":"https://foursquare.com/v/the-church-house-wetherspoon/4c87ac49821e9eb012ce8d89","categoryId":"4bf58dd8d48988d11b941735","category":"Pub","checkinsCount":606,"usersCount":105,"tipCount":1,"visitsCount":745,"url":"http://www.jdwetherspoon.co.uk","tier":"","message":"","currency":"","rating":6.5},{"name":"The Bluecoat (Wetherspoon)","phone":"+441709539500","address":"The Crofts","lat":53.42863691438238,"lng":-1.3547086715698242,"city_fetched":"Chapeltown,UK","country":"United Kingdom","canonicalUrl":"https://foursquare.com/v/the-bluecoat-wetherspoon/4c87abdf821e9eb0bbcd8d89","categoryId":"4bf58dd8d48988d11b941735","category":"Pub","checkinsCount":1306,"usersCount":222,"tipCount":9,"visitsCount":1430,"url":"http://www.jdwetherspoon.co.uk","tier":"","message":"","currency":"","rating":6.5},{"name":"The Closed Shop","phone":"+441142660330","twitter":"theclosedshop","address":"52-54 Commonside","lat":53.38601599080795,"lng":-1.497359275817871,"city_fetched":"Chapeltown,UK","country":"United Kingdom","canonicalUrl":"https://foursquare.com/v/the-closed-shop/4bddb2960ee3a5930b452eb0","categoryId":"4bf58dd8d48988d11b941735","category":"Pub","checkinsCount":869,"usersCount":145,"tipCount":9,"visitsCount":920,"url":"http://www.theclosedshopsheffield.co.uk","tier":"","message":"","currency":"","rating":6.5},{"name":"New York Tavern","address":"New York Tavern","lat":53.42709354800814,"lng":-1.358292674379734,"city_fetched":"Chapeltown,UK","country":"United Kingdom","canonicalUrl":"https://foursquare.com/v/new-york-tavern/5229c48811d28302fa9dda8a","categoryId":"4bf58dd8d48988d11b941735","category":"Pub","checkinsCount":79,"usersCount":30,"tipCount":4,"visitsCount":103,"tier":"","message":"","currency":"","rating":6.5},{"name":"The Steel Foundry (Wetherspoon)","address":"The Oasis, Meadowhall","lat":53.41408287999111,"lng":-1.4131110067482602,"city_fetched":"Chapeltown,UK","state":"Sheffield","country":"United Kingdom","canonicalUrl":"https://foursquare.com/v/the-steel-foundry-wetherspoon/55a1551a498edc8d699a916f","categoryId":"4bf58dd8d48988d116941735","category":"Bar","checkinsCount":103,"usersCount":53,"tipCount":2,"visitsCount":104,"tier":"","message":"","currency":"","rating":6.4},{"name":"The Grapes","phone":"+441142490909","address":"Trippet Lane","lat":53.381759,"lng":-1.475032,"neighborhood":"Central Sheffield","city_fetched":"Chapeltown,UK","country":"United Kingdom","canonicalUrl":"https://foursquare.com/v/the-grapes/4b96a8bbf964a52021dc34e3","categoryId":"4bf58dd8d48988d11b941735","category":"Pub","checkinsCount":264,"usersCount":134,"tipCount":6,"visitsCount":277,"tier":"","message":"","currency":"","rating":6.4},{"name":"Arena Square (Table Table)","phone":"+441142432320","twitter":"yourtabletable","address":"3 Arena Court","lat":53.402967502403435,"lng":-1.4207055702978437,"city_fetched":"Chapeltown,UK","state":"Sheffield","country":"United Kingdom","canonicalUrl":"https://foursquare.com/v/arena-square-table-table/4c52b74199ecc9b63db94f5b","categoryId":"4bf58dd8d48988d11b941735","category":"Pub","checkinsCount":378,"usersCount":278,"tipCount":5,"visitsCount":482,"url":"http://www.tabletable.co.uk/pub-restaurants/Yorkshire/Arena-Square-Carbrook.html","tier":"","message":"","currency":"","rating":6.4},{"name":"The Church House","phone":"+441142720615","address":"4 St James Street","lat":53.382906011351984,"lng":-1.470322608947754,"neighborhood":"Central Sheffield","city_fetched":"Chapeltown,UK","state":"Sheffield","country":"United Kingdom","canonicalUrl":"https://foursquare.com/v/the-church-house/50b8f2e4e4b011c4a6facad9","categoryId":"4bf58dd8d48988d11b941735","category":"Pub","checkinsCount":218,"usersCount":76,"tipCount":1,"visitsCount":224,"tier":"","message":"","currency":"","rating":6.3},{"name":"The Corn Law Rhymer (Wetherspoon)","phone":"+441709724790","address":"35-37 High St.","lat":53.42997190371387,"lng":-1.3564877820512755,"city_fetched":"Chapeltown,UK","country":"United Kingdom","canonicalUrl":"https://foursquare.com/v/the-corn-law-rhymer-wetherspoon/4c87abe0821e9eb0bccd8d89","categoryId":"4bf58dd8d48988d11b941735","category":"Pub","checkinsCount":427,"usersCount":154,"tipCount":0,"visitsCount":454,"url":"http://www.jdwetherspoon.co.uk","tier":"","message":"","currency":"","rating":6.3},{"name":"All Bar One","phone":"+441142753423","twitter":"yourallbarone","address":"13-15 Leopold St","lat":53.381795706458355,"lng":-1.4710414409637451,"neighborhood":"Central Sheffield","city_fetched":"Chapeltown,UK","country":"United Kingdom","canonicalUrl":"https://foursquare.com/v/all-bar-one/4ba37541f964a520b43e38e3","categoryId":"4bf58dd8d48988d123941735","category":"Wine Bar","checkinsCount":1173,"usersCount":357,"tipCount":10,"visitsCount":1197,"url":"http://www.allbarone.co.uk/all-bar-one-sheffield/","tier":"","message":"","currency":"","rating":6.1},{"name":"The Ball Inn","phone":"+441142661211","twitter":"ballcrookes","address":"171-173 Crookes Rd, Crookes","lat":53.384446252102784,"lng":-1.5081863771683597,"neighborhood":"Crookes","city_fetched":"Chapeltown,UK","country":"United Kingdom","canonicalUrl":"https://foursquare.com/v/the-ball-inn/4b6d8bd6f964a520b87b2ce3","categoryId":"4bf58dd8d48988d11b941735","category":"Pub","checkinsCount":533,"usersCount":192,"tipCount":1,"visitsCount":629,"url":"http://www.gkflamegrill.co.uk/locations/ball-sheffield","tier":"","message":"","currency":"","rating":6.1},{"name":"The Wellington","phone":"+441142492295","address":"1 Henry Street","lat":53.389296874795704,"lng":-1.4785886037173976,"city_fetched":"Chapeltown,UK","country":"United Kingdom","canonicalUrl":"https://foursquare.com/v/the-wellington/4bc9dea8937ca5937378a692","categoryId":"4bf58dd8d48988d11b941735","category":"Pub","checkinsCount":509,"usersCount":152,"tipCount":5,"visitsCount":553,"tier":"","message":"","currency":"","rating":6},{"name":"The Wadsley Jack","phone":"+441142343243","address":"65 Rural Lane","lat":53.409738579063706,"lng":-1.5210254581607237,"neighborhood":"Hillsborough","city_fetched":"Chapeltown,UK","state":"Sheffield","country":"United Kingdom","canonicalUrl":"https://foursquare.com/v/the-wadsley-jack/4e7600edaeb780be0a76746c","categoryId":"4bf58dd8d48988d116941735","category":"Bar","checkinsCount":43,"usersCount":24,"tipCount":3,"visitsCount":46,"tier":"","message":"","currency":"","rating":6},{"name":"Dempseys","phone":"+441142754616","twitter":"dempseysclub","address":"1 Hereford St.","lat":53.37417637810931,"lng":-1.4748501777648926,"neighborhood":"Central Sheffield","city_fetched":"Chapeltown,UK","state":"Sheffield","country":"United Kingdom","canonicalUrl":"https://foursquare.com/v/dempseys/4bbfc099461576b026267932","categoryId":"4bf58dd8d48988d1d8941735","category":"Gay Bar","checkinsCount":947,"usersCount":254,"tipCount":7,"visitsCount":1034,"url":"http://dempseys-sheffield.com","tier":"","message":"","currency":"","rating":6},{"name":"The Marquis","address":"Low Stubbin","lat":53.47655705064553,"lng":-1.3658867070715166,"city_fetched":"Chapeltown,UK","country":"United Kingdom","canonicalUrl":"https://foursquare.com/v/the-marquis/4c0a4088009a0f470809e9bf","categoryId":"4bf58dd8d48988d11b941735","category":"Pub","checkinsCount":204,"usersCount":105,"tipCount":3,"visitsCount":256,"tier":"","message":"","currency":"","rating":5.9},{"name":"Walkabout","phone":"+441142413400","twitter":"walkiesheffield","address":"Carver St","lat":53.38110135121976,"lng":-1.4744853973388672,"neighborhood":"Central Sheffield","city_fetched":"Chapeltown,UK","country":"United Kingdom","canonicalUrl":"https://foursquare.com/v/walkabout/4bcf4616046076b04bfc6d71","categoryId":"4bf58dd8d48988d11d941735","category":"Sports Bar","checkinsCount":740,"usersCount":588,"tipCount":15,"visitsCount":963,"url":"http://walkaboutbars.com","tier":"","message":"","currency":"","rating":5.9},{"name":"Champs Sports Bar & Grill","phone":"+441142666333","twitter":"champssheff","address":"255 Ecclesall Rd","lat":53.37200969269781,"lng":-1.486324667930603,"city_fetched":"Chapeltown,UK","country":"United Kingdom","canonicalUrl":"https://foursquare.com/v/champs-sports-bar--grill/4e9079de4fc6b925c2d9f018","categoryId":"4bf58dd8d48988d11d941735","category":"Sports Bar","checkinsCount":205,"usersCount":147,"tipCount":2,"visitsCount":221,"url":"http://www.champssheffield.com","tier":"","message":"","currency":"","rating":5.9},{"name":"The Winter Green","phone":"+441142698958","address":"Mitchell Way","lat":53.383010443294474,"lng":-1.3778205747760954,"neighborhood":"Waverley","city_fetched":"Chapeltown,UK","state":"Sheffield","country":"United Kingdom","canonicalUrl":"https://foursquare.com/v/the-winter-green/53cfa3bf498e59b3d2dd2317","categoryId":"4bf58dd8d48988d11b941735","category":"Pub","checkinsCount":76,"usersCount":85,"tipCount":2,"visitsCount":159,"url":"http://www.wintergreenpubwaverley.co.uk","tier":"","message":"","currency":"","rating":5.8},{"name":"The Wagon and Horses (Wetherspoon)","phone":"+441142329980","twitter":"jwdtweet","address":"2 Market Place, Chapletown","lat":53.46166193652495,"lng":-1.4654044829138078,"city_fetched":"Chapeltown,UK","country":"United Kingdom","canonicalUrl":"https://foursquare.com/v/the-wagon-and-horses-wetherspoon/52512b93498e9b7ef7b4c8f6","categoryId":"4bf58dd8d48988d11b941735","category":"Pub","checkinsCount":212,"usersCount":87,"tipCount":1,"visitsCount":316,"url":"http://www.jdwetherspoon.co.uk/home/pubs/the-wagon-and-horses","tier":"","message":"","currency":"","rating":5.8},{"name":"White bear","address":"11 Church St","lat":53.55379323983683,"lng":-1.4820156838625989,"city_fetched":"Chapeltown,UK","country":"United Kingdom","canonicalUrl":"https://foursquare.com/v/white-bear/4b6491d8f964a5208abe2ae3","categoryId":"4bf58dd8d48988d116941735","category":"Bar","checkinsCount":199,"usersCount":64,"tipCount":5,"visitsCount":199,"tier":"","message":"","currency":"","rating":5.8},{"name":"The Rhinoceros (Wetherspoon)","phone":"+441709361422","address":"35-37 Bridgegate","lat":53.43180277152752,"lng":-1.356776941484325,"city_fetched":"Chapeltown,UK","country":"United Kingdom","canonicalUrl":"https://foursquare.com/v/the-rhinoceros-wetherspoon/4c755432604a37043f5b8249","categoryId":"4bf58dd8d48988d11b941735","category":"Pub","checkinsCount":173,"usersCount":72,"tipCount":1,"visitsCount":178,"url":"http://www.jdwetherspoon.co.uk","tier":"","message":"","currency":"","rating":5.8},{"name":"The Horseshoe (Wetherspoon)","phone":"+441226273820","address":"30 High St.","lat":53.522663530935816,"lng":-1.3984799337745,"city_fetched":"Chapeltown,UK","country":"United Kingdom","canonicalUrl":"https://foursquare.com/v/the-horseshoe-wetherspoon/4c87ac62821e9eb025ce8d89","categoryId":"4bf58dd8d48988d11b941735","category":"Pub","checkinsCount":540,"usersCount":108,"tipCount":5,"visitsCount":698,"url":"http://www.jdwetherspoon.co.uk","tier":"","message":"","currency":"","rating":5.7},{"name":"Funky Buddha","phone":"+441226734195","address":"1 Market Hill","lat":53.55357714897163,"lng":-1.4820460382096166,"city_fetched":"Chapeltown,UK","state":"Barnsley","country":"United Kingdom","canonicalUrl":"https://foursquare.com/v/funky-buddha/4cd1bbdb5b5ca35d214283f0","categoryId":"4bf58dd8d48988d116941735","category":"Bar","checkinsCount":156,"usersCount":66,"tipCount":2,"visitsCount":156,"tier":"","message":"","currency":"","rating":5.7},{"name":"Varsity","phone":"+441142759756","twitter":"partyatthepub","address":"173-179 West Street","lat":53.38008574388874,"lng":-1.4795994343304262,"neighborhood":"Central Sheffield","city_fetched":"Chapeltown,UK","country":"United Kingdom","canonicalUrl":"https://foursquare.com/v/varsity/4ba12d37f964a520259f37e3","categoryId":"4bf58dd8d48988d11b941735","category":"Pub","checkinsCount":410,"usersCount":246,"tipCount":5,"visitsCount":411,"url":"http://www.varsitybars.com","tier":"","message":"","currency":"","rating":5.7},{"name":"Players","phone":"+441142767665","twitter":"sheffplayers","address":"125-127 West St.","lat":53.38066580831648,"lng":-1.4765001879384552,"neighborhood":"Central Sheffield","city_fetched":"Chapeltown,UK","country":"United Kingdom","canonicalUrl":"https://foursquare.com/v/players/4b957451f964a5206fa334e3","categoryId":"4bf58dd8d48988d11d941735","category":"Sports Bar","checkinsCount":299,"usersCount":187,"tipCount":6,"visitsCount":300,"url":"http://www.playersbars.com/Sheffield","tier":"","message":"","currency":"","rating":5.6},{"name":"The Punchbowl","address":"95 Hurlfield Rd, Crookes","lat":53.38627834493933,"lng":-1.507524847984314,"neighborhood":"Crookes","city_fetched":"Chapeltown,UK","state":"Sheffield","country":"United Kingdom","canonicalUrl":"https://foursquare.com/v/the-punchbowl/4b965e82f964a5207ac834e3","categoryId":"4bf58dd8d48988d11b941735","category":"Pub","checkinsCount":173,"usersCount":69,"tipCount":4,"visitsCount":181,"url":"http://www.thepunchbowlsheffield.co.uk","tier":"","message":"","currency":"","rating":5.4},{"name":"The Museum","phone":"+441142755016","address":"25 Orchard Sq.","lat":53.381574,"lng":-1.470725475,"neighborhood":"Central Sheffield","city_fetched":"Chapeltown,UK","country":"United Kingdom","canonicalUrl":"https://foursquare.com/v/the-museum/4bb491513a32c9b63b4abc16","categoryId":"4bf58dd8d48988d11b941735","category":"Pub","checkinsCount":813,"usersCount":316,"tipCount":10,"visitsCount":829,"tier":"","message":"","currency":"","rating":5.2},{"name":"The Bankers Draft (Wetherspoon)","phone":"+441142756609","address":"1-3 Market Place","lat":53.3833202635001,"lng":-1.4664932124785526,"neighborhood":"Central Sheffield","city_fetched":"Chapeltown,UK","country":"United Kingdom","canonicalUrl":"https://foursquare.com/v/the-bankers-draft-wetherspoon/4c87abef821e9eb0cacd8d89","categoryId":"4bf58dd8d48988d11b941735","category":"Pub","checkinsCount":2406,"usersCount":786,"tipCount":9,"visitsCount":2457,"url":"http://www.jdwetherspoon.co.uk","tier":1,"message":"Cheap","currency":"£","rating":4.9}]