[{"name":"Café Beermoth","twitter":"cafebeermoth","address":"40 Spring Gardens","lat":53.481240656213345,"lng":-2.241862958738455,"neighborhood":"City Centre","city_fetched":"Cheadle,UK","country":"United Kingdom","canonicalUrl":"https://foursquare.com/v/caf%C3%A9-beermoth/566bf5fc498e7d638e9ac9de","categoryId":"4bf58dd8d48988d116941735","category":"Bar","checkinsCount":491,"usersCount":257,"tipCount":13,"visitsCount":593,"url":"http://beermoth.co.uk","tier":"","message":"","currency":"","rating":9.4},{"name":"Marble Arch Inn","phone":"+441618325914","twitter":"themarblearch","address":"73 Rochdale Rd","lat":53.488096604469234,"lng":-2.2325849533081055,"city_fetched":"Cheadle,UK","state":"Greater Manchester","country":"United Kingdom","canonicalUrl":"https://foursquare.com/v/marble-arch-inn/4ade0ddcf964a520776d21e3","categoryId":"4bf58dd8d48988d11b941735","category":"Pub","checkinsCount":1911,"usersCount":1089,"tipCount":50,"visitsCount":2451,"url":"http://www.marblebeers.com/marble-arch/","tier":1,"message":"Cheap","currency":"£","rating":9.2},{"name":"Port Street Beer House","phone":"+441612379949","twitter":"portstreetbeer","address":"39-41 Port St.","lat":53.482078885902496,"lng":-2.231943905353546,"neighborhood":"Northern Quarter","city_fetched":"Cheadle,UK","country":"United Kingdom","canonicalUrl":"https://foursquare.com/v/port-street-beer-house/4d419072c1d4721e5be21ac7","categoryId":"4bf58dd8d48988d11b941735","category":"Pub","checkinsCount":4945,"usersCount":1973,"tipCount":57,"visitsCount":5878,"url":"http://www.portstreetbeerhouse.co.uk","tier":2,"message":"Moderate","currency":"£","rating":9.1},{"name":"The Oast House","phone":"+441618293830","twitter":"theoasthousemcr","address":"The Avenue Courtyard","lat":53.48054419515224,"lng":-2.2511672973632812,"neighborhood":"City Centre","city_fetched":"Cheadle,UK","country":"United Kingdom","canonicalUrl":"https://foursquare.com/v/the-oast-house/4ea7f821d3e33e1d4f257c9b","categoryId":"4bf58dd8d48988d11b941735","category":"Pub","checkinsCount":3231,"usersCount":2186,"tipCount":49,"visitsCount":3864,"url":"http://www.theoasthouse.uk.com","tier":3,"message":"Expensive","currency":"£","rating":8.8},{"name":"The Magnet","phone":"+441614296287","address":"51 Wellington Road North","lat":53.41223406986875,"lng":-2.1666536338950015,"city_fetched":"Cheadle,UK","state":"Stockport","country":"United Kingdom","canonicalUrl":"https://foursquare.com/v/the-magnet/4b91756bf964a52017be33e3","categoryId":"4bf58dd8d48988d11b941735","category":"Pub","checkinsCount":679,"usersCount":232,"tipCount":11,"visitsCount":950,"tier":"","message":"","currency":"","rating":8.8},{"name":"BrewDog Manchester","phone":"+441618321922","twitter":"brewdog","address":"35 Peter St","lat":53.47808602045664,"lng":-2.2472405433654785,"neighborhood":"City Centre","city_fetched":"Cheadle,UK","country":"United Kingdom","canonicalUrl":"https://foursquare.com/v/brewdog-manchester/4f843722e4b0522a6cc9817e","categoryId":"56aa371ce4b08b9a8d57356c","category":"Beer Bar","checkinsCount":4202,"usersCount":2260,"tipCount":72,"visitsCount":4844,"url":"http://www.brewdog.com","tier":3,"message":"Expensive","currency":"£","rating":8.7},{"name":"Trof","phone":"+441618333197","twitter":"trofnq","address":"Thomas St","lat":53.48482171803626,"lng":-2.2379708290100098,"neighborhood":"Northern Quarter","city_fetched":"Cheadle,UK","country":"United Kingdom","canonicalUrl":"https://foursquare.com/v/trof/4af70c90f964a520300522e3","categoryId":"4bf58dd8d48988d116941735","category":"Bar","checkinsCount":3760,"usersCount":1874,"tipCount":63,"visitsCount":3879,"url":"http://www.trofnq.co.uk","tier":1,"message":"Cheap","currency":"£","rating":8.7},{"name":"Blackjack Brewery","phone":"+441618192767","twitter":"blackjackbeers","address":"36 Gould St","lat":53.49003215208306,"lng":-2.23521483087897,"city_fetched":"Cheadle,UK","state":"Greater Manchester","country":"United Kingdom","canonicalUrl":"https://foursquare.com/v/blackjack-brewery/5218ae1e11d25b1b1d83ce30","categoryId":"50327c8591d4c4b30a586d5d","category":"Brewery","checkinsCount":64,"usersCount":54,"tipCount":5,"visitsCount":82,"url":"http://www.blackjackbeersltd.co.uk","tier":"","message":"","currency":"","rating":8.7},{"name":"Cask","phone":"+441618192527","address":"29 Liverpool Rd","lat":53.475881,"lng":-2.252205,"neighborhood":"City Centre","city_fetched":"Cheadle,UK","state":"Greater Manchester","country":"United Kingdom","canonicalUrl":"https://foursquare.com/v/cask/4b080dfdf964a520fd0223e3","categoryId":"4bf58dd8d48988d11b941735","category":"Pub","checkinsCount":1089,"usersCount":678,"tipCount":25,"visitsCount":1312,"url":"http://www.manchesterbars.com/cask.htm","tier":"","message":"","currency":"","rating":8.7},{"name":"The Briton's Protection","phone":"+441612365895","twitter":"bpmanchester","address":"50 Great Bridgewater St.","lat":53.474982770593016,"lng":-2.247433662414551,"neighborhood":"City Centre","city_fetched":"Cheadle,UK","country":"United Kingdom","canonicalUrl":"https://foursquare.com/v/the-britons-protection/4ade0de0f964a5208c6d21e3","categoryId":"4bf58dd8d48988d11b941735","category":"Pub","checkinsCount":1550,"usersCount":1091,"tipCount":21,"visitsCount":1742,"url":"http://britons-protection.com","tier":"","message":"","currency":"","rating":8.7},{"name":"The Font","phone":"+441618820160","twitter":"thefontchorlton","address":"115-117 Manchester Road","lat":53.44732383957951,"lng":-2.2772309299438147,"neighborhood":"Chorlton","city_fetched":"Cheadle,UK","country":"United Kingdom","canonicalUrl":"https://foursquare.com/v/the-font/51548042e4b04e3a932a4e59","categoryId":"4bf58dd8d48988d11b941735","category":"Pub","checkinsCount":363,"usersCount":236,"tipCount":6,"visitsCount":433,"tier":"","message":"","currency":"","rating":8.6},{"name":"Oscars","phone":"+441612379201","address":"34 Canal St","lat":53.47690951418959,"lng":-2.2370968202873387,"neighborhood":"City Centre","city_fetched":"Cheadle,UK","country":"United Kingdom","canonicalUrl":"https://foursquare.com/v/oscars/503a60b1e4b054a090ffe424","categoryId":"4bf58dd8d48988d1d8941735","category":"Gay Bar","checkinsCount":566,"usersCount":201,"tipCount":8,"visitsCount":574,"url":"http://www.oscarsbarcanalstreet.co.uk","tier":"","message":"","currency":"","rating":8.6},{"name":"Gorilla","phone":"+441614070301","twitter":"thisisgorilla","address":"54-56 Whitworth St. W.","lat":53.474344129166475,"lng":-2.2425456042641545,"neighborhood":"City Centre","city_fetched":"Cheadle,UK","country":"United Kingdom","canonicalUrl":"https://foursquare.com/v/gorilla/4fcb8f87e4b0e6dca7ec1f74","categoryId":"4bf58dd8d48988d116941735","category":"Bar","checkinsCount":2445,"usersCount":1406,"tipCount":60,"visitsCount":2586,"url":"http://www.thisisgorilla.com","tier":2,"message":"Moderate","currency":"£","rating":8.6},{"name":"Apotheca","phone":"+441618349411","address":"17 Thomas St.","lat":53.48454720340003,"lng":-2.2376275062561035,"neighborhood":"Northern Quarter","city_fetched":"Cheadle,UK","country":"United Kingdom","canonicalUrl":"https://foursquare.com/v/apotheca/4afb169df964a520111b22e3","categoryId":"4bf58dd8d48988d121941735","category":"Lounge","checkinsCount":1646,"usersCount":870,"tipCount":16,"visitsCount":1674,"tier":"","message":"","currency":"","rating":8.6},{"name":"Sandbar","phone":"+441612731552","twitter":"sandbar_mcr","address":"120 Grosvenor St","lat":53.470644784464916,"lng":-2.235957160592079,"city_fetched":"Cheadle,UK","country":"United Kingdom","canonicalUrl":"https://foursquare.com/v/sandbar/4ade0de7f964a520b26d21e3","categoryId":"4bf58dd8d48988d116941735","category":"Bar","checkinsCount":2116,"usersCount":778,"tipCount":35,"visitsCount":2324,"url":"http://www.sandbaronline.net","tier":2,"message":"Moderate","currency":"£","rating":8.5},{"name":"Stalybridge Buffet Bar","phone":"+441613030007","address":"Rassbottom St","lat":53.48431314273991,"lng":-2.0637880354903584,"city_fetched":"Cheadle,UK","country":"United Kingdom","canonicalUrl":"https://foursquare.com/v/stalybridge-buffet-bar/4c94adf3f7cfa1cdbac5b515","categoryId":"4bf58dd8d48988d11b941735","category":"Pub","checkinsCount":814,"usersCount":337,"tipCount":12,"visitsCount":821,"url":"http://www.stalybridgebuffetbar.co.uk","tier":"","message":"","currency":"","rating":8.5},{"name":"The Molly House","phone":"+441612379329","twitter":"themollyhouse","address":"28 Richmond St","lat":53.477322999607395,"lng":-2.237144708633423,"neighborhood":"City Centre","city_fetched":"Cheadle,UK","country":"United Kingdom","canonicalUrl":"https://foursquare.com/v/the-molly-house/4cbde546adcd5481cc5f36a2","categoryId":"4bf58dd8d48988d1d8941735","category":"Gay Bar","checkinsCount":2780,"usersCount":895,"tipCount":33,"visitsCount":3025,"url":"http://www.themollyhouse.com","tier":2,"message":"Moderate","currency":"£","rating":8.5},{"name":"Baker's Vaults","address":"28 Market Place","lat":53.411851475436585,"lng":-2.157128690320629,"city_fetched":"Cheadle,UK","state":"Stockport","country":"United Kingdom","canonicalUrl":"https://foursquare.com/v/bakers-vaults/4be1d057f01520a122516987","categoryId":"4bf58dd8d48988d11b941735","category":"Pub","checkinsCount":229,"usersCount":120,"tipCount":8,"visitsCount":260,"tier":"","message":"","currency":"","rating":8.4},{"name":"The Arden Arms","phone":"+441614802185","address":"23 Millgate","lat":53.412000302985895,"lng":-2.1549239619844878,"city_fetched":"Cheadle,UK","state":"Stockport","country":"United Kingdom","canonicalUrl":"https://foursquare.com/v/the-arden-arms/4b8672e5f964a520948a31e3","categoryId":"4bf58dd8d48988d11b941735","category":"Pub","checkinsCount":385,"usersCount":127,"tipCount":8,"visitsCount":412,"tier":"","message":"","currency":"","rating":8.4},{"name":"The Salisbury Ale House","phone":"+441612365590","twitter":"thesalisbury1","address":"2 Wakefield St","lat":53.473982861006924,"lng":-2.2408472579282304,"neighborhood":"City Centre","city_fetched":"Cheadle,UK","state":"Greater Manchester","country":"United Kingdom","canonicalUrl":"https://foursquare.com/v/the-salisbury-ale-house/4b315ebff964a5209d0525e3","categoryId":"4bf58dd8d48988d11b941735","category":"Pub","checkinsCount":1704,"usersCount":713,"tipCount":23,"visitsCount":1721,"tier":2,"message":"Moderate","currency":"£","rating":8.3},{"name":"Revolución de Cuba","phone":"+441618268266","twitter":"cubanmotweeto","address":"11 Peter St","lat":53.47811490855309,"lng":-2.2489537230933183,"neighborhood":"City Centre","city_fetched":"Cheadle,UK","country":"United Kingdom","canonicalUrl":"https://foursquare.com/v/revoluci%C3%B3n-de-cuba/5074993ae4b035a218d4e079","categoryId":"4bf58dd8d48988d11e941735","category":"Cocktail Bar","checkinsCount":2233,"usersCount":1417,"tipCount":39,"visitsCount":2425,"url":"http://www.revoluciondecuba.com","tier":1,"message":"Cheap","currency":"£","rating":8.3},{"name":"The Alchemist","phone":"+441612283856","address":"1 New York St","lat":53.4802306366163,"lng":-2.239497832375778,"neighborhood":"City Centre","city_fetched":"Cheadle,UK","country":"United Kingdom","canonicalUrl":"https://foursquare.com/v/the-alchemist/501c0fe9e4b0a704df5ce239","categoryId":"4bf58dd8d48988d11e941735","category":"Cocktail Bar","checkinsCount":1544,"usersCount":1187,"tipCount":42,"visitsCount":1803,"url":"http://thealchemist.uk.com","tier":3,"message":"Expensive","currency":"£","rating":8.3},{"name":"Sinclair's Oyster Bar","phone":"+441618340430","address":"2 Cathedral Gates","lat":53.484372763446615,"lng":-2.2439638000359783,"neighborhood":"City Centre","city_fetched":"Cheadle,UK","state":"Greater Manchester","country":"United Kingdom","canonicalUrl":"https://foursquare.com/v/sinclairs-oyster-bar/4ade0de5f964a520a86d21e3","categoryId":"4bf58dd8d48988d11b941735","category":"Pub","checkinsCount":4869,"usersCount":2013,"tipCount":51,"visitsCount":4938,"tier":1,"message":"Cheap","currency":"£","rating":8.3},{"name":"The Smithfield Hotel and Tavern","phone":"+441618394424","address":"37 Swan St.","lat":53.48556530986536,"lng":-2.2346807610823385,"neighborhood":"Northern Quarter","city_fetched":"Cheadle,UK","country":"United Kingdom","canonicalUrl":"https://foursquare.com/v/the-smithfield-hotel-and-tavern/4b819956f964a520c3b130e3","categoryId":"4bf58dd8d48988d11b941735","category":"Pub","checkinsCount":580,"usersCount":292,"tipCount":13,"visitsCount":726,"tier":"","message":"","currency":"","rating":8.3},{"name":"The Fletcher's Arms","phone":"+441613365555","twitter":"fletchersarms","address":"445 Stockport Rd","lat":53.444366,"lng":-2.115369,"city_fetched":"Cheadle,UK","state":"Tameside","country":"United Kingdom","canonicalUrl":"https://foursquare.com/v/the-fletchers-arms/4c191bd7838020a11d37e561","categoryId":"4bf58dd8d48988d11b941735","category":"Pub","checkinsCount":173,"usersCount":97,"tipCount":3,"visitsCount":213,"url":"http://almond-pubs.co.uk/fletchers-arms","tier":"","message":"","currency":"","rating":8.3},{"name":"Crown & Kettle","phone":"+441612362923","twitter":"crownkettle","address":"2 Oldham Rd.","lat":53.484575574828774,"lng":-2.232376516906337,"city_fetched":"Cheadle,UK","country":"United Kingdom","canonicalUrl":"https://foursquare.com/v/crown--kettle/4c0819ba340720a147998293","categoryId":"4bf58dd8d48988d11b941735","category":"Pub","checkinsCount":867,"usersCount":475,"tipCount":17,"visitsCount":1027,"tier":"","message":"","currency":"","rating":8.3},{"name":"360 Threesixty","phone":"+441612255626","address":"108 Wilmslow Road, Manchester M14 5AJ","lat":53.455148479257176,"lng":-2.2251763385765195,"neighborhood":"Rusholme","city_fetched":"Cheadle,UK","country":"United Kingdom","canonicalUrl":"https://foursquare.com/v/360-threesixty/538519dc498eafe68b0d0292","categoryId":"4bf58dd8d48988d119941735","category":"Hookah Bar","checkinsCount":1463,"usersCount":899,"tipCount":13,"visitsCount":2425,"tier":"","message":"","currency":"","rating":8.2},{"name":"COMMON","phone":"+441618329245","twitter":"common_bar","address":"39-41 Edge St","lat":53.4842535346132,"lng":-2.2361361980438232,"neighborhood":"Northern Quarter","city_fetched":"Cheadle,UK","country":"United Kingdom","canonicalUrl":"https://foursquare.com/v/common/4af1cfdbf964a52065e321e3","categoryId":"4bf58dd8d48988d116941735","category":"Bar","checkinsCount":8201,"usersCount":2026,"tipCount":94,"visitsCount":8360,"url":"http://www.aplacecalledcommon.co.uk","tier":2,"message":"Moderate","currency":"£","rating":8.2},{"name":"Piccadilly Tap","phone":"+441612410553","twitter":"piccadillytap","address":"Unit 8","lat":53.478253386411836,"lng":-2.2325737954508376,"neighborhood":"City Centre","city_fetched":"Cheadle,UK","state":"Greater Manchester","country":"United Kingdom","canonicalUrl":"https://foursquare.com/v/piccadilly-tap/550c4610498e65aa7f56686b","categoryId":"4bf58dd8d48988d116941735","category":"Bar","checkinsCount":768,"usersCount":331,"tipCount":17,"visitsCount":806,"url":"http://www.piccadillytap.com","tier":1,"message":"Cheap","currency":"£","rating":8.2},{"name":"Bar Fringe","phone":"+441618353815","address":"8 Swan St","lat":53.48514962385244,"lng":-2.233620487556592,"city_fetched":"Cheadle,UK","country":"United Kingdom","canonicalUrl":"https://foursquare.com/v/bar-fringe/4ade0de5f964a520a96d21e3","categoryId":"4bf58dd8d48988d116941735","category":"Bar","checkinsCount":1331,"usersCount":537,"tipCount":27,"visitsCount":1410,"tier":"","message":"","currency":"","rating":8.2},{"name":"The Deaf Institute","phone":"+441612769350","twitter":"deafinstitute","address":"135 Grosvenor St.","lat":53.47024444929294,"lng":-2.236543893814087,"city_fetched":"Cheadle,UK","country":"United Kingdom","canonicalUrl":"https://foursquare.com/v/the-deaf-institute/4ade0df5f964a520016e21e3","categoryId":"4bf58dd8d48988d116941735","category":"Bar","checkinsCount":2738,"usersCount":1490,"tipCount":52,"visitsCount":2821,"url":"http://thedeafinstitute.co.uk","tier":2,"message":"Moderate","currency":"£","rating":8.2},{"name":"Cottonopolis","phone":"+441612365144","twitter":"cottonopolisnq","address":"16 Newton St","lat":53.48131765783703,"lng":-2.2334111903691065,"neighborhood":"City Centre","city_fetched":"Cheadle,UK","state":"Greater Manchester","country":"United Kingdom","canonicalUrl":"https://foursquare.com/v/cottonopolis/5644e264498e304c86a6c3dd","categoryId":"4bf58dd8d48988d11e941735","category":"Cocktail Bar","checkinsCount":244,"usersCount":227,"tipCount":7,"visitsCount":351,"url":"http://www.cottonopolis-nq.com","tier":3,"message":"Expensive","currency":"£","rating":8.2},{"name":"The Gaslamp","phone":"+441614781224","twitter":"the_gaslamp","address":"50A Bridge St.","lat":53.48114115894202,"lng":-2.24945604801178,"neighborhood":"City Centre","city_fetched":"Cheadle,UK","country":"United Kingdom","canonicalUrl":"https://foursquare.com/v/the-gaslamp/4d13d7bfb15cb1f746819b21","categoryId":"4bf58dd8d48988d116941735","category":"Bar","checkinsCount":837,"usersCount":514,"tipCount":17,"visitsCount":947,"tier":"","message":"","currency":"","rating":8.2},{"name":"The Crown Inn","twitter":"thecrowninn154","address":"154 Heaton Ln","lat":53.40992516627227,"lng":-2.166506052017212,"city_fetched":"Cheadle,UK","country":"United Kingdom","canonicalUrl":"https://foursquare.com/v/the-crown-inn/4ade0de7f964a520b46d21e3","categoryId":"4bf58dd8d48988d11b941735","category":"Pub","checkinsCount":310,"usersCount":139,"tipCount":10,"visitsCount":336,"url":"http://thecrowninn.uk.com","tier":"","message":"","currency":"","rating":8.2},{"name":"The Bulls Head","address":"Mill Ln","lat":53.31288456916809,"lng":-2.317057,"city_fetched":"Cheadle,UK","state":"Cheshire","country":"United Kingdom","canonicalUrl":"https://foursquare.com/v/the-bulls-head/4cc1a22f67a3b1f7eebac90e","categoryId":"4bf58dd8d48988d11b941735","category":"Pub","checkinsCount":151,"usersCount":150,"tipCount":7,"visitsCount":239,"url":"http://www.thebullsheadpub.co.uk","tier":"","message":"","currency":"","rating":8.2},{"name":"Albert's Schloss","phone":"+441612743103","twitter":"albertsschloss","address":"27 Peter St","lat":53.478189777462134,"lng":-2.247951328754425,"city_fetched":"Cheadle,UK","state":"Greater Manchester","country":"United Kingdom","canonicalUrl":"https://foursquare.com/v/alberts-schloss/56217828498e997b011b0f33","categoryId":"4bf58dd8d48988d116941735","category":"Bar","checkinsCount":598,"usersCount":418,"tipCount":14,"visitsCount":636,"url":"http://albertsschloss.co.uk","tier":"","message":"","currency":"","rating":8.1},{"name":"Mort Subite","phone":"+447512969619","address":"28-32 Greenwood St.","lat":53.38691132379052,"lng":-2.352082781307193,"city_fetched":"Cheadle,UK","state":"Greater Manchester","country":"United Kingdom","canonicalUrl":"https://foursquare.com/v/mort-subite/4b8eecc2f964a520133f33e3","categoryId":"4bf58dd8d48988d116941735","category":"Bar","checkinsCount":134,"usersCount":93,"tipCount":6,"visitsCount":134,"url":"http://www.mortsubite.eu","tier":"","message":"","currency":"","rating":8.1},{"name":"The Lounge @ Manchester House - Floor 12","lat":53.480986,"lng":-2.250721,"neighborhood":"City Centre","city_fetched":"Cheadle,UK","country":"United Kingdom","canonicalUrl":"https://foursquare.com/v/the-lounge--manchester-house--floor-12/52e04cad498edf0e7999cc1e","categoryId":"4bf58dd8d48988d121941735","category":"Lounge","checkinsCount":250,"usersCount":190,"tipCount":5,"visitsCount":253,"tier":"","message":"","currency":"","rating":8.1},{"name":"The Church Inn","phone":"+441614851897","twitter":"thechurchinn1","address":"90 Ravenoak Rd","lat":53.36761243181056,"lng":-2.1843247788206392,"neighborhood":"Cheadle Hulme South","city_fetched":"Cheadle,UK","country":"United Kingdom","canonicalUrl":"https://foursquare.com/v/the-church-inn/4bb21f6df964a520deba3ce3","categoryId":"4bf58dd8d48988d11b941735","category":"Pub","checkinsCount":173,"usersCount":90,"tipCount":3,"visitsCount":249,"url":"http://churchinn.robinsonsbrewery.com","tier":"","message":"","currency":"","rating":8},{"name":"Proof","phone":"+441618629333","twitter":"proofchorlton","address":"30A Manchester Rd","lat":53.444018415535815,"lng":-2.27796161353916,"neighborhood":"Chorlton","city_fetched":"Cheadle,UK","country":"United Kingdom","canonicalUrl":"https://foursquare.com/proofchorlton","categoryId":"4bf58dd8d48988d11e941735","category":"Cocktail Bar","checkinsCount":355,"usersCount":130,"tipCount":2,"visitsCount":361,"url":"http://www.proofbars.co.uk","tier":"","message":"","currency":"","rating":7.9},{"name":"Microbar","phone":"+441612779666","address":"Food Hall, Arndale Market, 58 High St.","lat":53.4835503090465,"lng":-2.2386403693598003,"neighborhood":"Northern Quarter","city_fetched":"Cheadle,UK","country":"United Kingdom","canonicalUrl":"https://foursquare.com/v/microbar/4cd82e597bb06dcbec0da1b2","categoryId":"4bf58dd8d48988d116941735","category":"Bar","checkinsCount":429,"usersCount":177,"tipCount":9,"visitsCount":432,"url":"http://www.boggart-brewery.co.uk","tier":"","message":"","currency":"","rating":7.9},{"name":"Abel Heywood","phone":"+441618191441","twitter":"abelheywoodnq","address":"38 Turner Street","lat":53.483471540318654,"lng":-2.237230655843824,"neighborhood":"Northern Quarter","city_fetched":"Cheadle,UK","state":"Greater Manchester","country":"United Kingdom","canonicalUrl":"https://foursquare.com/v/abel-heywood/5489e1ac498e66fce869d16a","categoryId":"4bf58dd8d48988d11b941735","category":"Pub","checkinsCount":506,"usersCount":329,"tipCount":6,"visitsCount":590,"url":"http://www.abelheywood.co.uk","tier":2,"message":"Moderate","currency":"£","rating":7.9},{"name":"Expo Lounge Cafe Bar","phone":"+441614482141","twitter":"expo_lounge","address":"766 Wilmslow Rd","lat":53.415964,"lng":-2.232017,"city_fetched":"Cheadle,UK","state":"Greater Manchester","country":"United Kingdom","canonicalUrl":"https://foursquare.com/v/expo-lounge-cafe-bar/51eab61e498e20ce6b25e251","categoryId":"4bf58dd8d48988d116941735","category":"Bar","checkinsCount":281,"usersCount":140,"tipCount":11,"visitsCount":299,"url":"http://www.thelounges.co.uk","tier":"","message":"","currency":"","rating":7.9},{"name":"Cloud 23","phone":"+441618701600","twitter":"hiltonhotels","address":"Beetham Tower","lat":53.475562384064375,"lng":-2.250409669203915,"neighborhood":"City Centre","city_fetched":"Cheadle,UK","country":"United Kingdom","canonicalUrl":"https://foursquare.com/v/cloud-23/50ca02c4245f2d4aa8c2c346","categoryId":"4bf58dd8d48988d11e941735","category":"Cocktail Bar","checkinsCount":2697,"usersCount":2084,"tipCount":49,"visitsCount":2723,"url":"http://www.cloud23bar.com","tier":3,"message":"Expensive","currency":"£","rating":7.9},{"name":"The Blue Bell Inn","address":"170 Barlow Road","lat":53.44514450527958,"lng":-2.1842835992260983,"city_fetched":"Cheadle,UK","state":"Greater Manchester","country":"United Kingdom","canonicalUrl":"https://foursquare.com/v/the-blue-bell-inn/4c232f9d502b9521e5246e21","categoryId":"4bf58dd8d48988d11b941735","category":"Pub","checkinsCount":231,"usersCount":76,"tipCount":6,"visitsCount":278,"tier":"","message":"","currency":"","rating":7.8},{"name":"Dukes 92","phone":"+441618398642","twitter":"dukes_92","address":"18-25 Castle St","lat":53.474424,"lng":-2.255252,"neighborhood":"City Centre","city_fetched":"Cheadle,UK","country":"United Kingdom","canonicalUrl":"https://foursquare.com/v/dukes-92/4ade0ddcf964a520756d21e3","categoryId":"4bf58dd8d48988d116941735","category":"Bar","checkinsCount":2698,"usersCount":1765,"tipCount":38,"visitsCount":3044,"url":"http://www.dukes92.com","tier":2,"message":"Moderate","currency":"£","rating":7.8},{"name":"Fletcher Moss","phone":"+441614341877","twitter":"thefletchermoss","address":"1 William St.","lat":53.41679636836053,"lng":-2.2295916080474854,"neighborhood":"Didsbury East","city_fetched":"Cheadle,UK","country":"United Kingdom","canonicalUrl":"https://foursquare.com/v/fletcher-moss/4ade0df3f964a520f96d21e3","categoryId":"4bf58dd8d48988d11b941735","category":"Pub","checkinsCount":517,"usersCount":287,"tipCount":4,"visitsCount":636,"url":"http://www.hydesbrewery.co.uk","tier":"","message":"","currency":"","rating":7.8},{"name":"The Greyhound","address":"Cow Ln.","lat":53.354649828682476,"lng":-2.339315414428711,"city_fetched":"Cheadle,UK","state":"Cheshire","country":"United Kingdom","canonicalUrl":"https://foursquare.com/v/the-greyhound/4dd7d3f82271c5d36d445a26","categoryId":"4bf58dd8d48988d11b941735","category":"Pub","checkinsCount":77,"usersCount":86,"tipCount":1,"visitsCount":148,"tier":"","message":"","currency":"","rating":7.7},{"name":"The Old Wellington","phone":"+441618395179","twitter":"oldwellington","address":"4 Cathedral Gates","lat":53.4843939851562,"lng":-2.2440648078918457,"neighborhood":"City Centre","city_fetched":"Cheadle,UK","country":"United Kingdom","canonicalUrl":"https://foursquare.com/v/the-old-wellington/4ade0de5f964a520a76d21e3","categoryId":"4bf58dd8d48988d11b941735","category":"Pub","checkinsCount":2058,"usersCount":1445,"tipCount":30,"visitsCount":2096,"tier":2,"message":"Moderate","currency":"£","rating":7.7},{"name":"Reflexion Lounge","address":"M50 3SD","lat":53.47421646118164,"lng":-2.2874886989593506,"neighborhood":"Salford Quays","city_fetched":"Cheadle,UK","country":"United Kingdom","canonicalUrl":"https://foursquare.com/v/reflexion-lounge/5468ffb6498e343fe522b1ef","categoryId":"4bf58dd8d48988d119941735","category":"Hookah Bar","checkinsCount":213,"usersCount":223,"tipCount":3,"visitsCount":480,"tier":"","message":"","currency":"","rating":7.7},{"name":"Belgian Bar","phone":"+441619416800","address":"40 Greenwood St.","lat":53.387058,"lng":-2.35207736492157,"neighborhood":"Altrincham","city_fetched":"Cheadle,UK","state":"Warrington","country":"United Kingdom","canonicalUrl":"https://foursquare.com/v/belgian-bar/4c65b292e75ac9280588f5da","categoryId":"4bf58dd8d48988d116941735","category":"Bar","checkinsCount":303,"usersCount":148,"tipCount":2,"visitsCount":305,"url":"http://www.belgianbaraltrincham.co.uk","tier":"","message":"","currency":"","rating":7.7},{"name":"The House Restaurant and Wine Bar","phone":"+441612330664","twitter":"houserestandbar","address":"11 Goose Green","lat":53.3853664,"lng":-2.3501893,"neighborhood":"Altrincham","city_fetched":"Cheadle,UK","state":"Trafford","country":"United Kingdom","canonicalUrl":"https://foursquare.com/v/the-house-restaurant-and-wine-bar/4b8eba37f964a520763333e3","categoryId":"4bf58dd8d48988d123941735","category":"Wine Bar","checkinsCount":159,"usersCount":85,"tipCount":4,"visitsCount":163,"tier":"","message":"","currency":"","rating":7.7},{"name":"On The 7th","phone":"+441616865500","twitter":"membersonthe7th","address":"7th Floor, The Landing","lat":53.47294390900213,"lng":-2.3003108951869593,"neighborhood":"Salford Quays","city_fetched":"Cheadle,UK","country":"United Kingdom","canonicalUrl":"https://foursquare.com/v/on-the-7th/507d7362e4b01637556eb2a9","categoryId":"4bf58dd8d48988d121941735","category":"Lounge","checkinsCount":557,"usersCount":220,"tipCount":6,"visitsCount":577,"url":"http://www.onthe7th.co.uk","tier":"","message":"","currency":"","rating":7.6},{"name":"The Liar's Club","twitter":"theliarsclubmcr","address":"19A Back Bridge St.","lat":53.48131216196735,"lng":-2.249741248814138,"neighborhood":"City Centre","city_fetched":"Cheadle,UK","country":"United Kingdom","canonicalUrl":"https://foursquare.com/v/the-liars-club/4e8de2e77ee6bb6ad45c6151","categoryId":"4bf58dd8d48988d116941735","category":"Bar","checkinsCount":827,"usersCount":469,"tipCount":18,"visitsCount":843,"url":"http://www.theliarsclub.co.uk","tier":"","message":"","currency":"","rating":7.6},{"name":"Cruz 101","phone":"+441619500101","twitter":"cruz101official","address":"101 Princess St","lat":53.47719210343853,"lng":-2.239311933517456,"neighborhood":"City Centre","city_fetched":"Cheadle,UK","state":"Greater Manchester","country":"United Kingdom","canonicalUrl":"https://foursquare.com/v/cruz-101/4ade0dfaf964a520206e21e3","categoryId":"4bf58dd8d48988d1d8941735","category":"Gay Bar","checkinsCount":1380,"usersCount":468,"tipCount":8,"visitsCount":1392,"url":"http://www.cruz101.com","tier":"","message":"","currency":"","rating":7.5},{"name":"The Fitzgerald","address":"11 Stevensen Square","lat":53.482343,"lng":-2.233518,"neighborhood":"Northern Quarter","city_fetched":"Cheadle,UK","state":"Greater Manchester","country":"United Kingdom","canonicalUrl":"https://foursquare.com/v/the-fitzgerald/5298e2fc11d277dbca08de6e","categoryId":"4bf58dd8d48988d1d4941735","category":"Speakeasy","checkinsCount":183,"usersCount":128,"tipCount":8,"visitsCount":186,"tier":"","message":"","currency":"","rating":7.5},{"name":"The Temple of Convenience","phone":"+441612889834","address":"100 Great Bridgewater Street","lat":53.475565705535516,"lng":-2.24222123312331,"neighborhood":"City Centre","city_fetched":"Cheadle,UK","state":"Greater Manchester","country":"United Kingdom","canonicalUrl":"https://foursquare.com/v/the-temple-of-convenience/4b0c7116f964a520583d23e3","categoryId":"4bf58dd8d48988d118941735","category":"Dive Bar","checkinsCount":762,"usersCount":484,"tipCount":18,"visitsCount":765,"tier":"","message":"","currency":"","rating":7.5},{"name":"The Castle Hotel","phone":"+441612379485","twitter":"thecastlehotel","address":"66 Oldham St","lat":53.48370078662466,"lng":-2.234014682718053,"neighborhood":"Northern Quarter","city_fetched":"Cheadle,UK","state":"Greater Manchester","country":"United Kingdom","canonicalUrl":"https://foursquare.com/v/the-castle-hotel/4b0a8385f964a520ab2423e3","categoryId":"4bf58dd8d48988d11b941735","category":"Pub","checkinsCount":2992,"usersCount":894,"tipCount":26,"visitsCount":3036,"url":"http://thecastlehotel.info","tier":2,"message":"Moderate","currency":"£","rating":7.5},{"name":"Rain Bar","phone":"+441612356600","twitter":"rainbar_mcr","address":"80 Great Bridgewater St","lat":53.474600374972084,"lng":-2.2451516013380535,"neighborhood":"City Centre","city_fetched":"Cheadle,UK","country":"United Kingdom","canonicalUrl":"https://foursquare.com/v/rain-bar/4ade0de2f964a520976d21e3","categoryId":"4bf58dd8d48988d11b941735","category":"Pub","checkinsCount":1543,"usersCount":1134,"tipCount":18,"visitsCount":1832,"url":"http://www.rain-bar.co.uk","tier":"","message":"","currency":"","rating":7.4},{"name":"Executive Lounge Hilton","address":"Hilton Manchester Deansgate","lat":53.4756223345028,"lng":-2.2503149740507578,"neighborhood":"City Centre","city_fetched":"Cheadle,UK","state":"Greater Manchester","country":"United Kingdom","canonicalUrl":"https://foursquare.com/v/executive-lounge-hilton/4e650c58e4cdf1e2c0688bd4","categoryId":"4bf58dd8d48988d1d5941735","category":"Hotel Bar","checkinsCount":436,"usersCount":230,"tipCount":8,"visitsCount":438,"tier":"","message":"","currency":"","rating":7.4},{"name":"Hesketh Tavern","phone":"+441614853216","twitter":"heskethtavern","address":"63 Hulme Hall Rd","lat":53.372247,"lng":-2.191823,"neighborhood":"Cheadle Hulme South","city_fetched":"Cheadle,UK","state":"Cheshire","country":"United Kingdom","canonicalUrl":"https://foursquare.com/v/hesketh-tavern/4b5f3c56f964a52036af29e3","categoryId":"4bf58dd8d48988d11b941735","category":"Pub","checkinsCount":454,"usersCount":157,"tipCount":18,"visitsCount":626,"url":"http://almond-pubs.co.uk/hesketh-tavern","tier":"","message":"","currency":"","rating":7.4},{"name":"The Liquor Store","phone":"+441618346239","twitter":"liquorstoremcr","address":"Blackfriars St","lat":53.48337379753983,"lng":-2.2474870699453984,"neighborhood":"City Centre","city_fetched":"Cheadle,UK","country":"United Kingdom","canonicalUrl":"https://foursquare.com/v/the-liquor-store/50b683b0e4b064fd473191f2","categoryId":"4bf58dd8d48988d11a941735","category":"Other Nightlife","checkinsCount":338,"usersCount":166,"tipCount":3,"visitsCount":418,"url":"http://www.theliquorstore.co.uk","tier":"","message":"","currency":"","rating":7.4},{"name":"The Eagle","phone":"+441612286669","address":"15 Bloom St","lat":53.47779869204033,"lng":-2.236887216567993,"neighborhood":"City Centre","city_fetched":"Cheadle,UK","country":"United Kingdom","canonicalUrl":"https://foursquare.com/v/the-eagle/4bdc75f33904a5932e484e9e","categoryId":"4bf58dd8d48988d1d8941735","category":"Gay Bar","checkinsCount":1656,"usersCount":543,"tipCount":9,"visitsCount":1706,"url":"http://www.eaglemanchester.com","tier":"","message":"","currency":"","rating":7.4},{"name":"Black Eagle","address":"The Eagle, 15 Bloom Street","lat":53.47780507713738,"lng":-2.237042784690857,"neighborhood":"City Centre","city_fetched":"Cheadle,UK","country":"United Kingdom","canonicalUrl":"https://foursquare.com/v/black-eagle/4c82d5c651ada1cdbdbd2010","categoryId":"4bf58dd8d48988d1d8941735","category":"Gay Bar","checkinsCount":419,"usersCount":94,"tipCount":2,"visitsCount":419,"tier":"","message":"","currency":"","rating":7.4},{"name":"Whiskey Jar","phone":"+441612375686","twitter":"whiskeyjarnq","address":"14 Tariff St.","lat":53.48134799296875,"lng":-2.2319443655340567,"neighborhood":"City Centre","city_fetched":"Cheadle,UK","country":"United Kingdom","canonicalUrl":"https://foursquare.com/v/whiskey-jar/50e20bb5e4b0fe644419da00","categoryId":"4bf58dd8d48988d122941735","category":"Whisky Bar","checkinsCount":810,"usersCount":476,"tipCount":20,"visitsCount":835,"url":"http://www.thewhiskeyjar.com","tier":"","message":"","currency":"","rating":7.4},{"name":"The Airport Hotel (Robinsons)","phone":"+441614988536","address":"Manchester Airport","lat":53.36373064383548,"lng":-2.2580240882212137,"city_fetched":"Cheadle,UK","country":"United Kingdom","canonicalUrl":"https://foursquare.com/v/the-airport-hotel-robinsons/4c59af66b05c1b8d0c62d6b1","categoryId":"4bf58dd8d48988d11b941735","category":"Pub","checkinsCount":442,"usersCount":343,"tipCount":12,"visitsCount":552,"url":"http://www.airporthotel.robinsonsbrewery.com","tier":"","message":"","currency":"","rating":7.4},{"name":"Atlas Bar","phone":"+441618342124","address":"376 Deansgate","lat":53.4743564204877,"lng":-2.2518100027153243,"neighborhood":"City Centre","city_fetched":"Cheadle,UK","country":"United Kingdom","canonicalUrl":"https://foursquare.com/v/atlas-bar/4ade0ddbf964a520746d21e3","categoryId":"4bf58dd8d48988d116941735","category":"Bar","checkinsCount":917,"usersCount":608,"tipCount":15,"visitsCount":967,"tier":"","message":"","currency":"","rating":7.3},{"name":"Ye Olde Cock Inn","phone":"+441614454405","twitter":"oldcockdidsbury","address":"848 Wilmslow Rd","lat":53.41065200128683,"lng":-2.2305930890161236,"neighborhood":"Didsbury East","city_fetched":"Cheadle,UK","country":"United Kingdom","canonicalUrl":"https://foursquare.com/oldcockdidsbury","categoryId":"4bf58dd8d48988d11b941735","category":"Pub","checkinsCount":584,"usersCount":316,"tipCount":4,"visitsCount":755,"url":"http://www.yeoldecock.com","tier":"","message":"","currency":"","rating":7.3},{"name":"Puss In Boots","phone":"+441614565200","twitter":"pussinbootspub","address":"147 Nangreave Rd","lat":53.396905,"lng":-2.138642,"city_fetched":"Cheadle,UK","state":"Cheshire","country":"United Kingdom","canonicalUrl":"https://foursquare.com/v/puss-in-boots/4d665331838654811bf8f653","categoryId":"4bf58dd8d48988d11b941735","category":"Pub","checkinsCount":219,"usersCount":143,"tipCount":4,"visitsCount":315,"url":"http://almond-pubs.co.uk/puss-in-boots","tier":"","message":"","currency":"","rating":7.3},{"name":"The Ring O'Bells","phone":"+441614272300","address":"130 Church Lane","lat":53.39157549876503,"lng":-2.061141634846495,"neighborhood":"Marple South","city_fetched":"Cheadle,UK","state":"Cheshire","country":"United Kingdom","canonicalUrl":"https://foursquare.com/v/the-ring-obells/4bc9b712511f9521b115aec7","categoryId":"4bf58dd8d48988d11b941735","category":"Pub","checkinsCount":102,"usersCount":57,"tipCount":2,"visitsCount":107,"tier":"","message":"","currency":"","rating":7.3},{"name":"42nd Street","phone":"+441618317108","address":"Bootle Street","lat":53.4783024654171,"lng":-2.249002118949694,"neighborhood":"City Centre","city_fetched":"Cheadle,UK","state":"Greater Manchester","country":"United Kingdom","canonicalUrl":"https://foursquare.com/v/42nd-street/4bd77fe90b779c74cc6005a0","categoryId":"4bf58dd8d48988d11f941735","category":"Nightclub","checkinsCount":518,"usersCount":334,"tipCount":2,"visitsCount":518,"tier":"","message":"","currency":"","rating":7.3},{"name":"Morley Cheeks","lat":53.4421357159422,"lng":-2.2771525382995605,"neighborhood":"Chorlton","city_fetched":"Cheadle,UK","state":"Cheshire","country":"United Kingdom","canonicalUrl":"https://foursquare.com/v/morley-cheeks/508b2099e4b0101d99d4aad5","categoryId":"4bf58dd8d48988d116941735","category":"Bar","checkinsCount":171,"usersCount":93,"tipCount":6,"visitsCount":175,"tier":"","message":"","currency":"","rating":7.3},{"name":"No1 Watson Street","address":"Great Northern Tower","lat":53.477792345844605,"lng":-2.248119362971426,"neighborhood":"City Centre","city_fetched":"Cheadle,UK","country":"United Kingdom","canonicalUrl":"https://foursquare.com/v/no1-watson-street/4afb2897f964a5209e1b22e3","categoryId":"4bf58dd8d48988d116941735","category":"Bar","checkinsCount":1221,"usersCount":674,"tipCount":2,"visitsCount":1234,"url":"http://onewatsonstreet.co.uk","tier":"","message":"","currency":"","rating":7.3},{"name":"Folk","phone":"+441614452912","twitter":"folkdidsbury","address":"169-171 Burton Rd","lat":53.42636432232302,"lng":-2.2428376972675323,"city_fetched":"Cheadle,UK","country":"United Kingdom","canonicalUrl":"https://foursquare.com/v/folk/4ade0df6f964a520086e21e3","categoryId":"4bf58dd8d48988d116941735","category":"Bar","checkinsCount":748,"usersCount":357,"tipCount":10,"visitsCount":771,"url":"http://www.folkcafebar.co.uk","tier":"","message":"","currency":"","rating":7.3},{"name":"The Windmill","twitter":"windmilltweet","address":"Holehouse Lane","lat":53.30669403076172,"lng":-2.114666,"city_fetched":"Cheadle,UK","state":"Cheshire","country":"United Kingdom","canonicalUrl":"https://foursquare.com/v/the-windmill/4c6c0b18a437224bda3529b1","categoryId":"4bf58dd8d48988d11b941735","category":"Pub","checkinsCount":153,"usersCount":116,"tipCount":6,"visitsCount":197,"tier":"","message":"","currency":"","rating":7.3},{"name":"The Green","phone":"+441612280681","address":"26 Ducie St.","lat":53.479662,"lng":-2.230087,"neighborhood":"City Centre","city_fetched":"Cheadle,UK","country":"United Kingdom","canonicalUrl":"https://foursquare.com/v/the-green/4d9cacceef8f370414ff09ae","categoryId":"4bf58dd8d48988d116941735","category":"Bar","checkinsCount":300,"usersCount":188,"tipCount":1,"visitsCount":310,"url":"http://www.thegreenmanchester.com","tier":"","message":"","currency":"","rating":7.2},{"name":"The Lodge","phone":"+441612379667","twitter":"lodgebarmcr","address":"Richmond Street","lat":53.47785885445069,"lng":-2.237038008687365,"neighborhood":"City Centre","city_fetched":"Cheadle,UK","state":"Lancashire","country":"United Kingdom","canonicalUrl":"https://foursquare.com/v/the-lodge/4e5ba401b61c4aaa3e18f57f","categoryId":"4bf58dd8d48988d1d8941735","category":"Gay Bar","checkinsCount":171,"usersCount":65,"tipCount":2,"visitsCount":171,"url":"http://www.richmondtearooms.com","tier":"","message":"","currency":"","rating":7.2},{"name":"Velvet","phone":"+441612369003","address":"2 Canal St.","lat":53.47795512664161,"lng":-2.235165238380432,"neighborhood":"City Centre","city_fetched":"Cheadle,UK","state":"Lancashire","country":"United Kingdom","canonicalUrl":"https://foursquare.com/v/velvet/4ade0df4f964a520fb6d21e3","categoryId":"4bf58dd8d48988d1d8941735","category":"Gay Bar","checkinsCount":2436,"usersCount":1076,"tipCount":25,"visitsCount":2556,"url":"http://www.velvetmanchester.com","tier":"","message":"","currency":"","rating":7.2},{"name":"Sankeys","phone":"+441612365444","twitter":"sankeysclub","address":"Radium St","lat":53.484880360615726,"lng":-2.225996290782351,"city_fetched":"Cheadle,UK","country":"United Kingdom","canonicalUrl":"https://foursquare.com/v/sankeys/4ade0df5f964a520006e21e3","categoryId":"4bf58dd8d48988d11f941735","category":"Nightclub","checkinsCount":506,"usersCount":366,"tipCount":13,"visitsCount":543,"url":"http://www.sankeys.info","tier":"","message":"","currency":"","rating":7.2},{"name":"The Footage","phone":"+441612759819","twitter":"footagepub","address":"137 Grosvenor St","lat":53.470193,"lng":-2.236836,"city_fetched":"Cheadle,UK","country":"United Kingdom","canonicalUrl":"https://foursquare.com/v/the-footage/4c595047aeb7b713364b73cd","categoryId":"4bf58dd8d48988d11d941735","category":"Sports Bar","checkinsCount":2226,"usersCount":1133,"tipCount":29,"visitsCount":2429,"url":"http://www.thefootagemanchester.co.uk","tier":2,"message":"Moderate","currency":"£","rating":7.2},{"name":"Micker Brook","address":"Councillor Ln","lat":53.38734,"lng":-2.186262,"city_fetched":"Cheadle,UK","state":"Cheshire","country":"United Kingdom","canonicalUrl":"https://foursquare.com/v/micker-brook/4b6dcabdf964a52044902ce3","categoryId":"4bf58dd8d48988d11b941735","category":"Pub","checkinsCount":129,"usersCount":71,"tipCount":5,"visitsCount":132,"tier":"","message":"","currency":"","rating":7.1},{"name":"South","phone":"+441618317756","address":"4A S King St.","lat":53.48095440914056,"lng":-2.247253954410553,"neighborhood":"City Centre","city_fetched":"Cheadle,UK","country":"United Kingdom","canonicalUrl":"https://foursquare.com/v/south/4bc8e348cc8cd13ac881bacf","categoryId":"4bf58dd8d48988d11f941735","category":"Nightclub","checkinsCount":251,"usersCount":168,"tipCount":3,"visitsCount":254,"tier":"","message":"","currency":"","rating":7.1},{"name":"Bar Pop","address":"10","lat":53.47726312517566,"lng":-2.23635334400844,"neighborhood":"City Centre","city_fetched":"Cheadle,UK","state":"Greater Manchester","country":"United Kingdom","canonicalUrl":"https://foursquare.com/v/bar-pop/5251d592498ef680f371cb64","categoryId":"4bf58dd8d48988d1d8941735","category":"Gay Bar","checkinsCount":450,"usersCount":255,"tipCount":3,"visitsCount":526,"tier":"","message":"","currency":"","rating":7.1},{"name":"Via","phone":"+441612366523","twitter":"tonyviacanalst","address":"28-30 Canal St","lat":53.47716017748243,"lng":-2.2366726398468018,"neighborhood":"City Centre","city_fetched":"Cheadle,UK","state":"Greater Manchester","country":"United Kingdom","canonicalUrl":"https://foursquare.com/v/via/4ade0ddef964a520806d21e3","categoryId":"4bf58dd8d48988d1d8941735","category":"Gay Bar","checkinsCount":2629,"usersCount":1400,"tipCount":18,"visitsCount":2940,"url":"http://www.viamanchester.co.uk","tier":"","message":"","currency":"","rating":7.1},{"name":"Robinson's Brewery Visitor Centre","phone":"+441616124100","address":"Apsley St","lat":53.409890909154505,"lng":-2.154771288803957,"city_fetched":"Cheadle,UK","state":"Stockport","country":"United Kingdom","canonicalUrl":"https://foursquare.com/v/robinsons-brewery-visitor-centre/51a20f97498e25e79f8e09cc","categoryId":"50327c8591d4c4b30a586d5d","category":"Brewery","checkinsCount":105,"usersCount":103,"tipCount":2,"visitsCount":137,"url":"http://www.robinsonsvisitorscentre.co.uk","tier":"","message":"","currency":"","rating":7.1},{"name":"Horse & Jockey","phone":"+441618607794","twitter":"horsejockey","address":"9 The Green","lat":53.43880934978054,"lng":-2.282538414001465,"neighborhood":"Chorlton","city_fetched":"Cheadle,UK","country":"United Kingdom","canonicalUrl":"https://foursquare.com/v/horse--jockey/4af1fad6f964a520efe421e3","categoryId":"4bf58dd8d48988d11b941735","category":"Pub","checkinsCount":1307,"usersCount":611,"tipCount":20,"visitsCount":1495,"url":"http://horseandjockeychorlton.com","tier":"","message":"","currency":"","rating":7.1},{"name":"The Bubble Room","phone":"+441614398949","address":"2-4 Ack La E","lat":53.35754096254208,"lng":-2.166500687599182,"neighborhood":"Bramhall South","city_fetched":"Cheadle,UK","state":"Cheshire","country":"United Kingdom","canonicalUrl":"https://foursquare.com/v/the-bubble-room/4c82171f74d7b60cd4e87cd8","categoryId":"4bf58dd8d48988d116941735","category":"Bar","checkinsCount":201,"usersCount":114,"tipCount":2,"visitsCount":202,"tier":"","message":"","currency":"","rating":7.1},{"name":"Cheshire Line Tavern","phone":"+441614283352","address":"3 Manchester Rd.","lat":53.401633,"lng":-2.217221,"neighborhood":"Cheadle and Gatley","city_fetched":"Cheadle,UK","state":"Stockport","country":"United Kingdom","canonicalUrl":"https://foursquare.com/v/cheshire-line-tavern/4c0b812ea1b32d7f8a1a9bf0","categoryId":"4bf58dd8d48988d11b941735","category":"Pub","checkinsCount":116,"usersCount":65,"tipCount":6,"visitsCount":133,"tier":"","message":"","currency":"","rating":7.1},{"name":"New York New York","phone":"+441612366556","address":"94 Bloom St.","lat":53.47688561326843,"lng":-2.238609194755554,"neighborhood":"City Centre","city_fetched":"Cheadle,UK","country":"United Kingdom","canonicalUrl":"https://foursquare.com/v/new-york-new-york/4b8860b3f964a5205df331e3","categoryId":"4bf58dd8d48988d1d8941735","category":"Gay Bar","checkinsCount":754,"usersCount":445,"tipCount":10,"visitsCount":816,"url":"http://www.newyorknewyorkbar.co.uk","tier":"","message":"","currency":"","rating":6.9},{"name":"Red Lion","phone":"+441614285507","address":"83 Stockport Rd","lat":53.395283,"lng":-2.207981,"neighborhood":"Cheadle and Gatley","city_fetched":"Cheadle,UK","state":"Stockport","country":"United Kingdom","canonicalUrl":"https://foursquare.com/v/red-lion/4c1a8295b4e62d7f0aecd793","categoryId":"4bf58dd8d48988d11b941735","category":"Pub","checkinsCount":138,"usersCount":70,"tipCount":2,"visitsCount":181,"url":"http://www.redlioncheadle.robinsonsbrewery.com","tier":"","message":"","currency":"","rating":6.9},{"name":"Dulcimer","phone":"+441618606444","twitter":"dulcimerbar","address":"567 Wilbraham Rd.","lat":53.44245618841651,"lng":-2.276476757050464,"city_fetched":"Cheadle,UK","country":"United Kingdom","canonicalUrl":"https://foursquare.com/v/dulcimer/4ade0df8f964a520146e21e3","categoryId":"4bf58dd8d48988d11b941735","category":"Pub","checkinsCount":801,"usersCount":433,"tipCount":15,"visitsCount":899,"tier":"","message":"","currency":"","rating":6.9},{"name":"The Red Bull","address":"14 Middle Hillgate","lat":53.40757553508586,"lng":-2.155174701487852,"city_fetched":"Cheadle,UK","country":"United Kingdom","canonicalUrl":"https://foursquare.com/v/the-red-bull/4bacfe73f964a5204b223be3","categoryId":"4bf58dd8d48988d11b941735","category":"Pub","checkinsCount":608,"usersCount":112,"tipCount":5,"visitsCount":689,"tier":"","message":"","currency":"","rating":6.9},{"name":"Habibi Cafe","lat":53.45484161376953,"lng":-2.224924,"neighborhood":"Rusholme","city_fetched":"Cheadle,UK","country":"United Kingdom","canonicalUrl":"https://foursquare.com/v/habibi-cafe/4d7694430dbb6dcb5852ed6f","categoryId":"4bf58dd8d48988d119941735","category":"Hookah Bar","checkinsCount":257,"usersCount":129,"tipCount":11,"visitsCount":258,"tier":"","message":"","currency":"","rating":6.9},{"name":"Jackson's Boat","phone":"+441619052647","address":"Rifle Rd","lat":53.42999529746958,"lng":-2.287103533744812,"neighborhood":"Sale Moor","city_fetched":"Cheadle,UK","country":"United Kingdom","canonicalUrl":"https://foursquare.com/v/jacksons-boat/4bd314adb221c9b661c7d8d0","categoryId":"4bf58dd8d48988d11b941735","category":"Pub","checkinsCount":425,"usersCount":306,"tipCount":6,"visitsCount":573,"tier":"","message":"","currency":"","rating":6.9},{"name":"Alter Ego","address":"105-107 Princess Street","lat":53.476606248026926,"lng":-2.2389681199557905,"neighborhood":"City Centre","city_fetched":"Cheadle,UK","country":"United Kingdom","canonicalUrl":"https://foursquare.com/v/alter-ego/4ade0dfbf964a520236e21e3","categoryId":"4bf58dd8d48988d1d8941735","category":"Gay Bar","checkinsCount":192,"usersCount":114,"tipCount":4,"visitsCount":194,"tier":"","message":"","currency":"","rating":6.9},{"name":"Star & Garter","address":"Travis St","lat":53.476201,"lng":-2.2275855,"neighborhood":"City Centre","city_fetched":"Cheadle,UK","country":"United Kingdom","canonicalUrl":"https://foursquare.com/v/star--garter/4d5d99e5241a721edaabe32e","categoryId":"4bf58dd8d48988d11b941735","category":"Pub","checkinsCount":403,"usersCount":240,"tipCount":1,"visitsCount":405,"tier":"","message":"","currency":"","rating":6.9},{"name":"The Beech","address":"72 Beech Rd","lat":53.438902018646566,"lng":-2.281932234764099,"neighborhood":"Chorlton","city_fetched":"Cheadle,UK","country":"United Kingdom","canonicalUrl":"https://foursquare.com/v/the-beech/4d13c52ee190721ed1bc0121","categoryId":"4bf58dd8d48988d11b941735","category":"Pub","checkinsCount":358,"usersCount":151,"tipCount":6,"visitsCount":391,"tier":"","message":"","currency":"","rating":6.8},{"name":"The Milton Club","lat":53.47795124051959,"lng":-2.2500266045354076,"neighborhood":"City Centre","city_fetched":"Cheadle,UK","country":"United Kingdom","canonicalUrl":"https://foursquare.com/v/the-milton-club/5287cb2311d2d586b92ba7a9","categoryId":"4bf58dd8d48988d121941735","category":"Lounge","checkinsCount":111,"usersCount":73,"tipCount":1,"visitsCount":111,"tier":"","message":"","currency":"","rating":6.8},{"name":"The Sir Ralph Abercromby Inn","phone":"+441612226467","address":"35 Bootle Street","lat":53.478518610016046,"lng":-2.2478647532201657,"neighborhood":"City Centre","city_fetched":"Cheadle,UK","country":"United Kingdom","canonicalUrl":"https://foursquare.com/v/the-sir-ralph-abercromby-inn/4ade0de0f964a5208f6d21e3","categoryId":"4bf58dd8d48988d11b941735","category":"Pub","checkinsCount":215,"usersCount":143,"tipCount":4,"visitsCount":215,"tier":"","message":"","currency":"","rating":6.8},{"name":"Black Dog Ballroom","phone":"+441618390664","twitter":"blackdognq","address":"Tib St","lat":53.4827396716861,"lng":-2.236354798078537,"neighborhood":"Northern Quarter","city_fetched":"Cheadle,UK","country":"United Kingdom","canonicalUrl":"https://foursquare.com/v/black-dog-ballroom/4be9a2396295c9b6b2758508","categoryId":"4bf58dd8d48988d116941735","category":"Bar","checkinsCount":2111,"usersCount":1196,"tipCount":35,"visitsCount":2129,"url":"http://www.blackdogballroom.co.uk/nq/","tier":"","message":"","currency":"","rating":6.8},{"name":"Lime Bar","phone":"+441618690440","twitter":"lime_bar","address":"The Lowry Outlet Mall","lat":53.47077110024874,"lng":-2.294733090740927,"neighborhood":"Salford Quays","city_fetched":"Cheadle,UK","state":"Greater Manchester","country":"United Kingdom","canonicalUrl":"https://foursquare.com/v/lime-bar/4b3e1088f964a520169825e3","categoryId":"4bf58dd8d48988d116941735","category":"Bar","checkinsCount":1517,"usersCount":683,"tipCount":14,"visitsCount":1525,"url":"http://limeuk.com","tier":"","message":"","currency":"","rating":6.7},{"name":"Bluu","phone":"+441618397195","twitter":"bluumanchester","address":"Smithfield Market Buildings","lat":53.484419521568604,"lng":-2.2373485565185547,"neighborhood":"Northern Quarter","city_fetched":"Cheadle,UK","country":"United Kingdom","canonicalUrl":"https://foursquare.com/v/bluu/4afb55e1f964a520121d22e3","categoryId":"4bf58dd8d48988d116941735","category":"Bar","checkinsCount":1813,"usersCount":1197,"tipCount":22,"visitsCount":1833,"url":"http://bluu.co.uk","tier":"","message":"","currency":"","rating":6.7},{"name":"The Woodstock","phone":"+441614487951","twitter":"woodstock_arm","address":"139 Barlow Moor Rd","lat":53.42175803523977,"lng":-2.245352268218994,"city_fetched":"Cheadle,UK","country":"United Kingdom","canonicalUrl":"https://foursquare.com/v/the-woodstock/4ade0debf964a520c86d21e3","categoryId":"4bf58dd8d48988d11b941735","category":"Pub","checkinsCount":1239,"usersCount":627,"tipCount":28,"visitsCount":1671,"url":"http://www.thewoodstockarmsdidsbury.co.uk","tier":"","message":"","currency":"","rating":6.7},{"name":"The Railway","address":"128-130 Ashley Rd.","lat":53.378453,"lng":-2.348479,"city_fetched":"Cheadle,UK","state":"Cheshire","country":"United Kingdom","canonicalUrl":"https://foursquare.com/v/the-railway/4b8300ecf964a5200af230e3","categoryId":"4bf58dd8d48988d11b941735","category":"Pub","checkinsCount":549,"usersCount":170,"tipCount":9,"visitsCount":599,"tier":"","message":"","currency":"","rating":6.6},{"name":"Didsbury Lounge","twitter":"didsburylounge","address":"Barlow Moor Rd","lat":53.41821873930197,"lng":-2.2336453582390106,"city_fetched":"Cheadle,UK","state":"Greater Manchester","country":"United Kingdom","canonicalUrl":"https://foursquare.com/v/didsbury-lounge/514caf61e4b0e880df17982f","categoryId":"4bf58dd8d48988d121941735","category":"Lounge","checkinsCount":147,"usersCount":81,"tipCount":4,"visitsCount":150,"url":"http://www.didsburylounge.co.uk","tier":"","message":"","currency":"","rating":6.6},{"name":"The Beer Studio","phone":"+441612490271","address":"256 Wilmslow Road","lat":53.44294090664139,"lng":-2.2187232971191406,"neighborhood":"Fallowfield","city_fetched":"Cheadle,UK","country":"United Kingdom","canonicalUrl":"https://foursquare.com/v/the-beer-studio/4e4a8d95aeb7de71b397c607","categoryId":"4bf58dd8d48988d11b941735","category":"Pub","checkinsCount":497,"usersCount":155,"tipCount":0,"visitsCount":523,"tier":"","message":"","currency":"","rating":6.6},{"name":"The Griffin","address":"Finney lane","lat":53.37250321931408,"lng":-2.216867665011285,"neighborhood":"Heald Green","city_fetched":"Cheadle,UK","state":"Stockport","country":"United Kingdom","canonicalUrl":"https://foursquare.com/v/the-griffin/4c476841972c0f47a4b42321","categoryId":"4bf58dd8d48988d11b941735","category":"Pub","checkinsCount":147,"usersCount":150,"tipCount":5,"visitsCount":228,"tier":"","message":"","currency":"","rating":6.6},{"name":"Revolution","phone":"+441618397558","twitter":"revolutiondg","address":"Arch 7 Deansgate Locks","lat":53.47441866480444,"lng":-2.2498032223024063,"neighborhood":"City Centre","city_fetched":"Cheadle,UK","country":"United Kingdom","canonicalUrl":"https://foursquare.com/v/revolution/4b8d60c2f964a5201ef832e3","categoryId":"4bf58dd8d48988d11f941735","category":"Nightclub","checkinsCount":2026,"usersCount":1428,"tipCount":33,"visitsCount":2116,"url":"http://www.revolution-bars.co.uk","tier":2,"message":"Moderate","currency":"£","rating":6.6},{"name":"Kro Bar","phone":"+441612743100","twitter":"kromanchester","address":"325 Oxford Rd","lat":53.4649319092475,"lng":-2.232153434688032,"city_fetched":"Cheadle,UK","country":"United Kingdom","canonicalUrl":"https://foursquare.com/v/kro-bar/4ade0de6f964a520b06d21e3","categoryId":"4bf58dd8d48988d116941735","category":"Bar","checkinsCount":1785,"usersCount":909,"tipCount":17,"visitsCount":1868,"url":"http://www.kro.co.uk/kro-bar","tier":2,"message":"Moderate","currency":"£","rating":6.6},{"name":"Old Pint Pot","address":"2 Adelphi Street","lat":53.48383189398888,"lng":-2.265491167880686,"neighborhood":"Irwell Riverside","city_fetched":"Cheadle,UK","state":"Salford","country":"United Kingdom","canonicalUrl":"https://foursquare.com/v/old-pint-pot/4bb262f035f0c9b66234bb83","categoryId":"4bf58dd8d48988d11b941735","category":"Pub","checkinsCount":497,"usersCount":320,"tipCount":8,"visitsCount":628,"tier":"","message":"","currency":"","rating":6.6},{"name":"The King's Arms","phone":"+441618398726","address":"11 Bloom St.","lat":53.48414316653952,"lng":-2.256058039750477,"city_fetched":"Cheadle,UK","country":"United Kingdom","canonicalUrl":"https://foursquare.com/v/the-kings-arms/4bed9aa33372c9286de41114","categoryId":"4bf58dd8d48988d11b941735","category":"Pub","checkinsCount":939,"usersCount":488,"tipCount":14,"visitsCount":1155,"tier":"","message":"","currency":"","rating":6.6},{"name":"The Swan with Two Nicks","phone":"+441619282914","address":"Park Ln.","lat":53.379613,"lng":-2.408327,"city_fetched":"Cheadle,UK","state":"Cheshire","country":"United Kingdom","canonicalUrl":"https://foursquare.com/v/the-swan-with-two-nicks/4bcb1173511f9521cdb1b0c7","categoryId":"4bf58dd8d48988d11b941735","category":"Pub","checkinsCount":281,"usersCount":219,"tipCount":4,"visitsCount":315,"url":"http://www.swanwithtwonicks.co.uk","tier":"","message":"","currency":"","rating":6.6},{"name":"Little B","address":"Marsland Rd.","lat":53.41730790717656,"lng":-2.320432662963867,"neighborhood":"Brooklands","city_fetched":"Cheadle,UK","country":"United Kingdom","canonicalUrl":"https://foursquare.com/v/little-b/4b329f13f964a5203d1025e3","categoryId":"4bf58dd8d48988d11b941735","category":"Pub","checkinsCount":290,"usersCount":136,"tipCount":7,"visitsCount":332,"tier":"","message":"","currency":"","rating":6.6},{"name":"The Paramount (Wetherspoon)","phone":"+441612331820","address":"33-35 Oxford St.","lat":53.47644502977042,"lng":-2.2424983978271484,"neighborhood":"City Centre","city_fetched":"Cheadle,UK","country":"United Kingdom","canonicalUrl":"https://foursquare.com/v/the-paramount-wetherspoon/4b8ebcd1f964a5200b3433e3","categoryId":"4bf58dd8d48988d11b941735","category":"Pub","checkinsCount":3084,"usersCount":1633,"tipCount":18,"visitsCount":3281,"url":"http://www.jdwetherspoon.co.uk","tier":1,"message":"Cheap","currency":"£","rating":6.6},{"name":"G-A-Y","phone":"+441612286201","address":"10 Canal St.","lat":53.47650249744264,"lng":-2.2377777099609375,"neighborhood":"City Centre","city_fetched":"Cheadle,UK","country":"United Kingdom","canonicalUrl":"https://foursquare.com/v/gay/4daf111b1e7207bbeb1dcf02","categoryId":"4bf58dd8d48988d1d8941735","category":"Gay Bar","checkinsCount":4563,"usersCount":1404,"tipCount":29,"visitsCount":4771,"tier":2,"message":"Moderate","currency":"£","rating":6.5},{"name":"Dive NQ","phone":"+441618263080","twitter":"divenq","address":"Tib Street","lat":53.48248723602456,"lng":-2.236892475035634,"neighborhood":"Northern Quarter","city_fetched":"Cheadle,UK","state":"Greater Manchester","country":"United Kingdom","canonicalUrl":"https://foursquare.com/v/dive-nq/566089c9498ef5071410e67d","categoryId":"4bf58dd8d48988d118941735","category":"Dive Bar","checkinsCount":82,"usersCount":56,"tipCount":2,"visitsCount":85,"url":"http://www.divenq.co.uk","tier":"","message":"","currency":"","rating":6.5},{"name":"Cord","address":"8 Dorsey Street","lat":53.48388949828377,"lng":-2.234947029022787,"neighborhood":"Northern Quarter","city_fetched":"Cheadle,UK","country":"United Kingdom","canonicalUrl":"https://foursquare.com/v/cord/4ade0decf964a520d26d21e3","categoryId":"4bf58dd8d48988d116941735","category":"Bar","checkinsCount":642,"usersCount":386,"tipCount":6,"visitsCount":644,"tier":"","message":"","currency":"","rating":6.5},{"name":"Simple Bar & Kitchen","phone":"+441618352526","twitter":"simplenq","address":"Tib Street","lat":53.48302975078352,"lng":-2.2361226847526665,"neighborhood":"Northern Quarter","city_fetched":"Cheadle,UK","state":"Greater Manchester","country":"United Kingdom","canonicalUrl":"https://foursquare.com/simplenq","categoryId":"4bf58dd8d48988d116941735","category":"Bar","checkinsCount":1088,"usersCount":705,"tipCount":34,"visitsCount":1092,"url":"http://www.simplebar.co.uk","tier":"","message":"","currency":"","rating":6.5},{"name":"On Bar","lat":53.476396386956914,"lng":-2.2378023417807804,"neighborhood":"City Centre","city_fetched":"Cheadle,UK","country":"United Kingdom","canonicalUrl":"https://foursquare.com/v/on-bar/5543fc56498e777ecb5b09e0","categoryId":"4bf58dd8d48988d1d8941735","category":"Gay Bar","checkinsCount":263,"usersCount":108,"tipCount":0,"visitsCount":272,"tier":"","message":"","currency":"","rating":6.5},{"name":"Hula","phone":"+441612287421","address":"11 Stevenson Sq.","lat":53.482414866433714,"lng":-2.2332850098609924,"neighborhood":"Northern Quarter","city_fetched":"Cheadle,UK","country":"United Kingdom","canonicalUrl":"https://foursquare.com/v/hula/4aecbc00f964a520c1ca21e3","categoryId":"4bf58dd8d48988d11e941735","category":"Cocktail Bar","checkinsCount":957,"usersCount":635,"tipCount":22,"visitsCount":986,"url":"http://www.hulabar.co.uk","tier":"","message":"","currency":"","rating":6.5},{"name":"The Boddingtons Arms","phone":"+448444889012","address":"Racecourse Rd","lat":53.32989867701462,"lng":-2.2516897131880365,"city_fetched":"Cheadle,UK","state":"Cheshire","country":"United Kingdom","canonicalUrl":"https://foursquare.com/v/the-boddingtons-arms/4f6f5819e4b0d638a2c7206b","categoryId":"4bf58dd8d48988d11b941735","category":"Pub","checkinsCount":84,"usersCount":80,"tipCount":2,"visitsCount":115,"url":"http://www.greatbritishcarvery.co.uk/our-pubs/boddington-arms","tier":"","message":"","currency":"","rating":6.4},{"name":"The Old Nags Head","phone":"+441618324315","address":"19 Jackson's Row","lat":53.47912637612745,"lng":-2.2481965768810044,"neighborhood":"City Centre","city_fetched":"Cheadle,UK","country":"United Kingdom","canonicalUrl":"https://foursquare.com/v/the-old-nags-head/4aec5345f964a52014c621e3","categoryId":"4bf58dd8d48988d11b941735","category":"Pub","checkinsCount":393,"usersCount":313,"tipCount":3,"visitsCount":414,"tier":"","message":"","currency":"","rating":6.4},{"name":"Sawyer's Arms","phone":"+441618342133","twitter":"sawyerspkb","address":"138 Deansgate","lat":53.480758081539854,"lng":-2.2482651472091675,"neighborhood":"City Centre","city_fetched":"Cheadle,UK","country":"United Kingdom","canonicalUrl":"https://foursquare.com/v/sawyers-arms/4ade0de5f964a520ab6d21e3","categoryId":"4bf58dd8d48988d11b941735","category":"Pub","checkinsCount":605,"usersCount":435,"tipCount":11,"visitsCount":610,"tier":"","message":"","currency":"","rating":6.4},{"name":"Opus One Bar and Restaurant","phone":"+441618358904","twitter":"rbehotels","address":"Peter St","lat":53.47791422372914,"lng":-2.2471783747748444,"neighborhood":"City Centre","city_fetched":"Cheadle,UK","country":"United Kingdom","canonicalUrl":"https://foursquare.com/v/opus-one-bar-and-restaurant/4ade0deef964a520dd6d21e3","categoryId":"4bf58dd8d48988d116941735","category":"Bar","checkinsCount":402,"usersCount":295,"tipCount":6,"visitsCount":403,"url":"http://www.radissonblu-edwardian.com/opus-one","tier":"","message":"","currency":"","rating":6.4},{"name":"The March Hare","phone":"+441614828638","address":"Mill Lane","lat":53.38302328780308,"lng":-2.185299162462335,"city_fetched":"Cheadle,UK","state":"Stockport","country":"United Kingdom","canonicalUrl":"https://foursquare.com/v/the-march-hare/4b5f4faaf964a5205fb329e3","categoryId":"4bf58dd8d48988d11b941735","category":"Pub","checkinsCount":343,"usersCount":115,"tipCount":6,"visitsCount":373,"tier":"","message":"","currency":"","rating":6.4},{"name":"The Salutation","phone":"+441612727832","address":"12 Higher Chatham St.","lat":53.468583995906705,"lng":-2.2391724586486816,"city_fetched":"Cheadle,UK","country":"United Kingdom","canonicalUrl":"https://foursquare.com/v/the-salutation/4ade0de2f964a520986d21e3","categoryId":"4bf58dd8d48988d116941735","category":"Bar","checkinsCount":464,"usersCount":243,"tipCount":5,"visitsCount":514,"tier":"","message":"","currency":"","rating":6.4},{"name":"Liquorice","phone":"+441618324600","address":"50 Pall Mall","lat":53.48062247178834,"lng":-2.2436560508122354,"neighborhood":"City Centre","city_fetched":"Cheadle,UK","country":"United Kingdom","canonicalUrl":"https://foursquare.com/v/liquorice/5027e76ce4b004413a6d791a","categoryId":"4bf58dd8d48988d11e941735","category":"Cocktail Bar","checkinsCount":288,"usersCount":145,"tipCount":8,"visitsCount":297,"url":"http://liquoricebar.com","tier":"","message":"","currency":"","rating":6.4},{"name":"Thompsons Arms","phone":"+441612283012","address":"23 Sackville St","lat":53.47760075657405,"lng":-2.2383253330518302,"neighborhood":"City Centre","city_fetched":"Cheadle,UK","country":"United Kingdom","canonicalUrl":"https://foursquare.com/v/thompsons-arms/4b1af534f964a52070f523e3","categoryId":"4bf58dd8d48988d1d8941735","category":"Gay Bar","checkinsCount":1845,"usersCount":611,"tipCount":13,"visitsCount":1993,"tier":"","message":"","currency":"","rating":6.3},{"name":"Rope and Anchor","address":"Paddock Lane","lat":53.392231,"lng":-2.413014,"neighborhood":"Bowdon","city_fetched":"Cheadle,UK","country":"United Kingdom","canonicalUrl":"https://foursquare.com/v/rope-and-anchor/4c6eb674a437224b2da930b1","categoryId":"4bf58dd8d48988d11b941735","category":"Pub","checkinsCount":164,"usersCount":152,"tipCount":5,"visitsCount":230,"tier":"","message":"","currency":"","rating":6.3},{"name":"The Millstone","phone":"+441618390213","address":"67 Thomas St.","lat":53.48351895614229,"lng":-2.2357937089337487,"neighborhood":"Northern Quarter","city_fetched":"Cheadle,UK","country":"United Kingdom","canonicalUrl":"https://foursquare.com/v/the-millstone/4afdfb35f964a520ab2c22e3","categoryId":"4bf58dd8d48988d11b941735","category":"Pub","checkinsCount":325,"usersCount":212,"tipCount":3,"visitsCount":328,"tier":"","message":"","currency":"","rating":6.3},{"name":"The Elizabethan","address":"Heaton Moor Rd","lat":53.42371548615222,"lng":-2.1818375713992504,"city_fetched":"Cheadle,UK","state":"Stockport","country":"United Kingdom","canonicalUrl":"https://foursquare.com/v/the-elizabethan/4b0e6c90f964a520825723e3","categoryId":"4bf58dd8d48988d11b941735","category":"Pub","checkinsCount":1253,"usersCount":341,"tipCount":9,"visitsCount":1520,"tier":"","message":"","currency":"","rating":6.3},{"name":"The Unicorn Pub","address":"102 Adlington Road","lat":53.330467,"lng":-2.19178897329,"city_fetched":"Cheadle,UK","state":"Cheshire","country":"United Kingdom","canonicalUrl":"https://foursquare.com/v/the-unicorn-pub/4b9d26fef964a520589436e3","categoryId":"4bf58dd8d48988d116941735","category":"Bar","checkinsCount":156,"usersCount":90,"tipCount":6,"visitsCount":202,"tier":"","message":"","currency":"","rating":6.3},{"name":"The Gateway (Wetherspoon)","phone":"+441614381700","twitter":"jdwtweet","address":"882 Wilmslow Rd.","lat":53.408025717748025,"lng":-2.2204184532165527,"neighborhood":"Didsbury East","city_fetched":"Cheadle,UK","country":"United Kingdom","canonicalUrl":"https://foursquare.com/v/the-gateway-wetherspoon/4c49fe71959220a115c5850d","categoryId":"4bf58dd8d48988d11b941735","category":"Pub","checkinsCount":962,"usersCount":313,"tipCount":10,"visitsCount":1088,"url":"http://www.jdwetherspoon.co.uk","tier":"","message":"","currency":"","rating":6.3},{"name":"Bar21","phone":"+441618192221","twitter":"bar21mcr","address":"10 Thomas St","lat":53.484708,"lng":-2.237788,"neighborhood":"Northern Quarter","city_fetched":"Cheadle,UK","country":"United Kingdom","canonicalUrl":"https://foursquare.com/v/bar21/4afb3ab6f964a5203d1c22e3","categoryId":"4bf58dd8d48988d116941735","category":"Bar","checkinsCount":1435,"usersCount":814,"tipCount":16,"visitsCount":1457,"url":"http://www.tv21manchester.com","tier":"","message":"","currency":"","rating":6.3},{"name":"The Font Fallowfield","phone":"+441612484820","twitter":"fontfallowfield","address":"236-238 Wilmslow Road","lat":53.443798183291115,"lng":-2.218819882884409,"city_fetched":"Cheadle,UK","state":"Greater Manchester","country":"United Kingdom","canonicalUrl":"https://foursquare.com/fontfallowfield","categoryId":"4bf58dd8d48988d116941735","category":"Bar","checkinsCount":750,"usersCount":427,"tipCount":11,"visitsCount":778,"url":"http://thefontbar.wordpress.com/fallowfield/","tier":"","message":"","currency":"","rating":6.3},{"name":"Company Bar","phone":"+441612379329","address":"Richmond St.","lat":53.477281495987825,"lng":-2.237091064453125,"neighborhood":"City Centre","city_fetched":"Cheadle,UK","state":"Greater Manchester","country":"United Kingdom","canonicalUrl":"https://foursquare.com/v/company-bar/4b2ae79cf964a520d9b124e3","categoryId":"4bf58dd8d48988d1d8941735","category":"Gay Bar","checkinsCount":600,"usersCount":155,"tipCount":6,"visitsCount":601,"tier":"","message":"","currency":"","rating":6.3},{"name":"K2 Karaoke Nightclub","phone":"+441612388700","address":"Amadeus House, 52-56 George St.","lat":53.47893682041189,"lng":-2.240510880947113,"neighborhood":"City Centre","city_fetched":"Cheadle,UK","country":"United Kingdom","canonicalUrl":"https://foursquare.com/v/k2-karaoke-nightclub/4b995e12f964a5203a7635e3","categoryId":"4bf58dd8d48988d11f941735","category":"Nightclub","checkinsCount":456,"usersCount":209,"tipCount":1,"visitsCount":457,"url":"http://www.manchesterbars.com/k2.htm","tier":"","message":"","currency":"","rating":6.2},{"name":"One Lounge Bar","phone":"+441614480101","twitter":"oneloungebar","address":"1 Lapwing Ln.","lat":53.42816067097555,"lng":-2.2409695386886597,"city_fetched":"Cheadle,UK","country":"United Kingdom","canonicalUrl":"https://foursquare.com/v/one-lounge-bar/4ade0df6f964a520096e21e3","categoryId":"4bf58dd8d48988d11e941735","category":"Cocktail Bar","checkinsCount":220,"usersCount":125,"tipCount":7,"visitsCount":225,"url":"http://www.oneloungebar.co.uk","tier":"","message":"","currency":"","rating":6.2},{"name":"Beefeater","phone":"+441614991944","twitter":"beefeatergrill","address":"Finney Ln","lat":53.370233376504515,"lng":-2.2379708290100098,"city_fetched":"Cheadle,UK","state":"Greater Manchester","country":"United Kingdom","canonicalUrl":"https://foursquare.com/v/beefeater/4bc21377b492d13a42e7a660","categoryId":"4bf58dd8d48988d11b941735","category":"Pub","checkinsCount":156,"usersCount":122,"tipCount":5,"visitsCount":169,"url":"http://www.beefeater.co.uk","tier":"","message":"","currency":"","rating":6.2},{"name":"Nip and Tipple","phone":"+441618607330","address":"197 Upper Chorlton Rd.","lat":53.451828942239665,"lng":-2.2694921493530273,"neighborhood":"Whalley Range","city_fetched":"Cheadle,UK","country":"United Kingdom","canonicalUrl":"https://foursquare.com/v/nip-and-tipple/4c59bc0c5c57c9b699881b4a","categoryId":"4bf58dd8d48988d116941735","category":"Bar","checkinsCount":222,"usersCount":109,"tipCount":3,"visitsCount":226,"tier":"","message":"","currency":"","rating":6.2},{"name":"FAC251 - Factory Manchester","phone":"+441612727251","twitter":"fac251","address":"112-118 Princess St","lat":53.474011285391924,"lng":-2.237301132402081,"neighborhood":"City Centre","city_fetched":"Cheadle,UK","country":"United Kingdom","canonicalUrl":"https://foursquare.com/v/fac251--factory-manchester/4b6df496f964a520c29e2ce3","categoryId":"4bf58dd8d48988d11f941735","category":"Nightclub","checkinsCount":1011,"usersCount":646,"tipCount":11,"visitsCount":1027,"url":"http://www.factorymanchester.com","tier":"","message":"","currency":"","rating":6.1},{"name":"Hardy's Well","phone":"+441612570450","address":"257 Wilmslow Rd","lat":53.451688192263184,"lng":-2.2219539078147132,"neighborhood":"Rusholme","city_fetched":"Cheadle,UK","country":"United Kingdom","canonicalUrl":"https://foursquare.com/v/hardys-well/4c095493bbc676b09b0448d5","categoryId":"4bf58dd8d48988d11b941735","category":"Pub","checkinsCount":533,"usersCount":216,"tipCount":10,"visitsCount":578,"tier":"","message":"","currency":"","rating":6.1},{"name":"The Queens Arms","lat":53.39610278606415,"lng":-2.203831,"city_fetched":"Cheadle,UK","country":"United Kingdom","canonicalUrl":"https://foursquare.com/v/the-queens-arms/4b6de382f964a52001992ce3","categoryId":"4bf58dd8d48988d11b941735","category":"Pub","checkinsCount":95,"usersCount":51,"tipCount":3,"visitsCount":95,"tier":"","message":"","currency":"","rating":6},{"name":"The Woodthorpe","address":"Bury Old Road","lat":53.52361255134792,"lng":-2.262813448905945,"neighborhood":"Sedgley","city_fetched":"Cheadle,UK","state":"Greater Manchester","country":"United Kingdom","canonicalUrl":"https://foursquare.com/v/the-woodthorpe/4be0a7bcb238d13adba770a4","categoryId":"4bf58dd8d48988d11b941735","category":"Pub","checkinsCount":325,"usersCount":204,"tipCount":5,"visitsCount":398,"tier":"","message":"","currency":"","rating":6},{"name":"256 Wilmslow Road","phone":"+441612490271","twitter":"256fallowfield","address":"256 Wilmslow Rd","lat":53.4428938942196,"lng":-2.21897626523593,"city_fetched":"Cheadle,UK","state":"Greater Manchester","country":"United Kingdom","canonicalUrl":"https://foursquare.com/v/256-wilmslow-road/4e6cdae0a80957ae44e96c1f","categoryId":"4bf58dd8d48988d116941735","category":"Bar","checkinsCount":1007,"usersCount":412,"tipCount":11,"visitsCount":1105,"url":"http://www.256fallowfield.co.uk","tier":1,"message":"Cheap","currency":"£","rating":6},{"name":"Vina Karaoke Bar","phone":"+441612379838","address":"34 Charlotte St.","lat":53.478833416798544,"lng":-2.2388664704921912,"neighborhood":"City Centre","city_fetched":"Cheadle,UK","country":"United Kingdom","canonicalUrl":"https://foursquare.com/v/vina-karaoke-bar/4ba553d5f964a5202cfb38e3","categoryId":"4bf58dd8d48988d120941735","category":"Karaoke Bar","checkinsCount":201,"usersCount":149,"tipCount":1,"visitsCount":201,"url":"http://manchesterkaraoke.com","tier":"","message":"","currency":"","rating":6},{"name":"The Bell House","phone":"+441614456990","address":"Parrs Wood Entertainment Centre","lat":53.410427,"lng":-2.218715,"neighborhood":"Didsbury East","city_fetched":"Cheadle,UK","country":"United Kingdom","canonicalUrl":"https://foursquare.com/v/the-bell-house/4c220c0f99282d7f846f66b0","categoryId":"4bf58dd8d48988d11b941735","category":"Pub","checkinsCount":195,"usersCount":107,"tipCount":3,"visitsCount":195,"tier":"","message":"","currency":"","rating":6},{"name":"Poptastic","phone":"+441612369266","twitter":"poptasticmcr","address":"105 - 107 Princess St","lat":53.47657329116739,"lng":-2.2387662436431515,"neighborhood":"City Centre","city_fetched":"Cheadle,UK","country":"United Kingdom","canonicalUrl":"https://foursquare.com/v/poptastic/4ca7b5af14c337045888cc3b","categoryId":"4bf58dd8d48988d1d8941735","category":"Gay Bar","checkinsCount":429,"usersCount":197,"tipCount":6,"visitsCount":431,"tier":"","message":"","currency":"","rating":5.9},{"name":"Kiki","address":"Canal street","lat":53.477902673515935,"lng":-2.2359181401348036,"neighborhood":"City Centre","city_fetched":"Cheadle,UK","state":"Greater Manchester","country":"United Kingdom","canonicalUrl":"https://foursquare.com/v/kiki/529a697111d277dbdfbbd30a","categoryId":"4bf58dd8d48988d1d8941735","category":"Gay Bar","checkinsCount":534,"usersCount":356,"tipCount":3,"visitsCount":607,"tier":"","message":"","currency":"","rating":5.9},{"name":"The Ashlea","phone":"+441614280413","address":"14 Manchester Rd.","lat":53.39667330374513,"lng":-2.213253019643851,"city_fetched":"Cheadle,UK","country":"United Kingdom","canonicalUrl":"https://foursquare.com/v/the-ashlea/4ade0df6f964a520066e21e3","categoryId":"4bf58dd8d48988d11b941735","category":"Pub","checkinsCount":336,"usersCount":131,"tipCount":6,"visitsCount":367,"url":"http://www.chefandbrewer.com/pub-food/ashlea-cheadle/pid-p1578","tier":"","message":"","currency":"","rating":5.9},{"name":"The Governors House","phone":"+441614884222","twitter":"greenekingpubs","address":"43 Ravenoak Rd","lat":53.3676471837495,"lng":-2.183554172515869,"neighborhood":"Bramhall South","city_fetched":"Cheadle,UK","country":"United Kingdom","canonicalUrl":"https://foursquare.com/v/the-governors-house/4bf946094a67c928648c26cf","categoryId":"4bf58dd8d48988d11b941735","category":"Pub","checkinsCount":442,"usersCount":163,"tipCount":9,"visitsCount":516,"url":"http://gkpubs.co.uk/pubs-in-cheadle-hulme/governors-house-pub/","tier":"","message":"","currency":"","rating":5.9},{"name":"Cheadle Royal Table Table","phone":"+448701977172","address":"Royal Crescent","lat":53.378827368643876,"lng":-2.219526749682549,"neighborhood":"Cheadle and Gatley","city_fetched":"Cheadle,UK","state":"Cheshire","country":"United Kingdom","canonicalUrl":"https://foursquare.com/v/cheadle-royal-table-table/4b01cf50f964a5209f4522e3","categoryId":"4bf58dd8d48988d11b941735","category":"Pub","checkinsCount":218,"usersCount":85,"tipCount":1,"visitsCount":218,"tier":"","message":"","currency":"","rating":5.9},{"name":"The White Lion","phone":"+441618327373","address":"43 Liverpool Rd.","lat":53.476136233333335,"lng":-2.253063,"neighborhood":"City Centre","city_fetched":"Cheadle,UK","country":"United Kingdom","canonicalUrl":"https://foursquare.com/v/the-white-lion/4ade0de3f964a5209c6d21e3","categoryId":"4bf58dd8d48988d11b941735","category":"Pub","checkinsCount":678,"usersCount":429,"tipCount":10,"visitsCount":716,"tier":"","message":"","currency":"","rating":5.8},{"name":"fifth","phone":"+441612362754","twitter":"fifthmanchester","address":"121 Princess Street","lat":53.47489786889753,"lng":-2.2375080003847145,"neighborhood":"City Centre","city_fetched":"Cheadle,UK","state":"Greater Manchester","country":"United Kingdom","canonicalUrl":"https://foursquare.com/v/fifth/4ade0df9f964a5201a6e21e3","categoryId":"4bf58dd8d48988d11f941735","category":"Nightclub","checkinsCount":1068,"usersCount":633,"tipCount":12,"visitsCount":1173,"url":"http://www.fifthmanchester.com","tier":"","message":"","currency":"","rating":5.8},{"name":"The Bay Horse","phone":"+441616611041","twitter":"smallplatesnq","address":"35-37 Thomas St","lat":53.484215,"lng":-2.236838936805725,"neighborhood":"Northern Quarter","city_fetched":"Cheadle,UK","country":"United Kingdom","canonicalUrl":"https://foursquare.com/v/the-bay-horse/4b38ead7f964a5202a5225e3","categoryId":"4bf58dd8d48988d11b941735","category":"Pub","checkinsCount":860,"usersCount":544,"tipCount":13,"visitsCount":864,"tier":"","message":"","currency":"","rating":5.8},{"name":"Bar Eight","address":"Castle Quay","lat":53.47341923823635,"lng":-2.256407737888517,"neighborhood":"City Centre","city_fetched":"Cheadle,UK","state":"Greater Manchester","country":"United Kingdom","canonicalUrl":"https://foursquare.com/v/bar-eight/4d88e9981508a1433ab0021e","categoryId":"4bf58dd8d48988d116941735","category":"Bar","checkinsCount":154,"usersCount":77,"tipCount":2,"visitsCount":154,"tier":"","message":"","currency":"","rating":5.8},{"name":"Churchills","phone":"+441612365529","address":"37 Chorlton St","lat":53.477744,"lng":-2.23577983,"neighborhood":"City Centre","city_fetched":"Cheadle,UK","country":"United Kingdom","canonicalUrl":"https://foursquare.com/v/churchills/4ba9249bf964a520cd0e3ae3","categoryId":"4bf58dd8d48988d1d8941735","category":"Gay Bar","checkinsCount":1040,"usersCount":563,"tipCount":7,"visitsCount":1089,"tier":"","message":"","currency":"","rating":5.8},{"name":"Black Dog Ballroom NWS","phone":"+441612364899","twitter":"blackdognws","address":"New Wakefield St","lat":53.473473701164075,"lng":-2.241390002875444,"neighborhood":"City Centre","city_fetched":"Cheadle,UK","country":"United Kingdom","canonicalUrl":"https://foursquare.com/v/black-dog-ballroom-nws/4fa7bc06e4b0bcbb48aa4e71","categoryId":"4bf58dd8d48988d116941735","category":"Bar","checkinsCount":1003,"usersCount":645,"tipCount":16,"visitsCount":1057,"tier":"","message":"","currency":"","rating":5.8},{"name":"The Kings Hall (Wetherspoon)","phone":"+441614820460","address":"11-13 Station Rd","lat":53.3774715,"lng":-2.189601,"city_fetched":"Cheadle,UK","state":"Greater Manchester","country":"United Kingdom","canonicalUrl":"https://foursquare.com/v/the-kings-hall-wetherspoon/4c2a4fdc8abca5939a78fe1f","categoryId":"4bf58dd8d48988d11b941735","category":"Pub","checkinsCount":356,"usersCount":122,"tipCount":3,"visitsCount":374,"url":"http://www.jdwetherspoon.co.uk","tier":"","message":"","currency":"","rating":5.7},{"name":"The Red Lion","phone":"+441614342441","address":"Wilmslow Rd","lat":53.431378122077476,"lng":-2.229152397604195,"city_fetched":"Cheadle,UK","state":"Greater Manchester","country":"United Kingdom","canonicalUrl":"https://foursquare.com/v/the-red-lion/4b8052c2f964a520f56730e3","categoryId":"4bf58dd8d48988d11b941735","category":"Pub","checkinsCount":527,"usersCount":347,"tipCount":10,"visitsCount":664,"url":"http://www.redlionpubmanchester.co.uk","tier":"","message":"","currency":"","rating":5.7},{"name":"View","phone":"+441612369033","address":"Canal St","lat":53.47748599837817,"lng":-2.2364151309837492,"neighborhood":"City Centre","city_fetched":"Cheadle,UK","country":"United Kingdom","canonicalUrl":"https://foursquare.com/v/view/4b6e2170f964a520a5ac2ce3","categoryId":"4bf58dd8d48988d1d8941735","category":"Gay Bar","checkinsCount":831,"usersCount":521,"tipCount":5,"visitsCount":833,"url":"http://www.viewbar.co.uk","tier":"","message":"","currency":"","rating":5.7},{"name":"Lock 91","phone":"+441618195444","twitter":"lock91mcr","address":"9 Century St","lat":53.47456132409616,"lng":-2.2510814666748047,"neighborhood":"City Centre","city_fetched":"Cheadle,UK","state":"Greater Manchester","country":"United Kingdom","canonicalUrl":"https://foursquare.com/v/lock-91/4b608186f964a5205aea29e3","categoryId":"4bf58dd8d48988d11e941735","category":"Cocktail Bar","checkinsCount":412,"usersCount":254,"tipCount":5,"visitsCount":423,"url":"http://www.lock-91.co.uk","tier":"","message":"","currency":"","rating":5.7},{"name":"Horse & Farrier","phone":"+441614282080","address":"144 Gatley Rd","lat":53.39293922,"lng":-2.23509395,"neighborhood":"Cheadle and Gatley","city_fetched":"Cheadle,UK","state":"Cheshire","country":"United Kingdom","canonicalUrl":"https://foursquare.com/v/horse--farrier/4aef5162f964a52082d721e3","categoryId":"4bf58dd8d48988d11b941735","category":"Pub","checkinsCount":230,"usersCount":129,"tipCount":4,"visitsCount":320,"tier":"","message":"","currency":"","rating":5.7},{"name":"The Bubble Room","phone":"+441625583399","address":"47 London Road","lat":53.301665,"lng":-2.236107,"city_fetched":"Cheadle,UK","state":"Cheshire","country":"United Kingdom","canonicalUrl":"https://foursquare.com/v/the-bubble-room/4b644a83f964a520bca82ae3","categoryId":"4bf58dd8d48988d123941735","category":"Wine Bar","checkinsCount":384,"usersCount":259,"tipCount":4,"visitsCount":505,"tier":"","message":"","currency":"","rating":5.7},{"name":"The Garratt","phone":"+441612375111","twitter":"thegarrattbar","address":"127 Princess St","lat":53.474692475204655,"lng":-2.237426989640455,"neighborhood":"City Centre","city_fetched":"Cheadle,UK","country":"United Kingdom","canonicalUrl":"https://foursquare.com/v/the-garratt/4b59e2e7f964a520569e28e3","categoryId":"4bf58dd8d48988d11b941735","category":"Pub","checkinsCount":713,"usersCount":374,"tipCount":9,"visitsCount":736,"url":"http://www.thegarrattmanchester.com/#the-garratt","tier":"","message":"","currency":"","rating":5.6},{"name":"Tiger Tiger","phone":"+441613858080","twitter":"tigertigermcr","address":"The Printworks","lat":53.48476585764379,"lng":-2.2416669130325317,"neighborhood":"City Centre","city_fetched":"Cheadle,UK","state":"Greater Manchester","country":"United Kingdom","canonicalUrl":"https://foursquare.com/v/tiger-tiger/4ade0dfef964a520346e21e3","categoryId":"4bf58dd8d48988d11f941735","category":"Nightclub","checkinsCount":1517,"usersCount":1126,"tipCount":12,"visitsCount":1523,"url":"http://www.tigertiger.co.uk/Findyournearest/Manchester.aspx","tier":"","message":"","currency":"","rating":5.6},{"name":"The Birdcage","phone":"+448456036950","address":"Withy Grove","lat":53.484677,"lng":-2.240864,"neighborhood":"City Centre","city_fetched":"Cheadle,UK","country":"United Kingdom","canonicalUrl":"https://foursquare.com/v/the-birdcage/4b92f4bbf964a5203d2a34e3","categoryId":"4bf58dd8d48988d11f941735","category":"Nightclub","checkinsCount":407,"usersCount":327,"tipCount":7,"visitsCount":407,"tier":"","message":"","currency":"","rating":5.6},{"name":"Baa Bar","phone":"+441618324446","address":"Arch 11 Deansgate Locks","lat":53.474551745718024,"lng":-2.249252200126648,"neighborhood":"City Centre","city_fetched":"Cheadle,UK","country":"United Kingdom","canonicalUrl":"https://foursquare.com/v/baa-bar/4c54ab8230f92d7f8dd5d5ba","categoryId":"4bf58dd8d48988d116941735","category":"Bar","checkinsCount":594,"usersCount":383,"tipCount":7,"visitsCount":599,"url":"http://www.baabar.co.uk","tier":"","message":"","currency":"","rating":5.6},{"name":"The Calverts Court (Wetherspoon)","phone":"+441614746750","address":"13 St Petersgate","lat":53.41032487106855,"lng":-2.1572256088256836,"city_fetched":"Cheadle,UK","state":"Cheshire","country":"United Kingdom","canonicalUrl":"https://foursquare.com/v/the-calverts-court-wetherspoon/4c5afe0e04f9be9aaf27f360","categoryId":"4bf58dd8d48988d11b941735","category":"Pub","checkinsCount":780,"usersCount":325,"tipCount":9,"visitsCount":944,"url":"http://www.jdwetherspoon.co.uk","tier":"","message":"","currency":"","rating":5.6},{"name":"Tribeca","address":"50 Sackville St","lat":53.47633647951055,"lng":-2.2362112998962402,"neighborhood":"City Centre","city_fetched":"Cheadle,UK","country":"United Kingdom","canonicalUrl":"https://foursquare.com/v/tribeca/4ade0de3f964a5209d6d21e3","categoryId":"4bf58dd8d48988d11e941735","category":"Cocktail Bar","checkinsCount":1962,"usersCount":753,"tipCount":16,"visitsCount":2075,"tier":2,"message":"Moderate","currency":"£","rating":5.6},{"name":"The Seven Oaks","address":"5 Nicholas St","lat":53.479000075,"lng":-2.241193,"neighborhood":"City Centre","city_fetched":"Cheadle,UK","state":"Greater Manchester","country":"United Kingdom","canonicalUrl":"https://foursquare.com/v/the-seven-oaks/4af58bebf964a520c5f921e3","categoryId":"4bf58dd8d48988d11b941735","category":"Pub","checkinsCount":424,"usersCount":242,"tipCount":7,"visitsCount":442,"tier":"","message":"","currency":"","rating":5.5},{"name":"AXM","address":"Bloom st","lat":53.47674513786728,"lng":-2.2387969493865967,"neighborhood":"City Centre","city_fetched":"Cheadle,UK","state":"Greater Manchester","country":"United Kingdom","canonicalUrl":"https://foursquare.com/v/axm/4b102fb8f964a520cc6a23e3","categoryId":"4bf58dd8d48988d1d8941735","category":"Gay Bar","checkinsCount":648,"usersCount":331,"tipCount":8,"visitsCount":654,"tier":"","message":"","currency":"","rating":5.5},{"name":"English Lounge","phone":"+441618324824","address":"64-66 High St.","lat":53.483845129451986,"lng":-2.2386549655780854,"neighborhood":"Northern Quarter","city_fetched":"Cheadle,UK","country":"United Kingdom","canonicalUrl":"https://foursquare.com/v/english-lounge/4b743e19f964a52066cf2de3","categoryId":"4bf58dd8d48988d11b941735","category":"Pub","checkinsCount":807,"usersCount":518,"tipCount":18,"visitsCount":843,"url":"http://www.englishloungemanchester.co.uk","tier":"","message":"","currency":"","rating":5.5},{"name":"The Hale Kitchen & Bar","phone":"+441619264670","address":"149 Ashley Rd","lat":53.37871101872851,"lng":-2.348898947238922,"city_fetched":"Cheadle,UK","state":"Cheshire","country":"United Kingdom","canonicalUrl":"https://foursquare.com/v/the-hale-kitchen--bar/4b8fb2edf964a520b65d33e3","categoryId":"4bf58dd8d48988d116941735","category":"Bar","checkinsCount":137,"usersCount":95,"tipCount":5,"visitsCount":137,"url":"http://www.thehalekitchen.co.uk","tier":"","message":"","currency":"","rating":5.5},{"name":"The Glasshouse Bar & Restaurant","phone":"+441618288600","twitter":"crowneplazamanc","address":"70 Shudehill","lat":53.48575738316895,"lng":-2.236573571133542,"neighborhood":"Northern Quarter","city_fetched":"Cheadle,UK","state":"Greater Manchester","country":"United Kingdom","canonicalUrl":"https://foursquare.com/v/the-glasshouse-bar--restaurant/4d0410f9c2e53704ef14b667","categoryId":"4bf58dd8d48988d116941735","category":"Bar","checkinsCount":171,"usersCount":75,"tipCount":3,"visitsCount":171,"url":"http://www.cpmanchester.com/glasshouse-bar-and-restaurant.html","tier":"","message":"","currency":"","rating":5.5},{"name":"New Union Hotel","phone":"+441612281492","address":"111 Princess St","lat":53.47622276762652,"lng":-2.2382718608902126,"neighborhood":"City Centre","city_fetched":"Cheadle,UK","state":"Greater Manchester","country":"United Kingdom","canonicalUrl":"https://foursquare.com/v/new-union-hotel/4b916cbbf964a5207abb33e3","categoryId":"4bf58dd8d48988d1d8941735","category":"Gay Bar","checkinsCount":618,"usersCount":317,"tipCount":5,"visitsCount":625,"url":"http://www.newunionhotel.com","tier":"","message":"","currency":"","rating":5.5},{"name":"Tiki M","phone":"+441614456800","address":"158 Burton Rd.","lat":53.42776752642471,"lng":-2.2415971755981445,"city_fetched":"Cheadle,UK","country":"United Kingdom","canonicalUrl":"https://foursquare.com/v/tiki-m/4ade0df7f964a5200b6e21e3","categoryId":"4bf58dd8d48988d11e941735","category":"Cocktail Bar","checkinsCount":133,"usersCount":99,"tipCount":7,"visitsCount":133,"tier":"","message":"","currency":"","rating":5.5},{"name":"Holin Hall Hotel","address":"Jackson La","lat":53.29192053781801,"lng":-2.100344665584114,"city_fetched":"Cheadle,UK","state":"Cheshire","country":"United Kingdom","canonicalUrl":"https://foursquare.com/v/holin-hall-hotel/4bd72de4304fce72792e33ab","categoryId":"4bf58dd8d48988d1d5941735","category":"Hotel Bar","checkinsCount":204,"usersCount":119,"tipCount":2,"visitsCount":235,"tier":"","message":"","currency":"","rating":5.4},{"name":"Lloyds Hotel","phone":"+441612860693","address":"617 Wilbraham Rd.","lat":53.442487180444374,"lng":-2.2808979943396768,"neighborhood":"Chorlton","city_fetched":"Cheadle,UK","country":"United Kingdom","canonicalUrl":"https://foursquare.com/v/lloyds-hotel/4bae712cf964a520e8b23be3","categoryId":"4bf58dd8d48988d11b941735","category":"Pub","checkinsCount":290,"usersCount":157,"tipCount":0,"visitsCount":322,"url":"http://www.lloyds-hotel.co.uk","tier":"","message":"","currency":"","rating":5.4},{"name":"Binary Bar","phone":"+441618396343","twitter":"binarybar","address":"5 Arundel Street, Castlefield","lat":53.47256897490434,"lng":-2.2608232498168945,"city_fetched":"Cheadle,UK","state":"Greater Manchester","country":"United Kingdom","canonicalUrl":"https://foursquare.com/v/binary-bar/4b1ac4d2f964a52061f123e3","categoryId":"4bf58dd8d48988d11d941735","category":"Sports Bar","checkinsCount":321,"usersCount":103,"tipCount":10,"visitsCount":321,"url":"http://binarybar.co.uk","tier":"","message":"","currency":"","rating":5.4},{"name":"Bamford Arms (Beefeater)","phone":"+441614802968","twitter":"beefeater","address":"Buxton Rd","lat":53.396346049884464,"lng":-2.1496344367151172,"city_fetched":"Cheadle,UK","state":"Cheshire","country":"United Kingdom","canonicalUrl":"https://foursquare.com/v/bamford-arms-beefeater/4c36063618e72d7f991714f5","categoryId":"4bf58dd8d48988d11b941735","category":"Pub","checkinsCount":370,"usersCount":193,"tipCount":9,"visitsCount":489,"url":"http://www.beefeater.co.uk/steak-restaurant/Cheshire/Bamford-Arms-Heavily.html","tier":"","message":"","currency":"","rating":5.4},{"name":"Label","address":"Deansgate","lat":53.482611592636296,"lng":-2.2469638833009116,"neighborhood":"City Centre","city_fetched":"Cheadle,UK","country":"United Kingdom","canonicalUrl":"https://foursquare.com/v/label/4d1e078cd7b0b1f72bfdff9e","categoryId":"4bf58dd8d48988d116941735","category":"Bar","checkinsCount":293,"usersCount":227,"tipCount":6,"visitsCount":293,"tier":"","message":"","currency":"","rating":5.4},{"name":"Tiger Lounge","address":"5 Cooper Street","lat":53.47923797425004,"lng":-2.242458498204236,"neighborhood":"City Centre","city_fetched":"Cheadle,UK","state":"Greater Manchester","country":"United Kingdom","canonicalUrl":"https://foursquare.com/v/tiger-lounge/4ade0dfef964a520326e21e3","categoryId":"4bf58dd8d48988d11f941735","category":"Nightclub","checkinsCount":412,"usersCount":261,"tipCount":14,"visitsCount":412,"tier":"","message":"","currency":"","rating":5.3},{"name":"The Slug and Lettuce","phone":"+441618393604","twitter":"slugalbertsq","address":"Albert Sq","lat":53.47921067040029,"lng":-2.245443801121122,"neighborhood":"City Centre","city_fetched":"Cheadle,UK","country":"United Kingdom","canonicalUrl":"https://foursquare.com/v/the-slug-and-lettuce/4c0667a0517d0f477de6f515","categoryId":"4bf58dd8d48988d116941735","category":"Bar","checkinsCount":945,"usersCount":659,"tipCount":11,"visitsCount":950,"url":"http://www.slugandlettuce.co.uk/slug-manchester/","tier":"","message":"","currency":"","rating":5.2},{"name":"Sugar Buddha","address":"Arch 12 Deansgate Locks","lat":53.47445260926908,"lng":-2.2491006988340803,"neighborhood":"City Centre","city_fetched":"Cheadle,UK","country":"United Kingdom","canonicalUrl":"https://foursquare.com/v/sugar-buddha/4c798f0c97028cfa339bdbfe","categoryId":"4bf58dd8d48988d11f941735","category":"Nightclub","checkinsCount":335,"usersCount":252,"tipCount":10,"visitsCount":335,"tier":"","message":"","currency":"","rating":5.2},{"name":"The Hare & Hounds","address":"46 Shudehill","lat":53.48532224639849,"lng":-2.2378778679309534,"city_fetched":"Cheadle,UK","state":"Greater Manchester","country":"United Kingdom","canonicalUrl":"https://foursquare.com/v/the-hare--hounds/4ade0de4f964a520a36d21e3","categoryId":"4bf58dd8d48988d11b941735","category":"Pub","checkinsCount":259,"usersCount":105,"tipCount":3,"visitsCount":261,"tier":"","message":"","currency":"","rating":5.1},{"name":"The Famous Crown","address":"770 Wilmslow Rd","lat":53.4157125251638,"lng":-2.2321879863739014,"city_fetched":"Cheadle,UK","country":"United Kingdom","canonicalUrl":"https://foursquare.com/v/the-famous-crown/4b747ed0f964a52010e02de3","categoryId":"4bf58dd8d48988d11b941735","category":"Pub","checkinsCount":195,"usersCount":117,"tipCount":4,"visitsCount":195,"tier":"","message":"","currency":"","rating":5.1},{"name":"Styal Lounge","address":"Terminal 2","lat":53.36631335561743,"lng":-2.279949845820808,"city_fetched":"Cheadle,UK","country":"United Kingdom","canonicalUrl":"https://foursquare.com/v/styal-lounge/4ca73192931bb60c3f7d9ae2","categoryId":"4bf58dd8d48988d121941735","category":"Lounge","checkinsCount":234,"usersCount":161,"tipCount":3,"visitsCount":234,"tier":"","message":"","currency":"","rating":5.1},{"name":"Crunch","address":"10 Canal St","lat":53.4773,"lng":-2.236433,"neighborhood":"City Centre","city_fetched":"Cheadle,UK","country":"United Kingdom","canonicalUrl":"https://foursquare.com/v/crunch/4b6226b7f964a520b7382ae3","categoryId":"4bf58dd8d48988d1d8941735","category":"Gay Bar","checkinsCount":2148,"usersCount":589,"tipCount":16,"visitsCount":2148,"tier":"","message":"","currency":"","rating":5.1},{"name":"Missoula","phone":"+441618195858","address":"5 Whitworth St. W","lat":53.47457409526362,"lng":-2.250153422355652,"neighborhood":"City Centre","city_fetched":"Cheadle,UK","country":"United Kingdom","canonicalUrl":"https://foursquare.com/v/missoula/4b0d3d6ff964a5200d4523e3","categoryId":"4bf58dd8d48988d116941735","category":"Bar","checkinsCount":671,"usersCount":411,"tipCount":7,"visitsCount":672,"tier":"","message":"","currency":"","rating":5.1},{"name":"Flying Horse","phone":"+441614376205","address":"1 Longstone Rd","lat":53.36867472381002,"lng":-2.2417721515594344,"city_fetched":"Cheadle,UK","state":"Greater Manchester","country":"United Kingdom","canonicalUrl":"https://foursquare.com/v/flying-horse/528625fa11d2d71e1dc1cd8c","categoryId":"4bf58dd8d48988d11b941735","category":"Pub","checkinsCount":151,"usersCount":103,"tipCount":6,"visitsCount":203,"url":"http://www.hungryhorse.co.uk/pubs/flying-horse-stockport","tier":"","message":"","currency":"","rating":5.1},{"name":"Mint Lounge","address":"46-50 Oldham Street","lat":53.483205,"lng":-2.234613,"neighborhood":"Northern Quarter","city_fetched":"Cheadle,UK","state":"Greater Manchester","country":"United Kingdom","canonicalUrl":"https://foursquare.com/v/mint-lounge/4ade0df7f964a5200f6e21e3","categoryId":"4bf58dd8d48988d11f941735","category":"Nightclub","checkinsCount":205,"usersCount":165,"tipCount":3,"visitsCount":205,"tier":"","message":"","currency":"","rating":5},{"name":"The Kenilworth","phone":"+441614851060","address":"Cheadle Rd","lat":53.37875901869305,"lng":-2.198038101196289,"city_fetched":"Cheadle,UK","country":"United Kingdom","canonicalUrl":"https://foursquare.com/v/the-kenilworth/4c48b3769e3e2d7f22f5cb47","categoryId":"4bf58dd8d48988d11b941735","category":"Pub","checkinsCount":77,"usersCount":39,"tipCount":3,"visitsCount":86,"tier":"","message":"","currency":"","rating":4.9},{"name":"The Greenfinch","phone":"+441614489397","address":"108 Palatine Rd.","lat":53.42517204189445,"lng":-2.2369837760925293,"city_fetched":"Cheadle,UK","country":"United Kingdom","canonicalUrl":"https://foursquare.com/v/the-greenfinch/4ade0deaf964a520c76d21e3","categoryId":"4bf58dd8d48988d11b941735","category":"Pub","checkinsCount":512,"usersCount":252,"tipCount":9,"visitsCount":538,"tier":"","message":"","currency":"","rating":4.9},{"name":"The Mayfield","phone":"+441612363618","address":"Manchester Piccadilly Railway Station","lat":53.4775716911449,"lng":-2.2311105552259667,"neighborhood":"City Centre","city_fetched":"Cheadle,UK","country":"United Kingdom","canonicalUrl":"https://foursquare.com/v/the-mayfield/4bb64979f562ef3b44eb2f97","categoryId":"4bf58dd8d48988d11b941735","category":"Pub","checkinsCount":1137,"usersCount":720,"tipCount":27,"visitsCount":1141,"tier":"","message":"","currency":"","rating":4.9},{"name":"Lammars","phone":"+441612379058","address":"Fourways Hse.","lat":53.481150436756984,"lng":-2.2313140937918448,"city_fetched":"Cheadle,UK","country":"United Kingdom","canonicalUrl":"https://foursquare.com/v/lammars/4b686e7bf964a52031782be3","categoryId":"4bf58dd8d48988d116941735","category":"Bar","checkinsCount":824,"usersCount":477,"tipCount":11,"visitsCount":829,"url":"http://www.lammars.co.uk","tier":"","message":"","currency":"","rating":4.8},{"name":"Sakura","phone":"+441618320234","twitter":"sakuramchester","address":"Arch 2 Deansgate Locks Whitworth St.","lat":53.47449427540391,"lng":-2.250550389289856,"neighborhood":"City Centre","city_fetched":"Cheadle,UK","country":"United Kingdom","canonicalUrl":"https://foursquare.com/v/sakura/4ca50e2276d3a093ff92f46a","categoryId":"4bf58dd8d48988d116941735","category":"Bar","checkinsCount":415,"usersCount":292,"tipCount":12,"visitsCount":416,"url":"http://www.sakuramanchester.com","tier":"","message":"","currency":"","rating":4.6}]