[{"name":"The Ale House","phone":"+441245359964","address":"24-26 Railway Arches","lat":51.73621517213118,"lng":0.4674845755730017,"city_fetched":"Chelmsford","state":"Essex","country":"United Kingdom","canonicalUrl":"https://foursquare.com/v/the-ale-house/4f9d438ce4b0e1cbffb511a4","category":"Pub","checkinsCount":607,"usersCount":212,"tipCount":10,"visitsCount":678,"url":"http://www.the-ale-house-chelmsford.co.uk","tier":2,"message":"Moderate","currency":"£","rating":8.1},{"name":"The Bassment","phone":"+441245358480","address":"16 Wells St.","lat":51.73719866356536,"lng":0.4675569975736253,"city_fetched":"Chelmsford","state":"Essex","country":"United Kingdom","canonicalUrl":"https://foursquare.com/v/the-bassment/4b4a3e3cf964a520628026e3","category":"Nightclub","checkinsCount":128,"usersCount":42,"tipCount":4,"visitsCount":128,"tier":"","message":"","currency":"","rating":8},{"name":"Asylum","phone":"+441245256285","address":"48-49 Viaduct Rd","lat":51.73503208812784,"lng":0.46583369656568563,"city_fetched":"Chelmsford","state":"Essex","country":"United Kingdom","canonicalUrl":"https://foursquare.com/v/asylum/5172fa39e4b03b4661f82398","category":"Bar","checkinsCount":90,"usersCount":25,"tipCount":3,"visitsCount":92,"url":"http://www.asylumchelmsford.co.uk","tier":"","message":"","currency":"","rating":8},{"name":"Baroosh","phone":"+441245256570","address":"3-4 Moulsham St","lat":51.73119674648677,"lng":0.474500595418455,"city_fetched":"Chelmsford","state":"Essex","country":"United Kingdom","canonicalUrl":"https://foursquare.com/v/baroosh/4b979ce3f964a520950b35e3","category":"Bar","checkinsCount":499,"usersCount":201,"tipCount":4,"visitsCount":536,"url":"http://www.barooshchelmsford.co.uk","tier":"","message":"","currency":"","rating":8},{"name":"O'Connors","phone":"+441245299126","address":"7 Hall St","lat":51.729683,"lng":0.4736727476119995,"city_fetched":"Chelmsford","state":"Essex","country":"United Kingdom","canonicalUrl":"https://foursquare.com/v/oconnors/4be32bf4d27a20a1d06e915b","category":"Pub","checkinsCount":367,"usersCount":113,"tipCount":1,"visitsCount":420,"tier":"","message":"","currency":"","rating":7.9},{"name":"The Golden Fleece","phone":"+441245256752","twitter":"fleecepub","address":"84 Duke St.","lat":51.73486920826496,"lng":0.47142505645751953,"city_fetched":"Chelmsford","state":"Essex","country":"United Kingdom","canonicalUrl":"https://foursquare.com/v/the-golden-fleece/4b730dfcf964a52069982de3","category":"Pub","checkinsCount":682,"usersCount":276,"tipCount":11,"visitsCount":761,"url":"http://www.thegoldenfleece-chelmsford.co.uk","tier":"","message":"","currency":"","rating":7.7},{"name":"The Railway Tavern","phone":"+441245280679","address":"63 Duke St","lat":51.73617148842998,"lng":0.4684719443321228,"city_fetched":"Chelmsford","state":"Essex","country":"United Kingdom","canonicalUrl":"https://foursquare.com/v/the-railway-tavern/4d87da46d85f370445ccc5db","category":"Pub","checkinsCount":368,"usersCount":86,"tipCount":3,"visitsCount":368,"tier":"","message":"","currency":"","rating":7.6},{"name":"The Ship","phone":"+441245265961","address":"18 Broomfield Road","lat":51.737698,"lng":0.465898,"city_fetched":"Chelmsford","state":"Essex","country":"United Kingdom","canonicalUrl":"https://foursquare.com/v/the-ship/4c34df93213c2d7fcb3b395d","category":"Pub","checkinsCount":258,"usersCount":131,"tipCount":5,"visitsCount":274,"url":"http://www.theshipchelmsford.co.uk","tier":"","message":"","currency":"","rating":7.5},{"name":"The Woolpack","address":"Mildmay Road","lat":51.729262662977,"lng":0.47499239444732666,"city_fetched":"Chelmsford","state":"Essex","country":"United Kingdom","canonicalUrl":"https://foursquare.com/v/the-woolpack/4bba49b97421a5934c9ec340","category":"Pub","checkinsCount":751,"usersCount":79,"tipCount":8,"visitsCount":791,"tier":"","message":"","currency":"","rating":7.2},{"name":"Pinchos","phone":"+441245268268","address":"3a Baddow Rd.","lat":51.73078937339799,"lng":0.4745149612426758,"city_fetched":"Chelmsford","state":"Essex","country":"United Kingdom","canonicalUrl":"https://foursquare.com/v/pinchos/4cc5e287b2beb1f7a950254c","category":"Tapas Restaurant","checkinsCount":87,"usersCount":47,"tipCount":5,"visitsCount":90,"url":"http://www.pinchosrestaurant.com","tier":"","message":"","currency":"","rating":7},{"name":"The Riverside Inn","phone":"+441245266881","address":"Victoria Rd.","lat":51.73602998256683,"lng":0.4791766405105591,"city_fetched":"Chelmsford","state":"Essex","country":"United Kingdom","canonicalUrl":"https://foursquare.com/v/the-riverside-inn/4bf01ecc3a002d7fe9af85a4","category":"Pub","checkinsCount":349,"usersCount":158,"tipCount":6,"visitsCount":400,"tier":"","message":"","currency":"","rating":6.9},{"name":"The Plough","phone":"+441245250145","twitter":"originalplough","address":"Duke Street","lat":51.736527315872024,"lng":0.4680333710912798,"city_fetched":"Chelmsford","state":"Essex","country":"United Kingdom","canonicalUrl":"https://foursquare.com/v/the-plough/4bfebfc1e584c928782c6d25","category":"Pub","checkinsCount":439,"usersCount":161,"tipCount":14,"visitsCount":461,"tier":"","message":"","currency":"","rating":6.7},{"name":"Barista","address":"Dukes Street","lat":51.7368012019465,"lng":0.4665113094874229,"city_fetched":"Chelmsford","state":"Essex","country":"United Kingdom","canonicalUrl":"https://foursquare.com/v/barista/4c2d0fc311cb9c7473b972b3","category":"Bar","checkinsCount":221,"usersCount":82,"tipCount":4,"visitsCount":222,"tier":"","message":"","currency":"","rating":6.3},{"name":"Missoula","phone":"+441245251119","address":"7 Springfield Rd.","lat":51.732663219506904,"lng":0.4759526252746582,"city_fetched":"Chelmsford","state":"Essex","country":"United Kingdom","canonicalUrl":"https://foursquare.com/v/missoula/4d02c2a454d0236a7bc7e4d5","category":"Cocktail Bar","checkinsCount":398,"usersCount":194,"tipCount":4,"visitsCount":412,"url":"http://www.missoulabars.co.uk/missoulachelmsford","tier":"","message":"","currency":"","rating":6.2},{"name":"The Angel","lat":51.76240146160126,"lng":0.473422,"city_fetched":"Chelmsford","state":"Essex","country":"United Kingdom","canonicalUrl":"https://foursquare.com/v/the-angel/4bf7cb198d30d13a3383ff17","category":"Pub","checkinsCount":182,"usersCount":143,"tipCount":6,"visitsCount":288,"tier":"","message":"","currency":"","rating":6.2},{"name":"Bay Horse","phone":"+441245251371","twitter":"bayhorsekitchen","address":"189 Moulsham St.","lat":51.729553389828524,"lng":0.4715752601623535,"city_fetched":"Chelmsford","state":"Essex","country":"United Kingdom","canonicalUrl":"https://foursquare.com/v/bay-horse/4e3d4af0814ddc29c426ce75","category":"Gastropub","checkinsCount":127,"usersCount":83,"tipCount":3,"visitsCount":129,"url":"http://www.bayhorsechelmsford.com","tier":2,"message":"Moderate","currency":"£","rating":6.1},{"name":"The Wheatsheaf","phone":"+441245354342","address":"28 New St.","lat":51.73683839416286,"lng":0.4733911156654358,"city_fetched":"Chelmsford","state":"Essex","country":"United Kingdom","canonicalUrl":"https://foursquare.com/v/the-wheatsheaf/4d5574eb16a6b60c5d3c4bf8","category":"Pub","checkinsCount":334,"usersCount":120,"tipCount":1,"visitsCount":378,"tier":"","message":"","currency":"","rating":6.1},{"name":"The Ivory Peg  (Wetherspoon)","phone":"+441245253130","address":"3-7 New London Rd.","lat":51.73243496430717,"lng":0.47303184868878956,"city_fetched":"Chelmsford","state":"Essex","country":"United Kingdom","canonicalUrl":"https://foursquare.com/v/the-ivory-peg--wetherspoon/4c87aaa0821e9eb09acc8d89","category":"Pub","checkinsCount":907,"usersCount":276,"tipCount":8,"visitsCount":923,"url":"http://www.jdwetherspoon.co.uk","tier":"","message":"","currency":"","rating":5.9},{"name":"Chicago Rock Cafe","phone":"+441245348696","address":"6 Moulsham St","lat":51.73090688422418,"lng":0.4747991883627003,"city_fetched":"Chelmsford","state":"Essex","country":"United Kingdom","canonicalUrl":"https://foursquare.com/v/chicago-rock-cafe/4bc2dea874a9a593b7cdd3f6","category":"Bar","checkinsCount":374,"usersCount":169,"tipCount":5,"visitsCount":374,"tier":"","message":"","currency":"","rating":5.7},{"name":"The Thomas Mildmay (Wetherspoon)","phone":"+441245293700","address":"77 French's Walk","lat":51.732769534687726,"lng":0.4763603210449219,"city_fetched":"Chelmsford","state":"Essex","country":"United Kingdom","canonicalUrl":"https://foursquare.com/v/the-thomas-mildmay-wetherspoon/4bdb45233904a5931890499e","category":"Pub","checkinsCount":549,"usersCount":169,"tipCount":6,"visitsCount":559,"url":"http://www.jdwetherspoon.co.uk","tier":"","message":"","currency":"","rating":5.5},{"name":"The Fox and Raven","phone":"+441245267364","address":"Barnes Mill Road","lat":51.731031,"lng":0.496241,"city_fetched":"Chelmsford","state":"Essex","country":"United Kingdom","canonicalUrl":"https://foursquare.com/v/the-fox-and-raven/4bbf0e22ba9776b00279fec8","category":"Bar","checkinsCount":152,"usersCount":121,"tipCount":1,"visitsCount":168,"tier":"","message":"","currency":"","rating":5.5},{"name":"Queen B","address":"Waterson Vale, off Princes Road","lat":51.723015904426575,"lng":0.4780876636505127,"city_fetched":"Chelmsford","state":"Essex","country":"United Kingdom","canonicalUrl":"https://foursquare.com/v/queen-b/4bb867f63db7b7131747219a","category":"Pub","checkinsCount":123,"usersCount":57,"tipCount":3,"visitsCount":125,"tier":"","message":"","currency":"","rating":5.4}]