[{"name":"The Wild Beer Co at Jessop House","phone":"+441242534000","twitter":"wb_jessophouse","address":"30 Cambray Place","lat":51.898919305748606,"lng":-2.0728647708892822,"city_fetched":"Cheltenham,UK","state":"Gloucestershire","country":"United Kingdom","canonicalUrl":"https://foursquare.com/v/the-wild-beer-co-at-jessop-house/55f7079a498e88007588001e","categoryId":"4bf58dd8d48988d116941735","category":"Bar","checkinsCount":183,"usersCount":91,"tipCount":6,"visitsCount":237,"url":"http://www.wildbeerco.com/bars/jessop-house/","tier":"","message":"","currency":"","rating":9},{"name":"Sandford Park Alehouse","phone":"+441242571022","address":"20 High St","lat":51.897025491746035,"lng":-2.0702179954083504,"city_fetched":"Cheltenham,UK","state":"Gloucestershire","country":"United Kingdom","canonicalUrl":"https://foursquare.com/v/sandford-park-alehouse/5176f4f0498efe9f9ff6dd9a","categoryId":"4bf58dd8d48988d11b941735","category":"Pub","checkinsCount":769,"usersCount":208,"tipCount":16,"visitsCount":953,"url":"http://www.spalehouse.co.uk","tier":"","message":"","currency":"","rating":8.8},{"name":"Jolly Brewmaster","phone":"+441242772261","twitter":"darkstarbrewco","address":"39 Painswick Rd","lat":51.89030699199109,"lng":-2.0829326159904875,"city_fetched":"Cheltenham,UK","state":"Gloucestershire","country":"United Kingdom","canonicalUrl":"https://foursquare.com/v/jolly-brewmaster/4b73017ff964a5203f952de3","categoryId":"4bf58dd8d48988d11b941735","category":"Pub","checkinsCount":1658,"usersCount":254,"tipCount":12,"visitsCount":1894,"url":"http://darkstarbrewing.co.uk/pubs/the-jolly-brewmaster-cheltenham/","tier":"","message":"","currency":"","rating":8.3},{"name":"The Royal Oak","phone":"+441242522344","address":"43 The Burgage","lat":51.9153561677091,"lng":-2.049147218412111,"city_fetched":"Cheltenham,UK","state":"Gloucestershire","country":"United Kingdom","canonicalUrl":"https://foursquare.com/v/the-royal-oak/4b5f48d1f964a520ebb129e3","categoryId":"4bf58dd8d48988d11b941735","category":"Pub","checkinsCount":321,"usersCount":193,"tipCount":5,"visitsCount":412,"url":"http://www.royal-oak-prestbury.co.uk","tier":"","message":"","currency":"","rating":8.2},{"name":"The Stable","phone":"+441242514163","twitter":"_thestable","address":"40 Clarence St","lat":51.90083694458008,"lng":-2.077542781829834,"neighborhood":"Cheltenham","city_fetched":"Cheltenham,UK","state":"Gloucestershire","country":"United Kingdom","canonicalUrl":"https://foursquare.com/v/the-stable/563a91cccd103966724a36d8","categoryId":"4bf58dd8d48988d116941735","category":"Bar","checkinsCount":84,"usersCount":35,"tipCount":1,"visitsCount":86,"url":"http://stablepizza.com","tier":"","message":"","currency":"","rating":8},{"name":"John Gordons","phone":"+441242245985","address":"Montpellier Walk","lat":51.89614171548694,"lng":-2.081137226445889,"city_fetched":"Cheltenham,UK","state":"Gloucestershire","country":"United Kingdom","canonicalUrl":"https://foursquare.com/v/john-gordons/4c129f9eb7b9c928f422a837","categoryId":"4bf58dd8d48988d122941735","category":"Whisky Bar","checkinsCount":288,"usersCount":169,"tipCount":8,"visitsCount":290,"tier":"","message":"","currency":"","rating":7.8},{"name":"The Railway Inn","phone":"+441242522925","address":"New St","lat":51.90250246636155,"lng":-2.0825960478003007,"city_fetched":"Cheltenham,UK","state":"Gloucestershire","country":"United Kingdom","canonicalUrl":"https://foursquare.com/v/the-railway-inn/4b570459f964a520fb2228e3","categoryId":"4bf58dd8d48988d11b941735","category":"Pub","checkinsCount":720,"usersCount":199,"tipCount":5,"visitsCount":795,"tier":"","message":"","currency":"","rating":7.7},{"name":"The Kemble Brewery Inn","phone":"+441242243446","address":"27 Fairview St","lat":51.90189665822579,"lng":-2.066658139228821,"city_fetched":"Cheltenham,UK","state":"Gloucestershire","country":"United Kingdom","canonicalUrl":"https://foursquare.com/v/the-kemble-brewery-inn/4c3304ab09a99c741fb80b2a","categoryId":"4bf58dd8d48988d11b941735","category":"Pub","checkinsCount":539,"usersCount":69,"tipCount":8,"visitsCount":639,"tier":"","message":"","currency":"","rating":7.7},{"name":"The Strand","phone":"+441242511848","twitter":"strandpub","address":"40-42 High St","lat":51.89676024242701,"lng":-2.0701092836970343,"city_fetched":"Cheltenham,UK","state":"Gloucestershire","country":"United Kingdom","canonicalUrl":"https://foursquare.com/v/the-strand/4c0e8b4e2466a593473d7921","categoryId":"4bf58dd8d48988d11b941735","category":"Pub","checkinsCount":915,"usersCount":290,"tipCount":12,"visitsCount":936,"url":"http://strandpub.co.uk","tier":2,"message":"Moderate","currency":"£","rating":7.6},{"name":"Montys Brasserie","phone":"+441242227678","address":"41 St George's Road","lat":51.899075,"lng":-2.081408,"city_fetched":"Cheltenham,UK","state":"Gloucestershire","country":"United Kingdom","canonicalUrl":"https://foursquare.com/v/montys-brasserie/4c092dc4bbc676b054b747d5","categoryId":"4bf58dd8d48988d11e941735","category":"Cocktail Bar","checkinsCount":313,"usersCount":144,"tipCount":4,"visitsCount":322,"tier":"","message":"","currency":"","rating":7.6},{"name":"Lily Gins","phone":"+447807786944","twitter":"lilygins","address":"2a Regents St","lat":51.899008,"lng":-2.076312,"city_fetched":"Cheltenham,UK","state":"Gloucestershire","country":"United Kingdom","canonicalUrl":"https://foursquare.com/v/lily-gins/535306ec498eb16d7e1eb739","categoryId":"4bf58dd8d48988d11e941735","category":"Cocktail Bar","checkinsCount":36,"usersCount":29,"tipCount":3,"visitsCount":40,"url":"http://www.lilygins.co.uk","tier":"","message":"","currency":"","rating":7.3},{"name":"Norwood Arms","phone":"+441242261190","address":"Leckhampton Rd.","lat":51.8869152145869,"lng":-2.080836296081543,"city_fetched":"Cheltenham,UK","state":"Gloucestershire","country":"United Kingdom","canonicalUrl":"https://foursquare.com/v/norwood-arms/4bb671d9941ad13a5d711fe3","categoryId":"4bf58dd8d48988d11b941735","category":"Pub","checkinsCount":625,"usersCount":319,"tipCount":15,"visitsCount":711,"tier":"","message":"","currency":"","rating":7.2},{"name":"The Vine","phone":"+441242220170","address":"47 High St.","lat":51.897741,"lng":-2.070772,"city_fetched":"Cheltenham,UK","state":"Gloucestershire","country":"United Kingdom","canonicalUrl":"https://foursquare.com/v/the-vine/4bc9fd9ccc8cd13aaca1bccf","categoryId":"4bf58dd8d48988d116941735","category":"Bar","checkinsCount":430,"usersCount":166,"tipCount":7,"visitsCount":434,"tier":"","message":"","currency":"","rating":7},{"name":"Lounge 72","phone":"+441242224997","twitter":"shooters_","address":"72 High St","lat":51.898044974154125,"lng":-2.071902,"city_fetched":"Cheltenham,UK","state":"Gloucestershire","country":"United Kingdom","canonicalUrl":"https://foursquare.com/v/lounge-72/4e6be51c2271d308c7b88fe6","categoryId":"4bf58dd8d48988d116941735","category":"Bar","checkinsCount":274,"usersCount":109,"tipCount":1,"visitsCount":276,"url":"http://shooters-cheltenham.co.uk","tier":"","message":"","currency":"","rating":7},{"name":"The Tivoli","phone":"+441242285799","address":"34 Andover Rd","lat":51.89226,"lng":-2.086544,"city_fetched":"Cheltenham,UK","state":"Gloucestershire","country":"United Kingdom","canonicalUrl":"https://foursquare.com/v/the-tivoli/4ce810836afd6a31ed23d54d","categoryId":"4bf58dd8d48988d11b941735","category":"Pub","checkinsCount":406,"usersCount":219,"tipCount":10,"visitsCount":533,"url":"http://www.tivolicheltenham.com","tier":"","message":"","currency":"","rating":7},{"name":"The Swan","phone":"+441242584929","address":"37 High St","lat":51.897779596251006,"lng":-2.0703329673083264,"city_fetched":"Cheltenham,UK","state":"Gloucestershire","country":"United Kingdom","canonicalUrl":"https://foursquare.com/v/the-swan/4b73fe12f964a520e3c22de3","categoryId":"4bf58dd8d48988d11b941735","category":"Pub","checkinsCount":926,"usersCount":303,"tipCount":6,"visitsCount":990,"tier":"","message":"","currency":"","rating":6.9},{"name":"Harry Cook Free House","phone":"+441242236857","twitter":"harrycookgl50","address":"23 Montpellier Wak","lat":51.895215425657476,"lng":-2.0822881212313544,"city_fetched":"Cheltenham,UK","state":"Gloucestershire","country":"United Kingdom","canonicalUrl":"https://foursquare.com/v/harry-cook-free-house/544dacc8498eb6077fcb679a","categoryId":"4bf58dd8d48988d11b941735","category":"Pub","checkinsCount":167,"usersCount":126,"tipCount":4,"visitsCount":250,"url":"http://www.harrycookcheltenham.co.uk","tier":"","message":"","currency":"","rating":6.9},{"name":"Bentleys Bar","phone":"+441242529400","address":"76 High Street","lat":51.89834334152533,"lng":-2.0719635486602783,"city_fetched":"Cheltenham,UK","state":"Gloucestershire","country":"United Kingdom","canonicalUrl":"https://foursquare.com/v/bentleys-bar/4bf729e9c07c9c74cf96bbef","categoryId":"4bf58dd8d48988d116941735","category":"Bar","checkinsCount":607,"usersCount":279,"tipCount":7,"visitsCount":664,"tier":"","message":"","currency":"","rating":6.8},{"name":"The Beehive","phone":"+441242579443","twitter":"thebeehivechelt","address":"1-3 Montpellier Villas","lat":51.892993,"lng":-2.078687,"city_fetched":"Cheltenham,UK","state":"Gloucestershire","country":"United Kingdom","canonicalUrl":"https://foursquare.com/v/the-beehive/4b61b1e8f964a5208a1d2ae3","categoryId":"4bf58dd8d48988d11b941735","category":"Pub","checkinsCount":891,"usersCount":350,"tipCount":10,"visitsCount":1017,"url":"http://www.thebeehivemontpellier.com","tier":"","message":"","currency":"","rating":6.8},{"name":"Copa","phone":"+441242245044","twitter":"copacheltenham","address":"66 Regent St","lat":51.90015727282293,"lng":-2.0746350288391113,"city_fetched":"Cheltenham,UK","state":"Gloucestershire","country":"United Kingdom","canonicalUrl":"https://foursquare.com/v/copa/4b6dfbf3f964a5202aa12ce3","categoryId":"4bf58dd8d48988d11b941735","category":"Pub","checkinsCount":1661,"usersCount":574,"tipCount":17,"visitsCount":1743,"url":"http://gkpubs.co.uk/pubs-in-cheltenham/copa-of-cheltenham-pub/","tier":"","message":"","currency":"","rating":6.7},{"name":"Crazy Eights","address":"131 The Promenade","lat":51.89715452744421,"lng":-2.080290097869397,"city_fetched":"Cheltenham,UK","state":"Gloucestershire","country":"United Kingdom","canonicalUrl":"https://foursquare.com/v/crazy-eights/52b742b5498eee9f5f24564f","categoryId":"52e81612bcbc57f1066b7a0e","category":"Champagne Bar","checkinsCount":74,"usersCount":57,"tipCount":3,"visitsCount":76,"tier":"","message":"","currency":"","rating":6.6},{"name":"Longlevens RFC","phone":"+441452306880","address":"Longford Ln","lat":51.87903433818993,"lng":-2.221190929412842,"city_fetched":"Cheltenham,UK","country":"United Kingdom","canonicalUrl":"https://foursquare.com/v/longlevens-rfc/4d5c50176ab42c0f08000245","categoryId":"4bf58dd8d48988d11d941735","category":"Sports Bar","checkinsCount":524,"usersCount":41,"tipCount":3,"visitsCount":583,"tier":"","message":"","currency":"","rating":6.6},{"name":"The Brown Jug","phone":"+441242521736","twitter":"thebrownjug","address":"242 Bath Rd.","lat":51.887736,"lng":-2.08016574382782,"city_fetched":"Cheltenham,UK","state":"Gloucestershire","country":"United Kingdom","canonicalUrl":"https://foursquare.com/v/the-brown-jug/4bdb0b043c4fef3b9abaf4bf","categoryId":"4bf58dd8d48988d11b941735","category":"Pub","checkinsCount":351,"usersCount":142,"tipCount":4,"visitsCount":351,"url":"http://www.brownjug-cheltenham.com","tier":"","message":"","currency":"","rating":6.5},{"name":"Exmouth Arms","phone":"+441242528149","twitter":"theexmouth","address":"Bath Rd","lat":51.88920636981512,"lng":-2.0794200897216797,"city_fetched":"Cheltenham,UK","state":"Gloucestershire","country":"United Kingdom","canonicalUrl":"https://foursquare.com/v/exmouth-arms/4b77f16ff964a5209caf2ee3","categoryId":"4bf58dd8d48988d11b941735","category":"Pub","checkinsCount":821,"usersCount":417,"tipCount":11,"visitsCount":1064,"url":"http://theexmouth.co.uk","tier":"","message":"","currency":"","rating":6.5},{"name":"The Moon Under Water (Wetherspoon)","phone":"+441242583945","address":"16-28 Bath Rd.","lat":51.89746945067253,"lng":-2.0725321769714355,"city_fetched":"Cheltenham,UK","state":"Gloucestershire","country":"United Kingdom","canonicalUrl":"https://foursquare.com/v/the-moon-under-water-wetherspoon/4baa96dcf964a52074773ae3","categoryId":"4bf58dd8d48988d11b941735","category":"Pub","checkinsCount":905,"usersCount":413,"tipCount":6,"visitsCount":1070,"url":"http://www.jdwetherspoon.co.uk","tier":"","message":"","currency":"","rating":6.5},{"name":"Revolution","phone":"+441242234045","twitter":"revscheltenham","address":"Clarence Parade","lat":51.900276433629195,"lng":-2.0775318145751953,"city_fetched":"Cheltenham,UK","state":"Gloucestershire","country":"United Kingdom","canonicalUrl":"https://foursquare.com/v/revolution/4b65f214f964a5203b0a2be3","categoryId":"4bf58dd8d48988d11e941735","category":"Cocktail Bar","checkinsCount":1593,"usersCount":485,"tipCount":9,"visitsCount":1654,"url":"http://www.revolution-bars.co.uk","tier":"","message":"","currency":"","rating":6.5},{"name":"The Bayshill Inn","phone":"+441242524388","address":"89 St. George's Place","lat":51.89979767305536,"lng":-2.0803643031470744,"city_fetched":"Cheltenham,UK","state":"Gloucestershire","country":"United Kingdom","canonicalUrl":"https://foursquare.com/v/the-bayshill-inn/4bdc553ac79cc9287f0d86e9","categoryId":"4bf58dd8d48988d11b941735","category":"Pub","checkinsCount":497,"usersCount":159,"tipCount":2,"visitsCount":571,"tier":"","message":"","currency":"","rating":6.3},{"name":"Montpellier Wine Bar","phone":"+441242527774","address":"Bayshill Lodge","lat":51.895112508785175,"lng":-2.0833683013916016,"city_fetched":"Cheltenham,UK","state":"Gloucestershire","country":"United Kingdom","canonicalUrl":"https://foursquare.com/v/montpellier-wine-bar/4b9d1cfbf964a520db9036e3","categoryId":"4bf58dd8d48988d123941735","category":"Wine Bar","checkinsCount":814,"usersCount":344,"tipCount":8,"visitsCount":855,"tier":"","message":"","currency":"","rating":6.2},{"name":"Circus Bar","phone":"+441242578393","address":"5 Queens Circus","lat":51.8964362,"lng":-2.08109718,"city_fetched":"Cheltenham,UK","state":"Gloucestershire","country":"United Kingdom","canonicalUrl":"https://foursquare.com/v/circus-bar/4c34f08b7cc0c9b62432f49a","categoryId":"4bf58dd8d48988d116941735","category":"Bar","checkinsCount":216,"usersCount":113,"tipCount":4,"visitsCount":217,"tier":"","message":"","currency":"","rating":6.2},{"name":"The Retreat","phone":"+441242235436","address":"10/11 Suffolk Parade","lat":51.89288319999999,"lng":-2.079901,"city_fetched":"Cheltenham,UK","state":"Gloucestershire","country":"United Kingdom","canonicalUrl":"https://foursquare.com/v/the-retreat/4b5477a3f964a5205fbc27e3","categoryId":"4bf58dd8d48988d123941735","category":"Wine Bar","checkinsCount":958,"usersCount":295,"tipCount":6,"visitsCount":979,"tier":"","message":"","currency":"","rating":6.1},{"name":"MooMoo Clubrooms","phone":"+441242256827","address":"2 Regent St","lat":51.8979990835215,"lng":-2.0766305923461914,"city_fetched":"Cheltenham,UK","country":"United Kingdom","canonicalUrl":"https://foursquare.com/v/moomoo-clubrooms/4b6cb107f964a5208d4c2ce3","categoryId":"4bf58dd8d48988d11f941735","category":"Nightclub","checkinsCount":698,"usersCount":273,"tipCount":3,"visitsCount":747,"tier":"","message":"","currency":"","rating":6.1},{"name":"The Old Restoration","phone":"+441242522792","twitter":"varsitybars","address":"55-57 High St","lat":51.898038805733485,"lng":-2.0711374282836914,"city_fetched":"Cheltenham,UK","state":"Gloucestershire","country":"United Kingdom","canonicalUrl":"https://foursquare.com/v/the-old-restoration/4c2ca93cae6820a140a41943","categoryId":"4bf58dd8d48988d11b941735","category":"Pub","checkinsCount":483,"usersCount":204,"tipCount":9,"visitsCount":491,"tier":"","message":"","currency":"","rating":6.1},{"name":"81 The Prom - Restaurant and Bar","phone":"+441242255776","twitter":"81theprom","address":"81 Promenade","lat":51.898885550319875,"lng":-2.078294860149407,"city_fetched":"Cheltenham,UK","state":"Gloucestershire","country":"United Kingdom","canonicalUrl":"https://foursquare.com/v/81-the-prom--restaurant-and-bar/4ecfde366da162f1bdd60b19","categoryId":"4bf58dd8d48988d116941735","category":"Bar","checkinsCount":152,"usersCount":48,"tipCount":2,"visitsCount":155,"url":"http://www.81theprom.com","tier":"","message":"","currency":"","rating":6},{"name":"O'Neill's","phone":"+441452332993","twitter":"oneillschelt","address":"23-26 Montpellier Walk","lat":51.895272,"lng":-2.0823222398757935,"city_fetched":"Cheltenham,UK","state":"Gloucestershire","country":"United Kingdom","canonicalUrl":"https://foursquare.com/v/oneills/4bb4e64a62fca593e515f17e","categoryId":"4bf58dd8d48988d11b941735","category":"Pub","checkinsCount":913,"usersCount":289,"tipCount":2,"visitsCount":938,"url":"http://www.oneills.co.uk/cheltenham/","tier":"","message":"","currency":"","rating":5.9},{"name":"Slug & Lettuce","phone":"+441242222989","twitter":"slug_cheltenham","address":"3 Regent St","lat":51.90011417190149,"lng":-2.0747112027637273,"city_fetched":"Cheltenham,UK","state":"Gloucestershire","country":"United Kingdom","canonicalUrl":"https://foursquare.com/v/slug--lettuce/4c273621905a0f47ed866460","categoryId":"4bf58dd8d48988d11b941735","category":"Pub","checkinsCount":770,"usersCount":341,"tipCount":8,"visitsCount":773,"url":"http://www.slugandlettuce.co.uk","tier":"","message":"","currency":"","rating":5.9},{"name":"Suffolk Arms","address":"9 Suffolk Rd","lat":51.891697527792694,"lng":-2.0798819350776867,"city_fetched":"Cheltenham,UK","state":"Gloucestershire","country":"United Kingdom","canonicalUrl":"https://foursquare.com/v/suffolk-arms/4c6e71bd4d24b60c8a98d8d8","categoryId":"4bf58dd8d48988d11b941735","category":"Pub","checkinsCount":166,"usersCount":68,"tipCount":7,"visitsCount":168,"tier":"","message":"","currency":"","rating":5.9},{"name":"Fever","phone":"+441242256827","address":"2a Lower Regent Street","lat":51.898025565000076,"lng":-2.077145576477051,"city_fetched":"Cheltenham,UK","country":"United Kingdom","canonicalUrl":"https://foursquare.com/v/fever/4b571354f964a520692528e3","categoryId":"4bf58dd8d48988d11f941735","category":"Nightclub","checkinsCount":350,"usersCount":119,"tipCount":7,"visitsCount":351,"tier":"","message":"","currency":"","rating":5.7},{"name":"Subtone","phone":"+447919542436","twitter":"subtone","address":"117 Promenade","lat":51.89758861860789,"lng":-2.07916259765625,"city_fetched":"Cheltenham,UK","country":"United Kingdom","canonicalUrl":"https://foursquare.com/v/subtone/4bf72487c07c9c749195bbef","categoryId":"4bf58dd8d48988d11f941735","category":"Nightclub","checkinsCount":452,"usersCount":224,"tipCount":7,"visitsCount":483,"url":"http://www.subtone.co.uk","tier":"","message":"","currency":"","rating":5.7},{"name":"The Spectre","phone":"+441242257394","address":"High St","lat":51.89837537263773,"lng":-2.07175193146727,"city_fetched":"Cheltenham,UK","country":"United Kingdom","canonicalUrl":"https://foursquare.com/v/the-spectre/4e8338d65c5c4705b5ade84f","categoryId":"4bf58dd8d48988d11b941735","category":"Pub","checkinsCount":242,"usersCount":122,"tipCount":7,"visitsCount":244,"tier":"","message":"","currency":"","rating":5.7},{"name":"Après","phone":"+441242225530","twitter":"salsadelsol","address":"Unit 9 The Brewery Quarter","lat":51.90333478615992,"lng":-2.0760726928710938,"city_fetched":"Cheltenham,UK","state":"Gloucestershire","country":"United Kingdom","canonicalUrl":"https://foursquare.com/v/apr%C3%A8s/4bd0af12a8b3a593b265645f","categoryId":"4bf58dd8d48988d116941735","category":"Bar","checkinsCount":947,"usersCount":307,"tipCount":28,"visitsCount":951,"url":"http://www.apresbars.com","tier":"","message":"","currency":"","rating":5.7},{"name":"Lansdown Café Bar & Pizzeria","phone":"+441242522700","address":"Lansdown Rd","lat":51.89375460147858,"lng":-2.089933,"city_fetched":"Cheltenham,UK","state":"Gloucestershire","country":"United Kingdom","canonicalUrl":"https://foursquare.com/v/lansdown-caf%C3%A9-bar--pizzeria/4b6eb4c1f964a52037c72ce3","categoryId":"4bf58dd8d48988d116941735","category":"Bar","checkinsCount":650,"usersCount":281,"tipCount":10,"visitsCount":757,"tier":"","message":"","currency":"","rating":5.6},{"name":"Royal Union","address":"37 Hatherley St","lat":51.892015,"lng":-2.088905,"city_fetched":"Cheltenham,UK","state":"Gloucestershire","country":"United Kingdom","canonicalUrl":"https://foursquare.com/v/royal-union/4ce911faf3bda143d7c2bde4","categoryId":"4bf58dd8d48988d11b941735","category":"Pub","checkinsCount":299,"usersCount":59,"tipCount":5,"visitsCount":311,"tier":"","message":"","currency":"","rating":5.6},{"name":"Tailors","phone":"+441242255453","address":"4 Cambray Pl","lat":51.89895583403767,"lng":-2.0730491310526697,"city_fetched":"Cheltenham,UK","country":"United Kingdom","canonicalUrl":"https://foursquare.com/v/tailors/4c07f2fa6071a593617bdb32","categoryId":"4bf58dd8d48988d116941735","category":"Bar","checkinsCount":601,"usersCount":301,"tipCount":5,"visitsCount":610,"tier":"","message":"","currency":"","rating":5.6},{"name":"Cross Hands (Beefeater)","phone":"+441242233847","twitter":"beefeater","address":"Hayden Rd","lat":51.916290521621704,"lng":-2.105136,"city_fetched":"Cheltenham,UK","state":"Gloucestershire","country":"United Kingdom","canonicalUrl":"https://foursquare.com/v/cross-hands-beefeater/4c4d775e14b7b7132c8e5b78","categoryId":"4bf58dd8d48988d11b941735","category":"Pub","checkinsCount":347,"usersCount":134,"tipCount":4,"visitsCount":376,"url":"http://www.beefeater.co.uk/steak-restaurant/Gloucestershire/Cross-Hands-Cheltenham.html","tier":"","message":"","currency":"","rating":5.6},{"name":"The Greatfield","phone":"+441242863149","address":"Caernavon Road, Up Hatherley","lat":51.880623869864884,"lng":-2.107422351837158,"city_fetched":"Cheltenham,UK","state":"Gloucestershire","country":"United Kingdom","canonicalUrl":"https://foursquare.com/v/the-greatfield/4c1133cb3ce120a16d53091c","categoryId":"4bf58dd8d48988d11b941735","category":"Pub","checkinsCount":243,"usersCount":83,"tipCount":7,"visitsCount":254,"tier":"","message":"","currency":"","rating":5.5},{"name":"The Bank House (Wetherspoon)","phone":"+441242240940","twitter":"jdwtweet","address":"15-21 Clarence St.","lat":51.9008052,"lng":-2.0759245,"city_fetched":"Cheltenham,UK","state":"Gloucestershire","country":"United Kingdom","canonicalUrl":"https://foursquare.com/v/the-bank-house-wetherspoon/4b60492bf964a520b5dd29e3","categoryId":"4bf58dd8d48988d11b941735","category":"Pub","checkinsCount":1745,"usersCount":684,"tipCount":12,"visitsCount":1919,"url":"http://www.jdwetherspoon.co.uk","tier":1,"message":"Cheap","currency":"£","rating":5.5},{"name":"Whittle Inn (Brewers Fayre)","phone":"+441452623805","twitter":"brewersfayre","address":"Gloucester Business Park","lat":51.84739096989607,"lng":-2.171602249145508,"city_fetched":"Cheltenham,UK","state":"Gloucestershire","country":"United Kingdom","canonicalUrl":"https://foursquare.com/v/whittle-inn-brewers-fayre/4bae60eaf964a52086aa3be3","categoryId":"4bf58dd8d48988d11b941735","category":"Pub","checkinsCount":313,"usersCount":137,"tipCount":9,"visitsCount":332,"url":"http://www.brewersfayre.co.uk/pub-restaurant/Gloucestershire/Whittle-Inn-Brockworth.html","tier":"","message":"","currency":"","rating":5.4},{"name":"Soho Bar and Eatery","phone":"+441242510999","twitter":"soho__bar","address":"2 Rotunda Terr","lat":51.89525106408748,"lng":-2.083041997437714,"city_fetched":"Cheltenham,UK","state":"Gloucestershire","country":"United Kingdom","canonicalUrl":"https://foursquare.com/v/soho-bar-and-eatery/4f5a2751e4b07934aab95fc9","categoryId":"4bf58dd8d48988d11e941735","category":"Cocktail Bar","checkinsCount":214,"usersCount":103,"tipCount":1,"visitsCount":214,"url":"http://www.sohobarmontpellier.com/.","tier":"","message":"","currency":"","rating":5.2}]