[{"name":"Lime Tree Cafe Bar","phone":"+441291620959","twitter":"limetreecafebar","address":"24 St. Mary's St.","lat":51.64232428250212,"lng":-2.6742609661766252,"city_fetched":"Chepstow","state":"Monmouthshire","country":"United Kingdom","canonicalUrl":"https://foursquare.com/v/lime-tree-cafe-bar/4b3e1eddf964a5208f9825e3","category":"Caf√©","checkinsCount":620,"usersCount":190,"tipCount":8,"visitsCount":628,"tier":"","message":"","currency":"","rating":7.2},{"name":"The Bell Hanger  (Wetherspoon)","phone":"+441291637360","address":"9-10 St Mary St","lat":51.642341396116464,"lng":-2.673827562623973,"city_fetched":"Chepstow","country":"United Kingdom","canonicalUrl":"https://foursquare.com/v/the-bell-hanger--wetherspoon/4c87aaa3821e9eb09ccc8d89","category":"Pub","checkinsCount":1330,"usersCount":315,"tipCount":7,"visitsCount":1414,"url":"http://www.jdwetherspoon.co.uk","tier":"","message":"","currency":"","rating":6.4},{"name":"The George","address":"Moore Street","lat":51.64092289713711,"lng":-2.6768990933688697,"city_fetched":"Chepstow","state":"Monmouthshire","country":"United Kingdom","canonicalUrl":"https://foursquare.com/v/the-george/4c6ff04cd274b60c1ef3d70d","category":"Pub","checkinsCount":185,"usersCount":77,"tipCount":3,"visitsCount":185,"tier":"","message":"","currency":"","rating":6.4},{"name":"Two Rivers","phone":"+441291629159","address":"Newport Rd","lat":51.63709003328015,"lng":-2.682689456441895,"city_fetched":"Chepstow","state":"Monmouthshire","country":"United Kingdom","canonicalUrl":"https://foursquare.com/v/two-rivers/509b7748e4b0894ba97ed4e5","category":"Restaurant","checkinsCount":180,"usersCount":107,"tipCount":9,"visitsCount":222,"tier":"","message":"","currency":"","rating":5.8}]