[{"name":"The Queen's Head","phone":"+441494778690","address":"120 Church St.","lat":51.70252339761554,"lng":-0.6174075765258796,"city_fetched":"Chesham","state":"Buckinghamshire","country":"United Kingdom","canonicalUrl":"https://foursquare.com/v/the-queens-head/4ba64f62f964a520de4439e3","category":"Pub","checkinsCount":396,"usersCount":187,"tipCount":10,"visitsCount":557,"tier":"","message":"","currency":"","rating":8.8},{"name":"Red Squirrel Brewery Shop","phone":"+441494784857","twitter":"cheshambrewshop","address":"8 Market Square","lat":51.70362158966782,"lng":-0.6132001830941747,"city_fetched":"Chesham","state":"Buckinghamshire","country":"United Kingdom","canonicalUrl":"https://foursquare.com/v/red-squirrel-brewery-shop/520bc475498e74377dc9b06d","category":"Pub","checkinsCount":134,"usersCount":60,"tipCount":6,"visitsCount":171,"tier":"","message":"","currency":"","rating":8.3},{"name":"The George & Dragon","phone":"+441494782402","address":"14 High Street","lat":51.704440988559,"lng":-0.6130456924438477,"city_fetched":"Chesham","state":"Buckinghamshire","country":"United Kingdom","canonicalUrl":"https://foursquare.com/v/the-george--dragon/4b6cb22ef964a520f84c2ce3","category":"Pub","checkinsCount":155,"usersCount":77,"tipCount":2,"visitsCount":172,"tier":"","message":"","currency":"","rating":6.1},{"name":"The Misty Moon","address":"Hg St Chesham","lat":51.70639348557067,"lng":-0.611961870344082,"city_fetched":"Chesham","state":"Buckinghamshire","country":"United Kingdom","canonicalUrl":"https://foursquare.com/v/the-misty-moon/4c0933536071a5937b79dd32","category":"Pub","checkinsCount":247,"usersCount":81,"tipCount":4,"visitsCount":255,"tier":"","message":"","currency":"","rating":5.1}]