[{"name":"Lambton Worm","address":"52 North Rd","lat":54.87103855475104,"lng":-1.5755231180520262,"city_fetched":"Chester-le-Street,UK","state":"Durham","country":"United Kingdom","canonicalUrl":"https://foursquare.com/v/lambton-worm/4bb5f58bef159c74593675f7","categoryId":"4bf58dd8d48988d116941735","category":"Bar","checkinsCount":223,"usersCount":122,"tipCount":4,"visitsCount":336,"url":"http://www.thelambton.com","tier":"","message":"","currency":"","rating":7.3},{"name":"The Wicket Gate (Wetherspoon)","phone":"+441913872960","address":"193 Front St.","lat":54.85231036323784,"lng":-1.5732522386773748,"city_fetched":"Chester-le-Street,UK","state":"Durham","country":"United Kingdom","canonicalUrl":"https://foursquare.com/v/the-wicket-gate-wetherspoon/4c0ede1675f99c74ed89ecc4","categoryId":"4bf58dd8d48988d11b941735","category":"Pub","checkinsCount":652,"usersCount":211,"tipCount":7,"visitsCount":800,"url":"http://www.jdwetherspoon.co.uk","tier":"","message":"","currency":"","rating":7},{"name":"The Chester Moor","phone":"+441913883390","address":"Front Street, Chester Moor","lat":54.837108568489846,"lng":-1.5868950811539153,"city_fetched":"Chester-le-Street,UK","state":"Durham","country":"United Kingdom","canonicalUrl":"https://foursquare.com/v/the-chester-moor/4b5377f7f964a520709e27e3","categoryId":"4bf58dd8d48988d11b941735","category":"Pub","checkinsCount":81,"usersCount":45,"tipCount":4,"visitsCount":94,"url":"http://www.hollathans.co.uk/TheChesterMoor","tier":"","message":"","currency":"","rating":7},{"name":"Champs Sports Bar and Grill (formerly Chevys)","phone":"+441914153341","address":"Ayton","lat":54.887174,"lng":-1.55071,"city_fetched":"Chester-le-Street,UK","state":"Sunderland","country":"United Kingdom","canonicalUrl":"https://foursquare.com/v/champs-sports-bar-and-grill-formerly-chevys/4c7905b8794e224b38ec6328","categoryId":"4bf58dd8d48988d11d941735","category":"Sports Bar","checkinsCount":108,"usersCount":55,"tipCount":2,"visitsCount":153,"url":"http://champswashington.co.uk","tier":"","message":"","currency":"","rating":6.3},{"name":"Dunelm Ridge (Brewers Fayre)","phone":"+448701977086","address":"Arnison Retail Centre","lat":54.80696692943402,"lng":-1.585850715637207,"city_fetched":"Chester-le-Street,UK","state":"Durham","country":"United Kingdom","canonicalUrl":"https://foursquare.com/v/dunelm-ridge-brewers-fayre/4bc9843e937ca59373eda592","categoryId":"4bf58dd8d48988d11b941735","category":"Pub","checkinsCount":152,"usersCount":104,"tipCount":4,"visitsCount":177,"url":"http://www.brewersfayre.co.uk/content/brewersfayre/our-pubs/newcastle/dunelm-ridge.html","tier":"","message":"","currency":"","rating":4.8}]