[{"name":"The Bulls Head","phone":"+441992463385","lat":51.722454,"lng":-0.025893,"city_fetched":"Cheshunt,UK","state":"Hertfordshire","country":"United Kingdom","canonicalUrl":"https://foursquare.com/v/the-bulls-head/4cfff9826edfa093f89c0915","categoryId":"4bf58dd8d48988d11b941735","category":"Pub","checkinsCount":207,"usersCount":141,"tipCount":2,"visitsCount":281,"tier":"","message":"","currency":"","rating":8.4},{"name":"Prince Of Wales","lat":51.71307573972189,"lng":-0.07532412693259354,"city_fetched":"Cheshunt,UK","country":"United Kingdom","canonicalUrl":"https://foursquare.com/v/prince-of-wales/4c5318e5a724e21eafb236f4","categoryId":"4bf58dd8d48988d11b941735","category":"Pub","checkinsCount":150,"usersCount":99,"tipCount":5,"visitsCount":193,"tier":"","message":"","currency":"","rating":8},{"name":"The Plough","phone":"+441992711097","address":"Sewardstone Rd.","lat":51.66667969159504,"lng":0.0009387731552124023,"city_fetched":"Cheshunt,UK","state":"Essex","country":"United Kingdom","canonicalUrl":"https://foursquare.com/v/the-plough/4c6bf958f2846dcbac8d61e9","categoryId":"4bf58dd8d48988d11b941735","category":"Pub","checkinsCount":158,"usersCount":94,"tipCount":3,"visitsCount":199,"tier":"","message":"","currency":"","rating":7.5},{"name":"Goffs Oak","lat":51.71019109427204,"lng":-0.08717757069916196,"city_fetched":"Cheshunt,UK","state":"Hertfordshire","country":"United Kingdom","canonicalUrl":"https://foursquare.com/v/goffs-oak/4c6d6fc7d5c3a1cda676c52b","categoryId":"4bf58dd8d48988d11b941735","category":"Pub","checkinsCount":152,"usersCount":88,"tipCount":6,"visitsCount":153,"tier":"","message":"","currency":"","rating":7.4},{"name":"Sun And Woolpack","phone":"+441992764265","address":"640 Hertford Rd","lat":51.67109889264047,"lng":-0.040562437696810075,"neighborhood":"Enfield","city_fetched":"Cheshunt,UK","state":"Greater London","country":"United Kingdom","canonicalUrl":"https://foursquare.com/v/sun-and-woolpack/4bbcea6b078095212bf0d991","categoryId":"4bf58dd8d48988d116941735","category":"Bar","checkinsCount":796,"usersCount":63,"tipCount":2,"visitsCount":833,"tier":"","message":"","currency":"","rating":7.1},{"name":"The Crocodile","phone":"+441992623263","address":"College Rd","lat":51.70300671864967,"lng":-0.04419804634358963,"city_fetched":"Cheshunt,UK","state":"Hertfordshire","country":"United Kingdom","canonicalUrl":"https://foursquare.com/v/the-crocodile/4cae16dd628cb1f7e5603115","categoryId":"4bf58dd8d48988d11b941735","category":"Pub","checkinsCount":361,"usersCount":134,"tipCount":2,"visitsCount":423,"url":"http://www.mcmullens.co.uk/crocodile","tier":"","message":"","currency":"","rating":6.9},{"name":"Rose & Crown","address":"Clay Hill","lat":51.67048009670086,"lng":-0.08264292062754829,"neighborhood":"Enfield","city_fetched":"Cheshunt,UK","state":"Greater London","country":"United Kingdom","canonicalUrl":"https://foursquare.com/v/rose--crown/4bb60a632ea195216b09ab2f","categoryId":"4bf58dd8d48988d11b941735","category":"Pub","checkinsCount":211,"usersCount":53,"tipCount":0,"visitsCount":241,"tier":"","message":"","currency":"","rating":6.9},{"name":"The Moon and Cross (Wetherspoon)","phone":"+441992700761","address":"104-106 High St.","lat":51.68493860253343,"lng":-0.03264156130406324,"city_fetched":"Cheshunt,UK","state":"Hertfordshire","country":"United Kingdom","canonicalUrl":"https://foursquare.com/v/the-moon-and-cross-wetherspoon/4c87ac42821e9eb00ace8d89","categoryId":"4bf58dd8d48988d11b941735","category":"Pub","checkinsCount":958,"usersCount":153,"tipCount":4,"visitsCount":1024,"url":"http://www.jdwetherspoon.co.uk","tier":"","message":"","currency":"","rating":6.3},{"name":"Inn On The Park Table Table","phone":"+441992718481","twitter":"yourtabletable","address":"Solar Way","lat":51.675299,"lng":-0.020446,"neighborhood":"Enfield Lock","city_fetched":"Cheshunt,UK","state":"Greater London","country":"United Kingdom","canonicalUrl":"https://foursquare.com/v/inn-on-the-park-table-table/4c4b0193bad7a59304233dab","categoryId":"50327c8591d4c4b30a586d5d","category":"Brewery","checkinsCount":334,"usersCount":152,"tipCount":2,"visitsCount":387,"url":"http://www.tabletable.co.uk/pub-restaurant-menus/Greater-London/Inn-On-The-Park-Enfield.html","tier":"","message":"","currency":"","rating":6.1},{"name":"The Bull","lat":51.74579943477927,"lng":-0.019793868556469543,"city_fetched":"Cheshunt,UK","state":"Hertfordshire","country":"United Kingdom","canonicalUrl":"https://foursquare.com/v/the-bull/4bc8ca658b7c9c74e4ec38cf","categoryId":"4bf58dd8d48988d11b941735","category":"Pub","checkinsCount":111,"usersCount":104,"tipCount":1,"visitsCount":254,"tier":"","message":"","currency":"","rating":5.9},{"name":"The Plough","phone":"+442083634386","address":"Cattlegate Road","lat":51.68321764000682,"lng":-0.1002648658915943,"city_fetched":"Cheshunt,UK","state":"Greater London","country":"United Kingdom","canonicalUrl":"https://foursquare.com/v/the-plough/4c2ba8296e77b7139529775d","categoryId":"4bf58dd8d48988d11b941735","category":"Pub","checkinsCount":157,"usersCount":121,"tipCount":2,"visitsCount":166,"tier":"","message":"","currency":"","rating":5.9},{"name":"The Vine","address":"High street","lat":51.68969142459661,"lng":-0.03394603729248047,"city_fetched":"Cheshunt,UK","state":"Hertfordshire","country":"United Kingdom","canonicalUrl":"https://foursquare.com/v/the-vine/4c9cdde2542b224b1588e49f","categoryId":"4bf58dd8d48988d11b941735","category":"Pub","checkinsCount":255,"usersCount":109,"tipCount":0,"visitsCount":301,"tier":"","message":"","currency":"","rating":5.8},{"name":"The Pied Bull","address":"8-9 Bull's Cross","lat":51.67818684695375,"lng":-0.059269757150268575,"neighborhood":"Enfield","city_fetched":"Cheshunt,UK","state":"Greater London","country":"United Kingdom","canonicalUrl":"https://foursquare.com/v/the-pied-bull/4bcf3d56caff9521d4c4ccf0","categoryId":"4bf58dd8d48988d11b941735","category":"Pub","checkinsCount":116,"usersCount":99,"tipCount":5,"visitsCount":166,"tier":"","message":"","currency":"","rating":5.8},{"name":"The King James (Wetherspoon)","phone":"+441992781250","address":"2-3 Lynton Parade","lat":51.70100191096619,"lng":-0.03417189197111951,"city_fetched":"Cheshunt,UK","state":"Hertfordshire","country":"United Kingdom","canonicalUrl":"https://foursquare.com/v/the-king-james-wetherspoon/4b812902f964a520c09830e3","categoryId":"4bf58dd8d48988d11b941735","category":"Pub","checkinsCount":459,"usersCount":150,"tipCount":3,"visitsCount":498,"url":"http://www.jdwetherspoon.co.uk","tier":"","message":"","currency":"","rating":5.8},{"name":"The Crown","address":"157-175 Old Nazeing Rd","lat":51.74273566352738,"lng":-0.012275336185866955,"city_fetched":"Cheshunt,UK","state":"Hertfordshire","country":"United Kingdom","canonicalUrl":"https://foursquare.com/v/the-crown/4beea48f2c082d7f00a23042","categoryId":"4bf58dd8d48988d11b941735","category":"Pub","checkinsCount":266,"usersCount":351,"tipCount":13,"visitsCount":471,"tier":"","message":"","currency":"","rating":5.5},{"name":"Bakers Arms","phone":"+441992656000","address":"Sewardstone Rd.","lat":51.668101,"lng":0.0022609,"city_fetched":"Cheshunt,UK","state":"Essex","country":"United Kingdom","canonicalUrl":"https://foursquare.com/v/bakers-arms/4b969442f964a52025d634e3","categoryId":"4bf58dd8d48988d11b941735","category":"Pub","checkinsCount":170,"usersCount":136,"tipCount":6,"visitsCount":193,"tier":"","message":"","currency":"","rating":5.1}]