[{"name":"The White Swan","address":"16 St Mary's Gate","lat":53.23591799093687,"lng":-1.4240863583224181,"city_fetched":"Chesterfield,UK","state":"Derbyshire","country":"United Kingdom","canonicalUrl":"https://foursquare.com/v/the-white-swan/500829dee4b0b3c6624ce889","categoryId":"4bf58dd8d48988d11b941735","category":"Pub","checkinsCount":270,"usersCount":134,"tipCount":8,"visitsCount":290,"tier":"","message":"","currency":"","rating":8.5},{"name":"Chesterfield Arms","phone":"+441246275421","address":"40 Newbold Road","lat":53.24122250349289,"lng":-1.4320367574691772,"city_fetched":"Chesterfield,UK","state":"Derbyshire","country":"United Kingdom","canonicalUrl":"https://foursquare.com/v/chesterfield-arms/4ba3cf86f964a5200d6238e3","categoryId":"4bf58dd8d48988d11b941735","category":"Pub","checkinsCount":1524,"usersCount":144,"tipCount":8,"visitsCount":1652,"url":"http://www.chesterfieldarms.co.uk","tier":"","message":"","currency":"","rating":8.5},{"name":"Chandlers","lat":53.234704733577,"lng":-1.4243554231077233,"city_fetched":"Chesterfield,UK","state":"Derbyshire","country":"United Kingdom","canonicalUrl":"https://foursquare.com/v/chandlers/4ba3ea0bf964a520226d38e3","categoryId":"4bf58dd8d48988d116941735","category":"Bar","checkinsCount":243,"usersCount":94,"tipCount":3,"visitsCount":249,"tier":"","message":"","currency":"","rating":8.3},{"name":"The Market Pub","address":"New Square","lat":53.23572696798701,"lng":-1.430270869407581,"city_fetched":"Chesterfield,UK","state":"Derbyshire","country":"United Kingdom","canonicalUrl":"https://foursquare.com/v/the-market-pub/4ea555b429c2abc8dffb2af6","categoryId":"4bf58dd8d48988d11b941735","category":"Pub","checkinsCount":217,"usersCount":111,"tipCount":8,"visitsCount":230,"tier":"","message":"","currency":"","rating":8},{"name":"The Rutland","phone":"+447835816163","twitter":"rutlandcfield","address":"23 Stephenson Place","lat":53.23647130339363,"lng":-1.4248803900817362,"city_fetched":"Chesterfield,UK","state":"Derbyshire","country":"United Kingdom","canonicalUrl":"https://foursquare.com/v/the-rutland/4bf915d15efe2d7fa6ae6b34","categoryId":"4bf58dd8d48988d11b941735","category":"Pub","checkinsCount":354,"usersCount":156,"tipCount":11,"visitsCount":373,"tier":"","message":"","currency":"","rating":7.8},{"name":"Chesterfield Alehouse","twitter":"chesterfieldale","address":"37 West Bars","lat":53.23560020077078,"lng":-1.4348372282708783,"city_fetched":"Chesterfield,UK","state":"Derbyshire","country":"United Kingdom","canonicalUrl":"https://foursquare.com/v/chesterfield-alehouse/522b12f811d2ce5e8c003166","categoryId":"4bf58dd8d48988d11b941735","category":"Pub","checkinsCount":476,"usersCount":58,"tipCount":3,"visitsCount":490,"url":"http://www.chesterfieldalehouse.co.uk","tier":"","message":"","currency":"","rating":7.5},{"name":"The Olde House","phone":"+441246274321","address":"Loundesley Green Rd.","lat":53.25180735446533,"lng":-1.4526947767253644,"city_fetched":"Chesterfield,UK","state":"Derbyshire","country":"United Kingdom","canonicalUrl":"https://foursquare.com/v/the-olde-house/4bb3abe642959c74b547222c","categoryId":"4bf58dd8d48988d11b941735","category":"Pub","checkinsCount":355,"usersCount":139,"tipCount":6,"visitsCount":452,"url":"http://www.oldehousepub.co.uk","tier":"","message":"","currency":"","rating":7.4},{"name":"The Hardwick Inn","phone":"+441246850245","address":"Hardwick Park","lat":53.165249,"lng":-1.314942,"city_fetched":"Chesterfield,UK","state":"Derbyshire","country":"United Kingdom","canonicalUrl":"https://foursquare.com/v/the-hardwick-inn/4be6b90bbcef2d7f5a6205e5","categoryId":"4bf58dd8d48988d11b941735","category":"Pub","checkinsCount":222,"usersCount":157,"tipCount":4,"visitsCount":247,"tier":"","message":"","currency":"","rating":7.2},{"name":"Phoenix Inn","phone":"+441142486440","address":"2 High Lane,  Ridgeway","lat":53.33507589008579,"lng":-1.3986968994140625,"city_fetched":"Chesterfield,UK","country":"United Kingdom","canonicalUrl":"https://foursquare.com/v/phoenix-inn/4bf7b54f8d30d13ac969ff17","categoryId":"4bf58dd8d48988d11b941735","category":"Pub","checkinsCount":242,"usersCount":104,"tipCount":6,"visitsCount":293,"tier":"","message":"","currency":"","rating":6.9},{"name":"Spa Lane Vaults (Wetherspoon)","phone":"+441246246300","address":"34 St Mary's Gate","lat":53.23523670875366,"lng":-1.4239379587745766,"city_fetched":"Chesterfield,UK","state":"Derbyshire","country":"United Kingdom","canonicalUrl":"https://foursquare.com/v/spa-lane-vaults-wetherspoon/4bebd94aa9900f4706381840","categoryId":"4bf58dd8d48988d11b941735","category":"Pub","checkinsCount":786,"usersCount":280,"tipCount":6,"visitsCount":860,"url":"http://www.jdwetherspoon.co.uk","tier":"","message":"","currency":"","rating":6.4},{"name":"Donkey Derby","phone":"+441246554485","address":"Sheffield Rd.","lat":53.25122155713994,"lng":-1.4280584297041654,"city_fetched":"Chesterfield,UK","state":"Derbyshire","country":"United Kingdom","canonicalUrl":"https://foursquare.com/v/donkey-derby/4e5a6535a8098920b3cac8c8","categoryId":"4bf58dd8d48988d11b941735","category":"Pub","checkinsCount":322,"usersCount":137,"tipCount":8,"visitsCount":341,"tier":"","message":"","currency":"","rating":6.1},{"name":"The Lock Keeper (Brewers Fayre)","phone":"+441246560700","twitter":"brewersfayre","address":"Tapton Lock Hill","lat":53.251131,"lng":-1.419936,"city_fetched":"Chesterfield,UK","state":"Derbyshire","country":"United Kingdom","canonicalUrl":"https://foursquare.com/v/the-lock-keeper-brewers-fayre/4b9a3a6df964a520d9a535e3","categoryId":"4bf58dd8d48988d11b941735","category":"Pub","checkinsCount":380,"usersCount":196,"tipCount":3,"visitsCount":433,"url":"http://www.brewersfayre.co.uk/pub-restaurant/Derbyshire/Lock-Keeper-Chesterfield.html","tier":"","message":"","currency":"","rating":5.4},{"name":"Royal Oak","address":"Low Pavement","lat":53.23536313,"lng":-1.42779013,"city_fetched":"Chesterfield,UK","state":"Derbyshire","country":"United Kingdom","canonicalUrl":"https://foursquare.com/v/royal-oak/4d46d2c12e326ea8fa1dfba6","categoryId":"4bf58dd8d48988d11b941735","category":"Pub","checkinsCount":68,"usersCount":56,"tipCount":2,"visitsCount":70,"tier":"","message":"","currency":"","rating":5.3},{"name":"The Portland Hotel (Wetherspoon)","phone":"+441246245410","address":"West Bars","lat":53.23523138318095,"lng":-1.4313672606038965,"city_fetched":"Chesterfield,UK","state":"Derbyshire","country":"United Kingdom","canonicalUrl":"https://foursquare.com/v/the-portland-hotel-wetherspoon/4c87aaa7821e9eb0a1cc8d89","categoryId":"4bf58dd8d48988d11b941735","category":"Pub","checkinsCount":976,"usersCount":331,"tipCount":8,"visitsCount":1100,"url":"http://www.jdwetherspoon.co.uk","tier":"","message":"","currency":"","rating":5.3}]