[{"name":"The Park Tavern","phone":"+441243785057","address":"11 Priory Road","lat":50.8387648,"lng":-0.7773348,"city_fetched":"Chichester","state":"West Sussex","country":"United Kingdom","canonicalUrl":"https://foursquare.com/v/the-park-tavern/4c74334f2db5236ab9a6b979","category":"Pub","checkinsCount":218,"usersCount":111,"tipCount":2,"visitsCount":278,"url":"http://www.park-tavern-chichester.co.uk","tier":"","message":"","currency":"","rating":7.1},{"name":"Trents","phone":"+441243773714","twitter":"trents_chi","address":"50 South Street","lat":50.834729,"lng":-0.77931,"city_fetched":"Chichester","state":"West Sussex","country":"United Kingdom","canonicalUrl":"https://foursquare.com/v/trents/4bb5f2d3f562ef3b6a692f97","category":"Wine Bar","checkinsCount":522,"usersCount":223,"tipCount":10,"visitsCount":559,"url":"http://www.trentschichester.co.uk","tier":"","message":"","currency":"","rating":6.7},{"name":"The George & Dragon Inn","phone":"+441243785660","twitter":"ganddchi","address":"51 North St.","lat":50.839861035346985,"lng":-0.7783077,"city_fetched":"Chichester","state":"West Sussex","country":"United Kingdom","canonicalUrl":"https://foursquare.com/v/the-george--dragon-inn/4bc0efcdf8219c74c086b210","category":"Bed & Breakfast","checkinsCount":329,"usersCount":174,"tipCount":7,"visitsCount":363,"url":"http://www.georgeanddragoninn.co.uk","tier":"","message":"","currency":"","rating":6.5},{"name":"The Gatehouse (Wetherspoon)","phone":"+441243534070","address":"Chichester Gate","lat":50.830336630313624,"lng":-0.7834196090698242,"city_fetched":"Chichester","state":"West Sussex","country":"United Kingdom","canonicalUrl":"https://foursquare.com/v/the-gatehouse-wetherspoon/4b9b8b73f964a520480e36e3","category":"Pub","checkinsCount":633,"usersCount":251,"tipCount":7,"visitsCount":648,"url":"http://www.jdwetherspoon.co.uk","tier":"","message":"","currency":"","rating":6.3},{"name":"The Nag's Head","phone":"+441243785823","twitter":"nagsheadchi","address":"St Pancras","lat":50.83666461707513,"lng":-0.7731767756029586,"city_fetched":"Chichester","state":"West Sussex","country":"United Kingdom","canonicalUrl":"https://foursquare.com/v/the-nags-head/4c45e994f5aee21ee9d11658","category":"Pub","checkinsCount":166,"usersCount":110,"tipCount":5,"visitsCount":169,"url":"http://www.thenagshotel.co.uk","tier":"","message":"","currency":"","rating":6.2},{"name":"The Fountain","phone":"+441243781352","address":"29 Southgate","lat":50.833962,"lng":-0.779952,"city_fetched":"Chichester","state":"West Sussex","country":"United Kingdom","canonicalUrl":"https://foursquare.com/v/the-fountain/4c667b9ac2ead13a90cfb380","category":"Pub","checkinsCount":172,"usersCount":126,"tipCount":1,"visitsCount":177,"url":"http://fountainchichester.co.uk","tier":"","message":"","currency":"","rating":6.1},{"name":"The Dolphin & Anchor (Wetherspoon)","phone":"+441243790280","address":"West St.","lat":50.836689200161366,"lng":-0.7799997925758362,"city_fetched":"Chichester","state":"West Sussex","country":"United Kingdom","canonicalUrl":"https://foursquare.com/v/the-dolphin--anchor-wetherspoon/4bdc8132c79cc928dbdb86e9","category":"Pub","checkinsCount":525,"usersCount":281,"tipCount":6,"visitsCount":559,"url":"http://www.jdwetherspoon.co.uk/home/pubs/the-dolphin-anchor","tier":"","message":"","currency":"","rating":6},{"name":"Wests","address":"West Street","lat":50.83692997909764,"lng":-0.7818014795161677,"city_fetched":"Chichester","state":"West Sussex","country":"United Kingdom","canonicalUrl":"https://foursquare.com/v/wests/4c8bda4b55fba0934c025aab","category":"Bar","checkinsCount":177,"usersCount":96,"tipCount":5,"visitsCount":178,"url":"http://www.westschichesterpub.co.uk","tier":"","message":"","currency":"","rating":5.8},{"name":"Slug and Lettuce","phone":"+441243792012","address":"27 Southgate","lat":50.833946,"lng":-0.779879,"city_fetched":"Chichester","state":"West Sussex","country":"United Kingdom","canonicalUrl":"https://foursquare.com/v/slug-and-lettuce/4bd3409341b9ef3bddadffe5","category":"Pub","checkinsCount":214,"usersCount":124,"tipCount":6,"visitsCount":215,"url":"http://slugandlettuce.co.uk","tier":"","message":"","currency":"","rating":5.7},{"name":"The Vestry","phone":"+441243773358","address":"21-23 Southgate","lat":50.8336589,"lng":-0.7801646,"city_fetched":"Chichester","state":"West Sussex","country":"United Kingdom","canonicalUrl":"https://foursquare.com/v/the-vestry/4bdc8f9ac79cc928ac2087e9","category":"Bar","checkinsCount":223,"usersCount":126,"tipCount":6,"visitsCount":224,"tier":"","message":"","currency":"","rating":4.9}]