[{"name":"Dressers Arms","lat":53.685407,"lng":-2.600621,"city_fetched":"Chorley,UK","state":"Lancashire","country":"United Kingdom","canonicalUrl":"https://foursquare.com/v/dressers-arms/4c89334c944e224b01ba2285","categoryId":"4bf58dd8d48988d11b941735","category":"Pub","checkinsCount":135,"usersCount":59,"tipCount":4,"visitsCount":162,"tier":"","message":"","currency":"","rating":7.8},{"name":"The Sea View","phone":"+441257270262","address":"Preston Rd","lat":53.67362038362018,"lng":-2.6341795416524736,"city_fetched":"Chorley,UK","state":"Lancashire","country":"United Kingdom","canonicalUrl":"https://foursquare.com/v/the-sea-view/4d84e215f9f3a1cd8056bf64","categoryId":"4bf58dd8d48988d11b941735","category":"Pub","checkinsCount":87,"usersCount":56,"tipCount":2,"visitsCount":107,"tier":"","message":"","currency":"","rating":7.1},{"name":"The Sir Henry Tate (Lloyds No. 1 Bar)","phone":"+441257248470","address":"1 New Market St.","lat":53.65392552973512,"lng":-2.6306623220443726,"city_fetched":"Chorley,UK","state":"Lancashire","country":"United Kingdom","canonicalUrl":"https://foursquare.com/v/the-sir-henry-tate-lloyds-no-1-bar/4b444764f964a5205ff325e3","categoryId":"4bf58dd8d48988d11b941735","category":"Pub","checkinsCount":599,"usersCount":231,"tipCount":3,"visitsCount":695,"url":"http://www.jdwetherspoon.co.uk","tier":"","message":"","currency":"","rating":6.9},{"name":"The Fieldfare","phone":"+441257267846","address":"Foxhole Rd","lat":53.655545024756485,"lng":-2.65718936920166,"city_fetched":"Chorley,UK","state":"Lancashire","country":"United Kingdom","canonicalUrl":"https://foursquare.com/v/the-fieldfare/4c8bb5893dc2a1cd61c2b832","categoryId":"4bf58dd8d48988d11b941735","category":"Pub","checkinsCount":281,"usersCount":119,"tipCount":2,"visitsCount":320,"tier":"","message":"","currency":"","rating":6.4},{"name":"The War Horse","address":"Buckshaw Village","lat":53.67700301880726,"lng":-2.6568880617526123,"city_fetched":"Chorley,UK","state":"Lancashire","country":"United Kingdom","canonicalUrl":"https://foursquare.com/v/the-war-horse/548f3482498ed29d2bcfaa56","categoryId":"4bf58dd8d48988d11b941735","category":"Pub","checkinsCount":77,"usersCount":54,"tipCount":2,"visitsCount":144,"tier":"","message":"","currency":"","rating":6.2}]