[{"name":"The Green Dragon","phone":"+441242870271","address":"Main Road","lat":51.8263625950069,"lng":-2.047104835510254,"city_fetched":"Cirencester,UK","country":"United Kingdom","canonicalUrl":"https://foursquare.com/v/the-green-dragon/4b4c23d9f964a520b8ae26e3","categoryId":"4bf58dd8d48988d11b941735","category":"Pub","checkinsCount":182,"usersCount":166,"tipCount":6,"visitsCount":224,"tier":"","message":"","currency":"","rating":8.1},{"name":"The Potting Shed Pub","address":"The Street","lat":51.63477213596557,"lng":-2.0671596859589734,"city_fetched":"Cirencester,UK","state":"Wiltshire","country":"United Kingdom","canonicalUrl":"https://foursquare.com/v/the-potting-shed-pub/4bab6404f964a520aea53ae3","categoryId":"4bf58dd8d48988d11b941735","category":"Pub","checkinsCount":254,"usersCount":176,"tipCount":7,"visitsCount":305,"url":"http://www.thepottingshedpub.com","tier":"","message":"","currency":"","rating":7.7},{"name":"The Village Pub","phone":"+441285740421","address":"Burford Rd","lat":51.74467742443085,"lng":-1.890597,"city_fetched":"Cirencester,UK","state":"Gloucestershire","country":"United Kingdom","canonicalUrl":"https://foursquare.com/v/the-village-pub/4bee9a13d355a593d80a0b60","categoryId":"4bf58dd8d48988d1d5941735","category":"Hotel Bar","checkinsCount":129,"usersCount":131,"tipCount":2,"visitsCount":179,"url":"http://www.thevillagepub.co.uk","tier":"","message":"","currency":"","rating":7.7},{"name":"The Crown Inn","phone":"+441285760601","address":"Frampton Mansell","lat":51.72304730629332,"lng":-2.112894058227539,"city_fetched":"Cirencester,UK","state":"Gloucestershire","country":"United Kingdom","canonicalUrl":"https://foursquare.com/v/the-crown-inn/4b64628bf964a520f3ae2ae3","categoryId":"4bf58dd8d48988d11b941735","category":"Pub","checkinsCount":82,"usersCount":79,"tipCount":4,"visitsCount":120,"tier":"","message":"","currency":"","rating":7.5},{"name":"The Bell At Sapperton","address":"Sapperton","lat":51.728002265454194,"lng":-2.07601967040546,"city_fetched":"Cirencester,UK","state":"Gloucestershire","country":"United Kingdom","canonicalUrl":"https://foursquare.com/v/the-bell-at-sapperton/514e03e7e4b0d91e95104d6d","categoryId":"50327c8591d4c4b30a586d5d","category":"Brewery","checkinsCount":32,"usersCount":53,"tipCount":0,"visitsCount":58,"url":"http://bellsapperton.co.uk","tier":"","message":"","currency":"","rating":7.3},{"name":"The King's Head Hotel","lat":51.71704302282215,"lng":-1.9672995715899604,"city_fetched":"Cirencester,UK","country":"United Kingdom","canonicalUrl":"https://foursquare.com/v/the-kings-head-hotel/54149456498ea7bb8c068926","categoryId":"4bf58dd8d48988d1d5941735","category":"Hotel Bar","checkinsCount":113,"usersCount":75,"tipCount":2,"visitsCount":162,"tier":"","message":"","currency":"","rating":7.3},{"name":"Tunnel House Inn","phone":"+441285770280","address":"Tarlton Road","lat":51.70424152246953,"lng":-2.050924301147461,"city_fetched":"Cirencester,UK","state":"Gloucestershire","country":"United Kingdom","canonicalUrl":"https://foursquare.com/v/tunnel-house-inn/4bf72054c07c9c745e94bbef","categoryId":"4bf58dd8d48988d11b941735","category":"Pub","checkinsCount":85,"usersCount":73,"tipCount":4,"visitsCount":93,"tier":"","message":"","currency":"","rating":7.2},{"name":"The Fleece Hotel","phone":"+441285658507","twitter":"the_fleece","address":"Market Pl","lat":51.717037,"lng":-1.96628,"city_fetched":"Cirencester,UK","country":"United Kingdom","canonicalUrl":"https://foursquare.com/v/the-fleece-hotel/4bd5be689649ce72679a511d","categoryId":"4bf58dd8d48988d11b941735","category":"Pub","checkinsCount":309,"usersCount":205,"tipCount":10,"visitsCount":319,"url":"http://thefleececirencester.co.uk","tier":"","message":"","currency":"","rating":6.9},{"name":"The Catherine Wheel Pub","address":"Bibury","lat":51.75885021686554,"lng":-1.839163899421692,"city_fetched":"Cirencester,UK","country":"United Kingdom","canonicalUrl":"https://foursquare.com/v/the-catherine-wheel-pub/4d7250795838a093222109db","categoryId":"4bf58dd8d48988d11b941735","category":"Pub","checkinsCount":100,"usersCount":128,"tipCount":5,"visitsCount":145,"tier":"","message":"","currency":"","rating":6.6},{"name":"The Ragged Cot","phone":"+441453884643","address":"Cirencester Rd.","lat":51.709254782936426,"lng":-2.1651899097999943,"city_fetched":"Cirencester,UK","state":"Gloucestershire","country":"United Kingdom","canonicalUrl":"https://foursquare.com/v/the-ragged-cot/4bdecd8bfe0e62b526f60506","categoryId":"4bf58dd8d48988d11b941735","category":"Pub","checkinsCount":80,"usersCount":70,"tipCount":1,"visitsCount":106,"url":"http://www.theraggedcot.co.uk","tier":"","message":"","currency":"","rating":6.5},{"name":"Thames Head Inn","phone":"+441285770259","address":"Tetbury Road","lat":51.675619806213064,"lng":-2.01905086058799,"city_fetched":"Cirencester,UK","state":"Gloucestershire","country":"United Kingdom","canonicalUrl":"https://foursquare.com/v/thames-head-inn/4c963dbb82b56dcbd9aedfaa","categoryId":"4bf58dd8d48988d11b941735","category":"Pub","checkinsCount":110,"usersCount":45,"tipCount":4,"visitsCount":130,"url":"http://www.thamesheadinn.co.uk","tier":"","message":"","currency":"","rating":6.1},{"name":"The Bear Inn","lat":51.71651960268322,"lng":-1.965863582262897,"city_fetched":"Cirencester,UK","country":"United Kingdom","canonicalUrl":"https://foursquare.com/v/the-bear-inn/4c6426b9eb82d13a089409d6","categoryId":"4bf58dd8d48988d11b941735","category":"Pub","checkinsCount":107,"usersCount":101,"tipCount":2,"visitsCount":115,"tier":"","message":"","currency":"","rating":6}]