[{"name":"Swan With Two Necks","address":"Pendleton","lat":53.852203554154016,"lng":-2.373004421309675,"city_fetched":"Clitheroe,UK","state":"Lancashire","country":"United Kingdom","canonicalUrl":"https://foursquare.com/v/swan-with-two-necks/4bbe2af9b42aef3b3d864bc3","categoryId":"4bf58dd8d48988d11b941735","category":"Pub","checkinsCount":197,"usersCount":62,"tipCount":9,"visitsCount":223,"tier":"","message":"","currency":"","rating":8.7},{"name":"New Inn","address":"Parson Lane","lat":53.87195978055373,"lng":-2.3936433360083216,"city_fetched":"Clitheroe,UK","state":"Lancashire","country":"United Kingdom","canonicalUrl":"https://foursquare.com/v/new-inn/4c39f2c81a38ef3bc4019321","categoryId":"4bf58dd8d48988d11b941735","category":"Pub","checkinsCount":921,"usersCount":63,"tipCount":8,"visitsCount":938,"tier":"","message":"","currency":"","rating":8.4},{"name":"The Emporium","phone":"+441200444174","twitter":"theempclitheroe","address":"More Lane","lat":53.86930373,"lng":-2.392449,"city_fetched":"Clitheroe,UK","state":"Lancashire","country":"United Kingdom","canonicalUrl":"https://foursquare.com/v/the-emporium/4beaa87462c0c928d50fe1d4","categoryId":"4bf58dd8d48988d123941735","category":"Wine Bar","checkinsCount":355,"usersCount":179,"tipCount":11,"visitsCount":396,"url":"http://www.theemporiumclitheroe.co.uk","tier":"","message":"","currency":"","rating":7.9},{"name":"The Eagle at Barrow","phone":"+441254825285","address":"Clitheroe Rd.","lat":53.83387538166851,"lng":-2.4038985541662923,"city_fetched":"Clitheroe,UK","state":"Blackburn with Darwen","country":"United Kingdom","canonicalUrl":"https://foursquare.com/v/the-eagle-at-barrow/4c2ce7808ef52d7f0ea833ba","categoryId":"4bf58dd8d48988d11b941735","category":"Pub","checkinsCount":237,"usersCount":114,"tipCount":6,"visitsCount":292,"tier":"","message":"","currency":"","rating":7.7},{"name":"Calf's Head","phone":"+441200441218","address":"Worston","lat":53.880662,"lng":-2.353417,"city_fetched":"Clitheroe,UK","state":"Lancashire","country":"United Kingdom","canonicalUrl":"https://foursquare.com/v/calfs-head/4b745a94f964a52040d72de3","categoryId":"4bf58dd8d48988d11b941735","category":"Pub","checkinsCount":201,"usersCount":86,"tipCount":9,"visitsCount":243,"url":"http://www.calfshead.com","tier":"","message":"","currency":"","rating":7.6},{"name":"Waddington Arms","phone":"+441200423262","lat":53.890526,"lng":-2.413984,"city_fetched":"Clitheroe,UK","state":"Lancashire","country":"United Kingdom","canonicalUrl":"https://foursquare.com/v/waddington-arms/4c1df673b306c928475666b7","categoryId":"4bf58dd8d48988d11b941735","category":"Pub","checkinsCount":119,"usersCount":81,"tipCount":3,"visitsCount":145,"tier":"","message":"","currency":"","rating":7.5},{"name":"Assheton Arms","phone":"+441200441227","address":"Downham","lat":53.89445629681647,"lng":-2.3291883413122814,"city_fetched":"Clitheroe,UK","state":"Lancashire","country":"United Kingdom","canonicalUrl":"https://foursquare.com/v/assheton-arms/4be4a11d2457a5931b85aa15","categoryId":"4bf58dd8d48988d116941735","category":"Bar","checkinsCount":55,"usersCount":51,"tipCount":4,"visitsCount":69,"tier":"","message":"","currency":"","rating":7.4},{"name":"Parkers Arms","phone":"+441200446236","address":"Newton-in-Bowland","lat":53.94856964707426,"lng":-2.462341046623844,"city_fetched":"Clitheroe,UK","state":"Lancashire","country":"United Kingdom","canonicalUrl":"https://foursquare.com/v/parkers-arms/4e46d22652b1bac0d97c097a","categoryId":"4bf58dd8d48988d11b941735","category":"Pub","checkinsCount":46,"usersCount":32,"tipCount":2,"visitsCount":54,"url":"http://www.parkersarms.co.uk","tier":"","message":"","currency":"","rating":7.4},{"name":"Edisford Bridge","phone":"+441200427868","address":"Edisford Road","lat":53.868800521746756,"lng":-2.4201250076293945,"city_fetched":"Clitheroe,UK","state":"Lancashire","country":"United Kingdom","canonicalUrl":"https://foursquare.com/v/edisford-bridge/4c856c8488e6199c8953cbd4","categoryId":"4bf58dd8d48988d11b941735","category":"Pub","checkinsCount":61,"usersCount":46,"tipCount":3,"visitsCount":66,"tier":"","message":"","currency":"","rating":6.3}]