[{"name":"The Old Bulls Head","address":"134 Main Street","lat":52.72837355229974,"lng":-1.217587014236129,"city_fetched":"Coalville,UK","state":"Leicestershire","country":"United Kingdom","canonicalUrl":"https://foursquare.com/v/the-old-bulls-head/4cff81106edfa0934e1c0715","categoryId":"4bf58dd8d48988d11b941735","category":"Pub","checkinsCount":166,"usersCount":197,"tipCount":6,"visitsCount":297,"tier":"","message":"","currency":"","rating":8.5},{"name":"Copt Oak","lat":52.711146,"lng":-1.2880504131317139,"city_fetched":"Coalville,UK","country":"United Kingdom","canonicalUrl":"https://foursquare.com/v/copt-oak/4c150379a1010f47ac414d18","categoryId":"4bf58dd8d48988d11b941735","category":"Pub","checkinsCount":154,"usersCount":137,"tipCount":2,"visitsCount":209,"tier":"","message":"","currency":"","rating":6.6},{"name":"The Shoulder Of Mutton (Wetherspoon)","phone":"+441530567480","address":"1 Market St","lat":52.746781664491785,"lng":-1.473562717437744,"city_fetched":"Coalville,UK","state":"Leicestershire","country":"United Kingdom","canonicalUrl":"https://foursquare.com/v/the-shoulder-of-mutton-wetherspoon/5267e39e11d2f4ef42af6c5e","categoryId":"4bf58dd8d48988d11b941735","category":"Pub","checkinsCount":143,"usersCount":85,"tipCount":3,"visitsCount":283,"url":"http://www.jdwetherspoon.co.uk","tier":"","message":"","currency":"","rating":6.3},{"name":"Brewers Fayre","phone":"+448701977281","address":"Flagstaff Park","lat":52.75123884929369,"lng":-1.4460630302622237,"city_fetched":"Coalville,UK","state":"Leicestershire","country":"United Kingdom","canonicalUrl":"https://foursquare.com/v/brewers-fayre/4c4f080b960e76b08a4727e7","categoryId":"4bf58dd8d48988d11b941735","category":"Pub","checkinsCount":103,"usersCount":55,"tipCount":1,"visitsCount":103,"tier":"","message":"","currency":"","rating":5.9},{"name":"The Monkey Walk (Wetherspoon)","phone":"+441530278950","address":"1 Marlborough Sq.","lat":52.72107455312028,"lng":-1.3745549681807143,"city_fetched":"Coalville,UK","state":"Leicestershire","country":"United Kingdom","canonicalUrl":"https://foursquare.com/v/the-monkey-walk-wetherspoon/4c12b18fa5eb76b043a7beb7","categoryId":"4bf58dd8d48988d11b941735","category":"Pub","checkinsCount":525,"usersCount":103,"tipCount":3,"visitsCount":529,"url":"http://www.jdwetherspoon.co.uk","tier":"","message":"","currency":"","rating":5.7},{"name":"Charnwood Arms","address":"Beveridge Ln","lat":52.702497088496585,"lng":-1.3264564383268445,"city_fetched":"Coalville,UK","state":"Leicestershire","country":"United Kingdom","canonicalUrl":"https://foursquare.com/v/charnwood-arms/4bdc5097afe8c9b6e1d54e85","categoryId":"4bf58dd8d48988d11b941735","category":"Pub","checkinsCount":143,"usersCount":97,"tipCount":2,"visitsCount":158,"tier":"","message":"","currency":"","rating":4.9}]