[{"name":"Three Wise Monkeys","phone":"+441206543014","twitter":"twm_colchester","address":"60 High Street","lat":51.88957062046433,"lng":0.9021876338533698,"city_fetched":"Colchester","state":"Essex","country":"United Kingdom","canonicalUrl":"https://foursquare.com/v/three-wise-monkeys/5494a23b498e3b3acb94356e","category":"Bar","checkinsCount":337,"usersCount":159,"tipCount":7,"visitsCount":445,"url":"http://www.threewisemonkeyscolchester.com","tier":"","message":"","currency":"","rating":9},{"name":"The Victoria Inn","phone":"+441206514510","address":"10 North Station Road","lat":51.894802157857505,"lng":0.8956633508205414,"city_fetched":"Colchester","state":"Essex","country":"United Kingdom","canonicalUrl":"https://foursquare.com/v/the-victoria-inn/4e086d5d45ddb2875c50413a","category":"Pub","checkinsCount":406,"usersCount":122,"tipCount":12,"visitsCount":508,"tier":"","message":"","currency":"","rating":8.9},{"name":"The Hospital Arms","phone":"+441206542398","address":"123 Crouch St.","lat":51.887777,"lng":0.8899253,"city_fetched":"Colchester","state":"Essex","country":"United Kingdom","canonicalUrl":"https://foursquare.com/v/the-hospital-arms/4bbba507afe1b71309772f4b","category":"Pub","checkinsCount":494,"usersCount":206,"tipCount":5,"visitsCount":675,"tier":"","message":"","currency":"","rating":8.2},{"name":"Queen St Brewhouse","phone":"+447931120806","twitter":"queenstbrewhuis","address":"7 Queen St","lat":51.88942602374256,"lng":0.9043267843603081,"city_fetched":"Colchester","state":"Essex","country":"United Kingdom","canonicalUrl":"https://foursquare.com/v/queen-st-brewhouse/5595b6af498ed3fb9518a697","category":"Pub","checkinsCount":99,"usersCount":24,"tipCount":5,"visitsCount":104,"tier":"","message":"","currency":"","rating":8.2},{"name":"The Fat Cat","phone":"+441206577990","address":"65 Butt Rd","lat":51.88543066325277,"lng":0.8941305408269818,"city_fetched":"Colchester","state":"Essex","country":"United Kingdom","canonicalUrl":"https://foursquare.com/v/the-fat-cat/4b339728f964a5201f1b25e3","category":"Pub","checkinsCount":475,"usersCount":159,"tipCount":11,"visitsCount":587,"url":"http://www.fatcatcolchester.co.uk","tier":"","message":"","currency":"","rating":8.1},{"name":"The Purple Dog","phone":"+441206564995","twitter":"thepurpledog","address":"42 Eld Lane","lat":51.88800210683928,"lng":0.8993554665686482,"city_fetched":"Colchester","state":"Essex","country":"United Kingdom","canonicalUrl":"https://foursquare.com/thepurpledog","category":"Pub","checkinsCount":1157,"usersCount":452,"tipCount":21,"visitsCount":1315,"tier":"","message":"","currency":"","rating":8.1},{"name":"The Bricklayers","phone":"+441206852008","address":"27 Bergholt Road","lat":51.90205530393316,"lng":0.8945271130228286,"city_fetched":"Colchester","state":"Essex","country":"United Kingdom","canonicalUrl":"https://foursquare.com/v/the-bricklayers/4c0a1da135ac9c74848e85f7","category":"Pub","checkinsCount":1112,"usersCount":127,"tipCount":7,"visitsCount":1301,"tier":"","message":"","currency":"","rating":8.1},{"name":"The Rovers Tye","phone":"+441206845345","address":"Highwoods Approach","lat":51.909368485124936,"lng":0.9256687504298421,"city_fetched":"Colchester","state":"Essex","country":"United Kingdom","canonicalUrl":"https://foursquare.com/v/the-rovers-tye/4e1df6942271ff848febe32e","category":"Gastropub","checkinsCount":313,"usersCount":146,"tipCount":9,"visitsCount":379,"tier":"","message":"","currency":"","rating":7.8},{"name":"Church Street Tavern","address":"3 Church St","lat":51.8891011654351,"lng":0.8953516464045913,"city_fetched":"Colchester","state":"Essex","country":"United Kingdom","canonicalUrl":"https://foursquare.com/v/church-street-tavern/53126929498ef4bf17a04516","category":"Gastropub","checkinsCount":125,"usersCount":56,"tipCount":2,"visitsCount":131,"tier":"","message":"","currency":"","rating":7.7},{"name":"The Bull","lat":51.887594,"lng":0.895635,"city_fetched":"Colchester","country":"United Kingdom","canonicalUrl":"https://foursquare.com/v/the-bull/4be5d29abcef2d7f376104e5","category":"Bar","checkinsCount":320,"usersCount":121,"tipCount":3,"visitsCount":324,"tier":"","message":"","currency":"","rating":7.5},{"name":"Table Table","lat":51.919838,"lng":0.932722,"city_fetched":"Colchester","country":"United Kingdom","canonicalUrl":"https://foursquare.com/v/table-table/4c02b561310fc9b69edac461","category":"Pub","checkinsCount":244,"usersCount":96,"tipCount":5,"visitsCount":273,"tier":"","message":"","currency":"","rating":7.4},{"name":"Smiths Bar","lat":51.889003,"lng":0.895641,"city_fetched":"Colchester","state":"Essex","country":"United Kingdom","canonicalUrl":"https://foursquare.com/v/smiths-bar/4c379106ae2da593701effc5","category":"Bar","checkinsCount":290,"usersCount":69,"tipCount":4,"visitsCount":290,"tier":"","message":"","currency":"","rating":7.3},{"name":"The Kings Arms","lat":51.887892,"lng":0.892688,"city_fetched":"Colchester","country":"United Kingdom","canonicalUrl":"https://foursquare.com/v/the-kings-arms/4bbbb938e436ef3bb3ba5564","category":"Pub","checkinsCount":559,"usersCount":235,"tipCount":10,"visitsCount":656,"tier":"","message":"","currency":"","rating":7.3},{"name":"Foresters Arms","phone":"+441206542646","address":"1-2 Castle Road","lat":51.89094674596597,"lng":0.9065422502389755,"city_fetched":"Colchester","state":"Essex","country":"United Kingdom","canonicalUrl":"https://foursquare.com/v/foresters-arms/4bf79291abdaef3bab84a184","category":"Pub","checkinsCount":241,"usersCount":51,"tipCount":1,"visitsCount":243,"tier":"","message":"","currency":"","rating":7.2},{"name":"Qube","address":"8 Crouch Street","lat":51.88764362920152,"lng":0.8955788612365723,"city_fetched":"Colchester","state":"Essex","country":"United Kingdom","canonicalUrl":"https://foursquare.com/v/qube/4bc0d7fe920eb71381ab192c","category":"Bar","checkinsCount":220,"usersCount":94,"tipCount":2,"visitsCount":221,"tier":"","message":"","currency":"","rating":7.1},{"name":"SU Bar","address":"University of Essex, Wivenhoe Park","lat":51.876122071428576,"lng":0.94614048,"city_fetched":"Colchester","state":"Essex","country":"United Kingdom","canonicalUrl":"https://foursquare.com/v/su-bar/4cb71cc18db0a14381386f16","category":"Bar","checkinsCount":1302,"usersCount":288,"tipCount":6,"visitsCount":1367,"tier":"","message":"","currency":"","rating":7.1},{"name":"The Hole in the Wall","phone":"+441206576392","address":"Balkerne Hill","lat":51.88976797719101,"lng":0.8938304427945917,"city_fetched":"Colchester","state":"Essex","country":"United Kingdom","canonicalUrl":"https://foursquare.com/v/the-hole-in-the-wall/4bc492b52a89ef3b4574f688","category":"Pub","checkinsCount":377,"usersCount":145,"tipCount":3,"visitsCount":385,"tier":"","message":"","currency":"","rating":6.8},{"name":"Top Bar","address":"University of Essex","lat":51.876685677913,"lng":0.9463578558876077,"city_fetched":"Colchester","state":"Essex","country":"United Kingdom","canonicalUrl":"https://foursquare.com/v/top-bar/4cc0261200d83704855f485c","category":"Bar","checkinsCount":518,"usersCount":125,"tipCount":2,"visitsCount":525,"tier":"","message":"","currency":"","rating":6.7},{"name":"The Playhouse  (Wetherspoon)","phone":"+441206571003","address":"4 St Johns St.","lat":51.88742254346319,"lng":0.8969189318243871,"city_fetched":"Colchester","state":"Essex","country":"United Kingdom","canonicalUrl":"https://foursquare.com/v/the-playhouse--wetherspoon/4c87aab2821e9eb0aecc8d89","category":"Pub","checkinsCount":1526,"usersCount":589,"tipCount":9,"visitsCount":1715,"url":"http://www.jdwetherspoon.co.uk","tier":"","message":"","currency":"","rating":6.4},{"name":"The Balkerne Gate","lat":51.91981440401541,"lng":0.9326861704808479,"city_fetched":"Colchester","country":"United Kingdom","canonicalUrl":"https://foursquare.com/v/the-balkerne-gate/4ced19757b943704e3b02453","category":"Pub","checkinsCount":362,"usersCount":107,"tipCount":3,"visitsCount":367,"tier":"","message":"","currency":"","rating":6.3},{"name":"Twisters Bar","phone":"+441206500204","twitter":"twistersbar","address":"45 North Hill","lat":51.89148854539716,"lng":0.8960430857062915,"city_fetched":"Colchester","state":"Essex","country":"United Kingdom","canonicalUrl":"https://foursquare.com/v/twisters-bar/4ba6fdfaf964a520a97b39e3","category":"Cocktail Bar","checkinsCount":456,"usersCount":182,"tipCount":7,"visitsCount":471,"url":"http://twistersbar.com","tier":"","message":"","currency":"","rating":6},{"name":"V Bar","phone":"+441206561611","twitter":"vbarcolchester","address":"105 High Street","lat":51.889681997069054,"lng":0.9021541237045501,"city_fetched":"Colchester","state":"Essex","country":"United Kingdom","canonicalUrl":"https://foursquare.com/v/v-bar/4b92bf01f964a520cc1734e3","category":"Cocktail Bar","checkinsCount":376,"usersCount":158,"tipCount":5,"visitsCount":380,"url":"http://v-bar.com","tier":"","message":"","currency":"","rating":5.9},{"name":"The Albert (Beefeater)","phone":"+441206561914","twitter":"beefeater","address":"Cowdray Ave","lat":51.89759915782711,"lng":0.896365258288435,"city_fetched":"Colchester","state":"Essex","country":"United Kingdom","canonicalUrl":"https://foursquare.com/v/the-albert-beefeater/4bcaf1b7511f9521e88eb0c7","category":"Pub","checkinsCount":352,"usersCount":182,"tipCount":4,"visitsCount":379,"url":"http://www.beefeater.co.uk/steak-restaurant/Essex/Albert-Colchester.html","tier":"","message":"","currency":"","rating":5.9},{"name":"Balkerne Gate Table Table","phone":"+441206852932","twitter":"yourtabletable","address":"Ipswich Road","lat":51.909147,"lng":0.929126,"city_fetched":"Colchester","state":"Essex","country":"United Kingdom","canonicalUrl":"https://foursquare.com/v/balkerne-gate-table-table/4c7d05af09b29c74123ee63c","category":"Restaurant","checkinsCount":6,"usersCount":6,"tipCount":0,"visitsCount":6,"url":"https://www.tabletable.co.uk/pub-restaurants/Essex/Balkerne-Gate-Colchester.html?utm_source=yext&utm_medium=directories&utm_campaign=TTBalkerneGateTendring","tier":"","message":"","currency":"","rating":5.8},{"name":"The Castle Inn","phone":"+441206563988","address":"92 High St","lat":51.88972592353821,"lng":0.90363,"city_fetched":"Colchester","state":"Essex","country":"United Kingdom","canonicalUrl":"https://foursquare.com/v/the-castle-inn/4bf536676a31d13a6b93962e","category":"Pub","checkinsCount":370,"usersCount":167,"tipCount":5,"visitsCount":381,"tier":"","message":"","currency":"","rating":5.6},{"name":"Yates's","phone":"+441206710471","address":"3 Head Street","lat":51.88957792535557,"lng":0.8964741242771884,"city_fetched":"Colchester","state":"Essex","country":"United Kingdom","canonicalUrl":"https://foursquare.com/v/yatess/4b9c0881f964a520104336e3","category":"Pub","checkinsCount":249,"usersCount":156,"tipCount":3,"visitsCount":252,"url":"http://www.weareyates.co.uk","tier":"","message":"","currency":"","rating":5.5},{"name":"The Duchess","phone":"+441206769995","address":"156 High St","lat":51.8896904778761,"lng":0.8973167146322526,"city_fetched":"Colchester","state":"Essex","country":"United Kingdom","canonicalUrl":"https://foursquare.com/v/the-duchess/4e666d7aaeb77c17bf35c824","category":"Pub","checkinsCount":186,"usersCount":117,"tipCount":3,"visitsCount":188,"tier":"","message":"","currency":"","rating":5.3},{"name":"Dog and Pheasant","lat":51.91289730288405,"lng":0.8911144981057469,"city_fetched":"Colchester","country":"United Kingdom","canonicalUrl":"https://foursquare.com/v/dog-and-pheasant/4bc9b81168f976b068b35d83","category":"Pub","checkinsCount":176,"usersCount":84,"tipCount":4,"visitsCount":214,"tier":"","message":"","currency":"","rating":5.1}]