[{"name":"Oakley Hay (Beefeater)","phone":"+441536462792","twitter":"beefeater","address":"1 Little Colliers Field","lat":52.45930433810308,"lng":-0.7348394393920898,"city_fetched":"Corby,UK","state":"Northamptonshire","country":"United Kingdom","canonicalUrl":"https://foursquare.com/v/oakley-hay-beefeater/4ba9ced3f964a520d1383ae3","categoryId":"4bf58dd8d48988d11b941735","category":"Pub","checkinsCount":379,"usersCount":156,"tipCount":5,"visitsCount":416,"url":"http://www.beefeater.co.uk/steak-restaurant/Northamptonshire/Oakley-Hay-Corby.html","tier":"","message":"","currency":"","rating":6.9},{"name":"The Royal George","address":"2-6 Blind Ln","lat":52.502704191937696,"lng":-0.7541866542915293,"city_fetched":"Corby,UK","state":"Northamptonshire","country":"United Kingdom","canonicalUrl":"https://foursquare.com/v/the-royal-george/4c1398fea5eb76b09b23c0b7","categoryId":"4bf58dd8d48988d11b941735","category":"Pub","checkinsCount":102,"usersCount":35,"tipCount":6,"visitsCount":121,"tier":"","message":"","currency":"","rating":6.1},{"name":"The Spread Eagle","phone":"+441536743368","address":"Oakley Road","lat":52.4634975,"lng":-0.731498,"city_fetched":"Corby,UK","state":"Northamptonshire","country":"United Kingdom","canonicalUrl":"https://foursquare.com/v/the-spread-eagle/4baf5dc8f964a52095fa3be3","categoryId":"4bf58dd8d48988d11b941735","category":"Pub","checkinsCount":344,"usersCount":135,"tipCount":5,"visitsCount":423,"tier":"","message":"","currency":"","rating":5.4},{"name":"The Samuel Lloyd (Wetherspoon)","phone":"+441536447910","address":"Rockingham Park","lat":52.507654123207665,"lng":-0.7065582275390625,"city_fetched":"Corby,UK","state":"Northamptonshire","country":"United Kingdom","canonicalUrl":"https://foursquare.com/v/the-samuel-lloyd-wetherspoon/4c018620b45676b0875ce180","categoryId":"4bf58dd8d48988d11b941735","category":"Pub","checkinsCount":1348,"usersCount":262,"tipCount":7,"visitsCount":1474,"url":"http://www.jdwetherspoon.co.uk","tier":"","message":"","currency":"","rating":5.4},{"name":"Harper's Brook","address":"Charter Court","lat":52.47378871279816,"lng":-0.7059144973754883,"city_fetched":"Corby,UK","state":"Northamptonshire","country":"United Kingdom","canonicalUrl":"https://foursquare.com/v/harpers-brook/4b829333f964a52001d930e3","categoryId":"4bf58dd8d48988d11b941735","category":"Pub","checkinsCount":400,"usersCount":84,"tipCount":11,"visitsCount":416,"tier":"","message":"","currency":"","rating":5.3}]