[{"name":"The George Inn","address":"4 West St","lat":51.41505339509653,"lng":-2.123579978942871,"city_fetched":"Corsham,UK","state":"Wiltshire","country":"United Kingdom","canonicalUrl":"https://foursquare.com/v/the-george-inn/4b9beabaf964a520883536e3","categoryId":"4bf58dd8d48988d11b941735","category":"Pub","checkinsCount":750,"usersCount":473,"tipCount":14,"visitsCount":834,"tier":"","message":"","currency":"","rating":8.5},{"name":"Red Lion","phone":"+441249730456","address":"High St.","lat":51.41473221162909,"lng":-2.1213912963867188,"city_fetched":"Corsham,UK","state":"Wiltshire","country":"United Kingdom","canonicalUrl":"https://foursquare.com/v/red-lion/4bbb57c03db7b713be33249a","categoryId":"4bf58dd8d48988d11b941735","category":"Pub","checkinsCount":477,"usersCount":235,"tipCount":7,"visitsCount":493,"tier":"","message":"","currency":"","rating":7.7},{"name":"The Hare and Hounds","phone":"+441249701106","address":"48 Pickwick","lat":51.43400910997427,"lng":-2.198032982854802,"city_fetched":"Corsham,UK","state":"Wiltshire","country":"United Kingdom","canonicalUrl":"https://foursquare.com/v/the-hare-and-hounds/4bc34f12920eb713b33d1d2c","categoryId":"4bf58dd8d48988d11b941735","category":"Pub","checkinsCount":232,"usersCount":115,"tipCount":5,"visitsCount":276,"tier":"","message":"","currency":"","rating":7.3},{"name":"Methuen Arms","lat":51.43109,"lng":-2.18576,"city_fetched":"Corsham,UK","state":"Wiltshire","country":"United Kingdom","canonicalUrl":"https://foursquare.com/v/methuen-arms/4db2ee67a86e8d27076423ca","categoryId":"4bf58dd8d48988d1d5941735","category":"Hotel Bar","checkinsCount":180,"usersCount":91,"tipCount":3,"visitsCount":187,"tier":"","message":"","currency":"","rating":7.2},{"name":"The White Hart","lat":51.471824,"lng":-2.230289,"city_fetched":"Corsham,UK","country":"United Kingdom","canonicalUrl":"https://foursquare.com/v/the-white-hart/4c41c2cada3dc9288054c9b9","categoryId":"4bf58dd8d48988d11b941735","category":"Pub","checkinsCount":168,"usersCount":140,"tipCount":4,"visitsCount":218,"tier":"","message":"","currency":"","rating":7},{"name":"The Castle Inn hotel","lat":51.493543,"lng":-2.229143,"city_fetched":"Corsham,UK","state":"Wiltshire","country":"United Kingdom","canonicalUrl":"https://foursquare.com/v/the-castle-inn-hotel/51f0fac5498ec7543c28a896","categoryId":"4bf58dd8d48988d11b941735","category":"Pub","checkinsCount":53,"usersCount":51,"tipCount":4,"visitsCount":58,"tier":"","message":"","currency":"","rating":7},{"name":"The Brunel","phone":"+441249653100","address":"54-55 New Rd","lat":51.461054,"lng":-2.118732,"city_fetched":"Corsham,UK","state":"Wiltshire","country":"United Kingdom","canonicalUrl":"https://foursquare.com/v/the-brunel/4baf7484f964a52027013ce3","categoryId":"4bf58dd8d48988d11b941735","category":"Pub","checkinsCount":203,"usersCount":104,"tipCount":4,"visitsCount":214,"url":"http://www.brunelchippenham.co.uk","tier":"","message":"","currency":"","rating":6.5},{"name":"The Bridge House (Wetherspoon)","phone":"+441249540980","twitter":"jdwtweet","address":"Borough Parade","lat":51.4584653570545,"lng":-2.117906218359049,"city_fetched":"Corsham,UK","state":"Wiltshire","country":"United Kingdom","canonicalUrl":"https://foursquare.com/v/the-bridge-house-wetherspoon/4bb49d6fd1b0c9b6f6149daf","categoryId":"4bf58dd8d48988d11b941735","category":"Pub","checkinsCount":816,"usersCount":213,"tipCount":6,"visitsCount":858,"url":"http://www.jdwetherspoon.co.uk","tier":"","message":"","currency":"","rating":5.5}]