[{"name":"The Kenilworth","phone":"+441926779473","address":"61 Warwick Road","lat":52.34081932786115,"lng":-1.5771174430847168,"city_fetched":"Coventry,UK","state":"Warwickshire","country":"United Kingdom","canonicalUrl":"https://foursquare.com/v/the-kenilworth/4b919378f964a520e9c633e3","categoryId":"4bf58dd8d48988d11e941735","category":"Cocktail Bar","checkinsCount":234,"usersCount":127,"tipCount":10,"visitsCount":242,"tier":"","message":"","currency":"","rating":8.3},{"name":"Greyhound Inn","address":"Sutton Stop","lat":52.45744769280893,"lng":-1.4693355560302734,"neighborhood":"Longford","city_fetched":"Coventry,UK","state":"Coventry","country":"United Kingdom","canonicalUrl":"https://foursquare.com/v/greyhound-inn/4cbb38d8dd41a35d82e1eca0","categoryId":"4bf58dd8d48988d11b941735","category":"Pub","checkinsCount":288,"usersCount":205,"tipCount":6,"visitsCount":405,"tier":"","message":"","currency":"","rating":8.3},{"name":"Twisted Barrel Brewery and Tap House","phone":"+442476101701","twitter":"twistbarrelale","address":"Unit 5, FarGo Village","lat":52.40749156846741,"lng":-1.4936256408691406,"city_fetched":"Coventry,UK","state":"Coventry","country":"United Kingdom","canonicalUrl":"https://foursquare.com/v/twisted-barrel-brewery-and-tap-house/54c7d890498e78ed16b09b1d","categoryId":"50327c8591d4c4b30a586d5d","category":"Brewery","checkinsCount":80,"usersCount":33,"tipCount":2,"visitsCount":92,"url":"http://www.twistedbarrelale.co.uk","tier":"","message":"","currency":"","rating":7.9},{"name":"The Establishment","address":"37 Bailey Lane","lat":52.40811778976572,"lng":-1.508582541080759,"city_fetched":"Coventry,UK","state":"Coventry","country":"United Kingdom","canonicalUrl":"https://foursquare.com/v/the-establishment/4fbbb7cee4b0bc54728aaf7f","categoryId":"4bf58dd8d48988d116941735","category":"Bar","checkinsCount":522,"usersCount":347,"tipCount":11,"visitsCount":593,"tier":2,"message":"Moderate","currency":"£","rating":7.8},{"name":"The Earl of Mercia (Wetherspoon)","phone":"+442476433990","twitter":"jdwtweet","address":"18 High St","lat":52.406952,"lng":-1.508121,"city_fetched":"Coventry,UK","state":"Coventry","country":"United Kingdom","canonicalUrl":"https://foursquare.com/v/the-earl-of-mercia-wetherspoon/4bbcb26e4e069c747dc19de3","categoryId":"4bf58dd8d48988d11b941735","category":"Pub","checkinsCount":981,"usersCount":577,"tipCount":3,"visitsCount":1271,"url":"https://www.jdwetherspoon.com","tier":"","message":"","currency":"","rating":7.7},{"name":"The Old Windmill","address":"Spon St","lat":52.40832567214814,"lng":-1.517832,"city_fetched":"Coventry,UK","state":"West Midlands","country":"United Kingdom","canonicalUrl":"https://foursquare.com/v/the-old-windmill/4bc4c700abf49521ec8dc593","categoryId":"4bf58dd8d48988d11b941735","category":"Pub","checkinsCount":425,"usersCount":219,"tipCount":10,"visitsCount":452,"tier":"","message":"","currency":"","rating":7.7},{"name":"Inspire","phone":"+442476553355","twitter":"inspirecafebar","address":"Christchurch Spire","lat":52.405730918664474,"lng":-1.5115642547607422,"city_fetched":"Coventry,UK","state":"West Midlands","country":"United Kingdom","canonicalUrl":"https://foursquare.com/v/inspire/4bcdddcc937ca593b373ad92","categoryId":"4bf58dd8d48988d116941735","category":"Bar","checkinsCount":642,"usersCount":242,"tipCount":9,"visitsCount":676,"tier":"","message":"","currency":"","rating":7.7},{"name":"Drapers Bar","phone":"+442476221100","address":"Earl St","lat":52.40702232426732,"lng":-1.5069632256370957,"city_fetched":"Coventry,UK","state":"Coventry","country":"United Kingdom","canonicalUrl":"https://foursquare.com/v/drapers-bar/4b4b7211f964a520f39b26e3","categoryId":"4bf58dd8d48988d11b941735","category":"Pub","checkinsCount":1705,"usersCount":431,"tipCount":32,"visitsCount":1808,"tier":"","message":"","currency":"","rating":7.6},{"name":"Pyramid lounge | قهوه كوڤنتري","phone":"+447922466215","address":"120 Lower Ford St","lat":52.408831,"lng":-1.498763,"city_fetched":"Coventry,UK","state":"Coventry","country":"United Kingdom","canonicalUrl":"https://foursquare.com/v/pyramid-lounge--%D9%82%D9%87%D9%88%D9%87-%D9%83%D9%88%DA%A4%D9%86%D8%AA%D8%B1%D9%8A/545fb5ec498ed803ac65bcd6","categoryId":"4bf58dd8d48988d121941735","category":"Lounge","checkinsCount":83,"usersCount":46,"tipCount":4,"visitsCount":149,"tier":"","message":"","currency":"","rating":7.6},{"name":"The Belfry","address":"Lichfield Road","lat":52.554739417560384,"lng":-1.7333803217890367,"city_fetched":"Coventry,UK","state":"West Midlands","country":"United Kingdom","canonicalUrl":"https://foursquare.com/v/the-belfry/4e9ea73cb80311ce209c14b2","categoryId":"4bf58dd8d48988d1d5941735","category":"Hotel Bar","checkinsCount":228,"usersCount":156,"tipCount":1,"visitsCount":231,"tier":"","message":"","currency":"","rating":7.2},{"name":"The Unicorn (Hungry Horse)","phone":"+442476466745","address":"Alspath Ln","lat":52.41558049112304,"lng":-1.5775787830352783,"neighborhood":"Eastern Green","city_fetched":"Coventry,UK","state":"Coventry","country":"United Kingdom","canonicalUrl":"https://foursquare.com/v/the-unicorn-hungry-horse/4bdecd1c6198c9b643dd14ff","categoryId":"4bf58dd8d48988d11b941735","category":"Pub","checkinsCount":287,"usersCount":89,"tipCount":9,"visitsCount":326,"url":"http://thehungryhorse.co.uk","tier":"","message":"","currency":"","rating":7.1},{"name":"Whitefriars Olde Ale House","phone":"+442476251655","address":"114-115 Gosford St.","lat":52.40667337809672,"lng":-1.5028540894845055,"city_fetched":"Coventry,UK","state":"Coventry","country":"United Kingdom","canonicalUrl":"https://foursquare.com/v/whitefriars-olde-ale-house/4c7ac0f42d3ba143205392d0","categoryId":"4bf58dd8d48988d11b941735","category":"Pub","checkinsCount":473,"usersCount":183,"tipCount":4,"visitsCount":478,"tier":"","message":"","currency":"","rating":7},{"name":"The Phoenix","phone":"+442476520387","address":"122 Gosford Street","lat":52.406614524932984,"lng":-1.5040218830108643,"city_fetched":"Coventry,UK","country":"United Kingdom","canonicalUrl":"https://foursquare.com/v/the-phoenix/4c1f6796e923ef3b53ba4e54","categoryId":"4bf58dd8d48988d11b941735","category":"Pub","checkinsCount":1436,"usersCount":574,"tipCount":14,"visitsCount":1616,"url":"http://screampubs.co.uk/thephoenixcoventry","tier":"","message":"","currency":"","rating":7},{"name":"The Walsgrave Pub","phone":"+448444746026","address":"382 Walsgrave Road","lat":52.41406556314034,"lng":-1.4711681770908693,"neighborhood":"South Coventry","city_fetched":"Coventry,UK","state":"Coventry","country":"United Kingdom","canonicalUrl":"https://foursquare.com/v/the-walsgrave-pub/4d442ee14ede8eec315bf936","categoryId":"4bf58dd8d48988d11b941735","category":"Pub","checkinsCount":176,"usersCount":102,"tipCount":6,"visitsCount":256,"tier":"","message":"","currency":"","rating":6.9},{"name":"The Squirrel","address":"New Union Street","lat":52.4053349264084,"lng":-1.510271430015564,"city_fetched":"Coventry,UK","state":"Coventry","country":"United Kingdom","canonicalUrl":"https://foursquare.com/v/the-squirrel/4c0bbdd3bbc676b0a0ed4bd5","categoryId":"4bf58dd8d48988d11b941735","category":"Pub","checkinsCount":140,"usersCount":108,"tipCount":2,"visitsCount":157,"tier":"","message":"","currency":"","rating":6.9},{"name":"JJs Nightclub","phone":"+442476555913","address":"The Sky Dome","lat":52.40803206023049,"lng":-1.5180283097745109,"city_fetched":"Coventry,UK","state":"West Midlands","country":"United Kingdom","canonicalUrl":"https://foursquare.com/v/jjs-nightclub/4b47a9f7f964a5209a3926e3","categoryId":"4bf58dd8d48988d11f941735","category":"Nightclub","checkinsCount":236,"usersCount":111,"tipCount":2,"visitsCount":238,"url":"http://www.jjsnightclub.com/coventry","tier":"","message":"","currency":"","rating":6.9},{"name":"The Millpool","phone":"+442476459928","address":"Hipswell Highway","lat":52.405180899335164,"lng":-1.4604455205782003,"neighborhood":"South Coventry","city_fetched":"Coventry,UK","state":"Warwickshire","country":"United Kingdom","canonicalUrl":"https://foursquare.com/v/the-millpool/4bf18cfb52bda59338aeb1b7","categoryId":"4bf58dd8d48988d11b941735","category":"Pub","checkinsCount":280,"usersCount":91,"tipCount":3,"visitsCount":453,"url":"http://www.themillpool-coventry.co.uk","tier":"","message":"","currency":"","rating":6.8},{"name":"Quids Inn","phone":"+442476229551","twitter":"thequidsinn","address":"118 Gosford St","lat":52.406460184250534,"lng":-1.5031445749628503,"city_fetched":"Coventry,UK","state":"Coventry","country":"United Kingdom","canonicalUrl":"https://foursquare.com/v/quids-inn/4d093217611ff04df2e71efb","categoryId":"4bf58dd8d48988d116941735","category":"Bar","checkinsCount":970,"usersCount":356,"tipCount":16,"visitsCount":1064,"tier":"","message":"","currency":"","rating":6.8},{"name":"The City Arms (Wetherspoon)","phone":"+442476718170","address":"1 Earlsdon St.","lat":52.399594764423156,"lng":-1.530771816331932,"neighborhood":"Earlsdon","city_fetched":"Coventry,UK","state":"Coventry","country":"United Kingdom","canonicalUrl":"https://foursquare.com/v/the-city-arms-wetherspoon/4c87aaba821e9eb0b4cc8d89","categoryId":"4bf58dd8d48988d11b941735","category":"Pub","checkinsCount":969,"usersCount":401,"tipCount":9,"visitsCount":1116,"url":"http://www.jdwetherspoon.co.uk","tier":"","message":"","currency":"","rating":6.7},{"name":"Red Lion","address":"Ansty road","lat":52.42434718369937,"lng":-1.444695247456898,"neighborhood":"Walsgrave on Sowe","city_fetched":"Coventry,UK","state":"West Midlands","country":"United Kingdom","canonicalUrl":"https://foursquare.com/v/red-lion/4ca8b0a144a8224b620e1a40","categoryId":"4bf58dd8d48988d11b941735","category":"Pub","checkinsCount":237,"usersCount":138,"tipCount":2,"visitsCount":315,"tier":"","message":"","currency":"","rating":6.6},{"name":"Town Wall Tavern","address":"Bond Street","lat":52.40974724292755,"lng":-1.515026,"city_fetched":"Coventry,UK","state":"Coventry","country":"United Kingdom","canonicalUrl":"https://foursquare.com/v/town-wall-tavern/4b334611f964a520651825e3","categoryId":"4bf58dd8d48988d11b941735","category":"Pub","checkinsCount":152,"usersCount":89,"tipCount":5,"visitsCount":165,"tier":"","message":"","currency":"","rating":6.4},{"name":"The Castle","phone":"+442476630862","address":"7 Little Park St.","lat":52.40675894,"lng":-1.508342,"city_fetched":"Coventry,UK","state":"Coventry","country":"United Kingdom","canonicalUrl":"https://foursquare.com/v/the-castle/4c8685b247cc224bfa53aa9f","categoryId":"4bf58dd8d48988d116941735","category":"Bar","checkinsCount":304,"usersCount":212,"tipCount":4,"visitsCount":319,"url":"http://www.barracudapubgroup.co.uk/pubs/castle-coventry.html","tier":"","message":"","currency":"","rating":6.4},{"name":"The Royal Oak","address":"50 Moor St.","lat":52.39939614905743,"lng":-1.5317705030494575,"neighborhood":"Earlsdon","city_fetched":"Coventry,UK","state":"West Midlands","country":"United Kingdom","canonicalUrl":"https://foursquare.com/v/the-royal-oak/4bfd7e01f7c82d7f58448e04","categoryId":"4bf58dd8d48988d116941735","category":"Bar","checkinsCount":223,"usersCount":103,"tipCount":6,"visitsCount":240,"tier":"","message":"","currency":"","rating":6.3},{"name":"Varsity","phone":"+442476695998","address":"Gibbet Hill Rd","lat":52.3841130528509,"lng":-1.5666139125823975,"neighborhood":"South Coventry","city_fetched":"Coventry,UK","state":"West Midlands","country":"United Kingdom","canonicalUrl":"https://foursquare.com/v/varsity/4b6ae7b6f964a5202ce62be3","categoryId":"4bf58dd8d48988d11b941735","category":"Pub","checkinsCount":1903,"usersCount":889,"tipCount":27,"visitsCount":2766,"url":"http://www.varsitycoventry.co.uk","tier":"","message":"","currency":"","rating":6.3},{"name":"The Wallace","phone":"+442476331251","address":"Keresley Road","lat":52.43110627931399,"lng":-1.5302324295043945,"city_fetched":"Coventry,UK","state":"Coventry","country":"United Kingdom","canonicalUrl":"https://foursquare.com/v/the-wallace/4b8e8c28f964a520082833e3","categoryId":"4bf58dd8d48988d117941735","category":"Beer Garden","checkinsCount":89,"usersCount":62,"tipCount":4,"visitsCount":122,"tier":"","message":"","currency":"","rating":6.3},{"name":"Binley Park Inn","phone":"+442476458456","address":"Brinklow Rd, Binley","lat":52.40254282951355,"lng":-1.44573212,"neighborhood":"South Coventry","city_fetched":"Coventry,UK","state":"West Midlands","country":"United Kingdom","canonicalUrl":"https://foursquare.com/v/binley-park-inn/4c489dbcc047be9a166d3479","categoryId":"4bf58dd8d48988d11b941735","category":"Pub","checkinsCount":265,"usersCount":58,"tipCount":1,"visitsCount":306,"tier":"","message":"","currency":"","rating":6.2},{"name":"The Lounge","address":"The Parade","lat":52.289176117424105,"lng":-1.5354591281811054,"city_fetched":"Coventry,UK","state":"Warwickshire","country":"United Kingdom","canonicalUrl":"https://foursquare.com/v/the-lounge/4b450f72f964a520ef0226e3","categoryId":"4bf58dd8d48988d116941735","category":"Bar","checkinsCount":478,"usersCount":207,"tipCount":4,"visitsCount":493,"tier":"","message":"","currency":"","rating":6.2},{"name":"The Flying Standard (Wetherspoon)","phone":"+442476555723","address":"2-10 Trinity St","lat":52.40932381543509,"lng":-1.5097988301672791,"city_fetched":"Coventry,UK","state":"West Midlands","country":"United Kingdom","canonicalUrl":"https://foursquare.com/v/the-flying-standard-wetherspoon/4b87cf3ef964a5200bcd31e3","categoryId":"4bf58dd8d48988d11b941735","category":"Pub","checkinsCount":1131,"usersCount":680,"tipCount":16,"visitsCount":1243,"url":"http://www.jdwetherspoon.co.uk","tier":"","message":"","currency":"","rating":6.2},{"name":"The Gatehouse Tavern","phone":"+442476256769","address":"46 Hill Street","lat":52.410161862303255,"lng":-1.517336368560791,"city_fetched":"Coventry,UK","state":"West Midlands","country":"United Kingdom","canonicalUrl":"https://foursquare.com/v/the-gatehouse-tavern/4b9a3959f964a52097a535e3","categoryId":"4bf58dd8d48988d117941735","category":"Beer Garden","checkinsCount":187,"usersCount":96,"tipCount":5,"visitsCount":214,"tier":"","message":"","currency":"","rating":6.2},{"name":"Penny Farthing","phone":"+442476460475","address":"2 Gramercy Park","lat":52.41188246718978,"lng":-1.5986889804195192,"neighborhood":"Woodlands","city_fetched":"Coventry,UK","state":"Coventry","country":"United Kingdom","canonicalUrl":"https://foursquare.com/v/penny-farthing/51d56cd5498ebeb9c1c9fb54","categoryId":"4bf58dd8d48988d11b941735","category":"Pub","checkinsCount":196,"usersCount":79,"tipCount":4,"visitsCount":280,"url":"http://www.marstonstaverns.co.uk/coventry/penny-farthing","tier":"","message":"","currency":"","rating":6.1},{"name":"The Crew","phone":"+442476347402","address":"Queens road","lat":52.5224359555493,"lng":-1.4736730312866368,"city_fetched":"Coventry,UK","state":"Warwickshire","country":"United Kingdom","canonicalUrl":"https://foursquare.com/v/the-crew/4bc9cfef0687ef3b537fdacc","categoryId":"4bf58dd8d48988d116941735","category":"Bar","checkinsCount":652,"usersCount":136,"tipCount":3,"visitsCount":730,"tier":"","message":"","currency":"","rating":6.1},{"name":"The Copper Rooms","phone":"+442476572777","twitter":"warwicksu","address":"Warwick SU, Gibbet Hill Rd","lat":52.378814995127385,"lng":-1.560332179069519,"neighborhood":"South Coventry","city_fetched":"Coventry,UK","state":"West Midlands","country":"United Kingdom","canonicalUrl":"https://foursquare.com/v/the-copper-rooms/4b05882bf964a5200db622e3","categoryId":"4bf58dd8d48988d11f941735","category":"Nightclub","checkinsCount":571,"usersCount":192,"tipCount":1,"visitsCount":580,"url":"https://www.facebook.com/warwicksu","tier":"","message":"","currency":"","rating":5.9},{"name":"The Holyhead","phone":"+442476596782","address":"The Holyhead Rd","lat":52.41436275215031,"lng":-1.5321431472515963,"city_fetched":"Coventry,UK","state":"Coventry","country":"United Kingdom","canonicalUrl":"https://foursquare.com/v/the-holyhead/4ba6559ff964a520784739e3","categoryId":"4bf58dd8d48988d11b941735","category":"Pub","checkinsCount":363,"usersCount":210,"tipCount":6,"visitsCount":473,"url":"http://www.emberinns.co.uk","tier":"","message":"","currency":"","rating":5.9},{"name":"Marston Green Tavern","address":"Station Road","lat":52.467904599124005,"lng":-1.7530897943824866,"city_fetched":"Coventry,UK","state":"Solihull","country":"United Kingdom","canonicalUrl":"https://foursquare.com/v/marston-green-tavern/4c5ffc5c1e5cd13a4b8ea0ed","categoryId":"4bf58dd8d48988d11b941735","category":"Pub","checkinsCount":297,"usersCount":73,"tipCount":5,"visitsCount":298,"tier":"","message":"","currency":"","rating":5.8},{"name":"The Terrace Bar","phone":"+442476572777","twitter":"warwicksu","address":"Warwick SU, Gibbet Hill Road","lat":52.37876260077649,"lng":-1.5607398748397827,"neighborhood":"South Coventry","city_fetched":"Coventry,UK","state":"West Midlands","country":"United Kingdom","canonicalUrl":"https://foursquare.com/v/the-terrace-bar/4bd366ba41b9ef3b4e1a00e6","categoryId":"4bf58dd8d48988d11e941735","category":"Cocktail Bar","checkinsCount":713,"usersCount":269,"tipCount":3,"visitsCount":740,"url":"https://www.facebook.com/warwicksu","tier":"","message":"","currency":"","rating":5.8},{"name":"Town Crier","address":"Corporation St","lat":52.407887508547404,"lng":-1.5158082322654989,"city_fetched":"Coventry,UK","state":"Coventry","country":"United Kingdom","canonicalUrl":"https://foursquare.com/v/town-crier/4ca8e54a14c33704ded3d83b","categoryId":"4bf58dd8d48988d116941735","category":"Bar","checkinsCount":71,"usersCount":66,"tipCount":3,"visitsCount":73,"tier":"","message":"","currency":"","rating":5.7},{"name":"Open Arms","lat":52.39170804451504,"lng":-1.5140946297182574,"neighborhood":"Cheylesmore","city_fetched":"Coventry,UK","state":"Coventry","country":"United Kingdom","canonicalUrl":"https://foursquare.com/v/open-arms/4bac0adaf964a5203ae03ae3","categoryId":"4bf58dd8d48988d11b941735","category":"Pub","checkinsCount":339,"usersCount":135,"tipCount":11,"visitsCount":419,"tier":"","message":"","currency":"","rating":5.6},{"name":"The Spon Gate (Wetherspoon)","phone":"+442476627300","address":"The Sky Dome","lat":52.40744575319206,"lng":-1.5181517601013181,"city_fetched":"Coventry,UK","state":"West Midlands","country":"United Kingdom","canonicalUrl":"https://foursquare.com/v/the-spon-gate-wetherspoon/4c87aa2c821e9eb031cc8d89","categoryId":"4bf58dd8d48988d11b941735","category":"Pub","checkinsCount":771,"usersCount":401,"tipCount":5,"visitsCount":772,"url":"http://www.jdwetherspoon.co.uk","tier":"","message":"","currency":"","rating":5.5},{"name":"The Bear and Ragged Staff","phone":"+441926857980","address":"68 Warwick Road","lat":52.34059645988594,"lng":-1.5772461891174316,"city_fetched":"Coventry,UK","state":"Warwickshire","country":"United Kingdom","canonicalUrl":"https://foursquare.com/v/the-bear-and-ragged-staff/4b917953f964a52044bf33e3","categoryId":"4bf58dd8d48988d11b941735","category":"Pub","checkinsCount":199,"usersCount":104,"tipCount":6,"visitsCount":205,"tier":"","message":"","currency":"","rating":5.5},{"name":"The Dirty Duck","phone":"+442476572754","twitter":"warwicksu","address":"Warwick SU, Gibbet Hill Road","lat":52.37889358653713,"lng":-1.5601176023483276,"neighborhood":"South Coventry","city_fetched":"Coventry,UK","state":"West Midlands","country":"United Kingdom","canonicalUrl":"https://foursquare.com/v/the-dirty-duck/4bad3f50f964a520bb3d3be3","categoryId":"4bf58dd8d48988d11b941735","category":"Pub","checkinsCount":1696,"usersCount":622,"tipCount":12,"visitsCount":1863,"url":"https://www.facebook.com/warwicksu","tier":2,"message":"Moderate","currency":"£","rating":5.3},{"name":"Bar Fusion","address":"Warwick SU","lat":52.378662493452886,"lng":-1.5611817361453113,"neighborhood":"South Coventry","city_fetched":"Coventry,UK","state":"Coventry","country":"United Kingdom","canonicalUrl":"https://foursquare.com/v/bar-fusion/4bd070e5b221c9b6ada3d3d0","categoryId":"4bf58dd8d48988d116941735","category":"Bar","checkinsCount":715,"usersCount":260,"tipCount":4,"visitsCount":761,"tier":"","message":"","currency":"","rating":5.3},{"name":"The Burnt Post","phone":"+442476692671","twitter":"emberinns","address":"Kenpas Highway","lat":52.38502792225652,"lng":-1.530440778915605,"neighborhood":"Earlsdon","city_fetched":"Coventry,UK","state":"West Midlands","country":"United Kingdom","canonicalUrl":"https://foursquare.com/v/the-burnt-post/4c5ff45f3986e21e2e05934f","categoryId":"4bf58dd8d48988d11b941735","category":"Pub","checkinsCount":318,"usersCount":151,"tipCount":10,"visitsCount":343,"url":"http://www.emberinns.co.uk/the-burnt-post-coventry/","tier":"","message":"","currency":"","rating":5.2},{"name":"The Aardvark","phone":"+442476221465","address":"2 The Butts","lat":52.40476547676783,"lng":-1.5202170610427856,"city_fetched":"Coventry,UK","state":"West Midlands","country":"United Kingdom","canonicalUrl":"https://foursquare.com/v/the-aardvark/4b0ede0cf964a520205c23e3","categoryId":"4bf58dd8d48988d11b941735","category":"Pub","checkinsCount":528,"usersCount":226,"tipCount":9,"visitsCount":559,"tier":"","message":"","currency":"","rating":4.9},{"name":"The Oak Inn","address":"Jordan Well","lat":52.406450895477825,"lng":-1.5034103393554688,"city_fetched":"Coventry,UK","state":"West Midlands","country":"United Kingdom","canonicalUrl":"https://foursquare.com/v/the-oak-inn/4bbd12f807809521c12bda91","categoryId":"4bf58dd8d48988d11b941735","category":"Pub","checkinsCount":330,"usersCount":147,"tipCount":4,"visitsCount":330,"tier":"","message":"","currency":"","rating":4.9},{"name":"The Litten Tree","phone":"+442476258344","address":"1 Warwick Row","lat":52.40563928440892,"lng":-1.5125083923339844,"city_fetched":"Coventry,UK","state":"West Midlands","country":"United Kingdom","canonicalUrl":"https://foursquare.com/v/the-litten-tree/4bc4190974a9a593c271d5f6","categoryId":"4bf58dd8d48988d11b941735","category":"Pub","checkinsCount":193,"usersCount":155,"tipCount":4,"visitsCount":198,"tier":"","message":"","currency":"","rating":4.8}]