[{"name":"The Three Horse Shoes","phone":"+441670822410","address":"Hathery Ln.","lat":55.10812604908579,"lng":-1.5663365319167029,"city_fetched":"Cramlington,UK","state":"Northumberland","country":"United Kingdom","canonicalUrl":"https://foursquare.com/v/the-three-horse-shoes/4c82382147cc224bd25c839f","categoryId":"4bf58dd8d48988d11b941735","category":"Pub","checkinsCount":198,"usersCount":78,"tipCount":2,"visitsCount":250,"url":"http://threehorseshoes-horton.co.uk","tier":"","message":"","currency":"","rating":8.2},{"name":"The Kings Arms","phone":"+441912370275","address":"Seaton Sluice","lat":55.084202633652986,"lng":-1.4720096378067908,"city_fetched":"Cramlington,UK","country":"United Kingdom","canonicalUrl":"https://foursquare.com/v/the-kings-arms/4daf44385da3f2f3d2a24882","categoryId":"4bf58dd8d48988d11b941735","category":"Pub","checkinsCount":45,"usersCount":53,"tipCount":0,"visitsCount":73,"tier":"","message":"","currency":"","rating":8.1},{"name":"The Beacon","lat":55.041737233463685,"lng":-1.482030385400508,"city_fetched":"Cramlington,UK","country":"United Kingdom","canonicalUrl":"https://foursquare.com/v/the-beacon/4b8d648ff964a52012f932e3","categoryId":"4bf58dd8d48988d11b941735","category":"Pub","checkinsCount":399,"usersCount":119,"tipCount":3,"visitsCount":495,"tier":"","message":"","currency":"","rating":7.7},{"name":"The Falcon's Nest","phone":"+441912367078","address":"Rotary Way","lat":55.03578409086288,"lng":-1.6253727696950238,"city_fetched":"Cramlington,UK","country":"United Kingdom","canonicalUrl":"https://foursquare.com/v/the-falcons-nest/4b64341cf964a520eca32ae3","categoryId":"4bf58dd8d48988d11b941735","category":"Pub","checkinsCount":466,"usersCount":287,"tipCount":11,"visitsCount":709,"url":"http://www.vintageinn.co.uk/thefalconsnestgosforthpark/","tier":"","message":"","currency":"","rating":7.5},{"name":"Snowy Owl","phone":"+441670736111","address":"Blagdon Lane","lat":55.08592459502092,"lng":-1.6279286718484884,"city_fetched":"Cramlington,UK","state":"Northumberland","country":"United Kingdom","canonicalUrl":"https://foursquare.com/v/snowy-owl/4ba64106f964a5206e3f39e3","categoryId":"4bf58dd8d48988d11b941735","category":"Pub","checkinsCount":301,"usersCount":183,"tipCount":15,"visitsCount":367,"url":"http://www.vintageinn.co.uk/thesnowyowlcramlington/","tier":"","message":"","currency":"","rating":7.2},{"name":"The Wallaw (Wetherspoon)","phone":"+441670356830","address":"14 Union St","lat":55.12651924864046,"lng":-1.5081608929015602,"city_fetched":"Cramlington,UK","state":"Northumberland","country":"United Kingdom","canonicalUrl":"https://foursquare.com/v/the-wallaw-wetherspoon/52a85ffc498e99d4ce6175fe","categoryId":"4bf58dd8d48988d11b941735","category":"Pub","checkinsCount":207,"usersCount":71,"tipCount":7,"visitsCount":271,"url":"http://www.jdwetherspoon.co.uk/home/pubs/the-wallaw","tier":"","message":"","currency":"","rating":6.6},{"name":"The Stonebrook (Brewers Fayre)","phone":"+448701977189","address":"Edmund Rd, Holystone","lat":55.027398,"lng":-1.523239,"city_fetched":"Cramlington,UK","state":"Newcastle upon Tyne","country":"United Kingdom","canonicalUrl":"https://foursquare.com/v/the-stonebrook-brewers-fayre/4c1b774863750f478fdeb467","categoryId":"4bf58dd8d48988d11b941735","category":"Pub","checkinsCount":170,"usersCount":99,"tipCount":2,"visitsCount":210,"tier":"","message":"","currency":"","rating":6.6},{"name":"Three Mile Inn","phone":"+441912552100","twitter":"threemileinngos","address":"Great North Rd","lat":55.01950166892357,"lng":-1.6215409945330452,"city_fetched":"Cramlington,UK","country":"United Kingdom","canonicalUrl":"https://foursquare.com/v/three-mile-inn/4bbf4e7cb083a5933c29a3e9","categoryId":"4bf58dd8d48988d11b941735","category":"Pub","checkinsCount":498,"usersCount":304,"tipCount":14,"visitsCount":729,"url":"http://www.threemileinn.co.uk","tier":"","message":"","currency":"","rating":6.5},{"name":"Monkseaton Arms","address":"Front St","lat":55.041597,"lng":-1.4614842666666668,"city_fetched":"Cramlington,UK","country":"United Kingdom","canonicalUrl":"https://foursquare.com/v/monkseaton-arms/4c1bb6dceac020a1bb5045c2","categoryId":"4bf58dd8d48988d11b941735","category":"Pub","checkinsCount":160,"usersCount":102,"tipCount":2,"visitsCount":247,"tier":"","message":"","currency":"","rating":6.5},{"name":"John The Clerk (Wetherspoon)","phone":"+441670707060","address":"Low Main Place","lat":55.086556,"lng":-1.584999,"city_fetched":"Cramlington,UK","state":"Northumberland","country":"United Kingdom","canonicalUrl":"https://foursquare.com/v/john-the-clerk-wetherspoon/51dc79c5498e7cb7a5561c30","categoryId":"4bf58dd8d48988d11b941735","category":"Pub","checkinsCount":290,"usersCount":103,"tipCount":7,"visitsCount":411,"url":"http://www.jdwetherspoon.co.uk/home/pubs/john-the-clerk-of-cramlington","tier":"","message":"","currency":"","rating":6.3},{"name":"The Shire Horse","phone":"+441913409686","address":"Citadel East","lat":55.036329237926815,"lng":-1.564629077911377,"city_fetched":"Cramlington,UK","state":"N Tyneside","country":"United Kingdom","canonicalUrl":"https://foursquare.com/v/the-shire-horse/4bf55a09ff90c9b6583d5628","categoryId":"4bf58dd8d48988d11b941735","category":"Pub","checkinsCount":232,"usersCount":92,"tipCount":6,"visitsCount":240,"url":"http://www.shirehorsepub.co.uk","tier":"","message":"","currency":"","rating":5.9},{"name":"Moor Farm (Beefeater)","phone":"+441912502770","twitter":"beefeatergrill","address":"Annitsford","lat":55.06523377,"lng":-1.581223,"city_fetched":"Cramlington,UK","state":"Northumberland","country":"United Kingdom","canonicalUrl":"https://foursquare.com/v/moor-farm-beefeater/4c4d8b9314b7b713227f6078","categoryId":"4bf58dd8d48988d11b941735","category":"Pub","checkinsCount":212,"usersCount":133,"tipCount":3,"visitsCount":228,"url":"http://www.beefeater.co.uk","tier":"","message":"","currency":"","rating":5.7},{"name":"The Brockwell Seam","phone":"+441670732071","address":"Northumbrian Rd","lat":55.09603937875132,"lng":-1.5842144561269813,"city_fetched":"Cramlington,UK","state":"Northumberland","country":"United Kingdom","canonicalUrl":"https://foursquare.com/v/the-brockwell-seam/4c7e4a10d598a093bb3dc562","categoryId":"4bf58dd8d48988d11b941735","category":"Pub","checkinsCount":229,"usersCount":94,"tipCount":4,"visitsCount":367,"url":"http://www.thebrockwellseamcramlington.co.uk","tier":"","message":"","currency":"","rating":5.4}]