[{"name":"Hops","address":"8-10 Prince Albert St","lat":53.096513031713265,"lng":-2.4407509513904544,"city_fetched":"Crewe,UK","state":"Cheshire","country":"United Kingdom","canonicalUrl":"https://foursquare.com/v/hops/4dbc1630a86e0e98a1d99ca4","categoryId":"4bf58dd8d48988d11b941735","category":"Pub","checkinsCount":415,"usersCount":97,"tipCount":11,"visitsCount":454,"tier":"","message":"","currency":"","rating":9},{"name":"The George Inn (Wetherspoon)","phone":"+441270758180","address":"39 High St","lat":53.143311,"lng":-2.362506,"city_fetched":"Crewe,UK","state":"Cheshire","country":"United Kingdom","canonicalUrl":"https://foursquare.com/v/the-george-inn-wetherspoon/52b34d8c498ee85bd960838d","categoryId":"4bf58dd8d48988d11b941735","category":"Pub","checkinsCount":184,"usersCount":77,"tipCount":0,"visitsCount":246,"url":"http://www.jdwetherspoon.co.uk","tier":"","message":"","currency":"","rating":8.2},{"name":"Offbeat Brewery","address":"Thomas Streets","lat":53.0995692076885,"lng":-2.4382771758146697,"city_fetched":"Crewe,UK","state":"Cheshire","country":"United Kingdom","canonicalUrl":"https://foursquare.com/v/offbeat-brewery/506ed2cce4b0d3e0a50f4ec0","categoryId":"50327c8591d4c4b30a586d5d","category":"Brewery","checkinsCount":72,"usersCount":32,"tipCount":3,"visitsCount":76,"tier":"","message":"","currency":"","rating":7.9},{"name":"The Black Lion","phone":"+441270628711","address":"29 Welsh Row","lat":53.06778136187373,"lng":-2.5258684158325195,"city_fetched":"Crewe,UK","state":"Cheshire","country":"United Kingdom","canonicalUrl":"https://foursquare.com/v/the-black-lion/4db315b20437fa536a0bc836","categoryId":"4bf58dd8d48988d11b941735","category":"Pub","checkinsCount":180,"usersCount":65,"tipCount":8,"visitsCount":186,"tier":"","message":"","currency":"","rating":7.9},{"name":"Borough Arms","address":"33 Earle St","lat":53.098201759275,"lng":-2.4373082222942477,"city_fetched":"Crewe,UK","state":"Cheshire","country":"United Kingdom","canonicalUrl":"https://foursquare.com/v/borough-arms/4cd469d667c7236a1b250d77","categoryId":"4bf58dd8d48988d116941735","category":"Bar","checkinsCount":62,"usersCount":45,"tipCount":5,"visitsCount":70,"tier":"","message":"","currency":"","rating":7.7},{"name":"Cheshire Cat","lat":53.067847,"lng":-2.525921,"city_fetched":"Crewe,UK","state":"Cheshire","country":"United Kingdom","canonicalUrl":"https://foursquare.com/v/cheshire-cat/4bdc6ab33904a593f7134e9e","categoryId":"4bf58dd8d48988d116941735","category":"Bar","checkinsCount":428,"usersCount":191,"tipCount":12,"visitsCount":486,"tier":"","message":"","currency":"","rating":7.2},{"name":"The Farmhouse (Beefeater)","phone":"+441270251126","twitter":"beefeatergrill","address":"Coppenhall Ln","lat":53.095747,"lng":-2.485197,"city_fetched":"Crewe,UK","state":"Cheshire","country":"United Kingdom","canonicalUrl":"https://foursquare.com/v/the-farmhouse-beefeater/4c4daab2fa9d9521967b140a","categoryId":"4bf58dd8d48988d11b941735","category":"Pub","checkinsCount":160,"usersCount":113,"tipCount":6,"visitsCount":180,"url":"http://www.beefeater.co.uk","tier":"","message":"","currency":"","rating":6.3},{"name":"The Queens Arms (Wetherspoon)","phone":"+441606595350","address":"Dene Drive","lat":53.19137413831754,"lng":-2.5301645540233695,"city_fetched":"Crewe,UK","state":"Cheshire","country":"United Kingdom","canonicalUrl":"https://foursquare.com/v/the-queens-arms-wetherspoon/4c6824fee1da1b8d7a5a9fc3","categoryId":"4bf58dd8d48988d11b941735","category":"Pub","checkinsCount":294,"usersCount":91,"tipCount":1,"visitsCount":323,"url":"http://www.jdwetherspoon.co.uk","tier":"","message":"","currency":"","rating":6.2},{"name":"Brocklebank (Brewers Fayre)","phone":"+441270212432","twitter":"brewersfayre","address":"Weston Rd","lat":53.089898770178806,"lng":-2.432820838697029,"city_fetched":"Crewe,UK","state":"Cheshire","country":"United Kingdom","canonicalUrl":"https://foursquare.com/v/brocklebank-brewers-fayre/4c4ef957960e76b0819823e7","categoryId":"4bf58dd8d48988d11b941735","category":"Pub","checkinsCount":466,"usersCount":87,"tipCount":2,"visitsCount":468,"url":"http://www.brewersfayre.co.uk/pub-restaurant/Cheshire/Brocklebank-Crewe.html","tier":"","message":"","currency":"","rating":5.9},{"name":"The Gaffers Row  (Wetherspoon)","phone":"+441270503820","address":"48 Victoria St.","lat":53.09870120466023,"lng":-2.4441146850585938,"city_fetched":"Crewe,UK","state":"Cheshire","country":"United Kingdom","canonicalUrl":"https://foursquare.com/v/the-gaffers-row--wetherspoon/4c87aac3821e9eb0bacc8d89","categoryId":"4bf58dd8d48988d11b941735","category":"Pub","checkinsCount":1579,"usersCount":167,"tipCount":6,"visitsCount":1740,"url":"http://www.jdwetherspoon.co.uk","tier":"","message":"","currency":"","rating":5.7},{"name":"The Plough","phone":"+441270882085","address":"Crewe Road","lat":53.09132812920743,"lng":-2.325530810067903,"city_fetched":"Crewe,UK","state":"Cheshire","country":"United Kingdom","canonicalUrl":"https://foursquare.com/v/the-plough/4bb7638a2f70c9b60a958630","categoryId":"4bf58dd8d48988d11b941735","category":"Pub","checkinsCount":174,"usersCount":93,"tipCount":6,"visitsCount":199,"tier":"","message":"","currency":"","rating":5.7},{"name":"Boot & Shoe","lat":53.06581703,"lng":-2.518422,"city_fetched":"Crewe,UK","state":"Cheshire","country":"United Kingdom","canonicalUrl":"https://foursquare.com/v/boot--shoe/4c838420d4e23704db627188","categoryId":"4bf58dd8d48988d11b941735","category":"Pub","checkinsCount":196,"usersCount":95,"tipCount":8,"visitsCount":200,"tier":"","message":"","currency":"","rating":5.7},{"name":"Nakatcha","phone":"+441270629070","address":"20-24 Welsh Row","lat":53.067716,"lng":-2.525396,"city_fetched":"Crewe,UK","state":"Cheshire","country":"United Kingdom","canonicalUrl":"https://foursquare.com/v/nakatcha/4b6ca927f964a5202f4a2ce3","categoryId":"4bf58dd8d48988d116941735","category":"Bar","checkinsCount":104,"usersCount":65,"tipCount":5,"visitsCount":107,"tier":"","message":"","currency":"","rating":5.4},{"name":"Cronkinsons Farm","address":"Pear Tree Field","lat":53.05986373628716,"lng":-2.5049878044788874,"city_fetched":"Crewe,UK","state":"Cheshire","country":"United Kingdom","canonicalUrl":"https://foursquare.com/v/cronkinsons-farm/4c23b756c11dc9b6d94b2424","categoryId":"4bf58dd8d48988d11b941735","category":"Pub","checkinsCount":132,"usersCount":82,"tipCount":4,"visitsCount":171,"tier":"","message":"","currency":"","rating":5.3}]