[{"name":"The Boathouse Restaurant & Pub","phone":"+441236829200","twitter":"the_boathouse","address":"Auchinstarry Marina","lat":55.96687548575865,"lng":-4.049915671348572,"city_fetched":"Cumbernauld","state":"North Lanarkshire","country":"United Kingdom","canonicalUrl":"https://foursquare.com/v/the-boathouse-restaurant--pub/4b894b10f964a5202a2932e3","category":"Restaurant","checkinsCount":310,"usersCount":138,"tipCount":3,"visitsCount":350,"url":"http://www.boathousekilsyth.com","tier":"","message":"","currency":"","rating":7.1},{"name":"The Carrick Stone (wetherspoon)","phone":"+441236850260","twitter":"jdwtweet","address":"52 Teviot Walk","lat":55.94875827894491,"lng":-3.9879217743873596,"city_fetched":"Cumbernauld","country":"United Kingdom","canonicalUrl":"https://foursquare.com/v/the-carrick-stone-wetherspoon/4f20a20a7beb40f60f95cac0","category":"Pub","checkinsCount":199,"usersCount":84,"tipCount":4,"visitsCount":206,"url":"http://www.jdwetherspoon.co.uk","tier":"","message":"","currency":"","rating":6.4},{"name":"The Dovecote (Beefeater)","phone":"+441236725339","twitter":"beefeatergrill","address":"4 South Muirhead Rd","lat":55.95043281701451,"lng":-3.9847487211227417,"city_fetched":"Cumbernauld","state":"North Lanarkshire","country":"United Kingdom","canonicalUrl":"https://foursquare.com/v/the-dovecote-beefeater/4ba36bc7f964a520b23b38e3","category":"Pub","checkinsCount":191,"usersCount":93,"tipCount":6,"visitsCount":205,"url":"http://www.beefeater.co.uk","tier":"","message":"","currency":"","rating":6.2}]