[{"name":"The Parkway Hotel","lat":51.63191353031299,"lng":-3.017405398726089,"city_fetched":"Cwmbran,UK","state":"Torfaen County Borough","country":"United Kingdom","canonicalUrl":"https://foursquare.com/v/the-parkway-hotel/4bbf636f85fbb7138e187267","categoryId":"4bf58dd8d48988d1d5941735","category":"Hotel Bar","checkinsCount":339,"usersCount":140,"tipCount":7,"visitsCount":388,"tier":"","message":"","currency":"","rating":6.4},{"name":"The John Capel Hanbury (Wetherspoon)","phone":"+441495767080","address":"130-131 Osborne Rd","lat":51.60505161515902,"lng":-2.9738919643390025,"city_fetched":"Cwmbran,UK","state":"Torfaen County Borough","country":"United Kingdom","canonicalUrl":"https://foursquare.com/v/the-john-capel-hanbury-wetherspoon/4c3537c86f1fef3b8d09ed3d","categoryId":"4bf58dd8d48988d11b941735","category":"Pub","checkinsCount":189,"usersCount":53,"tipCount":3,"visitsCount":189,"url":"http://www.jdwetherspoon.co.uk","tier":"","message":"","currency":"","rating":6.2},{"name":"The Three Blackbirds","phone":"+441633483130","address":"Pentre Ln","lat":51.62648,"lng":-3.0101076,"city_fetched":"Cwmbran,UK","country":"United Kingdom","canonicalUrl":"https://foursquare.com/v/the-three-blackbirds/4c57078bcc96c9b61006782e","categoryId":"4bf58dd8d48988d11b941735","category":"Pub","checkinsCount":244,"usersCount":97,"tipCount":6,"visitsCount":261,"tier":"","message":"","currency":"","rating":6.2},{"name":"The John Fielding  (Wetherspoon)","phone":"+441633833760","address":"1 Caradoc Rd","lat":51.655285921234025,"lng":-3.0205053091049194,"city_fetched":"Cwmbran,UK","state":"Torfaen County Borough","country":"United Kingdom","canonicalUrl":"https://foursquare.com/v/the-john-fielding--wetherspoon/4c87aac8821e9eb0c0cc8d89","categoryId":"4bf58dd8d48988d11b941735","category":"Pub","checkinsCount":1575,"usersCount":298,"tipCount":5,"visitsCount":1693,"url":"http://www.jdwetherspoon.co.uk","tier":"","message":"","currency":"","rating":6.1},{"name":"Crows Nest","phone":"+441633864380","address":"2-4 Beaumaris Dr","lat":51.64565814,"lng":-3.006738,"city_fetched":"Cwmbran,UK","state":"Torfaen County Borough","country":"United Kingdom","canonicalUrl":"https://foursquare.com/v/crows-nest/4c095311009a0f47fc91e7bf","categoryId":"4bf58dd8d48988d11b941735","category":"Pub","checkinsCount":275,"usersCount":88,"tipCount":6,"visitsCount":308,"tier":"","message":"","currency":"","rating":5}]