[{"name":"Teuchters Landing","phone":"+441315547427","address":"1C Dock Pl","lat":55.97746020085387,"lng":-3.1714224815368652,"neighborhood":"Leith","city_fetched":"Dalgety Bay,UK","state":"Edinburgh","country":"United Kingdom","canonicalUrl":"https://foursquare.com/v/teuchters-landing/4b2b7e7ef964a520d4b624e3","categoryId":"4bf58dd8d48988d11b941735","category":"Pub","checkinsCount":1629,"usersCount":609,"tipCount":22,"visitsCount":1874,"tier":"","message":"","currency":"","rating":9.3},{"name":"Whiski Rooms","phone":"+441312257224","twitter":"whiskirooms","address":"4-7 North Bank St.","lat":55.94984861420049,"lng":-3.1934165954589844,"neighborhood":"The Mound","city_fetched":"Dalgety Bay,UK","state":"Edinburgh","country":"United Kingdom","canonicalUrl":"https://foursquare.com/v/whiski-rooms/4e13688952b1655efa577d1f","categoryId":"4bf58dd8d48988d122941735","category":"Whisky Bar","checkinsCount":1269,"usersCount":1315,"tipCount":46,"visitsCount":1520,"url":"http://www.whiskirooms.co.uk","tier":"","message":"","currency":"","rating":9.2},{"name":"The Holyrood 9A","phone":"+441315565044","twitter":"holyrood9a","address":"9A Holyrood Rd","lat":55.949347003722714,"lng":-3.182644844055176,"neighborhood":"Canongate","city_fetched":"Dalgety Bay,UK","state":"Edinburgh","country":"United Kingdom","canonicalUrl":"https://foursquare.com/v/the-holyrood-9a/4ba8f760f964a520a1fe39e3","categoryId":"4bf58dd8d48988d11b941735","category":"Pub","checkinsCount":3585,"usersCount":2752,"tipCount":122,"visitsCount":4439,"url":"http://www.theholyrood.co.uk","tier":2,"message":"Moderate","currency":"£","rating":9.2},{"name":"The Bow Bar","phone":"+441312267667","twitter":"bow_bar","address":"80 West Bow","lat":55.948524,"lng":-3.19419146,"neighborhood":"Cowgate","city_fetched":"Dalgety Bay,UK","state":"Midlothian","country":"United Kingdom","canonicalUrl":"https://foursquare.com/v/the-bow-bar/4b05881df964a5208eb222e3","categoryId":"4bf58dd8d48988d11b941735","category":"Pub","checkinsCount":1660,"usersCount":1189,"tipCount":54,"visitsCount":1690,"tier":1,"message":"Cheap","currency":"£","rating":9.1},{"name":"Bramble Bar","phone":"+441312266343","address":"16A Queen St","lat":55.95490141801036,"lng":-3.197680000543702,"neighborhood":"New Town","city_fetched":"Dalgety Bay,UK","state":"Edinburgh","country":"United Kingdom","canonicalUrl":"https://foursquare.com/v/bramble-bar/4b05881ff964a5200bb322e3","categoryId":"4bf58dd8d48988d11e941735","category":"Cocktail Bar","checkinsCount":906,"usersCount":647,"tipCount":48,"visitsCount":927,"url":"http://www.bramblebar.co.uk","tier":"","message":"","currency":"","rating":8.9},{"name":"The Dome","phone":"+441316248624","twitter":"domeedinburgh","address":"14 George St","lat":55.953270283539815,"lng":-3.195405453898266,"neighborhood":"New Town","city_fetched":"Dalgety Bay,UK","state":"Edinburgh","country":"United Kingdom","canonicalUrl":"https://foursquare.com/v/the-dome/4b05881ff964a5200cb322e3","categoryId":"4bf58dd8d48988d116941735","category":"Bar","checkinsCount":2499,"usersCount":2148,"tipCount":55,"visitsCount":2822,"url":"http://www.thedomeedinburgh.com","tier":"","message":"","currency":"","rating":8.9},{"name":"The Guildford Arms","phone":"+441315564312","twitter":"guildfordarms","address":"1-5 W Register St","lat":55.953646,"lng":-3.190062024470892,"neighborhood":"New Town","city_fetched":"Dalgety Bay,UK","state":"Edinburgh","country":"United Kingdom","canonicalUrl":"https://foursquare.com/v/the-guildford-arms/4b05881ef964a520ceb222e3","categoryId":"4bf58dd8d48988d11b941735","category":"Pub","checkinsCount":2040,"usersCount":1152,"tipCount":22,"visitsCount":2200,"url":"http://www.guildfordarms.com","tier":"","message":"","currency":"","rating":8.8},{"name":"Regent Bar","phone":"+441316618198","address":"2 Montrose Terrace","lat":55.95619391366135,"lng":-3.172426728678572,"neighborhood":"Abbeyhill","city_fetched":"Dalgety Bay,UK","state":"Edinburgh","country":"United Kingdom","canonicalUrl":"https://foursquare.com/v/regent-bar/4b182762f964a520e5cd23e3","categoryId":"4bf58dd8d48988d1d8941735","category":"Gay Bar","checkinsCount":900,"usersCount":690,"tipCount":34,"visitsCount":1405,"url":"http://www.theregentbar.co.uk","tier":"","message":"","currency":"","rating":8.8},{"name":"Whiski Bar & Restaurant","phone":"+441315563095","twitter":"whiskibar","address":"119 High St.","lat":55.950256,"lng":-3.18660143,"neighborhood":"Cowgate","city_fetched":"Dalgety Bay,UK","state":"Midlothian","country":"United Kingdom","canonicalUrl":"https://foursquare.com/v/whiski-bar--restaurant/4b3562c2f964a520ba2c25e3","categoryId":"4bf58dd8d48988d11b941735","category":"Pub","checkinsCount":1684,"usersCount":1512,"tipCount":52,"visitsCount":1784,"url":"http://www.whiskibar.co.uk","tier":3,"message":"Expensive","currency":"£","rating":8.7},{"name":"The Jolly Botanist","phone":"+441312265596","address":"256-260 Morrison Street","lat":55.94613503208068,"lng":-3.215583211428524,"neighborhood":"Dalry","city_fetched":"Dalgety Bay,UK","state":"Edinburgh","country":"United Kingdom","canonicalUrl":"https://foursquare.com/v/the-jolly-botanist/54ce6f65498e0e154a7b1658","categoryId":"4bf58dd8d48988d11b941735","category":"Pub","checkinsCount":226,"usersCount":214,"tipCount":9,"visitsCount":307,"url":"http://www.thejollybotanist.co.uk","tier":"","message":"","currency":"","rating":8.6},{"name":"Red Squirrel","phone":"+441312299933","twitter":"redsquirrelbar","address":"21 Lothian Rd","lat":55.94828847486103,"lng":-3.2065680145667543,"neighborhood":"Edinburgh Castle","city_fetched":"Dalgety Bay,UK","state":"Edinburgh","country":"United Kingdom","canonicalUrl":"https://foursquare.com/v/red-squirrel/4dc52b0dd4c0ad9c0f802e64","categoryId":"4bf58dd8d48988d11b941735","category":"Pub","checkinsCount":2334,"usersCount":1463,"tipCount":60,"visitsCount":2841,"url":"http://www.redsquirreledinburgh.co.uk","tier":2,"message":"Moderate","currency":"£","rating":8.6},{"name":"The Cumberland Bar","phone":"+441315583134","twitter":"cumberland7","address":"1-3 Cumberland St","lat":55.95899060302951,"lng":-3.1971287727355957,"neighborhood":"New Town","city_fetched":"Dalgety Bay,UK","state":"Edinburgh","country":"United Kingdom","canonicalUrl":"https://foursquare.com/v/the-cumberland-bar/4b06c3d4f964a520d8ef22e3","categoryId":"4bf58dd8d48988d116941735","category":"Bar","checkinsCount":1143,"usersCount":588,"tipCount":16,"visitsCount":1438,"url":"http://cumberlandbar.co.uk","tier":"","message":"","currency":"","rating":8.6},{"name":"Panda and Sons","phone":"+441312200443","address":"79 Queen St","lat":55.95326948906598,"lng":-3.2068425345654283,"neighborhood":"New Town","city_fetched":"Dalgety Bay,UK","state":"Edinburgh","country":"United Kingdom","canonicalUrl":"https://foursquare.com/v/panda-and-sons/52a0f62311d266f459ec1626","categoryId":"4bf58dd8d48988d1d4941735","category":"Speakeasy","checkinsCount":460,"usersCount":520,"tipCount":23,"visitsCount":638,"url":"http://www.pandaandsons.com","tier":"","message":"","currency":"","rating":8.5},{"name":"The Brauhaus","phone":"+441316560356","twitter":"the_brauhaus","address":"105 Lauriston Pl.","lat":55.944381610587136,"lng":-3.2018494606018066,"city_fetched":"Dalgety Bay,UK","state":"Midlothian","country":"United Kingdom","canonicalUrl":"https://foursquare.com/v/the-brauhaus/4b464be2f964a520db1c26e3","categoryId":"4bf58dd8d48988d11b941735","category":"Pub","checkinsCount":644,"usersCount":404,"tipCount":12,"visitsCount":752,"tier":"","message":"","currency":"","rating":8.4},{"name":"The Cambridge Bar","phone":"+441312262120","twitter":"cambridgebar20","address":"20 Young St","lat":55.952824511108666,"lng":-3.2059426353059473,"neighborhood":"New Town","city_fetched":"Dalgety Bay,UK","state":"Edinburgh","country":"United Kingdom","canonicalUrl":"https://foursquare.com/v/the-cambridge-bar/4b05881ef964a520c2b222e3","categoryId":"4bf58dd8d48988d116941735","category":"Bar","checkinsCount":1034,"usersCount":667,"tipCount":36,"visitsCount":1228,"url":"http://www.thecambridgebar.co.uk","tier":"","message":"","currency":"","rating":8.4},{"name":"Sofi's Bar","phone":"+441315557019","twitter":"boda_bar_tweets","address":"63-65 Henderson St","lat":55.9744225698548,"lng":-3.1721949577331543,"neighborhood":"Leith","city_fetched":"Dalgety Bay,UK","state":"Edinburgh","country":"United Kingdom","canonicalUrl":"https://foursquare.com/v/sofis-bar/4b7f0adef964a520541230e3","categoryId":"4bf58dd8d48988d116941735","category":"Bar","checkinsCount":545,"usersCount":255,"tipCount":8,"visitsCount":605,"url":"http://www.bodabar.com/sofis/","tier":"","message":"","currency":"","rating":8.4},{"name":"The Southern","phone":"+441316672288","twitter":"thesouthernbar","address":"22-26 South Clerk St","lat":55.940497446349276,"lng":-3.180742420646283,"neighborhood":"Newington","city_fetched":"Dalgety Bay,UK","state":"Edinburgh","country":"United Kingdom","canonicalUrl":"https://foursquare.com/v/the-southern/4b61f244f964a520bf2c2ae3","categoryId":"4bf58dd8d48988d11b941735","category":"Pub","checkinsCount":1438,"usersCount":746,"tipCount":26,"visitsCount":1847,"url":"http://www.thesouthern.co.uk","tier":"","message":"","currency":"","rating":8.3},{"name":"Andrew Usher And Co","phone":"+441316621757","twitter":"andyusherandco","address":"32b W Nicolson St","lat":55.94470537609042,"lng":-3.1853153000239613,"neighborhood":"Newington","city_fetched":"Dalgety Bay,UK","state":"Edinburgh","country":"United Kingdom","canonicalUrl":"https://foursquare.com/v/andrew-usher-and-co/53b95b05498e7b6c99e72eab","categoryId":"4bf58dd8d48988d11b941735","category":"Pub","checkinsCount":327,"usersCount":125,"tipCount":5,"visitsCount":333,"url":"http://www.andrewushers.co.uk","tier":"","message":"","currency":"","rating":8.3},{"name":"The Café Royal","phone":"+441315561884","address":"19 W Register St","lat":55.95379364804295,"lng":-3.19042324709638,"neighborhood":"New Town","city_fetched":"Dalgety Bay,UK","state":"Edinburgh","country":"United Kingdom","canonicalUrl":"https://foursquare.com/v/the-caf%C3%A9-royal/4b05881ef964a520c0b222e3","categoryId":"4bf58dd8d48988d11b941735","category":"Pub","checkinsCount":1733,"usersCount":1162,"tipCount":33,"visitsCount":1750,"url":"http://www.caferoyaledinburgh.co.uk","tier":"","message":"","currency":"","rating":8.3},{"name":"Roseburn Bar","phone":"+441313371067","address":"1 Roseburn Terr","lat":55.945431,"lng":-3.23398709,"neighborhood":"Roseburn","city_fetched":"Dalgety Bay,UK","state":"Edinburgh","country":"United Kingdom","canonicalUrl":"https://foursquare.com/v/roseburn-bar/4c7ff1fcd92ea093b35f3372","categoryId":"4bf58dd8d48988d11b941735","category":"Pub","checkinsCount":186,"usersCount":186,"tipCount":1,"visitsCount":263,"tier":"","message":"","currency":"","rating":8.3},{"name":"The Last Drop","phone":"+441312254851","address":"74-78 Grassmarket","lat":55.947702,"lng":-3.195185,"neighborhood":"Grassmarket","city_fetched":"Dalgety Bay,UK","state":"Edinburgh","country":"United Kingdom","canonicalUrl":"https://foursquare.com/v/the-last-drop/4b801ee0f964a520035430e3","categoryId":"4bf58dd8d48988d11b941735","category":"Pub","checkinsCount":2083,"usersCount":2020,"tipCount":40,"visitsCount":2238,"url":"http://www.nicholsonspubs.co.uk/thelastdropgrassmarketedinburgh/","tier":"","message":"","currency":"","rating":8.3},{"name":"The Albanach","phone":"+441312205277","address":"197 High St.","lat":55.9500833,"lng":-3.1882615,"neighborhood":"Cowgate","city_fetched":"Dalgety Bay,UK","state":"Midlothian","country":"United Kingdom","canonicalUrl":"https://foursquare.com/v/the-albanach/4b05881ef964a520cbb222e3","categoryId":"4bf58dd8d48988d11b941735","category":"Pub","checkinsCount":1484,"usersCount":1265,"tipCount":43,"visitsCount":1512,"url":"http://www.albanach-edinburgh.co.uk","tier":"","message":"","currency":"","rating":8.3},{"name":"The Caley Sample Room","phone":"+441313377204","twitter":"thecaley","address":"42-58 Angle Park Terr","lat":55.9375637,"lng":-3.225855914285714,"neighborhood":"Ardmillan","city_fetched":"Dalgety Bay,UK","state":"Edinburgh","country":"United Kingdom","canonicalUrl":"https://foursquare.com/v/the-caley-sample-room/4b3bd2b7f964a520e77b25e3","categoryId":"4bf58dd8d48988d11b941735","category":"Pub","checkinsCount":767,"usersCount":436,"tipCount":13,"visitsCount":988,"url":"http://www.thecaleysampleroom.co.uk","tier":"","message":"","currency":"","rating":8.3},{"name":"Old Chain Pier","phone":"+441315524960","lat":55.98001028983233,"lng":-3.2040356437444326,"neighborhood":"Trinity","city_fetched":"Dalgety Bay,UK","country":"United Kingdom","canonicalUrl":"https://foursquare.com/v/old-chain-pier/4bf9ae8f4a67c9280b4c27cf","categoryId":"4bf58dd8d48988d11b941735","category":"Pub","checkinsCount":384,"usersCount":275,"tipCount":11,"visitsCount":514,"tier":"","message":"","currency":"","rating":8.2},{"name":"Paradise Palms","phone":"+441312254186","twitter":"edinburghpalms","address":"41 Lothian St","lat":55.946223155715806,"lng":-3.18899229528851,"neighborhood":"Newington","city_fetched":"Dalgety Bay,UK","state":"Edinburgh","country":"United Kingdom","canonicalUrl":"https://foursquare.com/v/paradise-palms/53ac7522498e0e151cbe1577","categoryId":"4bf58dd8d48988d11e941735","category":"Cocktail Bar","checkinsCount":261,"usersCount":238,"tipCount":10,"visitsCount":409,"url":"http://www.theparadisepalms.com","tier":2,"message":"Moderate","currency":"£","rating":8.2},{"name":"The Beer Kitchen","phone":"+441312286392","twitter":"beerkitchenedi","address":"81-83 Lothian Rd","lat":55.94647927293624,"lng":-3.2057795497291144,"neighborhood":"Tollcross","city_fetched":"Dalgety Bay,UK","state":"Edinburgh","country":"United Kingdom","canonicalUrl":"https://foursquare.com/v/the-beer-kitchen/55b26be8498e5700530ad008","categoryId":"4bf58dd8d48988d11b941735","category":"Pub","checkinsCount":364,"usersCount":241,"tipCount":9,"visitsCount":383,"url":"http://thebeerkitchen.co.uk","tier":"","message":"","currency":"","rating":8.2},{"name":"The Dagda Bar","phone":"+441316679773","address":"93-95 Buccleuch St","lat":55.94223,"lng":-3.18421,"neighborhood":"Southside","city_fetched":"Dalgety Bay,UK","state":"Edinburgh","country":"United Kingdom","canonicalUrl":"https://foursquare.com/v/the-dagda-bar/4b082a2ff964a520380523e3","categoryId":"4bf58dd8d48988d11b941735","category":"Pub","checkinsCount":254,"usersCount":133,"tipCount":9,"visitsCount":260,"tier":"","message":"","currency":"","rating":8.2},{"name":"Stockbridge Tap","phone":"+441313433000","twitter":"stockbridgetap","address":"2-6 Raeburn Pl","lat":55.95876678519699,"lng":-3.2100580167979085,"neighborhood":"Comely Bank","city_fetched":"Dalgety Bay,UK","state":"Edinburgh","country":"United Kingdom","canonicalUrl":"https://foursquare.com/v/stockbridge-tap/4ba89f7ff964a520fde239e3","categoryId":"4bf58dd8d48988d11b941735","category":"Pub","checkinsCount":844,"usersCount":363,"tipCount":15,"visitsCount":930,"tier":"","message":"","currency":"","rating":8.2},{"name":"Blue Blazer","phone":"+441312295030","address":"2 Spittal St","lat":55.945895627324546,"lng":-3.2033729553222656,"neighborhood":"Edinburgh Castle","city_fetched":"Dalgety Bay,UK","state":"Edinburgh","country":"United Kingdom","canonicalUrl":"https://foursquare.com/v/blue-blazer/4b05881ef964a520e8b222e3","categoryId":"4bf58dd8d48988d11b941735","category":"Pub","checkinsCount":1090,"usersCount":591,"tipCount":21,"visitsCount":1133,"url":"http://www.theblueblazer.co.uk","tier":"","message":"","currency":"","rating":8.2},{"name":"Captains Bar","twitter":"captainsedin","address":"4 South College Street","lat":55.94715182919561,"lng":-3.1863955317717654,"neighborhood":"Newington","city_fetched":"Dalgety Bay,UK","state":"Edinburgh","country":"United Kingdom","canonicalUrl":"https://foursquare.com/v/captains-bar/4c4c974f9c8d2d7fcacea76c","categoryId":"4bf58dd8d48988d11b941735","category":"Pub","checkinsCount":275,"usersCount":184,"tipCount":9,"visitsCount":275,"url":"http://captainsedinburgh.webs.com","tier":"","message":"","currency":"","rating":8.1},{"name":"The Caley Bar","phone":"+441312228899","twitter":"thecaleybar","address":"Princes Street","lat":55.949704439399284,"lng":-3.207334578037262,"neighborhood":"Haymarket","city_fetched":"Dalgety Bay,UK","state":"Edinburgh","country":"United Kingdom","canonicalUrl":"https://foursquare.com/v/the-caley-bar/4d2e41035d4ca1cd7b9f161b","categoryId":"4bf58dd8d48988d11e941735","category":"Cocktail Bar","checkinsCount":216,"usersCount":122,"tipCount":5,"visitsCount":216,"url":"http://waldorfastoria3.hilton.com/en/hotels/united-kingdom/waldorf-astoria-edinburgh-the-caledonian-EDNCHWA/amenities/restaurants-caley-bar.html?WT.mc_id=zELWAKN0EMEA1WA2DMH3LocalSearch4DGGenericx6EDNCHWA","tier":"","message":"","currency":"","rating":8.1},{"name":"Kay's Bar","phone":"+441312251858","twitter":"kaysbarscotland","address":"39 Jamaica St","lat":55.95567522977689,"lng":-3.2049179077148438,"neighborhood":"New Town","city_fetched":"Dalgety Bay,UK","state":"Edinburgh","country":"United Kingdom","canonicalUrl":"https://foursquare.com/v/kays-bar/4b05881df964a52096b222e3","categoryId":"4bf58dd8d48988d11b941735","category":"Pub","checkinsCount":501,"usersCount":279,"tipCount":16,"visitsCount":631,"url":"http://kaysbar.co.uk","tier":"","message":"","currency":"","rating":8.1},{"name":"The Amber Rose","phone":"+441312261224","address":"22–26 Castle St","lat":55.951747,"lng":-3.203362,"neighborhood":"New Town","city_fetched":"Dalgety Bay,UK","state":"Edinburgh","country":"United Kingdom","canonicalUrl":"https://foursquare.com/v/the-amber-rose/4babe736f964a520c0d33ae3","categoryId":"4bf58dd8d48988d11b941735","category":"Pub","checkinsCount":866,"usersCount":493,"tipCount":10,"visitsCount":874,"url":"http://www.theamberroseedinburgh.co.uk","tier":"","message":"","currency":"","rating":8},{"name":"The Magnum Restaurant and Bar","phone":"+441315574366","twitter":"magnumbar_rest","address":"1 Albany Street","lat":55.956744348548646,"lng":-3.193202018737793,"neighborhood":"New Town","city_fetched":"Dalgety Bay,UK","state":"Edinburgh","country":"United Kingdom","canonicalUrl":"https://foursquare.com/v/the-magnum-restaurant-and-bar/4b09a536f964a520ee1a23e3","categoryId":"4bf58dd8d48988d11b941735","category":"Pub","checkinsCount":534,"usersCount":270,"tipCount":9,"visitsCount":576,"url":"http://www.themagnumrestaurant.co.uk","tier":"","message":"","currency":"","rating":8},{"name":"Behind The Wall","phone":"+441324633338","address":"14 Melville St","lat":56.001212,"lng":-3.785243,"city_fetched":"Dalgety Bay,UK","state":"Falkirk","country":"United Kingdom","canonicalUrl":"https://foursquare.com/v/behind-the-wall/4b707754f964a5202a1c2de3","categoryId":"4bf58dd8d48988d11b941735","category":"Pub","checkinsCount":563,"usersCount":257,"tipCount":17,"visitsCount":637,"url":"http://www.behindthewall.co.uk","tier":"","message":"","currency":"","rating":8},{"name":"Jolly Judge","phone":"+441312252669","twitter":"jolly_judge","address":"7 James Court","lat":55.94954824942551,"lng":-3.193995952606201,"neighborhood":"The Mound","city_fetched":"Dalgety Bay,UK","state":"Edinburgh","country":"United Kingdom","canonicalUrl":"https://foursquare.com/v/jolly-judge/4af4a0d6f964a52076f421e3","categoryId":"4bf58dd8d48988d11b941735","category":"Pub","checkinsCount":861,"usersCount":706,"tipCount":19,"visitsCount":913,"url":"http://www.jollyjudge.co.uk","tier":"","message":"","currency":"","rating":7.9},{"name":"Lebowskis","phone":"+441314661779","address":"18 Morrison St","lat":55.94572740616559,"lng":-3.206334114074707,"neighborhood":"Tollcross","city_fetched":"Dalgety Bay,UK","state":"Edinburgh","country":"United Kingdom","canonicalUrl":"https://foursquare.com/v/lebowskis/4b5616f1f964a520d6ff27e3","categoryId":"4bf58dd8d48988d11b941735","category":"Pub","checkinsCount":1581,"usersCount":942,"tipCount":34,"visitsCount":1647,"url":"http://www.lebowskis.co.uk","tier":"","message":"","currency":"","rating":7.9},{"name":"World's End","phone":"+441315563628","address":"12 High St.","lat":55.95054545150495,"lng":-3.1844472885131836,"neighborhood":"Cowgate","city_fetched":"Dalgety Bay,UK","state":"Edinburgh","country":"United Kingdom","canonicalUrl":"https://foursquare.com/v/worlds-end/4b59f1a4f964a520b5a228e3","categoryId":"4bf58dd8d48988d11b941735","category":"Pub","checkinsCount":2507,"usersCount":2114,"tipCount":45,"visitsCount":2826,"url":"http://www.worldsend-edinburgh.co.uk","tier":2,"message":"Moderate","currency":"£","rating":7.9},{"name":"The Rabbie Burns","phone":"+441316290507","address":"103 High St.","lat":55.950362,"lng":-3.186204,"neighborhood":"Cowgate","city_fetched":"Dalgety Bay,UK","state":"Edinburgh","country":"United Kingdom","canonicalUrl":"https://foursquare.com/v/the-rabbie-burns/4c455f36dd1f2d7f0f2381f9","categoryId":"4bf58dd8d48988d11b941735","category":"Pub","checkinsCount":332,"usersCount":288,"tipCount":12,"visitsCount":335,"tier":"","message":"","currency":"","rating":7.9},{"name":"Sandy Bell's","phone":"+441312252751","address":"25 Forrest Rd.","lat":55.94602046896384,"lng":-3.1911467275921743,"city_fetched":"Dalgety Bay,UK","state":"Edinburgh","country":"United Kingdom","canonicalUrl":"https://foursquare.com/v/sandy-bells/4b61fd23f964a520352f2ae3","categoryId":"4bf58dd8d48988d11b941735","category":"Pub","checkinsCount":584,"usersCount":372,"tipCount":18,"visitsCount":585,"url":"http://www.sandybellsedinburgh.co.uk","tier":"","message":"","currency":"","rating":7.9},{"name":"The Abbey","phone":"+441316684862","address":"65 South Clerk St","lat":55.93940323819909,"lng":-3.1796940830232745,"neighborhood":"Newington","city_fetched":"Dalgety Bay,UK","state":"Edinburgh","country":"United Kingdom","canonicalUrl":"https://foursquare.com/v/the-abbey/4b58a849f964a520156428e3","categoryId":"4bf58dd8d48988d116941735","category":"Bar","checkinsCount":636,"usersCount":199,"tipCount":4,"visitsCount":672,"url":"http://www.abbeybar.co.uk","tier":"","message":"","currency":"","rating":7.8},{"name":"Half Way House","phone":"+441312257101","address":"24 Fleshmarket Close","lat":55.951055917639465,"lng":-3.1888356718735817,"neighborhood":"Waverley Station","city_fetched":"Dalgety Bay,UK","state":"Edinburgh","country":"United Kingdom","canonicalUrl":"https://foursquare.com/v/half-way-house/4b3e3e6ff964a5200f9a25e3","categoryId":"4bf58dd8d48988d11b941735","category":"Pub","checkinsCount":602,"usersCount":490,"tipCount":12,"visitsCount":606,"url":"http://halfwayhouse-edinburgh.com","tier":"","message":"","currency":"","rating":7.8},{"name":"Hector's","phone":"+441313431735","twitter":"hectorspub","address":"47-49 Deanhaugh St","lat":55.95879841523216,"lng":-3.209981918334961,"city_fetched":"Dalgety Bay,UK","state":"Edinburgh","country":"United Kingdom","canonicalUrl":"https://foursquare.com/v/hectors/4b05881df964a5209db222e3","categoryId":"4bf58dd8d48988d11b941735","category":"Pub","checkinsCount":1108,"usersCount":603,"tipCount":28,"visitsCount":1171,"url":"http://www.hectorsstockbridge.co.uk","tier":"","message":"","currency":"","rating":7.8},{"name":"Joseph Pearce","phone":"+441315564140","twitter":"boda_bar_tweets","address":"23 Elm Row","lat":55.95918278987259,"lng":-3.183159828186035,"neighborhood":"Leith","city_fetched":"Dalgety Bay,UK","state":"Edinburgh","country":"United Kingdom","canonicalUrl":"https://foursquare.com/v/joseph-pearce/4b15990df964a520e8b023e3","categoryId":"4bf58dd8d48988d11b941735","category":"Pub","checkinsCount":1540,"usersCount":1019,"tipCount":22,"visitsCount":2128,"url":"http://www.bodabar.com/mt-static/pearce.html","tier":"","message":"","currency":"","rating":7.8},{"name":"The Three Sisters","phone":"+441316226801","twitter":"the3sistersbar","address":"139 Cowgate","lat":55.94823819553931,"lng":-3.1901901987701984,"neighborhood":"Cowgate","city_fetched":"Dalgety Bay,UK","state":"Edinburgh","country":"United Kingdom","canonicalUrl":"https://foursquare.com/v/the-three-sisters/4b05881ef964a520e2b222e3","categoryId":"4bf58dd8d48988d11b941735","category":"Pub","checkinsCount":2251,"usersCount":1600,"tipCount":23,"visitsCount":2381,"url":"http://www.thethreesistersbar.co.uk","tier":"","message":"","currency":"","rating":7.8},{"name":"Deacon Brodie's Tavern","phone":"+441312256531","address":"435 Lawnmarket","lat":55.94953623478606,"lng":-3.1929552555084224,"neighborhood":"The Mound","city_fetched":"Dalgety Bay,UK","state":"Edinburgh","country":"United Kingdom","canonicalUrl":"https://foursquare.com/v/deacon-brodies-tavern/4b0ed8adf964a520d05b23e3","categoryId":"4bf58dd8d48988d11b941735","category":"Pub","checkinsCount":2481,"usersCount":2844,"tipCount":34,"visitsCount":3136,"url":"http://www.nicholsonspubs.co.uk/deaconbrodiestavernroyalmileedinburgh/","tier":"","message":"","currency":"","rating":7.8},{"name":"Bridge Inn","phone":"+441313331320","address":"27 Baird Rd","lat":55.92313664860313,"lng":-3.3791716551403495,"neighborhood":"Ratho","city_fetched":"Dalgety Bay,UK","state":"Midlothian","country":"United Kingdom","canonicalUrl":"https://foursquare.com/v/bridge-inn/4bbf8940abf4952183cfbd93","categoryId":"4bf58dd8d48988d11b941735","category":"Pub","checkinsCount":619,"usersCount":313,"tipCount":6,"visitsCount":782,"tier":"","message":"","currency":"","rating":7.8},{"name":"Jeremiah's  Taproom","phone":"+441315568201","twitter":"jeremiahtap","address":"7-8 Elm Row","lat":55.95833595943405,"lng":-3.1837499141693115,"neighborhood":"Leith","city_fetched":"Dalgety Bay,UK","state":"Edinburgh","country":"United Kingdom","canonicalUrl":"https://foursquare.com/v/jeremiahs--taproom/51f822a8498ec110597d4845","categoryId":"4bf58dd8d48988d116941735","category":"Bar","checkinsCount":741,"usersCount":428,"tipCount":15,"visitsCount":1053,"url":"http://www.jeremiahstaproom.co.uk","tier":"","message":"","currency":"","rating":7.8},{"name":"The Sheep Heid Inn","phone":"+441316617974","twitter":"sheepheid","address":"43-45 The Causeway","lat":55.941953536329194,"lng":-3.148455521043885,"neighborhood":"Duddingston","city_fetched":"Dalgety Bay,UK","state":"Edinburgh","country":"United Kingdom","canonicalUrl":"https://foursquare.com/v/the-sheep-heid-inn/4b05881ef964a520ddb222e3","categoryId":"4bf58dd8d48988d11b941735","category":"Pub","checkinsCount":698,"usersCount":733,"tipCount":33,"visitsCount":907,"url":"http://www.sheepheid.co.uk","tier":"","message":"","currency":"","rating":7.7},{"name":"Southpour","phone":"+441316501100","twitter":"southpoursays","address":"1-5 Newington Road","lat":55.939093,"lng":-3.179376,"neighborhood":"Newington","city_fetched":"Dalgety Bay,UK","state":"Edinburgh","country":"United Kingdom","canonicalUrl":"https://foursquare.com/v/southpour/56e54ccacd104059d628efcc","categoryId":"4bf58dd8d48988d11b941735","category":"Pub","checkinsCount":62,"usersCount":76,"tipCount":4,"visitsCount":97,"tier":"","message":"","currency":"","rating":7.7},{"name":"The Fountain","phone":"+441312291899","twitter":"thefountainbar","address":"131 Dundee St","lat":55.9404518499211,"lng":-3.218153067794651,"neighborhood":"Fountainbridge","city_fetched":"Dalgety Bay,UK","state":"Edinburgh","country":"United Kingdom","canonicalUrl":"https://foursquare.com/v/the-fountain/4fca8bf1e4b087d22a56e033","categoryId":"4bf58dd8d48988d11b941735","category":"Pub","checkinsCount":826,"usersCount":359,"tipCount":11,"visitsCount":873,"url":"http://thefountainbar.co.uk","tier":"","message":"","currency":"","rating":7.7},{"name":"Teuchters","phone":"+441312261036","address":"26 William St","lat":55.949328,"lng":-3.212488,"neighborhood":"Haymarket","city_fetched":"Dalgety Bay,UK","state":"Edinburgh","country":"United Kingdom","canonicalUrl":"https://foursquare.com/v/teuchters/4b06d5dbf964a5201df122e3","categoryId":"4bf58dd8d48988d11b941735","category":"Pub","checkinsCount":902,"usersCount":521,"tipCount":12,"visitsCount":1057,"tier":"","message":"","currency":"","rating":7.7},{"name":"The Dalriada","address":"77 Promenade","lat":55.95061753740685,"lng":-3.1000113487243652,"neighborhood":"Joppa","city_fetched":"Dalgety Bay,UK","state":"Edinburgh","country":"United Kingdom","canonicalUrl":"https://foursquare.com/v/the-dalriada/4b5c67f0f964a520582e29e3","categoryId":"4bf58dd8d48988d11b941735","category":"Pub","checkinsCount":275,"usersCount":176,"tipCount":4,"visitsCount":353,"tier":"","message":"","currency":"","rating":7.7},{"name":"Bannerman's","phone":"+441315563254","twitter":"bannermansbar","address":"212 Cowgate","lat":55.94880253040805,"lng":-3.1869318942710803,"neighborhood":"Cowgate","city_fetched":"Dalgety Bay,UK","state":"Edinburgh","country":"United Kingdom","canonicalUrl":"https://foursquare.com/v/bannermans/4b05881ff964a52017b322e3","categoryId":"4bf58dd8d48988d11b941735","category":"Pub","checkinsCount":1174,"usersCount":719,"tipCount":10,"visitsCount":1308,"tier":"","message":"","currency":"","rating":7.7},{"name":"Greyfriars Bobby's Bar","phone":"+441312258328","address":"34A Candlemaker Row","lat":55.94699417722261,"lng":-3.1912182922934353,"neighborhood":"Newington","city_fetched":"Dalgety Bay,UK","state":"Edinburgh","country":"United Kingdom","canonicalUrl":"https://foursquare.com/v/greyfriars-bobbys-bar/4b05881df964a5209cb222e3","categoryId":"4bf58dd8d48988d11b941735","category":"Pub","checkinsCount":1358,"usersCount":1179,"tipCount":22,"visitsCount":1363,"url":"http://www.nicholsonspubs.co.uk/greyfriarsbobbysbarcandlemakerrowedinburgh/","tier":"","message":"","currency":"","rating":7.7},{"name":"Frankenstein","phone":"+441316221818","twitter":"frank_pub_edin","address":"26 George IV Bridge","lat":55.94732,"lng":-3.19157,"neighborhood":"Cowgate","city_fetched":"Dalgety Bay,UK","state":"Midlothian","country":"United Kingdom","canonicalUrl":"https://foursquare.com/v/frankenstein/4b466f21f964a520ca2026e3","categoryId":"4bf58dd8d48988d116941735","category":"Bar","checkinsCount":2143,"usersCount":1852,"tipCount":43,"visitsCount":2170,"url":"http://www.frankenstein-pub.co.uk","tier":"","message":"","currency":"","rating":7.7},{"name":"The Royal Mile Tavern","phone":"+441315579681","twitter":"royalmiletavern","address":"127 High St","lat":55.95037124335457,"lng":-3.186560869216919,"neighborhood":"Waverley Station","city_fetched":"Dalgety Bay,UK","state":"Edinburgh","country":"United Kingdom","canonicalUrl":"https://foursquare.com/v/the-royal-mile-tavern/4c31fb7c09a99c744e740b2a","categoryId":"4bf58dd8d48988d11b941735","category":"Pub","checkinsCount":1459,"usersCount":1252,"tipCount":36,"visitsCount":1496,"url":"http://www.royalmiletavern.com","tier":"","message":"","currency":"","rating":7.6},{"name":"Cloisters","phone":"+441312219997","twitter":"cloisters_bar","address":"26 Brougham St","lat":55.94321601769541,"lng":-3.202064037322998,"city_fetched":"Dalgety Bay,UK","state":"Edinburgh","country":"United Kingdom","canonicalUrl":"https://foursquare.com/v/cloisters/4b118404f964a520477e23e3","categoryId":"4bf58dd8d48988d11b941735","category":"Pub","checkinsCount":2075,"usersCount":720,"tipCount":23,"visitsCount":2344,"url":"http://www.cloistersbar.com","tier":"","message":"","currency":"","rating":7.6},{"name":"The Pear Tree","phone":"+441316677533","twitter":"pear_tree_house","address":"38 W Nicolson St","lat":55.94434710372921,"lng":-3.18554684848515,"neighborhood":"Newington","city_fetched":"Dalgety Bay,UK","state":"Edinburgh","country":"United Kingdom","canonicalUrl":"https://foursquare.com/v/the-pear-tree/4af47d94f964a52013f321e3","categoryId":"4bf58dd8d48988d11b941735","category":"Pub","checkinsCount":1641,"usersCount":988,"tipCount":13,"visitsCount":1738,"url":"http://www.pear-tree-house.co.uk/index.php","tier":"","message":"","currency":"","rating":7.6},{"name":"Ryan's Bar","phone":"+441312266669","twitter":"ryans_bar","address":"2-4 Hope St.","lat":55.95029919368664,"lng":-3.2082717123470954,"neighborhood":"New Town","city_fetched":"Dalgety Bay,UK","state":"Edinburgh","country":"United Kingdom","canonicalUrl":"https://foursquare.com/ryans_bar","categoryId":"4bf58dd8d48988d116941735","category":"Bar","checkinsCount":1244,"usersCount":950,"tipCount":20,"visitsCount":1262,"url":"http://www.ryansbaredinburgh.co.uk","tier":"","message":"","currency":"","rating":7.6},{"name":"Hoot The Reedemer","address":"7 Hanover Place","lat":55.952384206777865,"lng":-3.196582247281675,"neighborhood":"New Town","city_fetched":"Dalgety Bay,UK","state":"Edinburgh","country":"United Kingdom","canonicalUrl":"https://foursquare.com/v/hoot-the-reedemer/55bfd427498ef64252a85b6e","categoryId":"4bf58dd8d48988d118941735","category":"Dive Bar","checkinsCount":102,"usersCount":76,"tipCount":5,"visitsCount":105,"tier":"","message":"","currency":"","rating":7.6},{"name":"Scotsman Lounge","address":"73 Cockburn Street","lat":55.950301,"lng":-3.18836315,"neighborhood":"Waverley Station","city_fetched":"Dalgety Bay,UK","state":"Edinburgh","country":"United Kingdom","canonicalUrl":"https://foursquare.com/v/scotsman-lounge/4b216bdff964a5209b3b24e3","categoryId":"4bf58dd8d48988d11b941735","category":"Pub","checkinsCount":232,"usersCount":208,"tipCount":4,"visitsCount":233,"tier":"","message":"","currency":"","rating":7.6},{"name":"Kilderkin","phone":"+441315562101","twitter":"kil_der_kin","address":"65 - 67 Canongate","lat":55.95219137947874,"lng":-3.177022933959961,"neighborhood":"Canongate","city_fetched":"Dalgety Bay,UK","state":"Edinburgh","country":"United Kingdom","canonicalUrl":"https://foursquare.com/v/kilderkin/4e594e601495a891127d67b7","categoryId":"4bf58dd8d48988d11b941735","category":"Pub","checkinsCount":700,"usersCount":404,"tipCount":15,"visitsCount":708,"tier":"","message":"","currency":"","rating":7.6},{"name":"Maggie Dickson's","address":"92 Grassmarket","lat":55.947769,"lng":-3.1948672,"neighborhood":"Grassmarket","city_fetched":"Dalgety Bay,UK","state":"Midlothian","country":"United Kingdom","canonicalUrl":"https://foursquare.com/v/maggie-dicksons/4b05881ef964a520d4b222e3","categoryId":"4bf58dd8d48988d11b941735","category":"Pub","checkinsCount":903,"usersCount":832,"tipCount":14,"visitsCount":906,"tier":"","message":"","currency":"","rating":7.5},{"name":"The Blackbird","phone":"+441312282280","address":"37-39 Leven St","lat":55.94103464629766,"lng":-3.203515994270686,"neighborhood":"Fountainbridge","city_fetched":"Dalgety Bay,UK","state":"Edinburgh","country":"United Kingdom","canonicalUrl":"https://foursquare.com/v/the-blackbird/506b4838e4b038c6d742c949","categoryId":"4bf58dd8d48988d11b941735","category":"Pub","checkinsCount":451,"usersCount":385,"tipCount":6,"visitsCount":588,"url":"http://www.theblackbirdedinburgh.co.uk","tier":"","message":"","currency":"","rating":7.5},{"name":"The Bonnington","phone":"+441315545824","twitter":"bonningtonbar","address":"284 Bonnington Road","lat":55.96891211158224,"lng":-3.18469442084194,"neighborhood":"Pilrig","city_fetched":"Dalgety Bay,UK","state":"Edinburgh","country":"United Kingdom","canonicalUrl":"https://foursquare.com/v/the-bonnington/4b93e3a1f964a520af5734e3","categoryId":"4bf58dd8d48988d11b941735","category":"Pub","checkinsCount":348,"usersCount":132,"tipCount":8,"visitsCount":374,"tier":"","message":"","currency":"","rating":7.5},{"name":"The Mitre","phone":"+441316523902","address":"131-133 High St.","lat":55.950363485716856,"lng":-3.186788735804419,"neighborhood":"Waverley Station","city_fetched":"Dalgety Bay,UK","state":"Edinburgh","country":"United Kingdom","canonicalUrl":"https://foursquare.com/v/the-mitre/4b23b886f964a520865824e3","categoryId":"4bf58dd8d48988d11b941735","category":"Pub","checkinsCount":1239,"usersCount":971,"tipCount":21,"visitsCount":1248,"url":"http://www.nicholsonspubs.co.uk/restaurants/scotlandandnorthernireland/themitrebarroyalmileedinburgh","tier":"","message":"","currency":"","rating":7.5},{"name":"Barony Bar","phone":"+441315582874","address":"81-85 Broughton St","lat":55.95835,"lng":-3.18966,"neighborhood":"Broughton","city_fetched":"Dalgety Bay,UK","state":"Edinburgh","country":"United Kingdom","canonicalUrl":"https://foursquare.com/v/barony-bar/4b05881ef964a520b5b222e3","categoryId":"4bf58dd8d48988d11b941735","category":"Pub","checkinsCount":467,"usersCount":338,"tipCount":7,"visitsCount":497,"tier":"","message":"","currency":"","rating":7.5},{"name":"Livingston Inn","address":"5-8 Main St","lat":55.88586330413656,"lng":-3.5395073890685005,"city_fetched":"Dalgety Bay,UK","state":"West Lothian","country":"United Kingdom","canonicalUrl":"https://foursquare.com/v/livingston-inn/4ccb132f54f0b1f73e1d0dca","categoryId":"4bf58dd8d48988d1d5941735","category":"Hotel Bar","checkinsCount":215,"usersCount":71,"tipCount":5,"visitsCount":288,"tier":"","message":"","currency":"","rating":7.5},{"name":"The Salisbury Arms","phone":"+441316674518","twitter":"salisburyarms","address":"58 Dalkeith Road","lat":55.938321936134805,"lng":-3.1736848877328705,"neighborhood":"Newington","city_fetched":"Dalgety Bay,UK","state":"Edinburgh","country":"United Kingdom","canonicalUrl":"https://foursquare.com/v/the-salisbury-arms/4ddaa4c4922ef477d2b9fc4b","categoryId":"4bf58dd8d48988d116941735","category":"Bar","checkinsCount":858,"usersCount":599,"tipCount":15,"visitsCount":1176,"tier":"","message":"","currency":"","rating":7.4},{"name":"Finnegan's Wake","phone":"+441312259348","twitter":"finneganswakeed","address":"9B Victoria St","lat":55.94857505154987,"lng":-3.193577527999878,"neighborhood":"Cowgate","city_fetched":"Dalgety Bay,UK","state":"Edinburgh","country":"United Kingdom","canonicalUrl":"https://foursquare.com/v/finnegans-wake/4c3db7d37d002d7fb41cb018","categoryId":"4bf58dd8d48988d116941735","category":"Bar","checkinsCount":1210,"usersCount":770,"tipCount":20,"visitsCount":1242,"url":"http://www.finnegans-wake.co.uk","tier":"","message":"","currency":"","rating":7.4},{"name":"The Four Marys","phone":"+441506842171","address":"65-67 High St.","lat":55.976982,"lng":-3.599867,"city_fetched":"Dalgety Bay,UK","state":"West Lothian","country":"United Kingdom","canonicalUrl":"https://foursquare.com/v/the-four-marys/4be4a0f6cf200f477440123c","categoryId":"4bf58dd8d48988d11b941735","category":"Pub","checkinsCount":204,"usersCount":145,"tipCount":10,"visitsCount":221,"url":"http://www.thefourmarys.co.uk","tier":"","message":"","currency":"","rating":7.4},{"name":"The Orchard Bar & Restaurant","phone":"+441315500850","twitter":"theorchardbar","address":"1 Howard Place","lat":55.963590813614154,"lng":-3.200969696044922,"neighborhood":"Warriston","city_fetched":"Dalgety Bay,UK","country":"United Kingdom","canonicalUrl":"https://foursquare.com/v/the-orchard-bar--restaurant/4b56da41f964a520041d28e3","categoryId":"4bf58dd8d48988d11b941735","category":"Pub","checkinsCount":739,"usersCount":386,"tipCount":14,"visitsCount":940,"url":"http://theorchardbar.co.uk","tier":"","message":"","currency":"","rating":7.3},{"name":"The Fettykil Fox","phone":"+441592749613","address":"Leslie Rd.","lat":56.204617281291334,"lng":-3.189490612542628,"city_fetched":"Dalgety Bay,UK","state":"Fife","country":"United Kingdom","canonicalUrl":"https://foursquare.com/v/the-fettykil-fox/4cc5b989be40a35d3d27864c","categoryId":"4bf58dd8d48988d11b941735","category":"Pub","checkinsCount":140,"usersCount":107,"tipCount":14,"visitsCount":175,"tier":"","message":"","currency":"","rating":7.3},{"name":"The Canny Man's","phone":"+441314471484","twitter":"cannymans","address":"237 Morningside Rd","lat":55.92762734817101,"lng":-3.2091665267944336,"neighborhood":"Morningside","city_fetched":"Dalgety Bay,UK","state":"Midlothian","country":"United Kingdom","canonicalUrl":"https://foursquare.com/v/the-canny-mans/4b05881ef964a520c3b222e3","categoryId":"4bf58dd8d48988d11b941735","category":"Pub","checkinsCount":516,"usersCount":265,"tipCount":9,"visitsCount":574,"url":"http://www.cannymans.co.uk","tier":"","message":"","currency":"","rating":7.3},{"name":"Hotel du Vin & Bistro","phone":"+448447364255","address":"11 Bristo Place","lat":55.946147,"lng":-3.190407,"neighborhood":"Newington","city_fetched":"Dalgety Bay,UK","state":"Midlothian","country":"United Kingdom","canonicalUrl":"https://foursquare.com/v/hotel-du-vin--bistro/4b2a754df964a52090a924e3","categoryId":"4bf58dd8d48988d1d5941735","category":"Hotel Bar","checkinsCount":777,"usersCount":521,"tipCount":10,"visitsCount":838,"url":"http://www.hotelduvin.com/hotels/edinburgh/edinburgh.aspx","tier":"","message":"","currency":"","rating":7.3},{"name":"The Granary","phone":"+448451666005","address":"32-34 Shore","lat":55.97637856690036,"lng":-3.169876045152797,"neighborhood":"The Shore","city_fetched":"Dalgety Bay,UK","state":"Midlothian","country":"United Kingdom","canonicalUrl":"https://foursquare.com/v/the-granary/4bd8790035aad13a84f790f3","categoryId":"4bf58dd8d48988d116941735","category":"Bar","checkinsCount":705,"usersCount":405,"tipCount":11,"visitsCount":711,"tier":"","message":"","currency":"","rating":7.3},{"name":"Black Bull","phone":"+441312256636","address":"12 Grassmarket","lat":55.947207,"lng":-3.197295,"neighborhood":"Grassmarket","city_fetched":"Dalgety Bay,UK","state":"Edinburgh","country":"United Kingdom","canonicalUrl":"https://foursquare.com/v/black-bull/4bd84fe3f645c9b6b094a7e0","categoryId":"4bf58dd8d48988d11b941735","category":"Pub","checkinsCount":1076,"usersCount":902,"tipCount":11,"visitsCount":1126,"url":"http://www.blackbulledinburgh.co.uk","tier":"","message":"","currency":"","rating":7.3},{"name":"Hawes Inn","phone":"+441313311990","address":"7 Newhalls Road","lat":55.99030591305783,"lng":-3.3849182588189866,"neighborhood":"South Queensferry","city_fetched":"Dalgety Bay,UK","state":"Edinburgh","country":"United Kingdom","canonicalUrl":"https://foursquare.com/v/hawes-inn/4b579f64f964a520ad3928e3","categoryId":"4bf58dd8d48988d11b941735","category":"Pub","checkinsCount":329,"usersCount":259,"tipCount":10,"visitsCount":352,"tier":"","message":"","currency":"","rating":7.3},{"name":"The Black Bull Tavern","phone":"+441315575121","address":"43 Leith St","lat":55.95427746642,"lng":-3.1872591081527695,"city_fetched":"Dalgety Bay,UK","state":"Edinburgh","country":"United Kingdom","canonicalUrl":"https://foursquare.com/v/the-black-bull-tavern/4b40f4f5f964a52039be25e3","categoryId":"4bf58dd8d48988d11b941735","category":"Pub","checkinsCount":953,"usersCount":357,"tipCount":13,"visitsCount":997,"tier":"","message":"","currency":"","rating":7.2},{"name":"The Castle Arms","phone":"+441312257432","address":"6 Johnston Terrace","lat":55.94861871764661,"lng":-3.194788388792711,"neighborhood":"Grassmarket","city_fetched":"Dalgety Bay,UK","state":"Edinburgh","country":"United Kingdom","canonicalUrl":"https://foursquare.com/v/the-castle-arms/4bfeccb6daf9c9b69248f9ef","categoryId":"4bf58dd8d48988d11b941735","category":"Pub","checkinsCount":1163,"usersCount":1048,"tipCount":24,"visitsCount":1183,"url":"http://www.thecastlearmsbistro.co.uk","tier":"","message":"","currency":"","rating":7.2},{"name":"The Kenilworth","phone":"+441312261773","address":"152-154 Rose St","lat":55.9518790189654,"lng":-3.202342987060547,"neighborhood":"New Town","city_fetched":"Dalgety Bay,UK","state":"Edinburgh","country":"United Kingdom","canonicalUrl":"https://foursquare.com/v/the-kenilworth/4b05881ef964a520d1b222e3","categoryId":"4bf58dd8d48988d11b941735","category":"Pub","checkinsCount":654,"usersCount":604,"tipCount":10,"visitsCount":695,"url":"http://www.nicholsonspubs.co.uk/thekenilworthrosestreetedinburgh/","tier":"","message":"","currency":"","rating":7.2},{"name":"The Auld Hoose","phone":"+441316682934","address":"23-25 St Leonards Street","lat":55.94346836552352,"lng":-3.180263042449951,"neighborhood":"Newington","city_fetched":"Dalgety Bay,UK","state":"Midlothian","country":"United Kingdom","canonicalUrl":"https://foursquare.com/v/the-auld-hoose/4b585bbef964a5203e5428e3","categoryId":"4bf58dd8d48988d11b941735","category":"Pub","checkinsCount":893,"usersCount":503,"tipCount":19,"visitsCount":1112,"tier":2,"message":"Moderate","currency":"£","rating":7.1},{"name":"Laird and Dog","address":"High St","lat":55.883441,"lng":-3.1153374910354614,"city_fetched":"Dalgety Bay,UK","state":"Midlothian","country":"United Kingdom","canonicalUrl":"https://foursquare.com/v/laird-and-dog/4b965c19f964a52003c834e3","categoryId":"4bf58dd8d48988d11b941735","category":"Pub","checkinsCount":230,"usersCount":102,"tipCount":4,"visitsCount":266,"tier":"","message":"","currency":"","rating":7.1},{"name":"The Old Bell","phone":"+441316681573","address":"233-235 Causewayside","lat":55.93492367445945,"lng":-3.1792116165161133,"neighborhood":"Southside","city_fetched":"Dalgety Bay,UK","state":"Edinburgh","country":"United Kingdom","canonicalUrl":"https://foursquare.com/v/the-old-bell/4b12d9d8f964a520678f23e3","categoryId":"4bf58dd8d48988d11b941735","category":"Pub","checkinsCount":410,"usersCount":254,"tipCount":9,"visitsCount":479,"tier":"","message":"","currency":"","rating":7.1},{"name":"The Advocate","phone":"+441312262749","address":"7 Hunter Sq","lat":55.949620337184015,"lng":-3.1876659393310547,"neighborhood":"Cowgate","city_fetched":"Dalgety Bay,UK","state":"Midlothian","country":"United Kingdom","canonicalUrl":"https://foursquare.com/v/the-advocate/4c029c4bf423a593dd01cf16","categoryId":"4bf58dd8d48988d11b941735","category":"Pub","checkinsCount":776,"usersCount":616,"tipCount":11,"visitsCount":785,"url":"http://www.theadvocate-edinburgh.co.uk","tier":"","message":"","currency":"","rating":7.1},{"name":"Ensign Ewart","phone":"+441312257440","address":"521-523 Lawnmarket","lat":55.9491219708464,"lng":-3.194252152661598,"neighborhood":"Cowgate","city_fetched":"Dalgety Bay,UK","state":"Edinburgh","country":"United Kingdom","canonicalUrl":"https://foursquare.com/v/ensign-ewart/4af4a39ef964a52092f421e3","categoryId":"4bf58dd8d48988d11b941735","category":"Pub","checkinsCount":539,"usersCount":580,"tipCount":11,"visitsCount":625,"tier":"","message":"","currency":"","rating":7.1},{"name":"Wolf+Water","lat":55.9772506454994,"lng":-3.1729993034045494,"neighborhood":"Leith","city_fetched":"Dalgety Bay,UK","country":"United Kingdom","canonicalUrl":"https://foursquare.com/v/wolfwater/554cec71498e53034f7f5665","categoryId":"4bf58dd8d48988d116941735","category":"Bar","checkinsCount":127,"usersCount":63,"tipCount":4,"visitsCount":129,"tier":"","message":"","currency":"","rating":7},{"name":"Antico","phone":"+448701181664","address":"Orocco Pier","lat":55.9903129762583,"lng":-3.3966308432825523,"neighborhood":"South Queensferry","city_fetched":"Dalgety Bay,UK","state":"Edinburgh","country":"United Kingdom","canonicalUrl":"https://foursquare.com/v/antico/4cc1ddb3d43ba143727c54f8","categoryId":"4bf58dd8d48988d116941735","category":"Bar","checkinsCount":146,"usersCount":113,"tipCount":6,"visitsCount":146,"url":"http://www.oroccopier.co.uk/edinburgh_bar/Default.asp","tier":"","message":"","currency":"","rating":7},{"name":"The Standing Order (Wetherspoon)","phone":"+441312254460","address":"62-66 George St","lat":55.95285236982974,"lng":-3.1995209447125013,"neighborhood":"New Town","city_fetched":"Dalgety Bay,UK","state":"Edinburgh","country":"United Kingdom","canonicalUrl":"https://foursquare.com/v/the-standing-order-wetherspoon/4b05881ef964a520e0b222e3","categoryId":"4bf58dd8d48988d11b941735","category":"Pub","checkinsCount":4265,"usersCount":3142,"tipCount":67,"visitsCount":5090,"url":"http://www.jdwetherspoon.co.uk","tier":1,"message":"Cheap","currency":"£","rating":7},{"name":"The White Lady (Wetherspoon)","phone":"+441313140680","twitter":"jdwtweet","address":"92-98 St Johns Rd","lat":55.942935879638995,"lng":-3.2825034856796265,"neighborhood":"Corstorphine","city_fetched":"Dalgety Bay,UK","state":"Edinburgh","country":"United Kingdom","canonicalUrl":"https://foursquare.com/v/the-white-lady-wetherspoon/4e00a15b315175a7f3f9f045","categoryId":"4bf58dd8d48988d11b941735","category":"Pub","checkinsCount":814,"usersCount":293,"tipCount":7,"visitsCount":913,"url":"http://www.jdwetherspoon.co.uk","tier":"","message":"","currency":"","rating":7},{"name":"The Cramond Inn","address":"30 Cramond Village","lat":55.979732754885106,"lng":-3.2999883799380845,"neighborhood":"Cramond","city_fetched":"Dalgety Bay,UK","state":"Edinburgh","country":"United Kingdom","canonicalUrl":"https://foursquare.com/v/the-cramond-inn/4b05881ef964a520c8b222e3","categoryId":"4bf58dd8d48988d11b941735","category":"Pub","checkinsCount":212,"usersCount":134,"tipCount":11,"visitsCount":214,"tier":"","message":"","currency":"","rating":7},{"name":"Malt Shovel","address":"11 Cockburn Street","lat":55.950613,"lng":-3.190818,"neighborhood":"Waverley Station","city_fetched":"Dalgety Bay,UK","state":"Edinburgh","country":"United Kingdom","canonicalUrl":"https://foursquare.com/v/malt-shovel/4b05881df964a5209eb222e3","categoryId":"4bf58dd8d48988d116941735","category":"Bar","checkinsCount":885,"usersCount":796,"tipCount":14,"visitsCount":923,"tier":"","message":"","currency":"","rating":7},{"name":"Sportsters","phone":"+441324673220","address":"8-12 Princes St","lat":56.000564,"lng":-3.783524,"city_fetched":"Dalgety Bay,UK","state":"Falkirk","country":"United Kingdom","canonicalUrl":"https://foursquare.com/v/sportsters/4b759b60f964a52027172ee3","categoryId":"4bf58dd8d48988d11d941735","category":"Sports Bar","checkinsCount":708,"usersCount":169,"tipCount":5,"visitsCount":750,"tier":"","message":"","currency":"","rating":6.9},{"name":"Shakespeare's Bar","phone":"+441312288400","address":"65 Lothian Rd","lat":55.947402074606295,"lng":-3.2059987216405075,"neighborhood":"Edinburgh Castle","city_fetched":"Dalgety Bay,UK","state":"Edinburgh","country":"United Kingdom","canonicalUrl":"https://foursquare.com/v/shakespeares-bar/4b6331d4f964a520b9692ae3","categoryId":"4bf58dd8d48988d11b941735","category":"Pub","checkinsCount":791,"usersCount":507,"tipCount":8,"visitsCount":797,"tier":"","message":"","currency":"","rating":6.8},{"name":"Indigo Yard","phone":"+441312205603","twitter":"indigoyard","address":"7 Charlotte Ln","lat":55.951119,"lng":-3.209664,"neighborhood":"New Town","city_fetched":"Dalgety Bay,UK","state":"Edinburgh","country":"United Kingdom","canonicalUrl":"https://foursquare.com/v/indigo-yard/4b05881ff964a52005b322e3","categoryId":"4bf58dd8d48988d116941735","category":"Bar","checkinsCount":1238,"usersCount":829,"tipCount":22,"visitsCount":1587,"url":"http://www.indigoyardedinburgh.co.uk","tier":"","message":"","currency":"","rating":6.8},{"name":"North Bridge Brasserie","phone":"+441316222900","address":"20 North Bridge","lat":55.951074078335694,"lng":-3.188159465789795,"neighborhood":"Waverley Station","city_fetched":"Dalgety Bay,UK","state":"Edinburgh","country":"United Kingdom","canonicalUrl":"https://foursquare.com/v/north-bridge-brasserie/4bb787437421a593d398c040","categoryId":"4bf58dd8d48988d1d5941735","category":"Hotel Bar","checkinsCount":179,"usersCount":148,"tipCount":6,"visitsCount":180,"url":"http://www.northbridgebrasserie.com","tier":"","message":"","currency":"","rating":6.8},{"name":"The Newyearfield (Wetherspoon)","phone":"+441506420770","address":"Unit 1 Livingston Designer Outlet Village","lat":55.88254148757507,"lng":-3.517581890654761,"city_fetched":"Dalgety Bay,UK","state":"West Lothian","country":"United Kingdom","canonicalUrl":"https://foursquare.com/v/the-newyearfield-wetherspoon/4b8e9f0ef964a520782c33e3","categoryId":"4bf58dd8d48988d11b941735","category":"Pub","checkinsCount":687,"usersCount":241,"tipCount":9,"visitsCount":694,"url":"http://www.jdwetherspoon.co.uk","tier":"","message":"","currency":"","rating":6.7},{"name":"The Balmoral Bar","phone":"+441315247099","twitter":"the_balmoral","address":"The Balmoral Hotel","lat":55.95308710549911,"lng":-3.1895067899957805,"neighborhood":"Waverley Station","city_fetched":"Dalgety Bay,UK","state":"Edinburgh","country":"United Kingdom","canonicalUrl":"https://foursquare.com/v/the-balmoral-bar/4f5a6ba5e4b00e135f41eb7f","categoryId":"4bf58dd8d48988d1d5941735","category":"Hotel Bar","checkinsCount":409,"usersCount":275,"tipCount":7,"visitsCount":409,"tier":"","message":"","currency":"","rating":6.7},{"name":"Carron Works (Wetherspoon)","phone":"+441324673020","address":"Bank St","lat":56.000300824577394,"lng":-3.783416748046875,"city_fetched":"Dalgety Bay,UK","state":"Falkirk","country":"United Kingdom","canonicalUrl":"https://foursquare.com/v/carron-works-wetherspoon/4c87aaf6821e9eb0e9cc8d89","categoryId":"4bf58dd8d48988d11b941735","category":"Pub","checkinsCount":836,"usersCount":223,"tipCount":1,"visitsCount":880,"url":"http://www.jdwetherspoon.co.uk","tier":"","message":"","currency":"","rating":6.7},{"name":"Robertsons 37 Bar","phone":"+441312256185","address":"37 Rose St","lat":55.952683942860226,"lng":-3.197579383850097,"neighborhood":"New Town","city_fetched":"Dalgety Bay,UK","state":"Edinburgh","country":"United Kingdom","canonicalUrl":"https://foursquare.com/v/robertsons-37-bar/4ba7b2a9f964a520cfaa39e3","categoryId":"4bf58dd8d48988d11b941735","category":"Pub","checkinsCount":366,"usersCount":292,"tipCount":3,"visitsCount":375,"tier":"","message":"","currency":"","rating":6.7},{"name":"Footlights Bar & Grill","phone":"+441312296466","address":"7 Spittal St","lat":55.94595470264192,"lng":-3.2033747993724315,"neighborhood":"Edinburgh Castle","city_fetched":"Dalgety Bay,UK","state":"Edinburgh","country":"United Kingdom","canonicalUrl":"https://foursquare.com/v/footlights-bar--grill/4b05881df964a52090b222e3","categoryId":"4bf58dd8d48988d11d941735","category":"Sports Bar","checkinsCount":374,"usersCount":243,"tipCount":8,"visitsCount":379,"url":"http://www.footlightsbar.co.uk","tier":"","message":"","currency":"","rating":6.7},{"name":"Louie Brown's","phone":"+441383821115","twitter":"louiebrowns","address":"Regents Way","lat":56.03724338403766,"lng":-3.357985616109219,"city_fetched":"Dalgety Bay,UK","state":"Fife","country":"United Kingdom","canonicalUrl":"https://foursquare.com/v/louie-browns/5245c92111d2c0f546121bea","categoryId":"4bf58dd8d48988d116941735","category":"Bar","checkinsCount":117,"usersCount":61,"tipCount":3,"visitsCount":170,"url":"http://www.louiebrowns.co.uk","tier":"","message":"","currency":"","rating":6.6},{"name":"Starbar","phone":"+441315398070","address":"1 Northumberland Pl","lat":55.957331,"lng":-3.195545,"neighborhood":"New Town","city_fetched":"Dalgety Bay,UK","state":"Edinburgh","country":"United Kingdom","canonicalUrl":"https://foursquare.com/v/starbar/4b9a8372f964a5208abc35e3","categoryId":"4bf58dd8d48988d11b941735","category":"Pub","checkinsCount":358,"usersCount":196,"tipCount":5,"visitsCount":434,"url":"http://www.starbar.co.uk","tier":"","message":"","currency":"","rating":6.6},{"name":"Bar 50","address":"Smart City Cafe, Cowgate","lat":55.94908424304216,"lng":-3.185957084364233,"neighborhood":"Cowgate","city_fetched":"Dalgety Bay,UK","country":"United Kingdom","canonicalUrl":"https://foursquare.com/v/bar-50/4c2e0dd176a7ef3b07eddeb8","categoryId":"4bf58dd8d48988d11b941735","category":"Pub","checkinsCount":501,"usersCount":379,"tipCount":3,"visitsCount":509,"tier":"","message":"","currency":"","rating":6.6},{"name":"Conan Doyle","phone":"+441315579539","address":"71 York Pl","lat":55.956712,"lng":-3.187816,"neighborhood":"New Town","city_fetched":"Dalgety Bay,UK","state":"Edinburgh","country":"United Kingdom","canonicalUrl":"https://foursquare.com/v/conan-doyle/4b09a41ff964a520d81a23e3","categoryId":"4bf58dd8d48988d11b941735","category":"Pub","checkinsCount":1071,"usersCount":967,"tipCount":17,"visitsCount":1210,"url":"http://www.nicholsonspubs.co.uk/theconandoyleedinburgh/","tier":"","message":"","currency":"","rating":6.6},{"name":"Electric Circus","address":"36-39 Market Street","lat":55.951067,"lng":-3.1898,"neighborhood":"Waverley Station","city_fetched":"Dalgety Bay,UK","state":"Edinburgh","country":"United Kingdom","canonicalUrl":"https://foursquare.com/v/electric-circus/4b05881ff964a52012b322e3","categoryId":"4bf58dd8d48988d120941735","category":"Karaoke Bar","checkinsCount":724,"usersCount":466,"tipCount":6,"visitsCount":731,"tier":"","message":"","currency":"","rating":6.5},{"name":"The Beehive Inn","phone":"+441312257171","address":"18 Grassmarket","lat":55.947258478447004,"lng":-3.196962258848135,"neighborhood":"Grassmarket","city_fetched":"Dalgety Bay,UK","state":"Edinburgh","country":"United Kingdom","canonicalUrl":"https://foursquare.com/v/the-beehive-inn/4b05881ef964a520b8b222e3","categoryId":"4bf58dd8d48988d11b941735","category":"Pub","checkinsCount":1836,"usersCount":1536,"tipCount":34,"visitsCount":1867,"tier":"","message":"","currency":"","rating":6.5},{"name":"Gilded Garden","lat":55.94500911531135,"lng":-3.1881489782620185,"neighborhood":"Newington","city_fetched":"Dalgety Bay,UK","country":"United Kingdom","canonicalUrl":"https://foursquare.com/v/gilded-garden/502812cce4b0a90de2f7eab8","categoryId":"4bf58dd8d48988d117941735","category":"Beer Garden","checkinsCount":149,"usersCount":109,"tipCount":4,"visitsCount":149,"tier":"","message":"","currency":"","rating":6.5},{"name":"Supercube","address":"58a George Street","lat":55.953076,"lng":-3.199274,"neighborhood":"New Town","city_fetched":"Dalgety Bay,UK","state":"Edinburgh","country":"United Kingdom","canonicalUrl":"https://foursquare.com/v/supercube/4cc9adafdbc376b00681a4bc","categoryId":"4bf58dd8d48988d120941735","category":"Karaoke Bar","checkinsCount":226,"usersCount":142,"tipCount":2,"visitsCount":228,"tier":"","message":"","currency":"","rating":6.5},{"name":"Doctors Bar","phone":"+441312251819","twitter":"doctorsbar","address":"32 Forrest Rd","lat":55.94537894572608,"lng":-3.1910347938537598,"neighborhood":"Newington","city_fetched":"Dalgety Bay,UK","state":"Midlothian","country":"United Kingdom","canonicalUrl":"https://foursquare.com/v/doctors-bar/4b37a8c7f964a520ca4325e3","categoryId":"4bf58dd8d48988d11b941735","category":"Pub","checkinsCount":1476,"usersCount":950,"tipCount":16,"visitsCount":1581,"tier":"","message":"","currency":"","rating":6.5},{"name":"The Steading","address":"118 -120 Biggar Road","lat":55.8906638,"lng":-3.201043,"city_fetched":"Dalgety Bay,UK","state":"Edinburgh","country":"United Kingdom","canonicalUrl":"https://foursquare.com/v/the-steading/4b190e19f964a5207fd723e3","categoryId":"4bf58dd8d48988d11b941735","category":"Pub","checkinsCount":190,"usersCount":183,"tipCount":5,"visitsCount":248,"tier":"","message":"","currency":"","rating":6.4},{"name":"The Tron","phone":"+441312253784","address":"9 Hunter Sq","lat":55.94971060752869,"lng":-3.18766,"neighborhood":"Cowgate","city_fetched":"Dalgety Bay,UK","state":"Edinburgh","country":"United Kingdom","canonicalUrl":"https://foursquare.com/v/the-tron/4b05881df964a52098b222e3","categoryId":"4bf58dd8d48988d11b941735","category":"Pub","checkinsCount":1721,"usersCount":1080,"tipCount":34,"visitsCount":1747,"url":"http://www.thetronedinburgh.co.uk","tier":"","message":"","currency":"","rating":6.4},{"name":"The James Young (Wetherspoon)","phone":"+441506651600","address":"36-40 Hopetoun St.","lat":55.90285996615047,"lng":-3.640519213625949,"city_fetched":"Dalgety Bay,UK","state":"West Lothian","country":"United Kingdom","canonicalUrl":"https://foursquare.com/v/the-james-young-wetherspoon/4bbc793eafe1b7135565304b","categoryId":"4bf58dd8d48988d11b941735","category":"Pub","checkinsCount":151,"usersCount":96,"tipCount":3,"visitsCount":173,"url":"http://www.jdwetherspoon.co.uk","tier":"","message":"","currency":"","rating":6.3},{"name":"No 1","twitter":"no1_highstreet","address":"1 High St","lat":55.95068869555225,"lng":-3.184310514916713,"neighborhood":"Waverley Station","city_fetched":"Dalgety Bay,UK","state":"Edinburgh","country":"United Kingdom","canonicalUrl":"https://foursquare.com/v/no-1/4f919bdfe4b0d7edb4e9dc91","categoryId":"4bf58dd8d48988d11b941735","category":"Pub","checkinsCount":733,"usersCount":552,"tipCount":18,"visitsCount":761,"tier":"","message":"","currency":"","rating":6.3},{"name":"Biddy Mulligan's","phone":"+441312201246","address":"96 Grassmarket","lat":55.9478434,"lng":-3.194829,"neighborhood":"Grassmarket","city_fetched":"Dalgety Bay,UK","country":"United Kingdom","canonicalUrl":"https://foursquare.com/v/biddy-mulligans/4b05881ef964a520c4b222e3","categoryId":"4bf58dd8d48988d11b941735","category":"Pub","checkinsCount":1597,"usersCount":1369,"tipCount":26,"visitsCount":1658,"tier":"","message":"","currency":"","rating":6.3},{"name":"The Links Hotel and Bar","phone":"+441312293834","twitter":"linksedinburgh","address":"2-4 Alvanley Tce.","lat":55.937498,"lng":-3.2030161,"neighborhood":"Bruntsfield","city_fetched":"Dalgety Bay,UK","state":"Edinburgh","country":"United Kingdom","canonicalUrl":"https://foursquare.com/v/the-links-hotel-and-bar/4b466c33f964a5206b2026e3","categoryId":"4bf58dd8d48988d11b941735","category":"Pub","checkinsCount":413,"usersCount":213,"tipCount":10,"visitsCount":431,"url":"http://www.links-hotel-edinburgh.co.uk","tier":"","message":"","currency":"","rating":6.3},{"name":"The City Hotel","phone":"+441383722538","address":"20 Bridge Street","lat":56.07142261946077,"lng":-3.464796050558627,"city_fetched":"Dalgety Bay,UK","state":"Fife","country":"United Kingdom","canonicalUrl":"https://foursquare.com/v/the-city-hotel/4bd31a40462cb713fd83dd07","categoryId":"4bf58dd8d48988d1d5941735","category":"Hotel Bar","checkinsCount":141,"usersCount":77,"tipCount":3,"visitsCount":148,"tier":"","message":"","currency":"","rating":6.2},{"name":"Sportsters","address":"1A Market St.","lat":55.95125535029849,"lng":-3.18881916226874,"neighborhood":"Waverley Station","city_fetched":"Dalgety Bay,UK","state":"Edinburgh","country":"United Kingdom","canonicalUrl":"https://foursquare.com/v/sportsters/4b65a421f964a5207ff72ae3","categoryId":"4bf58dd8d48988d11d941735","category":"Sports Bar","checkinsCount":642,"usersCount":280,"tipCount":7,"visitsCount":648,"tier":"","message":"","currency":"","rating":6.2},{"name":"The Alexander Graham Bell (Wetherspoon)","phone":"+441312408220","address":"126-128 George St","lat":55.95208777328418,"lng":-3.2053348299940967,"neighborhood":"New Town","city_fetched":"Dalgety Bay,UK","state":"Edinburgh","country":"United Kingdom","canonicalUrl":"https://foursquare.com/v/the-alexander-graham-bell-wetherspoon/4c14f081a5eb76b0506ec2b7","categoryId":"4bf58dd8d48988d11b941735","category":"Pub","checkinsCount":1854,"usersCount":919,"tipCount":14,"visitsCount":1934,"url":"http://www.jdwetherspoon.co.uk","tier":1,"message":"Cheap","currency":"£","rating":6.2},{"name":"Auld Hundred","phone":"+441312251809","address":"100 Rose St","lat":55.95238360008053,"lng":-3.1993603706359863,"neighborhood":"New Town","city_fetched":"Dalgety Bay,UK","state":"Midlothian","country":"United Kingdom","canonicalUrl":"https://foursquare.com/v/auld-hundred/4b9fd2f6f964a520fc4137e3","categoryId":"4bf58dd8d48988d11b941735","category":"Pub","checkinsCount":511,"usersCount":436,"tipCount":13,"visitsCount":514,"url":"http://www.auldhundred.co.uk","tier":"","message":"","currency":"","rating":6.2},{"name":"Haymarket Bar","phone":"+441312282537","address":"11-14A W Maitland St","lat":55.946331,"lng":-3.216359,"neighborhood":"Coates","city_fetched":"Dalgety Bay,UK","state":"Edinburgh","country":"United Kingdom","canonicalUrl":"https://foursquare.com/v/haymarket-bar/4b7ae2cdf964a520bf432fe3","categoryId":"4bf58dd8d48988d11b941735","category":"Pub","checkinsCount":1107,"usersCount":900,"tipCount":18,"visitsCount":1268,"url":"http://www.nicholsonspubs.co.uk/haymarketedinburgh/","tier":"","message":"","currency":"","rating":6.2},{"name":"The Black Rose Tavern","phone":"+441312200414","address":"49 Rose St","lat":55.95262387449068,"lng":-3.198115825653076,"neighborhood":"New Town","city_fetched":"Dalgety Bay,UK","state":"Edinburgh","country":"United Kingdom","canonicalUrl":"https://foursquare.com/v/the-black-rose-tavern/4b47b35ff964a5200d3b26e3","categoryId":"4bf58dd8d48988d11b941735","category":"Pub","checkinsCount":941,"usersCount":813,"tipCount":24,"visitsCount":974,"url":"http://www.blackrosetavern.com","tier":"","message":"","currency":"","rating":6.2},{"name":"Ye Olde Inn","phone":"+441313362437","address":"25 Main St.","lat":55.96574,"lng":-3.273713,"city_fetched":"Dalgety Bay,UK","state":"Edinburgh","country":"United Kingdom","canonicalUrl":"https://foursquare.com/v/ye-olde-inn/4c239b7fc11dc9b6b71b2424","categoryId":"4bf58dd8d48988d11b941735","category":"Pub","checkinsCount":202,"usersCount":101,"tipCount":4,"visitsCount":255,"tier":"","message":"","currency":"","rating":6.2},{"name":"Tolbooth Tavern","phone":"+441315565348","address":"167 Canongate","lat":55.95145,"lng":-3.180108,"neighborhood":"Canongate","city_fetched":"Dalgety Bay,UK","state":"Midlothian","country":"United Kingdom","canonicalUrl":"https://foursquare.com/v/tolbooth-tavern/4bec4421976ac9288dc2600b","categoryId":"4bf58dd8d48988d11b941735","category":"Pub","checkinsCount":558,"usersCount":538,"tipCount":17,"visitsCount":609,"url":"http://www.tolboothtavern.com","tier":"","message":"","currency":"","rating":6.2},{"name":"Milnes Bar","phone":"+441312256738","twitter":"taylorwalkerpub","address":"35 Hanover St","lat":55.952864147409656,"lng":-3.196613788604736,"city_fetched":"Dalgety Bay,UK","state":"Edinburgh","country":"United Kingdom","canonicalUrl":"https://foursquare.com/v/milnes-bar/4b05881ef964a520d7b222e3","categoryId":"4bf58dd8d48988d11b941735","category":"Pub","checkinsCount":1363,"usersCount":1179,"tipCount":20,"visitsCount":1475,"url":"http://www.taylor-walker.co.uk","tier":"","message":"","currency":"","rating":6.1},{"name":"The Street","phone":"+441315564272","address":"2b Picardy Pl","lat":55.95677517634883,"lng":-3.1877292842959064,"neighborhood":"Broughton","city_fetched":"Dalgety Bay,UK","state":"Edinburgh","country":"United Kingdom","canonicalUrl":"https://foursquare.com/v/the-street/4bb7b3b498c7ef3be4383002","categoryId":"4bf58dd8d48988d116941735","category":"Bar","checkinsCount":2016,"usersCount":545,"tipCount":10,"visitsCount":2046,"url":"http://www.thestreetbaredinburgh.co.uk","tier":"","message":"","currency":"","rating":6.1},{"name":"The Seven Kings","phone":"+441383736290","address":"32-42 Bridge St.","lat":56.071182,"lng":-3.4653987,"city_fetched":"Dalgety Bay,UK","state":"Fife","country":"United Kingdom","canonicalUrl":"https://foursquare.com/v/the-seven-kings/4b994959f964a5203d7035e3","categoryId":"4bf58dd8d48988d11b941735","category":"Pub","checkinsCount":364,"usersCount":163,"tipCount":10,"visitsCount":383,"tier":"","message":"","currency":"","rating":6.1},{"name":"The Guildhall & Linen Exchange (Wetherspoon)","phone":"+441383625960","twitter":"jdwtweet","address":"79-83 High St.","lat":56.07139394076927,"lng":-3.461341830261463,"city_fetched":"Dalgety Bay,UK","state":"Fife","country":"United Kingdom","canonicalUrl":"https://foursquare.com/v/the-guildhall--linen-exchange-wetherspoon/50015713e4b0eb34b4c5cd33","categoryId":"4bf58dd8d48988d11b941735","category":"Pub","checkinsCount":360,"usersCount":127,"tipCount":3,"visitsCount":402,"url":"http://www.jdwetherspoon.co.uk","tier":"","message":"","currency":"","rating":6.1},{"name":"Bar 521","phone":"+441312266001","twitter":"hiltonhotels","address":"Grosvenor Street","lat":55.947029101961135,"lng":-3.217498896247323,"neighborhood":"Coates","city_fetched":"Dalgety Bay,UK","state":"Midlothian","country":"United Kingdom","canonicalUrl":"https://foursquare.com/v/bar-521/50ca02c6245f2d4aa8c2c6f5","categoryId":"4bf58dd8d48988d1d5941735","category":"Hotel Bar","checkinsCount":261,"usersCount":22,"tipCount":2,"visitsCount":261,"url":"http://www.hilton.com","tier":"","message":"","currency":"","rating":6.1},{"name":"The Counting House","twitter":"jdwtweet","address":"38 West Nicolson St.","lat":55.944609,"lng":-3.185391,"neighborhood":"Newington","city_fetched":"Dalgety Bay,UK","state":"Midlothian","country":"United Kingdom","canonicalUrl":"https://foursquare.com/v/the-counting-house/4c31e95609a99c74d96e0b2a","categoryId":"4bf58dd8d48988d11b941735","category":"Pub","checkinsCount":499,"usersCount":279,"tipCount":1,"visitsCount":512,"tier":"","message":"","currency":"","rating":6.1},{"name":"The Southsider","lat":55.945322,"lng":-3.184027,"neighborhood":"Newington","city_fetched":"Dalgety Bay,UK","country":"United Kingdom","canonicalUrl":"https://foursquare.com/v/the-southsider/4baa9f21f964a520637a3ae3","categoryId":"4bf58dd8d48988d11b941735","category":"Pub","checkinsCount":473,"usersCount":320,"tipCount":9,"visitsCount":500,"tier":"","message":"","currency":"","rating":6.1},{"name":"CC Blooms","phone":"+441315569331","address":"23-24 Greenside Pl","lat":55.95719575628728,"lng":-3.185424016636508,"city_fetched":"Dalgety Bay,UK","state":"Edinburgh","country":"United Kingdom","canonicalUrl":"https://foursquare.com/v/cc-blooms/4b05881df964a52097b222e3","categoryId":"4bf58dd8d48988d1d8941735","category":"Gay Bar","checkinsCount":1610,"usersCount":686,"tipCount":13,"visitsCount":1713,"url":"http://ccbloomsedinburgh.com","tier":"","message":"","currency":"","rating":6},{"name":"Ryries Bar","phone":"+441313370550","twitter":"ryrieshaymarket","address":"1 Haymarket Terr","lat":55.945992190954605,"lng":-3.217324663511722,"neighborhood":"Haymarket","city_fetched":"Dalgety Bay,UK","state":"Edinburgh","country":"United Kingdom","canonicalUrl":"https://foursquare.com/v/ryries-bar/4b633523f964a520ab6a2ae3","categoryId":"4bf58dd8d48988d11b941735","category":"Pub","checkinsCount":525,"usersCount":425,"tipCount":15,"visitsCount":565,"url":"http://ryriesbar.co.uk","tier":"","message":"","currency":"","rating":6},{"name":"Gilvenbank Hotel","address":"Huntsman's Road","lat":56.216008721730525,"lng":-3.1639181182230143,"city_fetched":"Dalgety Bay,UK","state":"Fife","country":"United Kingdom","canonicalUrl":"https://foursquare.com/v/gilvenbank-hotel/4b79244ff964a520c2ec2ee3","categoryId":"4bf58dd8d48988d1d5941735","category":"Hotel Bar","checkinsCount":99,"usersCount":64,"tipCount":3,"visitsCount":122,"tier":"","message":"","currency":"","rating":6},{"name":"Planet Bar","phone":"+441315565551","address":"6 Baxter's Pl","lat":55.957609232016566,"lng":-3.184661865234375,"city_fetched":"Dalgety Bay,UK","state":"Edinburgh","country":"United Kingdom","canonicalUrl":"https://foursquare.com/v/planet-bar/4bdf385e6198c9b68d5f16ff","categoryId":"4bf58dd8d48988d1d8941735","category":"Gay Bar","checkinsCount":857,"usersCount":260,"tipCount":7,"visitsCount":863,"tier":"","message":"","currency":"","rating":6},{"name":"Belushi's","phone":"+441312261446","twitter":"belushis","address":"13 Market St","lat":55.951021,"lng":-3.190181,"neighborhood":"Waverley Station","city_fetched":"Dalgety Bay,UK","state":"Edinburgh","country":"United Kingdom","canonicalUrl":"https://foursquare.com/v/belushis/4bb720c62ea195217c91ac2f","categoryId":"4bf58dd8d48988d116941735","category":"Bar","checkinsCount":636,"usersCount":484,"tipCount":7,"visitsCount":637,"url":"https://www.belushis.com","tier":"","message":"","currency":"","rating":5.9},{"name":"Habana","phone":"+441315581270","twitter":"habanaedinburgh","address":"22 Greenside Pl","lat":55.95700862054739,"lng":-3.185681104660034,"city_fetched":"Dalgety Bay,UK","state":"Edinburgh","country":"United Kingdom","canonicalUrl":"https://foursquare.com/v/habana/4bb66d31f562ef3bd9233097","categoryId":"4bf58dd8d48988d1d8941735","category":"Gay Bar","checkinsCount":1489,"usersCount":333,"tipCount":8,"visitsCount":1491,"tier":"","message":"","currency":"","rating":5.9},{"name":"Rose Street Brewery","phone":"+441312201227","twitter":"dodropinns","address":"55-57 Rose St","lat":55.952491723749624,"lng":-3.1989312171936035,"neighborhood":"New Town","city_fetched":"Dalgety Bay,UK","state":"Edinburgh","country":"United Kingdom","canonicalUrl":"https://foursquare.com/v/rose-street-brewery/4b05881ef964a520dcb222e3","categoryId":"4bf58dd8d48988d11b941735","category":"Pub","checkinsCount":720,"usersCount":619,"tipCount":11,"visitsCount":724,"url":"http://www.dodropinns.co.uk","tier":"","message":"","currency":"","rating":5.9},{"name":"Corstorphine Inn","phone":"+441313341019","address":"17 Corstorphine High St.","lat":55.940548626916275,"lng":-3.2830619419647986,"city_fetched":"Dalgety Bay,UK","state":"Edinburgh","country":"United Kingdom","canonicalUrl":"https://foursquare.com/v/corstorphine-inn/4b252dfcf964a520796d24e3","categoryId":"4bf58dd8d48988d11b941735","category":"Pub","checkinsCount":237,"usersCount":97,"tipCount":2,"visitsCount":265,"tier":"","message":"","currency":"","rating":5.9},{"name":"The Merlin","phone":"+441314474329","address":"168 Morningside Rd","lat":55.92927425027417,"lng":-3.2098960876464844,"neighborhood":"Morningside","city_fetched":"Dalgety Bay,UK","state":"Midlothian","country":"United Kingdom","canonicalUrl":"https://foursquare.com/v/the-merlin/4b589395f964a520225f28e3","categoryId":"4bf58dd8d48988d11b941735","category":"Pub","checkinsCount":514,"usersCount":320,"tipCount":15,"visitsCount":584,"url":"http://www.themerlin-edinburgh.co.uk","tier":"","message":"","currency":"","rating":5.8},{"name":"Hunters Tryst","address":"97 Oxgangs Rd","lat":55.902268,"lng":-3.221082,"city_fetched":"Dalgety Bay,UK","country":"United Kingdom","canonicalUrl":"https://foursquare.com/v/hunters-tryst/4ca37cd4d5a2a143e1da4990","categoryId":"4bf58dd8d48988d11b941735","category":"Pub","checkinsCount":199,"usersCount":102,"tipCount":8,"visitsCount":242,"tier":"","message":"","currency":"","rating":5.8},{"name":"Brewers Fayre","phone":"+448706001486","address":"Fife Leisure Park","lat":56.078741785885555,"lng":-3.3991527557373047,"city_fetched":"Dalgety Bay,UK","state":"Fife","country":"United Kingdom","canonicalUrl":"https://foursquare.com/v/brewers-fayre/4b98f678f964a520d05835e3","categoryId":"4bf58dd8d48988d11b941735","category":"Pub","checkinsCount":143,"usersCount":103,"tipCount":1,"visitsCount":148,"tier":"","message":"","currency":"","rating":5.8},{"name":"Brewers Fayre","phone":"+448701977094","address":"Builyeon Rd","lat":55.984292324755266,"lng":-3.4049106508450686,"neighborhood":"Port Edgar","city_fetched":"Dalgety Bay,UK","state":"Edinburgh","country":"United Kingdom","canonicalUrl":"https://foursquare.com/v/brewers-fayre/4c62f33086b6be9a21568d34","categoryId":"4bf58dd8d48988d11b941735","category":"Pub","checkinsCount":105,"usersCount":59,"tipCount":0,"visitsCount":106,"url":"http://www.brewersfayre.co.uk","tier":"","message":"","currency":"","rating":5.8},{"name":"Murrayfield Bar","phone":"+441313371574","address":"57-59 Roseburn Terr","lat":55.945701733996806,"lng":-3.2356480463440596,"neighborhood":"Roseburn","city_fetched":"Dalgety Bay,UK","state":"Edinburgh","country":"United Kingdom","canonicalUrl":"https://foursquare.com/v/murrayfield-bar/4c2a4de2b34ad13a0211e8ce","categoryId":"4bf58dd8d48988d11d941735","category":"Sports Bar","checkinsCount":391,"usersCount":193,"tipCount":7,"visitsCount":502,"url":"http://www.murrayfieldbar.com","tier":"","message":"","currency":"","rating":5.7},{"name":"The Outhouse","phone":"+441315576668","twitter":"theouthousebar","address":"12A Broughton St Ln","lat":55.95738553889332,"lng":-3.187090531911863,"neighborhood":"Broughton","city_fetched":"Dalgety Bay,UK","state":"Edinburgh","country":"United Kingdom","canonicalUrl":"https://foursquare.com/v/the-outhouse/4b05881ef964a520dab222e3","categoryId":"4bf58dd8d48988d116941735","category":"Bar","checkinsCount":432,"usersCount":281,"tipCount":5,"visitsCount":438,"url":"http://www.outhouse-edinburgh.co.uk/#!/home.","tier":"","message":"","currency":"","rating":5.7},{"name":"Leadburn Inn","twitter":"leadburninn","address":"Nr Penicuik","lat":55.786931342940775,"lng":-3.2213889566328824,"city_fetched":"Dalgety Bay,UK","state":"Midlothian","country":"United Kingdom","canonicalUrl":"https://foursquare.com/leadburninn","categoryId":"4bf58dd8d48988d11b941735","category":"Pub","checkinsCount":34,"usersCount":40,"tipCount":1,"visitsCount":45,"tier":"","message":"","currency":"","rating":5.7},{"name":"The Booking Office (Wetherspoon)","lat":55.95178046116897,"lng":-3.191474275160235,"neighborhood":"Waverley Station","city_fetched":"Dalgety Bay,UK","state":"Edinburgh","country":"United Kingdom","canonicalUrl":"https://foursquare.com/v/the-booking-office-wetherspoon/576191fb498e95975b581854","categoryId":"4bf58dd8d48988d11b941735","category":"Pub","checkinsCount":83,"usersCount":68,"tipCount":2,"visitsCount":83,"tier":"","message":"","currency":"","rating":5.7},{"name":"Wash Bar","phone":"+441312256193","address":"11-13 North Bank Street","lat":55.95004084643365,"lng":-3.194403648376465,"neighborhood":"The Mound","city_fetched":"Dalgety Bay,UK","state":"Edinburgh","country":"United Kingdom","canonicalUrl":"https://foursquare.com/v/wash-bar/4b915884f964a520f5b433e3","categoryId":"4bf58dd8d48988d11b941735","category":"Pub","checkinsCount":475,"usersCount":378,"tipCount":4,"visitsCount":483,"url":"http://www.washbar.co.uk","tier":"","message":"","currency":"","rating":5.6},{"name":"The Globe Bar","phone":"+441315583837","address":"Niddry Street","lat":55.94973296203601,"lng":-3.186872961556116,"neighborhood":"Cowgate","city_fetched":"Dalgety Bay,UK","state":"Edinburgh","country":"United Kingdom","canonicalUrl":"https://foursquare.com/v/the-globe-bar/4b76ce45f964a52079602ee3","categoryId":"4bf58dd8d48988d116941735","category":"Bar","checkinsCount":418,"usersCount":231,"tipCount":6,"visitsCount":418,"tier":"","message":"","currency":"","rating":5.6},{"name":"Brewers Fayre","phone":"+448701977099","address":"Bowtrees Roundabout","lat":56.05377281556931,"lng":-3.758718967437744,"city_fetched":"Dalgety Bay,UK","country":"United Kingdom","canonicalUrl":"https://foursquare.com/v/brewers-fayre/4bfbc0e4565f76b0b3e405db","categoryId":"4bf58dd8d48988d11b941735","category":"Pub","checkinsCount":185,"usersCount":102,"tipCount":3,"visitsCount":220,"tier":"","message":"","currency":"","rating":5.6},{"name":"Wetherspoon Express (Wetherspoon)","phone":"+441313443032","address":"Airside","lat":55.94896076840146,"lng":-3.3633380939826925,"neighborhood":"Turnhouse","city_fetched":"Dalgety Bay,UK","state":"Midlothian","country":"United Kingdom","canonicalUrl":"https://foursquare.com/v/wetherspoon-express-wetherspoon/4c944accf7cfa1cdd6dab215","categoryId":"4bf58dd8d48988d11b941735","category":"Pub","checkinsCount":325,"usersCount":243,"tipCount":3,"visitsCount":325,"url":"http://www.jdwetherspoon.co.uk","tier":"","message":"","currency":"","rating":5.5},{"name":"Cameo Bar","phone":"+441315549999","address":"23 Commercial St","lat":55.97648255718259,"lng":-3.1713313675304837,"neighborhood":"The Shore","city_fetched":"Dalgety Bay,UK","state":"Edinburgh","country":"United Kingdom","canonicalUrl":"https://foursquare.com/v/cameo-bar/4b069375f964a52053ed22e3","categoryId":"4bf58dd8d48988d116941735","category":"Bar","checkinsCount":681,"usersCount":257,"tipCount":12,"visitsCount":687,"tier":"","message":"","currency":"","rating":5.5},{"name":"The Clubhouse","address":"St David's Drive","lat":56.040694,"lng":-3.366256,"city_fetched":"Dalgety Bay,UK","state":"Fife","country":"United Kingdom","canonicalUrl":"https://foursquare.com/v/the-clubhouse/4b2d58abf964a520c5d424e3","categoryId":"4bf58dd8d48988d116941735","category":"Bar","checkinsCount":208,"usersCount":97,"tipCount":4,"visitsCount":210,"tier":"","message":"","currency":"","rating":5.5},{"name":"The Foot Of The Walk (Wetherspoon)","phone":"+441315530120","address":"183 Constitution St.","lat":55.97053895645469,"lng":-3.1711769234699028,"neighborhood":"Pilrig","city_fetched":"Dalgety Bay,UK","state":"Edinburgh","country":"United Kingdom","canonicalUrl":"https://foursquare.com/v/the-foot-of-the-walk-wetherspoon/4ca9fd7014c33704033ce33b","categoryId":"4bf58dd8d48988d11b941735","category":"Pub","checkinsCount":731,"usersCount":321,"tipCount":6,"visitsCount":863,"url":"http://www.jdwetherspoon.co.uk","tier":"","message":"","currency":"","rating":5.4},{"name":"The Sir Walter Scott (Wetherspoon)","phone":"+441313484243","address":"Airside Edinburgh Airport","lat":55.9487967900942,"lng":-3.363381712192476,"neighborhood":"Turnhouse","city_fetched":"Dalgety Bay,UK","state":"Edinburgh","country":"United Kingdom","canonicalUrl":"https://foursquare.com/v/the-sir-walter-scott-wetherspoon/4b5db80df964a520576829e3","categoryId":"4bf58dd8d48988d11b941735","category":"Pub","checkinsCount":1732,"usersCount":1085,"tipCount":22,"visitsCount":1734,"url":"http://www.jdwetherspoon.co.uk","tier":"","message":"","currency":"","rating":5.4},{"name":"Madogs","phone":"+441312253408","address":"38 George Street","lat":55.95339735634185,"lng":-3.1979006682405444,"neighborhood":"New Town","city_fetched":"Dalgety Bay,UK","state":"Edinburgh","country":"United Kingdom","canonicalUrl":"https://foursquare.com/v/madogs/4bfaf0fc65fbc9b66fbe906c","categoryId":"4bf58dd8d48988d120941735","category":"Karaoke Bar","checkinsCount":142,"usersCount":122,"tipCount":5,"visitsCount":142,"tier":"","message":"","currency":"","rating":5.4},{"name":"The Playfair (Lloyds No. 1 Bar)","phone":"+441315247760","twitter":"jdwtweet","address":"Omni Centre","lat":55.95645604976503,"lng":-3.1862282752990723,"city_fetched":"Dalgety Bay,UK","state":"Edinburgh","country":"United Kingdom","canonicalUrl":"https://foursquare.com/v/the-playfair-lloyds-no-1-bar/4bf3fc0f98ac0f47fb6c63a8","categoryId":"4bf58dd8d48988d11b941735","category":"Pub","checkinsCount":1594,"usersCount":794,"tipCount":21,"visitsCount":1604,"url":"http://www.jdwetherspoon.co.uk/home/pubs/the-playfair","tier":"","message":"","currency":"","rating":5.3},{"name":"The Turnhouse (Wetherspoon)","phone":"+441313443030","address":"Landside","lat":55.94829314455815,"lng":-3.3628711693347304,"neighborhood":"Turnhouse","city_fetched":"Dalgety Bay,UK","state":"Midlothian","country":"United Kingdom","canonicalUrl":"https://foursquare.com/v/the-turnhouse-wetherspoon/4b3a4e56f964a5203c6425e3","categoryId":"4bf58dd8d48988d11b941735","category":"Pub","checkinsCount":531,"usersCount":387,"tipCount":6,"visitsCount":531,"url":"http://www.jdwetherspoon.co.uk","tier":"","message":"","currency":"","rating":5.2},{"name":"McCowans","phone":"+441312288198","twitter":"johnbarraspubs","address":"134 Dundee St","lat":55.94062034460108,"lng":-3.217470645904541,"neighborhood":"Fountainbridge","city_fetched":"Dalgety Bay,UK","state":"Edinburgh","country":"United Kingdom","canonicalUrl":"https://foursquare.com/v/mccowans/4b05881ef964a520d6b222e3","categoryId":"4bf58dd8d48988d11b941735","category":"Pub","checkinsCount":1113,"usersCount":409,"tipCount":14,"visitsCount":1119,"url":"http://www.flaminggrillpubs.com/pub/mccowans-brewhouse-edinburgh/s1094/","tier":"","message":"","currency":"","rating":5.1},{"name":"The Gathering","phone":"+441313335143","address":"Edinburgh Airport","lat":55.94893632763621,"lng":-3.363454407120175,"city_fetched":"Dalgety Bay,UK","state":"Edinburgh","country":"United Kingdom","canonicalUrl":"https://foursquare.com/v/the-gathering/4b291783f964a520859824e3","categoryId":"4bf58dd8d48988d121941735","category":"Lounge","checkinsCount":776,"usersCount":531,"tipCount":27,"visitsCount":778,"tier":"","message":"","currency":"","rating":4.9}]