[{"name":"The Quaker House","phone":"+447783960105","address":"2 Mechanics Yard","lat":54.52443384727825,"lng":-1.5560580790042877,"city_fetched":"Darlington","state":"Darlington","country":"United Kingdom","canonicalUrl":"https://foursquare.com/v/the-quaker-house/4bb636576edc76b0bd92301c","category":"Pub","checkinsCount":882,"usersCount":88,"tipCount":13,"visitsCount":906,"tier":"","message":"","currency":"","rating":8.6},{"name":"The William Stead  (Wetherspoon)","phone":"+441325341440","address":"8 Crown St.","lat":54.52560845414164,"lng":-1.5525383178811312,"city_fetched":"Darlington","state":"Darlington","country":"United Kingdom","canonicalUrl":"https://foursquare.com/v/the-william-stead--wetherspoon/4b755d63f964a52063082ee3","category":"Pub","checkinsCount":1256,"usersCount":382,"tipCount":5,"visitsCount":1427,"url":"http://www.jdwetherspoon.co.uk","tier":"","message":"","currency":"","rating":7.5},{"name":"Half Moon","phone":"+441325469965","address":"130 Northgate","lat":54.528745693348284,"lng":-1.5530584626586126,"city_fetched":"Darlington","state":"Darlington","country":"United Kingdom","canonicalUrl":"https://foursquare.com/v/half-moon/523df08211d2cd494cf44621","category":"Pub","checkinsCount":89,"usersCount":29,"tipCount":3,"visitsCount":93,"tier":"","message":"","currency":"","rating":7.2},{"name":"Number Twenty2","phone":"+441325354590","address":"22 Coniscliffe Rd.","lat":54.52357691052562,"lng":-1.5586504340171814,"city_fetched":"Darlington","state":"Darlington","country":"United Kingdom","canonicalUrl":"https://foursquare.com/v/number-twenty2/4c00f90b75fc952172d54898","category":"Bar","checkinsCount":261,"usersCount":115,"tipCount":13,"visitsCount":282,"tier":"","message":"","currency":"","rating":6.7},{"name":"Beefeater","phone":"+441325373340","twitter":"beefeater","address":"Morton Park Way","lat":54.518653692962154,"lng":-1.5034670614186891,"city_fetched":"Darlington","state":"Darlington","country":"United Kingdom","canonicalUrl":"https://foursquare.com/v/beefeater/4c4a413e712ac9287eb9296b","category":"Pub","checkinsCount":390,"usersCount":130,"tipCount":6,"visitsCount":453,"url":"http://www.beefeater.co.uk/steak-restaurant/CountyDurham/Morton-Park.html","tier":"","message":"","currency":"","rating":6.5},{"name":"The White Heifer That Travelled","phone":"+441325462464","address":"Tillage Green","lat":54.54757523247699,"lng":-1.5862369537353516,"city_fetched":"Darlington","state":"Darlington","country":"United Kingdom","canonicalUrl":"https://foursquare.com/v/the-white-heifer-that-travelled/4c69685c0e98a593e9532459","category":"Pub","checkinsCount":214,"usersCount":94,"tipCount":6,"visitsCount":251,"url":"http://www.whiteheiferthattravelledpub.co.uk","tier":"","message":"","currency":"","rating":6},{"name":"The Tanners Hall (Wetherspoon)","address":"63-64 Skinnergate","lat":54.52555538764521,"lng":-1.557188630104065,"city_fetched":"Darlington","state":"Darlington","country":"United Kingdom","canonicalUrl":"https://foursquare.com/v/the-tanners-hall-wetherspoon/4bee4a253686c9b64d63246e","category":"Pub","checkinsCount":637,"usersCount":207,"tipCount":6,"visitsCount":723,"url":"http://www.jdwetherspoon.co.uk","tier":"","message":"","currency":"","rating":5.9}]