[{"name":"The Olde Coach House","phone":"+441788890349","address":"Main St.","lat":52.30877251203542,"lng":-1.1688415746920096,"city_fetched":"Daventry,UK","state":"Warwickshire","country":"United Kingdom","canonicalUrl":"https://foursquare.com/v/the-olde-coach-house/4bdedc3ffe0e62b554010606","categoryId":"4bf58dd8d48988d11b941735","category":"Pub","checkinsCount":145,"usersCount":95,"tipCount":1,"visitsCount":197,"url":"http://www.oldecoachhouse.co.uk","tier":"","message":"","currency":"","rating":7},{"name":"The Saracens Head Inn  (Wetherspoon)","phone":"+441327314800","address":"1 Brook St.","lat":52.25769042836917,"lng":-1.1646795272827148,"city_fetched":"Daventry,UK","state":"Northamptonshire","country":"United Kingdom","canonicalUrl":"https://foursquare.com/v/the-saracens-head-inn--wetherspoon/4c87aacd821e9eb0c5cc8d89","categoryId":"4bf58dd8d48988d11b941735","category":"Pub","checkinsCount":334,"usersCount":117,"tipCount":1,"visitsCount":373,"url":"http://www.jdwetherspoon.co.uk","tier":"","message":"","currency":"","rating":6.1},{"name":"Middlemore Farm","phone":"+441327706708","address":"Hidcote Way","lat":52.28143261724676,"lng":-1.172740888725721,"city_fetched":"Daventry,UK","state":"Northamptonshire","country":"United Kingdom","canonicalUrl":"https://foursquare.com/v/middlemore-farm/4b812584f964a520599830e3","categoryId":"4bf58dd8d48988d11b941735","category":"Pub","checkinsCount":660,"usersCount":109,"tipCount":4,"visitsCount":788,"tier":"","message":"","currency":"","rating":6},{"name":"The Boat House","phone":"+441788891734","address":"London Road","lat":52.289276154782065,"lng":-1.2183242821257765,"city_fetched":"Daventry,UK","state":"Northamptonshire","country":"United Kingdom","canonicalUrl":"https://foursquare.com/v/the-boat-house/4c0e99a498102d7f2cede306","categoryId":"4bf58dd8d48988d11b941735","category":"Pub","checkinsCount":234,"usersCount":139,"tipCount":4,"visitsCount":281,"tier":"","message":"","currency":"","rating":5.7}]