[{"name":"The Smugglers Inn","phone":"+441626862301","address":"27 Teignmouth Road","lat":50.5688263010279,"lng":-3.4744155406951904,"city_fetched":"Dawlish,UK","state":"Devon","country":"United Kingdom","canonicalUrl":"https://foursquare.com/v/the-smugglers-inn/4be9339dfbbb9c7424381e8e","categoryId":"4bf58dd8d48988d11b941735","category":"Pub","checkinsCount":149,"usersCount":86,"tipCount":3,"visitsCount":172,"tier":"","message":"","currency":"","rating":7.8},{"name":"The Grove","phone":"+441395272101","twitter":"thegroveexmouth","address":"Esplanade","lat":50.616669930079205,"lng":-3.4202739047956463,"city_fetched":"Dawlish,UK","state":"Devon","country":"United Kingdom","canonicalUrl":"https://foursquare.com/v/the-grove/4e32d17545ddcff0a75891da","categoryId":"4bf58dd8d48988d11b941735","category":"Pub","checkinsCount":149,"usersCount":145,"tipCount":4,"visitsCount":200,"url":"http://www.groveexmouth.co.uk","tier":"","message":"","currency":"","rating":7.1},{"name":"Spoken","address":"43 The Strand","lat":50.619078245259836,"lng":-3.414781062510141,"city_fetched":"Dawlish,UK","state":"Devon","country":"United Kingdom","canonicalUrl":"https://foursquare.com/v/spoken/4d2a1595888af04ddbb9d4af","categoryId":"4bf58dd8d48988d11e941735","category":"Cocktail Bar","checkinsCount":102,"usersCount":53,"tipCount":4,"visitsCount":102,"tier":"","message":"","currency":"","rating":6.9},{"name":"The Grapevine","phone":"+441395222208","address":"2 Victoria Rd.","lat":50.6193603,"lng":-3.4153742,"city_fetched":"Dawlish,UK","state":"Devon","country":"United Kingdom","canonicalUrl":"https://foursquare.com/v/the-grapevine/4de7e0591838131a85603f54","categoryId":"4bf58dd8d48988d116941735","category":"Bar","checkinsCount":93,"usersCount":60,"tipCount":4,"visitsCount":97,"url":"http://www.grapevine-exmouth.com","tier":"","message":"","currency":"","rating":6.7},{"name":"The Ness","phone":"+441626873480","address":"Ness Drive","lat":50.53788721561432,"lng":-3.499226,"city_fetched":"Dawlish,UK","state":"Devon","country":"United Kingdom","canonicalUrl":"https://foursquare.com/v/the-ness/4be092624c55b6510577eab7","categoryId":"4bf58dd8d48988d11b941735","category":"Pub","checkinsCount":190,"usersCount":161,"tipCount":10,"visitsCount":240,"url":"http://theness.co.uk","tier":"","message":"","currency":"","rating":6.5},{"name":"The Ship","address":"Queen Street","lat":50.544247060508845,"lng":-3.4983495622873306,"city_fetched":"Dawlish,UK","state":"Devon","country":"United Kingdom","canonicalUrl":"https://foursquare.com/v/the-ship/4bb8db84b35776b0df50c901","categoryId":"4bf58dd8d48988d11b941735","category":"Pub","checkinsCount":252,"usersCount":106,"tipCount":3,"visitsCount":254,"tier":"","message":"","currency":"","rating":6.4},{"name":"Mount Pleasant Inn","phone":"+441626863151","address":"Mount Pleasant Road","lat":50.59627343207522,"lng":-3.4455747347147896,"city_fetched":"Dawlish,UK","state":"Devon","country":"United Kingdom","canonicalUrl":"https://foursquare.com/v/mount-pleasant-inn/4c4a007b959220a112b3880d","categoryId":"4bf58dd8d48988d11b941735","category":"Pub","checkinsCount":124,"usersCount":94,"tipCount":6,"visitsCount":142,"tier":"","message":"","currency":"","rating":6.3},{"name":"The Powder Monkey (Wetherspoon)","phone":"+441395280090","address":"2-2a The Parade","lat":50.62024956815634,"lng":-3.4138200864419455,"city_fetched":"Dawlish,UK","state":"Devon","country":"United Kingdom","canonicalUrl":"https://foursquare.com/v/the-powder-monkey-wetherspoon/4c87aaf4821e9eb0e7cc8d89","categoryId":"4bf58dd8d48988d11b941735","category":"Pub","checkinsCount":417,"usersCount":195,"tipCount":13,"visitsCount":436,"url":"http://www.jdwetherspoon.co.uk","tier":"","message":"","currency":"","rating":6.1},{"name":"The Clipper","address":"33-34 The Strand","lat":50.61897582499999,"lng":-3.414772,"city_fetched":"Dawlish,UK","state":"Devon","country":"United Kingdom","canonicalUrl":"https://foursquare.com/v/the-clipper/4be1aba4a145c928c5264e80","categoryId":"4bf58dd8d48988d11b941735","category":"Pub","checkinsCount":189,"usersCount":91,"tipCount":9,"visitsCount":189,"tier":"","message":"","currency":"","rating":5.8}]