[{"name":"Deal Hoy (Shepherd Neame)","phone":"+441304363972","address":"16 Duke St.","lat":51.22689130294373,"lng":1.400633454322815,"city_fetched":"Deal","state":"Kent","country":"United Kingdom","canonicalUrl":"https://foursquare.com/v/deal-hoy-shepherd-neame/4ce8278c8ef78cfa2278989b","category":"Pub","checkinsCount":98,"usersCount":43,"tipCount":3,"visitsCount":119,"url":"http://www.shepherdneame.co.uk","tier":"","message":"","currency":"","rating":8.1},{"name":"The Lighthouse","phone":"+441304366031","twitter":"thelighthouse50","address":"50 The Strand","lat":51.21543263544213,"lng":1.4024734497070312,"neighborhood":"Walmer","city_fetched":"Deal","state":"Kent","country":"United Kingdom","canonicalUrl":"https://foursquare.com/v/the-lighthouse/5299478711d242cc79017bbb","category":"Music Venue","checkinsCount":40,"usersCount":31,"tipCount":4,"visitsCount":70,"url":"http://www.thelighthousedeal.co.uk","tier":"","message":"","currency":"","rating":7.8},{"name":"The King's Head","phone":"+441304368194","address":"9 Beach St.","lat":51.22264438983199,"lng":1.4043112514574174,"city_fetched":"Deal","state":"Kent","country":"United Kingdom","canonicalUrl":"https://foursquare.com/v/the-kings-head/4cf15eb794feb1f791f416ba","category":"Gastropub","checkinsCount":249,"usersCount":124,"tipCount":3,"visitsCount":262,"url":"http://www.kingsheaddeal.co.uk","tier":"","message":"","currency":"","rating":7.6},{"name":"Sir Norman Wisdom (Wetherspoon)","phone":"+441304382930","twitter":"jdwtweet","address":"18-20 Queen St.","lat":51.223135169708264,"lng":1.4017608199801554,"city_fetched":"Deal","state":"Kent","country":"United Kingdom","canonicalUrl":"https://foursquare.com/v/sir-norman-wisdom-wetherspoon/5130c089e4b01ac3a8b32014","category":"Pub","checkinsCount":186,"usersCount":76,"tipCount":8,"visitsCount":208,"url":"http://www.jdwetherspoon.co.uk","tier":"","message":"","currency":"","rating":7.3},{"name":"The Bohemian","phone":"+441304361939","address":"47 Beach St","lat":51.22390301764257,"lng":1.4041364192962644,"city_fetched":"Deal","state":"Kent","country":"United Kingdom","canonicalUrl":"https://foursquare.com/v/the-bohemian/4c66d66bb80abe9a6620cee5","category":"Gastropub","checkinsCount":216,"usersCount":87,"tipCount":7,"visitsCount":223,"url":"http://www.thebohemian.co.uk","tier":"","message":"","currency":"","rating":6.8},{"name":"The Lane","lat":51.222823,"lng":1.403023,"city_fetched":"Deal","country":"United Kingdom","canonicalUrl":"https://foursquare.com/v/the-lane/53ad5c91498e8de9d62fac62","category":"Cocktail Bar","checkinsCount":37,"usersCount":20,"tipCount":5,"visitsCount":41,"tier":"","message":"","currency":"","rating":6.8},{"name":"The Saracens Head - Shepherd Neame","address":"1 Alfred Square","lat":51.22916724168237,"lng":1.4024090766906738,"city_fetched":"Deal","state":"Kent","country":"United Kingdom","canonicalUrl":"https://foursquare.com/v/the-saracens-head--shepherd-neame/4de1547dae60e7f3abd4abd8","category":"Pub","checkinsCount":27,"usersCount":10,"tipCount":0,"visitsCount":27,"url":"http://www.shepherdneame.co.uk","tier":"","message":"","currency":"","rating":6.4},{"name":"The Clarendon Hotel - Shepherd Neame","phone":"+441304374748","address":"51/53 Beach Street","lat":51.224069971134526,"lng":1.4042936139776938,"city_fetched":"Deal","state":"Kent","country":"United Kingdom","canonicalUrl":"https://foursquare.com/v/the-clarendon-hotel--shepherd-neame/4d18c66e816af04df27858c2","category":"Pub","checkinsCount":55,"usersCount":34,"tipCount":4,"visitsCount":57,"url":"http://www.shepherdneame.co.uk","tier":"","message":"","currency":"","rating":5.9}]