[{"name":"The Exeter Arms","phone":"+441332605323","twitter":"exeterarms","address":"Exeter Pl","lat":52.924506,"lng":-1.4721089601516724,"neighborhood":"City Centre","city_fetched":"Derby","state":"Derby","country":"United Kingdom","canonicalUrl":"https://foursquare.com/v/the-exeter-arms/4dd93be652b1a5c64478222d","category":"Pub","checkinsCount":571,"usersCount":276,"tipCount":20,"visitsCount":652,"url":"http://www.exeterarms.co.uk","tier":2,"message":"Moderate","currency":"£","rating":9},{"name":"The Tap Beer & Spirit House","phone":"+441332366283","address":"1 Derwent St","lat":52.924225,"lng":-1.473326,"neighborhood":"City Centre","city_fetched":"Derby","state":"Derby","country":"United Kingdom","canonicalUrl":"https://foursquare.com/v/the-tap-beer--spirit-house/4b78025ef964a520ebb12ee3","category":"Pub","checkinsCount":877,"usersCount":453,"tipCount":16,"visitsCount":1075,"url":"http://www.thebrewerytapderby.co.uk","tier":"","message":"","currency":"","rating":9},{"name":"Furnace Inn","twitter":"thefurnaceinn","address":"Duke St","lat":52.92885213478748,"lng":-1.4766526222229004,"neighborhood":"Darley","city_fetched":"Derby","state":"Derby","country":"United Kingdom","canonicalUrl":"https://foursquare.com/v/furnace-inn/4e1210b6d22d759bae67f979","category":"Pub","checkinsCount":658,"usersCount":172,"tipCount":12,"visitsCount":816,"tier":1,"message":"Cheap","currency":"£","rating":8.7},{"name":"The Brunswick Inn","phone":"+441332290677","address":"1 Railway Ter","lat":52.91821193054576,"lng":-1.4642442395328628,"neighborhood":"City Centre","city_fetched":"Derby","state":"Derbyshire","country":"United Kingdom","canonicalUrl":"https://foursquare.com/v/the-brunswick-inn/4b506634f964a5203c2227e3","category":"Pub","checkinsCount":1038,"usersCount":403,"tipCount":15,"visitsCount":1143,"url":"http://www.brunswickderby.co.uk","tier":"","message":"","currency":"","rating":8.7},{"name":"Alexandra Hotel","phone":"+441332293993","address":"203 Siddals Rd","lat":52.918806,"lng":-1.464376,"neighborhood":"City Centre","city_fetched":"Derby","state":"Derby","country":"United Kingdom","canonicalUrl":"https://foursquare.com/v/alexandra-hotel/4bb4dd5786a8d13a6701df7f","category":"Pub","checkinsCount":558,"usersCount":199,"tipCount":13,"visitsCount":626,"url":"http://www.alexandrahotelderby.co.uk","tier":"","message":"","currency":"","rating":8.7},{"name":"The Greyhound","phone":"+441332344155","twitter":"greyhound_derby","address":"75-76 Friar Gate","lat":52.924633,"lng":-1.48885,"city_fetched":"Derby","state":"Derbyshire","country":"United Kingdom","canonicalUrl":"https://foursquare.com/v/the-greyhound/4c0931c37e3fc9282686f182","category":"Pub","checkinsCount":1225,"usersCount":411,"tipCount":18,"visitsCount":1589,"url":"http://www.derbybrewing.co.uk/the-greyhound_62_7.html","tier":2,"message":"Moderate","currency":"£","rating":8.4},{"name":"Silk Mill Ale & Cider House","phone":"+441332349160","twitter":"silkmillderby","address":"19 Full St","lat":52.92552898734237,"lng":-1.4772652298823306,"neighborhood":"City Centre","city_fetched":"Derby","state":"Derby","country":"United Kingdom","canonicalUrl":"https://foursquare.com/v/silk-mill-ale--cider-house/4cae1aee2a55224bc01c7469","category":"Pub","checkinsCount":491,"usersCount":259,"tipCount":9,"visitsCount":557,"url":"http://www.thesilkmillderby.co.uk","tier":"","message":"","currency":"","rating":8.3},{"name":"The Flowerpot","phone":"+441332204955","address":"23-25 King St.","lat":52.92619584136248,"lng":-1.4796719664084026,"neighborhood":"City Centre","city_fetched":"Derby","state":"Derby","country":"United Kingdom","canonicalUrl":"https://foursquare.com/v/the-flowerpot/4bb8f788b35776b01075c901","category":"Pub","checkinsCount":610,"usersCount":283,"tipCount":8,"visitsCount":723,"url":"http://www.the-flowerpot-pub.co.uk","tier":"","message":"","currency":"","rating":8},{"name":"Mr Grundy's Tavern","phone":"+441332349806","address":"32-34 Ashbourne Rd","lat":52.92602064474091,"lng":-1.4927752937264862,"neighborhood":"West End","city_fetched":"Derby","state":"Derbyshire","country":"United Kingdom","canonicalUrl":"https://foursquare.com/v/mr-grundys-tavern/4da17ba3bf22a1430fb89cf8","category":"Pub","checkinsCount":302,"usersCount":133,"tipCount":9,"visitsCount":334,"tier":"","message":"","currency":"","rating":7.8},{"name":"The Distillery","lat":52.9232199912006,"lng":-1.4814729649454121,"neighborhood":"City Centre","city_fetched":"Derby","country":"United Kingdom","canonicalUrl":"https://foursquare.com/v/the-distillery/54d64be8498e306b99dfb40e","category":"Bar","checkinsCount":62,"usersCount":49,"tipCount":0,"visitsCount":70,"tier":"","message":"","currency":"","rating":7.8},{"name":"The Five Lamps","phone":"+441332348730","twitter":"fivelampspub","address":"25 Duffield Rd","lat":52.929148,"lng":-1.482686,"neighborhood":"Darley","city_fetched":"Derby","state":"Derbyshire","country":"United Kingdom","canonicalUrl":"https://foursquare.com/v/the-five-lamps/4c266598905a0f47e23a6360","category":"Pub","checkinsCount":699,"usersCount":248,"tipCount":10,"visitsCount":901,"url":"http://www.fivelampsderby.co.uk","tier":"","message":"","currency":"","rating":7.6},{"name":"The Wonky Table","phone":"+441332295000","twitter":"thewonkytable","address":"32-33 Sadler Gate","lat":52.923152,"lng":-1.4798585666666666,"neighborhood":"City Centre","city_fetched":"Derby","state":"Derbyshire","country":"United Kingdom","canonicalUrl":"https://foursquare.com/v/the-wonky-table/4d46b7f5bbb1a14382ad5f72","category":"Restaurant","checkinsCount":96,"usersCount":68,"tipCount":5,"visitsCount":98,"url":"http://www.wonkytable.co.uk","tier":2,"message":"Moderate","currency":"£","rating":7.6},{"name":"The Abbey","phone":"+441332558297","address":"Darley St.","lat":52.94178106384182,"lng":-1.4768241197612941,"neighborhood":"Darley Abbey","city_fetched":"Derby","state":"Derby","country":"United Kingdom","canonicalUrl":"https://foursquare.com/v/the-abbey/4bc1c5bf920eb713701d1b2c","category":"Pub","checkinsCount":359,"usersCount":117,"tipCount":11,"visitsCount":370,"tier":"","message":"","currency":"","rating":7.6},{"name":"Revolución de Cuba","phone":"+441332896196","address":"9 The Strand","lat":52.922573382805744,"lng":-1.4793199090354157,"neighborhood":"City Centre","city_fetched":"Derby","state":"Derbyshire","country":"United Kingdom","canonicalUrl":"https://foursquare.com/v/revoluci%C3%B3n-de-cuba/50b00169e4b00a661c6c651a","category":"Cocktail Bar","checkinsCount":571,"usersCount":386,"tipCount":11,"visitsCount":766,"tier":"","message":"","currency":"","rating":7.5},{"name":"The Nags Head","phone":"+441332513104","address":"25 Uttoxeter Rd","lat":52.904874,"lng":-1.541976,"neighborhood":"Mickleover","city_fetched":"Derby","state":"Derbyshire","country":"United Kingdom","canonicalUrl":"https://foursquare.com/v/the-nags-head/4b780f4bf964a520efb32ee3","category":"Pub","checkinsCount":524,"usersCount":141,"tipCount":1,"visitsCount":665,"tier":"","message":"","currency":"","rating":7.4},{"name":"Old Bell Hotel","address":"Sadler Gate","lat":52.923319,"lng":-1.477845,"neighborhood":"City Centre","city_fetched":"Derby","state":"Derby","country":"United Kingdom","canonicalUrl":"https://foursquare.com/v/old-bell-hotel/5206495011d284f64cfb1b45","category":"Hotel Bar","checkinsCount":129,"usersCount":82,"tipCount":4,"visitsCount":164,"tier":"","message":"","currency":"","rating":7.3},{"name":"The Bubble Inn","phone":"+441283703113","address":"Derby Rd, Stenson","lat":52.86713497244468,"lng":-1.5178728103637695,"city_fetched":"Derby","state":"Derbyshire","country":"United Kingdom","canonicalUrl":"https://foursquare.com/v/the-bubble-inn/4bf8270d5ec320a1063e88d3","category":"Hotel","checkinsCount":134,"usersCount":86,"tipCount":5,"visitsCount":154,"url":"http://www.thebubbleinn.com","tier":"","message":"","currency":"","rating":7.3},{"name":"The Smithfield","address":"Meadow Rd","lat":52.923282980918884,"lng":-1.46788,"neighborhood":"City Centre","city_fetched":"Derby","state":"Derby","country":"United Kingdom","canonicalUrl":"https://foursquare.com/v/the-smithfield/4c309899452620a1264f1f0f","category":"Pub","checkinsCount":81,"usersCount":53,"tipCount":4,"visitsCount":87,"tier":"","message":"","currency":"","rating":7.2},{"name":"Mosh","phone":"+441332292340","twitter":"moshderby","address":"110 Friar Gate","lat":52.923041,"lng":-1.48284,"neighborhood":"City Centre","city_fetched":"Derby","state":"Derbyshire","country":"United Kingdom","canonicalUrl":"https://foursquare.com/v/mosh/4bf70f6f5ec320a1d75086d3","category":"Nightclub","checkinsCount":662,"usersCount":200,"tipCount":6,"visitsCount":676,"url":"http://www.moshderby.co.uk","tier":"","message":"","currency":"","rating":7.1},{"name":"Ye Olde Dolphin Inn","lat":52.925356,"lng":-1.47807926,"neighborhood":"City Centre","city_fetched":"Derby","state":"Derbyshire","country":"United Kingdom","canonicalUrl":"https://foursquare.com/v/ye-olde-dolphin-inn/4bc9d19368f976b097e25d83","category":"Pub","checkinsCount":557,"usersCount":310,"tipCount":10,"visitsCount":600,"url":"http://www.yeoldedolphin.co.uk","tier":"","message":"","currency":"","rating":7.1},{"name":"Bar One","phone":"+441332590580","address":"1 Newland St.","lat":52.92165977775064,"lng":-1.4815878868103027,"neighborhood":"City Centre","city_fetched":"Derby","state":"Derbyshire","country":"United Kingdom","canonicalUrl":"https://foursquare.com/v/bar-one/4c13ccaca5eb76b00095c0b7","category":"Bar","checkinsCount":211,"usersCount":83,"tipCount":4,"visitsCount":230,"tier":"","message":"","currency":"","rating":6.9},{"name":"The Babington Arms  (Wetherspoon)","phone":"+441332383647","address":"11-13 Babington Lane","lat":52.919266,"lng":-1.476606,"neighborhood":"City Centre","city_fetched":"Derby","state":"Derbyshire","country":"United Kingdom","canonicalUrl":"https://foursquare.com/v/the-babington-arms--wetherspoon/4ba5043af964a520e0d038e3","category":"Pub","checkinsCount":710,"usersCount":311,"tipCount":10,"visitsCount":822,"url":"http://www.jdwetherspoon.co.uk","tier":"","message":"","currency":"","rating":6.8}]