[{"name":"Wadworth Brewery Visitors Centre","phone":"+441380732277","twitter":"wadworth","address":"New Park Street","lat":51.354190126906495,"lng":-1.9976552906654603,"city_fetched":"Devizes","state":"Wiltshire","country":"United Kingdom","canonicalUrl":"https://foursquare.com/v/wadworth-brewery-visitors-centre/4c28aa4997d00f474b2740ea","category":"Brewery","checkinsCount":213,"usersCount":123,"tipCount":5,"visitsCount":216,"url":"http://www.wadworthvisitorcentre.co.uk","tier":"","message":"","currency":"","rating":7.2},{"name":"The Bear Hotel Devizes","phone":"+441380722444","address":"Market Place","lat":51.352267,"lng":-1.995804,"city_fetched":"Devizes","state":"Wiltshire","country":"United Kingdom","canonicalUrl":"https://foursquare.com/v/the-bear-hotel-devizes/4bdecc26fe0e62b534f50506","category":"Hotel","checkinsCount":292,"usersCount":136,"tipCount":3,"visitsCount":293,"tier":"","message":"","currency":"","rating":6.2},{"name":"The Silk Mercer (Wetherspoon)","phone":"+441380736760","address":"St Johns St","lat":51.35183170214274,"lng":-1.9947745763497742,"city_fetched":"Devizes","state":"Wiltshire","country":"United Kingdom","canonicalUrl":"https://foursquare.com/v/the-silk-mercer-wetherspoon/4b3431c0f964a520f82525e3","category":"Pub","checkinsCount":228,"usersCount":73,"tipCount":5,"visitsCount":228,"url":"http://www.jdwetherspoon.co.uk","tier":"","message":"","currency":"","rating":5.5}]