[{"name":"The Flowerpot","phone":"+441924496939","address":"65 Calder Road","lat":53.66821953192608,"lng":-1.6936673831827647,"neighborhood":"Mirfield","city_fetched":"Dewsbury","state":"Kirklees","country":"United Kingdom","canonicalUrl":"https://foursquare.com/v/the-flowerpot/4d3f15793ec9a35d614b6081","category":"Bar","checkinsCount":264,"usersCount":96,"tipCount":3,"visitsCount":357,"tier":"","message":"","currency":"","rating":7.7},{"name":"Hare And Hounds","phone":"+441924493814","address":"Liley Lane","lat":53.651994966399656,"lng":-1.6927381747091843,"city_fetched":"Dewsbury","state":"Kirklees","country":"United Kingdom","canonicalUrl":"https://foursquare.com/v/hare-and-hounds/4ca23688a73cb60c5b5b0e78","category":"Gastropub","checkinsCount":84,"usersCount":85,"tipCount":2,"visitsCount":124,"url":"http://www.vintageinn.co.uk/content/vintage-inn/en/restaurants/yorkshire/thehareandhoundsmirfield","tier":"","message":"","currency":"","rating":7.4},{"name":"West Riding Licensed Refreshment Rooms","phone":"+441924459193","twitter":"westridinglrr","address":"Station Buildings, Dewsbury Railway Station","lat":53.69194398694747,"lng":-1.6331310953907239,"city_fetched":"Dewsbury","country":"United Kingdom","canonicalUrl":"https://foursquare.com/v/west-riding-licensed-refreshment-rooms/4ba24322f964a520ebe737e3","category":"Pub","checkinsCount":1093,"usersCount":346,"tipCount":9,"visitsCount":1113,"url":"http://www.imissedthetrain.com","tier":"","message":"","currency":"","rating":6.7},{"name":"The Cellar Bar","phone":"+441924423419","address":"51 Station Road","lat":53.7101054951104,"lng":-1.6238739879755335,"city_fetched":"Dewsbury","country":"United Kingdom","canonicalUrl":"https://foursquare.com/v/the-cellar-bar/4b7ec74cf964a520b6fe2fe3","category":"Bar","checkinsCount":210,"usersCount":101,"tipCount":5,"visitsCount":227,"tier":"","message":"","currency":"","rating":6.5},{"name":"The Union Rooms (Wetherspoon)","phone":"+441924448990","address":"4 Hick Lane","lat":53.71262185160535,"lng":-1.6286909580230713,"city_fetched":"Dewsbury","country":"United Kingdom","canonicalUrl":"https://foursquare.com/v/the-union-rooms-wetherspoon/4bca51d0cc8cd13ae086bdcf","category":"Pub","checkinsCount":435,"usersCount":106,"tipCount":2,"visitsCount":466,"url":"http://www.jdwetherspoon.co.uk","tier":"","message":"","currency":"","rating":6.3},{"name":"The Time Piece (Wetherspoon)","phone":"+441924460051","address":"11-15 Northgate","lat":53.692632,"lng":-1.629504,"city_fetched":"Dewsbury","country":"United Kingdom","canonicalUrl":"https://foursquare.com/v/the-time-piece-wetherspoon/4c506053dcb5d13aafaee608","category":"Pub","checkinsCount":250,"usersCount":104,"tipCount":3,"visitsCount":293,"url":"http://www.jdwetherspoon.co.uk","tier":"","message":"","currency":"","rating":6},{"name":"Ship Inn","phone":"+441924493364","address":"Steanard Lane","lat":53.67405125,"lng":-1.6741608815439617,"neighborhood":"Mirfield","city_fetched":"Dewsbury","country":"United Kingdom","canonicalUrl":"https://foursquare.com/v/ship-inn/4c546ea8479fc9282dfc2293","category":"Pub","checkinsCount":130,"usersCount":68,"tipCount":4,"visitsCount":153,"tier":"","message":"","currency":"","rating":5.4}]