[{"name":"Cask Corner","phone":"+441302366277","twitter":"caskcornerbar","address":"3 Cleveland St","lat":53.52259202684042,"lng":-1.1326217651367188,"city_fetched":"Doncaster,UK","country":"United Kingdom","canonicalUrl":"https://foursquare.com/v/cask-corner/4c66e8b8d3899c74c483fe29","categoryId":"4bf58dd8d48988d116941735","category":"Bar","checkinsCount":256,"usersCount":109,"tipCount":8,"visitsCount":261,"url":"http://www.caskcornerbar.co.uk","tier":"","message":"","currency":"","rating":7.8},{"name":"Stockyard Truckstop","lat":53.43472355855464,"lng":-1.2422983180226788,"city_fetched":"Doncaster,UK","country":"United Kingdom","canonicalUrl":"https://foursquare.com/v/stockyard-truckstop/4c344b993896e21e804ceb90","categoryId":"4bf58dd8d48988d11b941735","category":"Pub","checkinsCount":138,"usersCount":60,"tipCount":6,"visitsCount":162,"tier":"","message":"","currency":"","rating":7.5},{"name":"The Mallard","phone":"+441302343881","address":"Unit 14 Frenchgate Food Court","lat":53.52245552920722,"lng":-1.1391356401718766,"city_fetched":"Doncaster,UK","country":"United Kingdom","canonicalUrl":"https://foursquare.com/v/the-mallard/5561f407498e56d81eb7527b","categoryId":"4bf58dd8d48988d11b941735","category":"Pub","checkinsCount":470,"usersCount":48,"tipCount":6,"visitsCount":485,"url":"http://www.hungryhorse.co.uk/pubs/mallard-doncaster","tier":"","message":"","currency":"","rating":7.2},{"name":"Woodfield Farm","phone":"+441302311164","address":"Bullrush Grove, Woodfield Way, Balby","lat":53.49837855084577,"lng":-1.12073576331923,"city_fetched":"Doncaster,UK","country":"United Kingdom","canonicalUrl":"https://foursquare.com/v/woodfield-farm/4bcb15680687ef3bcdf6dccc","categoryId":"4bf58dd8d48988d11b941735","category":"Pub","checkinsCount":326,"usersCount":178,"tipCount":7,"visitsCount":374,"url":"http://www.farmhouseinns.co.uk/pubs/woodfield-farm","tier":"","message":"","currency":"","rating":7},{"name":"Maple Tree","phone":"+441302572633","address":"Whisperwood Dr","lat":53.491161628749815,"lng":-1.1404580898936996,"city_fetched":"Doncaster,UK","country":"United Kingdom","canonicalUrl":"https://foursquare.com/v/maple-tree/4c03f0acf56c2d7f51881d66","categoryId":"4bf58dd8d48988d11b941735","category":"Pub","checkinsCount":552,"usersCount":63,"tipCount":5,"visitsCount":580,"url":"http://www.mapletreepub.co.uk","tier":"","message":"","currency":"","rating":6.9},{"name":"The Lakeside (Beefeater)","phone":"+441302361134","twitter":"beefeater","address":"South Entry Drive, White Rose Way","lat":53.506540060043335,"lng":-1.112052,"city_fetched":"Doncaster,UK","state":"Doncaster","country":"United Kingdom","canonicalUrl":"https://foursquare.com/v/the-lakeside-beefeater/4b7c41f9f964a520da872fe3","categoryId":"4bf58dd8d48988d11b941735","category":"Pub","checkinsCount":414,"usersCount":186,"tipCount":4,"visitsCount":419,"url":"http://www.beefeater.co.uk/steak-restaurant/South-Yorkshire/Lakeside-Doncaster.html","tier":"","message":"","currency":"","rating":6.5},{"name":"The Gate House (Wetherspoon)","phone":"+441302554540","address":"Priory Walk","lat":53.522553756693114,"lng":-1.1339950561523438,"city_fetched":"Doncaster,UK","country":"United Kingdom","canonicalUrl":"https://foursquare.com/v/the-gate-house-wetherspoon/4bf577966a31d13a20ee962e","categoryId":"4bf58dd8d48988d11b941735","category":"Pub","checkinsCount":593,"usersCount":238,"tipCount":8,"visitsCount":625,"url":"http://www.jdwetherspoon.co.uk","tier":"","message":"","currency":"","rating":6.5},{"name":"The Boat Inn","address":"Nursery Ln","lat":53.50680417819666,"lng":-1.1920618173684672,"city_fetched":"Doncaster,UK","state":"Doncaster","country":"United Kingdom","canonicalUrl":"https://foursquare.com/v/the-boat-inn/4c3080b466e40f476498c38b","categoryId":"4bf58dd8d48988d11b941735","category":"Pub","checkinsCount":122,"usersCount":127,"tipCount":4,"visitsCount":171,"tier":"","message":"","currency":"","rating":6.4},{"name":"Olive Tree","phone":"+441302891403","address":"1 Station Rd.","lat":53.57343972432579,"lng":-1.0672465146165497,"city_fetched":"Doncaster,UK","state":"Doncaster","country":"United Kingdom","canonicalUrl":"https://foursquare.com/v/olive-tree/4be47cb2cf200f47e507123c","categoryId":"4bf58dd8d48988d116941735","category":"Bar","checkinsCount":110,"usersCount":74,"tipCount":3,"visitsCount":155,"tier":"","message":"","currency":"","rating":6.4},{"name":"Tut And Shive","phone":"+441302360300","twitter":"tut_n_shive","address":"6 West Laith Gate","lat":53.52213312264076,"lng":-1.1370559076341924,"city_fetched":"Doncaster,UK","country":"United Kingdom","canonicalUrl":"https://foursquare.com/v/tut-and-shive/4cba11267148f04de35bdaab","categoryId":"4bf58dd8d48988d11b941735","category":"Pub","checkinsCount":284,"usersCount":107,"tipCount":9,"visitsCount":284,"tier":"","message":"","currency":"","rating":6.3},{"name":"The Running Horse (Wetherspoon)","phone":"+441302625557","address":"Robin Hood Airport","lat":53.478928839253314,"lng":-1.0041332244873047,"city_fetched":"Doncaster,UK","state":"Doncaster","country":"United Kingdom","canonicalUrl":"https://foursquare.com/v/the-running-horse-wetherspoon/4c87aad7821e9eb0cecc8d89","categoryId":"4bf58dd8d48988d11b941735","category":"Pub","checkinsCount":22,"usersCount":17,"tipCount":0,"visitsCount":22,"url":"http://www.jdwetherspoon.co.uk/home/pubs/the-running-horse","tier":"","message":"","currency":"","rating":6.1},{"name":"Green Tree","lat":53.579500049410775,"lng":-0.9698755726576879,"city_fetched":"Doncaster,UK","country":"United Kingdom","canonicalUrl":"https://foursquare.com/v/green-tree/4c0c1fd1009a0f47a62fecbf","categoryId":"50327c8591d4c4b30a586d5d","category":"Brewery","checkinsCount":80,"usersCount":84,"tipCount":2,"visitsCount":115,"tier":"","message":"","currency":"","rating":6},{"name":"The Hare & Tortoise","phone":"+441302867329","address":"329 Bawtry Rd","lat":53.48862522657844,"lng":-1.0522942077317976,"city_fetched":"Doncaster,UK","state":"Doncaster","country":"United Kingdom","canonicalUrl":"https://foursquare.com/v/the-hare--tortoise/4bf7c78b5317a5934c8cfe7e","categoryId":"4bf58dd8d48988d11b941735","category":"Pub","checkinsCount":270,"usersCount":148,"tipCount":7,"visitsCount":321,"tier":"","message":"","currency":"","rating":6},{"name":"The New Inn","phone":"+441302841614","address":"South Bank","lat":53.60190272397537,"lng":-1.0302435766905131,"city_fetched":"Doncaster,UK","country":"United Kingdom","canonicalUrl":"https://foursquare.com/v/the-new-inn/4d678b409792b1f73f773e1f","categoryId":"4bf58dd8d48988d11b941735","category":"Pub","checkinsCount":42,"usersCount":13,"tipCount":4,"visitsCount":42,"tier":"","message":"","currency":"","rating":6},{"name":"The Leopard","phone":"+441302739460","address":"2 West Street","lat":53.520614690643036,"lng":-1.137610673904419,"city_fetched":"Doncaster,UK","state":"Doncaster","country":"United Kingdom","canonicalUrl":"https://foursquare.com/v/the-leopard/4ce8159e8ef78cfa4cef979b","categoryId":"4bf58dd8d48988d11b941735","category":"Pub","checkinsCount":131,"usersCount":61,"tipCount":3,"visitsCount":135,"url":"http://www.leopard-doncaster.co.uk","tier":"","message":"","currency":"","rating":6},{"name":"King William IV (Brewers Fayre)","phone":"+441909730225","address":"Blyth Rd.","lat":53.39192496573557,"lng":-1.1176013946533203,"city_fetched":"Doncaster,UK","country":"United Kingdom","canonicalUrl":"https://foursquare.com/v/king-william-iv-brewers-fayre/4c2f5cb5a0ced13ace58106e","categoryId":"4bf58dd8d48988d11b941735","category":"Pub","checkinsCount":179,"usersCount":72,"tipCount":4,"visitsCount":188,"tier":"","message":"","currency":"","rating":5.9},{"name":"The Red Lion  (Wetherspoon)","phone":"+441302732120","address":"37-38 Market Place","lat":53.52383554760841,"lng":-1.1322716581863908,"city_fetched":"Doncaster,UK","country":"United Kingdom","canonicalUrl":"https://foursquare.com/v/the-red-lion--wetherspoon/4c87aad6821e9eb0cdcc8d89","categoryId":"4bf58dd8d48988d11b941735","category":"Pub","checkinsCount":548,"usersCount":152,"tipCount":7,"visitsCount":584,"url":"http://www.jdwetherspoon.co.uk","tier":"","message":"","currency":"","rating":5.9},{"name":"The Old Market Hall (Wetherspoon)","phone":"+441709599820","address":"Market St.","lat":53.49295063474597,"lng":-1.287311731346594,"city_fetched":"Doncaster,UK","country":"United Kingdom","canonicalUrl":"https://foursquare.com/v/the-old-market-hall-wetherspoon/4c89311597828cfa6f48a2aa","categoryId":"4bf58dd8d48988d11b941735","category":"Pub","checkinsCount":323,"usersCount":123,"tipCount":7,"visitsCount":372,"url":"http://www.jdwetherspoon.co.uk","tier":"","message":"","currency":"","rating":5.8},{"name":"Brewers Fayre","phone":"+441302533000","address":"Herten Way","lat":53.5122756186015,"lng":-1.104449137862137,"city_fetched":"Doncaster,UK","state":"Doncaster","country":"United Kingdom","canonicalUrl":"https://foursquare.com/v/brewers-fayre/4bbb5df353649c7492f949fb","categoryId":"4bf58dd8d48988d11b941735","category":"Pub","checkinsCount":173,"usersCount":113,"tipCount":2,"visitsCount":173,"tier":"","message":"","currency":"","rating":5.8},{"name":"Yorkshire Grey","phone":"+441302329825","address":"16-17 Hallgate","lat":53.52245237026883,"lng":-1.130544542257223,"city_fetched":"Doncaster,UK","country":"United Kingdom","canonicalUrl":"https://foursquare.com/v/yorkshire-grey/4c7bb2d73badb1f7fe8b5554","categoryId":"4bf58dd8d48988d11b941735","category":"Pub","checkinsCount":137,"usersCount":78,"tipCount":4,"visitsCount":146,"url":"http://www.yorkshiregreydoncaster.co.uk","tier":"","message":"","currency":"","rating":5.5}]