[{"name":"Prince Albert","phone":"+441304204272","address":"83 Biggin St.","lat":51.127601922920284,"lng":1.3092218734503431,"city_fetched":"Dover,UK","state":"Kent","country":"United Kingdom","canonicalUrl":"https://foursquare.com/v/prince-albert/4c618106de6920a18f7a9864","categoryId":"4bf58dd8d48988d11b941735","category":"Pub","checkinsCount":357,"usersCount":93,"tipCount":11,"visitsCount":361,"tier":"","message":"","currency":"","rating":6.9},{"name":"The White Horse","phone":"+441304202911","address":"St. James St.","lat":51.12624042390799,"lng":1.3177143037319183,"city_fetched":"Dover,UK","state":"Kent","country":"United Kingdom","canonicalUrl":"https://foursquare.com/v/the-white-horse/4c098289a1b32d7f6dd397f0","categoryId":"4bf58dd8d48988d11b941735","category":"Pub","checkinsCount":528,"usersCount":197,"tipCount":20,"visitsCount":571,"tier":"","message":"","currency":"","rating":6.7},{"name":"Kittiwake","phone":"+441304820809","address":"Menzies Rd.","lat":51.152486,"lng":1.291293,"city_fetched":"Dover,UK","state":"Kent","country":"United Kingdom","canonicalUrl":"https://foursquare.com/v/kittiwake/4c67ff097abde21e795d6768","categoryId":"4bf58dd8d48988d11b941735","category":"Pub","checkinsCount":123,"usersCount":95,"tipCount":4,"visitsCount":151,"url":"http://www.kittiwakepub.co.uk","tier":"","message":"","currency":"","rating":6.6},{"name":"The Eight Bells (Wetherspoon)","phone":"+441304205030","address":"19 Cannon St.","lat":51.125397888536924,"lng":1.3127803802490234,"city_fetched":"Dover,UK","state":"Kent","country":"United Kingdom","canonicalUrl":"https://foursquare.com/v/the-eight-bells-wetherspoon/4b783a25f964a520e9bd2ee3","categoryId":"4bf58dd8d48988d11b941735","category":"Pub","checkinsCount":551,"usersCount":378,"tipCount":7,"visitsCount":584,"url":"http://www.jdwetherspoon.co.uk","tier":"","message":"","currency":"","rating":6.6},{"name":"The Hope Inn","phone":"+441304853256","lat":51.15328176706742,"lng":1.3726767897605896,"city_fetched":"Dover,UK","state":"Kent","country":"United Kingdom","canonicalUrl":"https://foursquare.com/v/the-hope-inn/4d1e4b632eb1f04d6a8bdec1","categoryId":"4bf58dd8d48988d11b941735","category":"Pub","checkinsCount":10,"usersCount":10,"tipCount":0,"visitsCount":10,"url":"http://www.shepherdneame.co.uk","tier":"","message":"","currency":"","rating":6.4},{"name":"The Lord Nelson - Shepherd Neame","phone":"+441304247074","address":"Flying Horse Lane","lat":51.1245595463805,"lng":1.3146471977233887,"city_fetched":"Dover,UK","state":"Kent","country":"United Kingdom","canonicalUrl":"https://foursquare.com/v/the-lord-nelson--shepherd-neame/4bf564676a31d13a76d0962e","categoryId":"4bf58dd8d48988d11b941735","category":"Pub","checkinsCount":7,"usersCount":6,"tipCount":0,"visitsCount":7,"url":"http://www.shepherdneame.co.uk","tier":"","message":"","currency":"","rating":6.4},{"name":"Royal Oak - Shepherd Neame","phone":"+441304822073","address":"Lower Road, River","lat":51.14421281401309,"lng":1.279585361480713,"city_fetched":"Dover,UK","state":"Kent","country":"United Kingdom","canonicalUrl":"https://foursquare.com/v/royal-oak--shepherd-neame/4e674961814db7421777bcab","categoryId":"4bf58dd8d48988d11b941735","category":"Pub","checkinsCount":13,"usersCount":13,"tipCount":0,"visitsCount":16,"url":"http://www.shepherdneame.co.uk","tier":"","message":"","currency":"","rating":6.4},{"name":"First And Last - Shepherd Neame","phone":"+441314450534","address":"57/58 East Cliff","lat":51.12639108545639,"lng":1.3254404067993164,"city_fetched":"Dover,UK","state":"Kent","country":"United Kingdom","canonicalUrl":"https://foursquare.com/v/first-and-last--shepherd-neame/4c66ad7fc2ead13ae04ab480","categoryId":"4bf58dd8d48988d11b941735","category":"Pub","checkinsCount":11,"usersCount":8,"tipCount":1,"visitsCount":11,"url":"http://www.shepherdneame.co.uk","tier":"","message":"","currency":"","rating":6.2},{"name":"The Malvern Inn - Shepherd Neame","phone":"+441304204010","address":"Clarendon Road","lat":51.12372361736165,"lng":1.3054619318449918,"city_fetched":"Dover,UK","state":"Kent","country":"United Kingdom","canonicalUrl":"https://foursquare.com/v/the-malvern-inn--shepherd-neame/4e6fa4691838a9b627bd765d","categoryId":"4bf58dd8d48988d11b941735","category":"Pub","checkinsCount":14,"usersCount":9,"tipCount":1,"visitsCount":14,"url":"http://www.shepherdneame.co.uk","tier":"","message":"","currency":"","rating":6},{"name":"The Plough (Beefeater)","phone":"+441304213340","twitter":"beefeatergrill","address":"Folkestone Rd","lat":51.11102999097418,"lng":1.2600388198117574,"city_fetched":"Dover,UK","state":"Kent","country":"United Kingdom","canonicalUrl":"https://foursquare.com/v/the-plough-beefeater/4bdec949ffdec9283494e9a1","categoryId":"4bf58dd8d48988d11b941735","category":"Pub","checkinsCount":165,"usersCount":121,"tipCount":3,"visitsCount":192,"url":"http://www.beefeater.co.uk","tier":"","message":"","currency":"","rating":5.8},{"name":"Duke of York (Brewers Fayre)","phone":"+448701977075","twitter":"brewersfayre","address":"Jubilee Way","lat":51.14445706757557,"lng":1.3305350709622086,"city_fetched":"Dover,UK","state":"Kent","country":"United Kingdom","canonicalUrl":"https://foursquare.com/v/duke-of-york-brewers-fayre/4c4ef41afa9d952110ed700a","categoryId":"4bf58dd8d48988d11b941735","category":"Pub","checkinsCount":126,"usersCount":100,"tipCount":2,"visitsCount":140,"url":"http://www.brewersfayre.co.uk/pub-restaurant/Kent/Duke-of-York-Dover.html","tier":"","message":"","currency":"","rating":4.9}]