[{"name":"Sheffield Tap","phone":"+441142737558","twitter":"sheffieldtap","address":"Sheffield Railway Station","lat":53.37870291447737,"lng":-1.4625438772557566,"neighborhood":"Central Sheffield","city_fetched":"Dronfield,UK","country":"United Kingdom","canonicalUrl":"https://foursquare.com/v/sheffield-tap/4b4e33e7f964a52016e526e3","categoryId":"4bf58dd8d48988d11b941735","category":"Pub","checkinsCount":5063,"usersCount":1459,"tipCount":78,"visitsCount":5153,"url":"http://www.sheffieldtap.com","tier":2,"message":"Moderate","currency":"£","rating":9.1},{"name":"The Bath Hotel","phone":"+441142495151","twitter":"beerinthebath","address":"66-68 Victoria St","lat":53.379305424173445,"lng":-1.4821029857420769,"neighborhood":"Central Sheffield","city_fetched":"Dronfield,UK","country":"United Kingdom","canonicalUrl":"https://foursquare.com/v/the-bath-hotel/4b919ce1f964a520dec933e3","categoryId":"4bf58dd8d48988d11b941735","category":"Pub","checkinsCount":719,"usersCount":326,"tipCount":13,"visitsCount":917,"url":"http://www.beerinthebath.co.uk","tier":"","message":"","currency":"","rating":8.9},{"name":"Devonshire Cat","phone":"+441142796700","twitter":"devonshirecat","address":"49 Wellington St","lat":53.378029413393286,"lng":-1.476733088493347,"neighborhood":"Central Sheffield","city_fetched":"Dronfield,UK","country":"United Kingdom","canonicalUrl":"https://foursquare.com/v/devonshire-cat/4b0956faf964a520e91523e3","categoryId":"4bf58dd8d48988d11b941735","category":"Pub","checkinsCount":2258,"usersCount":1035,"tipCount":37,"visitsCount":2564,"url":"http://www.devonshirecat.co.uk","tier":2,"message":"Moderate","currency":"£","rating":8.8},{"name":"Rutland Arms","phone":"+441142729003","twitter":"rutlandarms","address":"86 Brown St","lat":53.37653270008916,"lng":-1.4676028570044328,"neighborhood":"Central Sheffield","city_fetched":"Dronfield,UK","country":"United Kingdom","canonicalUrl":"https://foursquare.com/v/rutland-arms/4b599b8af964a520a88e28e3","categoryId":"4bf58dd8d48988d11b941735","category":"Pub","checkinsCount":4220,"usersCount":817,"tipCount":55,"visitsCount":4770,"url":"http://www.rutlandarmspeople.co.uk","tier":2,"message":"Moderate","currency":"£","rating":8.7},{"name":"The Beer Engine","lat":53.372488655072615,"lng":-1.477625838572737,"neighborhood":"Central Sheffield","city_fetched":"Dronfield,UK","country":"United Kingdom","canonicalUrl":"https://foursquare.com/v/the-beer-engine/552032ea498e070eca5e131f","categoryId":"4bf58dd8d48988d11b941735","category":"Pub","checkinsCount":236,"usersCount":102,"tipCount":4,"visitsCount":315,"tier":"","message":"","currency":"","rating":8.6},{"name":"Sheaf View","phone":"+441142496455","address":"25 Gleadless Road","lat":53.36211578913104,"lng":-1.4710092544555664,"city_fetched":"Dronfield,UK","state":"Sheffield","country":"United Kingdom","canonicalUrl":"https://foursquare.com/v/sheaf-view/4b6c7605f964a5200f3c2ce3","categoryId":"4bf58dd8d48988d11b941735","category":"Pub","checkinsCount":956,"usersCount":284,"tipCount":20,"visitsCount":1157,"tier":"","message":"","currency":"","rating":8.6},{"name":"The Brothers Arms","phone":"+441142553995","twitter":"thebroarms","address":"106 Well Road","lat":53.361140199387016,"lng":-1.4698938184550114,"neighborhood":"Heeley, Sheffield","city_fetched":"Dronfield,UK","state":"Sheffield","country":"United Kingdom","canonicalUrl":"https://foursquare.com/v/the-brothers-arms/53ff64c6498eebee81f7d4ac","categoryId":"4bf58dd8d48988d11b941735","category":"Pub","checkinsCount":274,"usersCount":127,"tipCount":5,"visitsCount":421,"tier":"","message":"","currency":"","rating":8.6},{"name":"The White Swan","address":"16 St Mary's Gate","lat":53.23591799093687,"lng":-1.4240863583224181,"city_fetched":"Dronfield,UK","state":"Derbyshire","country":"United Kingdom","canonicalUrl":"https://foursquare.com/v/the-white-swan/500829dee4b0b3c6624ce889","categoryId":"4bf58dd8d48988d11b941735","category":"Pub","checkinsCount":270,"usersCount":134,"tipCount":8,"visitsCount":290,"tier":"","message":"","currency":"","rating":8.5},{"name":"Chesterfield Arms","phone":"+441246275421","address":"40 Newbold Road","lat":53.24122250349289,"lng":-1.4320367574691772,"city_fetched":"Dronfield,UK","state":"Derbyshire","country":"United Kingdom","canonicalUrl":"https://foursquare.com/v/chesterfield-arms/4ba3cf86f964a5200d6238e3","categoryId":"4bf58dd8d48988d11b941735","category":"Pub","checkinsCount":1524,"usersCount":144,"tipCount":8,"visitsCount":1652,"url":"http://www.chesterfieldarms.co.uk","tier":"","message":"","currency":"","rating":8.5},{"name":"Broadfield Ale House","phone":"+441142550200","address":"452 Abbeydale Road","lat":53.35822664731911,"lng":-1.4825643056953344,"neighborhood":"Nether Edge","city_fetched":"Dronfield,UK","state":"Sheffield","country":"United Kingdom","canonicalUrl":"https://foursquare.com/v/broadfield-ale-house/4ee9e08aaa1f7c78108171b4","categoryId":"4bf58dd8d48988d11b941735","category":"Pub","checkinsCount":1201,"usersCount":539,"tipCount":20,"visitsCount":1632,"tier":"","message":"","currency":"","rating":8.4},{"name":"The Old House","phone":"+441142766002","twitter":"theoldhouse","address":"113-117 Devonshire St","lat":53.379386213257284,"lng":-1.4769744873046875,"neighborhood":"Central Sheffield","city_fetched":"Dronfield,UK","country":"United Kingdom","canonicalUrl":"https://foursquare.com/v/the-old-house/4b642df9f964a520c6a22ae3","categoryId":"4bf58dd8d48988d116941735","category":"Bar","checkinsCount":2169,"usersCount":871,"tipCount":23,"visitsCount":2362,"url":"http://www.theoldhousesheffield.co.uk","tier":2,"message":"Moderate","currency":"£","rating":8.4},{"name":"Bungalows and Bears","phone":"+441142792901","twitter":"bungsandbears","address":"The Old Fire Station, Division St.","lat":53.37992380124576,"lng":-1.4749360084533691,"neighborhood":"Central Sheffield","city_fetched":"Dronfield,UK","country":"United Kingdom","canonicalUrl":"https://foursquare.com/v/bungalows-and-bears/4ad0c6c0f964a520b9d920e3","categoryId":"4bf58dd8d48988d116941735","category":"Bar","checkinsCount":2215,"usersCount":1223,"tipCount":31,"visitsCount":2709,"url":"http://www.bungalowsandbears.com/#","tier":2,"message":"Moderate","currency":"£","rating":8.4},{"name":"Chandlers","lat":53.234704733577,"lng":-1.4243554231077233,"city_fetched":"Dronfield,UK","state":"Derbyshire","country":"United Kingdom","canonicalUrl":"https://foursquare.com/v/chandlers/4ba3ea0bf964a520226d38e3","categoryId":"4bf58dd8d48988d116941735","category":"Bar","checkinsCount":243,"usersCount":94,"tipCount":3,"visitsCount":249,"tier":"","message":"","currency":"","rating":8.3},{"name":"The Rising Sun","phone":"+441142303855","address":"471 Fulwood Rd","lat":53.367282,"lng":-1.5303925013595503,"city_fetched":"Dronfield,UK","country":"United Kingdom","canonicalUrl":"https://foursquare.com/v/the-rising-sun/4b62dc8cf964a5200b562ae3","categoryId":"4bf58dd8d48988d11b941735","category":"Pub","checkinsCount":264,"usersCount":126,"tipCount":8,"visitsCount":291,"url":"http://risingsunsheffield.co.uk","tier":"","message":"","currency":"","rating":8.3},{"name":"Revolucion De Cuba","phone":"+441142799250","twitter":"cubanmotweeto","address":"1 Mappin St.","lat":53.38045818257945,"lng":-1.479061245918274,"neighborhood":"Central Sheffield","city_fetched":"Dronfield,UK","country":"United Kingdom","canonicalUrl":"https://foursquare.com/v/revolucion-de-cuba/4d8e6162fa943704499301c6","categoryId":"4bf58dd8d48988d11e941735","category":"Cocktail Bar","checkinsCount":1135,"usersCount":550,"tipCount":15,"visitsCount":1245,"tier":"","message":"","currency":"","rating":8.1},{"name":"Red Deer","phone":"+441142722890","twitter":"reddeershef","address":"18 Pitt St","lat":53.380810166620925,"lng":-1.479560136795044,"neighborhood":"Central Sheffield","city_fetched":"Dronfield,UK","country":"United Kingdom","canonicalUrl":"https://foursquare.com/v/red-deer/4b87f767f964a520b3d531e3","categoryId":"4bf58dd8d48988d11b941735","category":"Pub","checkinsCount":1259,"usersCount":523,"tipCount":19,"visitsCount":1510,"url":"http://www.red-deer-sheffield.co.uk","tier":"","message":"","currency":"","rating":8.1},{"name":"Old Queen's Head","phone":"+447983559073","twitter":"old_queens_head","address":"40 Pond Hill","lat":53.380870805011156,"lng":-1.4631182514140024,"neighborhood":"Central Sheffield","city_fetched":"Dronfield,UK","state":"Sheffield","country":"United Kingdom","canonicalUrl":"https://foursquare.com/v/old-queens-head/4bad260df964a520d0323be3","categoryId":"4bf58dd8d48988d11b941735","category":"Pub","checkinsCount":891,"usersCount":252,"tipCount":9,"visitsCount":1017,"url":"http://www.theoldqueenshead.co.uk","tier":"","message":"","currency":"","rating":8},{"name":"The York","twitter":"yorksheffield","address":"243-247 Fulwood Road","lat":53.37728165808202,"lng":-1.5015986640624777,"city_fetched":"Dronfield,UK","country":"United Kingdom","canonicalUrl":"https://foursquare.com/v/the-york/4c62bdf479d1e21e53c5d615","categoryId":"4bf58dd8d48988d11b941735","category":"Pub","checkinsCount":880,"usersCount":445,"tipCount":21,"visitsCount":1195,"url":"http://www.theyorksheffield.co.uk","tier":1,"message":"Cheap","currency":"£","rating":8},{"name":"The Market Pub","address":"New Square","lat":53.23572696798701,"lng":-1.430270869407581,"city_fetched":"Dronfield,UK","state":"Derbyshire","country":"United Kingdom","canonicalUrl":"https://foursquare.com/v/the-market-pub/4ea555b429c2abc8dffb2af6","categoryId":"4bf58dd8d48988d11b941735","category":"Pub","checkinsCount":217,"usersCount":111,"tipCount":8,"visitsCount":230,"tier":"","message":"","currency":"","rating":8},{"name":"The Union","phone":"+441142550689","address":"1 Union Road","lat":53.36115542032843,"lng":-1.49315587149037,"neighborhood":"Nether Edge","city_fetched":"Dronfield,UK","state":"Sheffield","country":"United Kingdom","canonicalUrl":"https://foursquare.com/v/the-union/4bbb85913de8c9b622db99ad","categoryId":"4bf58dd8d48988d11b941735","category":"Pub","checkinsCount":462,"usersCount":73,"tipCount":2,"visitsCount":532,"tier":"","message":"","currency":"","rating":7.9},{"name":"The Great Gatsby","phone":"+441142763939","address":"73-75 Division St","lat":53.37970620692513,"lng":-1.47515594959259,"neighborhood":"Central Sheffield","city_fetched":"Dronfield,UK","country":"United Kingdom","canonicalUrl":"https://foursquare.com/v/the-great-gatsby/4d6fc97056dea09399e0c48c","categoryId":"4bf58dd8d48988d116941735","category":"Bar","checkinsCount":925,"usersCount":543,"tipCount":9,"visitsCount":1090,"tier":"","message":"","currency":"","rating":7.9},{"name":"Dronfield Arms","phone":"+441246414413","address":"91 Chesterfield Rd.","lat":53.299895530077045,"lng":-1.4654478269773852,"city_fetched":"Dronfield,UK","state":"Derbyshire","country":"United Kingdom","canonicalUrl":"https://foursquare.com/v/dronfield-arms/4eac7f1e6c250091a1de2f12","categoryId":"4bf58dd8d48988d116941735","category":"Bar","checkinsCount":114,"usersCount":44,"tipCount":3,"visitsCount":116,"tier":"","message":"","currency":"","rating":7.9},{"name":"The Lescar","phone":"+441142668974","twitter":"lescarsheffield","address":"303 Sharrow Vale Rd","lat":53.36734630459511,"lng":-1.4983463287353516,"neighborhood":"Nether Edge","city_fetched":"Dronfield,UK","country":"United Kingdom","canonicalUrl":"https://foursquare.com/v/the-lescar/4b43c67ef964a52070e925e3","categoryId":"4bf58dd8d48988d11b941735","category":"Pub","checkinsCount":1060,"usersCount":504,"tipCount":10,"visitsCount":1281,"url":"http://www.thelescarhuntersbar.co.uk","tier":"","message":"","currency":"","rating":7.8},{"name":"The Rutland","phone":"+447835816163","twitter":"rutlandcfield","address":"23 Stephenson Place","lat":53.23647130339363,"lng":-1.4248803900817362,"city_fetched":"Dronfield,UK","state":"Derbyshire","country":"United Kingdom","canonicalUrl":"https://foursquare.com/v/the-rutland/4bf915d15efe2d7fa6ae6b34","categoryId":"4bf58dd8d48988d11b941735","category":"Pub","checkinsCount":354,"usersCount":156,"tipCount":11,"visitsCount":373,"tier":"","message":"","currency":"","rating":7.8},{"name":"BrewDog Sheffield","twitter":"brewdog","address":"108-110 Devonshire St","lat":53.37951962636045,"lng":-1.477153216415282,"neighborhood":"Central Sheffield","city_fetched":"Dronfield,UK","country":"United Kingdom","canonicalUrl":"https://foursquare.com/v/brewdog-sheffield/531a0aef498ea58872b50309","categoryId":"56aa371ce4b08b9a8d57356c","category":"Beer Bar","checkinsCount":951,"usersCount":480,"tipCount":22,"visitsCount":1186,"url":"http://www.brewdog.com","tier":3,"message":"Expensive","currency":"£","rating":7.8},{"name":"Picture House Social","phone":"+441142581690","twitter":"pichousesocial","address":"383 Abbeydale Road","lat":53.359458664086915,"lng":-1.479892126668287,"neighborhood":"Nether Edge","city_fetched":"Dronfield,UK","state":"Sheffield","country":"United Kingdom","canonicalUrl":"https://foursquare.com/v/picture-house-social/54650e2f498e394a393b08c8","categoryId":"4bf58dd8d48988d116941735","category":"Bar","checkinsCount":111,"usersCount":64,"tipCount":5,"visitsCount":124,"url":"http://www.picture-house-social.com","tier":"","message":"","currency":"","rating":7.7},{"name":"The Showroom Bar","phone":"+441142495479","twitter":"showroomcinema","address":"7 Paternoster Row","lat":53.3776966068245,"lng":-1.4652156829833984,"neighborhood":"Central Sheffield","city_fetched":"Dronfield,UK","country":"United Kingdom","canonicalUrl":"https://foursquare.com/v/the-showroom-bar/4ceeba1f28abb60c072abf09","categoryId":"4bf58dd8d48988d116941735","category":"Bar","checkinsCount":962,"usersCount":323,"tipCount":11,"visitsCount":968,"tier":"","message":"","currency":"","rating":7.7},{"name":"The Wick at Both Ends","phone":"+441142723039","twitter":"wickatbothends","address":"West St","lat":53.380154194020385,"lng":-1.4788144826889038,"neighborhood":"Central Sheffield","city_fetched":"Dronfield,UK","country":"United Kingdom","canonicalUrl":"https://foursquare.com/v/the-wick-at-both-ends/4b916145f964a520b8b733e3","categoryId":"4bf58dd8d48988d116941735","category":"Bar","checkinsCount":1173,"usersCount":506,"tipCount":18,"visitsCount":1225,"url":"http://thewickatbothends.co.uk","tier":"","message":"","currency":"","rating":7.6},{"name":"The British Oak","address":"1 Mosborough Moor","lat":53.329089894919974,"lng":-1.369681008469193,"neighborhood":"Mosborough","city_fetched":"Dronfield,UK","country":"United Kingdom","canonicalUrl":"https://foursquare.com/v/the-british-oak/4e0f28a5d22d8582bdc5ec61","categoryId":"4bf58dd8d48988d11b941735","category":"Pub","checkinsCount":91,"usersCount":70,"tipCount":0,"visitsCount":186,"tier":"","message":"","currency":"","rating":7.6},{"name":"Chesterfield Alehouse","twitter":"chesterfieldale","address":"37 West Bars","lat":53.23560020077078,"lng":-1.4348372282708783,"city_fetched":"Dronfield,UK","state":"Derbyshire","country":"United Kingdom","canonicalUrl":"https://foursquare.com/v/chesterfield-alehouse/522b12f811d2ce5e8c003166","categoryId":"4bf58dd8d48988d11b941735","category":"Pub","checkinsCount":476,"usersCount":58,"tipCount":3,"visitsCount":490,"url":"http://www.chesterfieldalehouse.co.uk","tier":"","message":"","currency":"","rating":7.5},{"name":"Red Lion","phone":"+441142765852","address":"109 Charles St.","lat":53.3776966068245,"lng":-1.4671897888183594,"neighborhood":"Central Sheffield","city_fetched":"Dronfield,UK","country":"United Kingdom","canonicalUrl":"https://foursquare.com/v/red-lion/4bc4e6dfe58e95211e23c9e1","categoryId":"4bf58dd8d48988d11b941735","category":"Pub","checkinsCount":690,"usersCount":228,"tipCount":2,"visitsCount":707,"tier":"","message":"","currency":"","rating":7.5},{"name":"Tap and Tankard","phone":"+441142494804","twitter":"taptankard","address":"24 Cambridge Street","lat":53.379458212042216,"lng":-1.4721706509590147,"neighborhood":"Central Sheffield","city_fetched":"Dronfield,UK","country":"United Kingdom","canonicalUrl":"https://foursquare.com/v/tap-and-tankard/548af49a498e2c0aa7ac1970","categoryId":"4bf58dd8d48988d11b941735","category":"Pub","checkinsCount":227,"usersCount":87,"tipCount":1,"visitsCount":251,"url":"http://www.tapandtankard.co.uk","tier":"","message":"","currency":"","rating":7.5},{"name":"Forum Cafe Bar","phone":"+441142720569","twitter":"forumsheffield","address":"127 - 129 Devonshire St.","lat":53.37928541475391,"lng":-1.477486789226532,"neighborhood":"Central Sheffield","city_fetched":"Dronfield,UK","country":"United Kingdom","canonicalUrl":"https://foursquare.com/v/forum-cafe-bar/4b642bb8f964a5205ca22ae3","categoryId":"4bf58dd8d48988d116941735","category":"Bar","checkinsCount":2328,"usersCount":991,"tipCount":20,"visitsCount":2400,"url":"http://www.forumsheffield.co.uk","tier":2,"message":"Moderate","currency":"£","rating":7.4},{"name":"The Olde House","phone":"+441246274321","address":"Loundesley Green Rd.","lat":53.25180735446533,"lng":-1.4526947767253644,"city_fetched":"Dronfield,UK","state":"Derbyshire","country":"United Kingdom","canonicalUrl":"https://foursquare.com/v/the-olde-house/4bb3abe642959c74b547222c","categoryId":"4bf58dd8d48988d11b941735","category":"Pub","checkinsCount":355,"usersCount":139,"tipCount":6,"visitsCount":452,"url":"http://www.oldehousepub.co.uk","tier":"","message":"","currency":"","rating":7.4},{"name":"The Sword Dancer","lat":53.374775042415685,"lng":-1.392331228223266,"neighborhood":"Woodhouse","city_fetched":"Dronfield,UK","country":"United Kingdom","canonicalUrl":"https://foursquare.com/v/the-sword-dancer/50916ff3498e5bcb6530e58b","categoryId":"4bf58dd8d48988d11b941735","category":"Pub","checkinsCount":105,"usersCount":85,"tipCount":5,"visitsCount":163,"tier":"","message":"","currency":"","rating":7.4},{"name":"The Francis Newton (Wetherspoon)","phone":"+441142673660","address":"Clarkehouse Rd.","lat":53.37674860125603,"lng":-1.4919628666705793,"city_fetched":"Dronfield,UK","country":"United Kingdom","canonicalUrl":"https://foursquare.com/v/the-francis-newton-wetherspoon/4c87abf0821e9eb0cccd8d89","categoryId":"4bf58dd8d48988d11b941735","category":"Pub","checkinsCount":744,"usersCount":440,"tipCount":13,"visitsCount":979,"url":"http://www.jdwetherspoon.co.uk","tier":"","message":"","currency":"","rating":7.3},{"name":"The Greystones","phone":"+441142665599","twitter":"thegreystones","address":"Greystones Rd","lat":53.36430786452649,"lng":-1.516140836731161,"neighborhood":"Ecclesall","city_fetched":"Dronfield,UK","state":"Sheffield","country":"United Kingdom","canonicalUrl":"https://foursquare.com/v/the-greystones/4cd34c3408f48cfa25909f85","categoryId":"4bf58dd8d48988d11b941735","category":"Pub","checkinsCount":302,"usersCount":141,"tipCount":6,"visitsCount":332,"url":"http://www.mygreystones.co.uk","tier":"","message":"","currency":"","rating":7.3},{"name":"Beehive","phone":"+441142798018","address":"240 West St","lat":53.38010939552293,"lng":-1.4802253246307373,"neighborhood":"Central Sheffield","city_fetched":"Dronfield,UK","country":"United Kingdom","canonicalUrl":"https://foursquare.com/v/beehive/4df7c72cc65b5e1e2c2f2351","categoryId":"4bf58dd8d48988d116941735","category":"Bar","checkinsCount":975,"usersCount":304,"tipCount":4,"visitsCount":988,"tier":"","message":"","currency":"","rating":7.3},{"name":"Interval Cafe Bar","twitter":"sheffieldunion","address":"Glossop Rd","lat":53.38064057467325,"lng":-1.486673355102539,"city_fetched":"Dronfield,UK","state":"Sheffield","country":"United Kingdom","canonicalUrl":"https://foursquare.com/v/interval-cafe-bar/4b55daa6f964a52007f327e3","categoryId":"4bf58dd8d48988d123941735","category":"Wine Bar","checkinsCount":1282,"usersCount":427,"tipCount":14,"visitsCount":1412,"tier":1,"message":"Cheap","currency":"£","rating":7.3},{"name":"The Stag's Head","phone":"+441142550548","twitter":"thestagshead2","address":"15 Psalter Lane","lat":53.366712530913546,"lng":-1.4899992942810059,"neighborhood":"Nether Edge","city_fetched":"Dronfield,UK","country":"United Kingdom","canonicalUrl":"https://foursquare.com/v/the-stags-head/4bb4d7eca705952185c81bce","categoryId":"4bf58dd8d48988d11b941735","category":"Pub","checkinsCount":438,"usersCount":216,"tipCount":7,"visitsCount":587,"url":"http://mystagshead.co.uk","tier":"","message":"","currency":"","rating":7.3},{"name":"Bloo 88","phone":"+441142706264","twitter":"bloo88sheffield","address":"West Street","lat":53.38041337972814,"lng":-1.4780102188051747,"neighborhood":"Central Sheffield","city_fetched":"Dronfield,UK","state":"Sheffield","country":"United Kingdom","canonicalUrl":"https://foursquare.com/v/bloo-88/4f27e873e4b03421b84b5616","categoryId":"4bf58dd8d48988d11e941735","category":"Cocktail Bar","checkinsCount":634,"usersCount":364,"tipCount":14,"visitsCount":680,"tier":"","message":"","currency":"","rating":7.3},{"name":"The Common Room","phone":"+441142808230","twitter":"commonroom","address":"127-129 Devonshire St","lat":53.37931581432767,"lng":-1.4772427082061768,"neighborhood":"Central Sheffield","city_fetched":"Dronfield,UK","country":"United Kingdom","canonicalUrl":"https://foursquare.com/v/the-common-room/4b7d330df964a5206bb22fe3","categoryId":"4bf58dd8d48988d11d941735","category":"Sports Bar","checkinsCount":1825,"usersCount":731,"tipCount":20,"visitsCount":1857,"url":"http://www.common-room.co.uk","tier":"","message":"","currency":"","rating":7.3},{"name":"Porter Cottage","phone":"+441142685316","address":"86 Sharrow Vale Road","lat":53.3676471837495,"lng":-1.4974558353424072,"neighborhood":"Nether Edge","city_fetched":"Dronfield,UK","state":"Sheffield","country":"United Kingdom","canonicalUrl":"https://foursquare.com/v/porter-cottage/4bbba8cfafe1b713537c2f4b","categoryId":"4bf58dd8d48988d11b941735","category":"Pub","checkinsCount":457,"usersCount":193,"tipCount":7,"visitsCount":505,"tier":"","message":"","currency":"","rating":7.2},{"name":"The Harley","phone":"+441142752288","twitter":"harleysheffield","address":"334 Glossop Rd","lat":53.380282189467664,"lng":-1.4848226308822632,"city_fetched":"Dronfield,UK","country":"United Kingdom","canonicalUrl":"https://foursquare.com/v/the-harley/4b6c73d5f964a5204d3b2ce3","categoryId":"4bf58dd8d48988d11b941735","category":"Pub","checkinsCount":1224,"usersCount":611,"tipCount":15,"visitsCount":1334,"url":"http://www.theharley.co.uk","tier":"","message":"","currency":"","rating":7.2},{"name":"Cross Scythes","phone":"+441142360204","address":"145 Derbyshire Lane","lat":53.34838443667792,"lng":-1.476664031096138,"city_fetched":"Dronfield,UK","country":"United Kingdom","canonicalUrl":"https://foursquare.com/v/cross-scythes/4b90cfeaf964a520309833e3","categoryId":"4bf58dd8d48988d11b941735","category":"Pub","checkinsCount":495,"usersCount":103,"tipCount":5,"visitsCount":604,"url":"http://www.cross-scythes.com","tier":"","message":"","currency":"","rating":7.1},{"name":"Pointing Dog Clubhouse","lat":53.368964726430264,"lng":-1.4971901671488075,"city_fetched":"Dronfield,UK","country":"United Kingdom","canonicalUrl":"https://foursquare.com/v/pointing-dog-clubhouse/536bd925498ec1e2c796710e","categoryId":"4bf58dd8d48988d11e941735","category":"Cocktail Bar","checkinsCount":112,"usersCount":62,"tipCount":1,"visitsCount":128,"tier":"","message":"","currency":"","rating":7.1},{"name":"The Viper Rooms","phone":"+441142750934","twitter":"viper_rooms","address":"35 Carver Street","lat":53.38025499046729,"lng":-1.4737612009048462,"neighborhood":"Central Sheffield","city_fetched":"Dronfield,UK","state":"Sheffield","country":"United Kingdom","canonicalUrl":"https://foursquare.com/v/the-viper-rooms/4e73cf5bb0fb9680327576f6","categoryId":"4bf58dd8d48988d11f941735","category":"Nightclub","checkinsCount":868,"usersCount":270,"tipCount":14,"visitsCount":914,"url":"http://www.theviperrooms.com","tier":"","message":"","currency":"","rating":7.1},{"name":"Reflex","phone":"+441142536521","address":"18 Holly St.","lat":53.38108316382842,"lng":-1.4731440948117067,"neighborhood":"Central Sheffield","city_fetched":"Dronfield,UK","country":"United Kingdom","canonicalUrl":"https://foursquare.com/v/reflex/4c5dd0767735c9b6053d9072","categoryId":"4bf58dd8d48988d11f941735","category":"Nightclub","checkinsCount":254,"usersCount":106,"tipCount":3,"visitsCount":254,"url":"http://www.reflexsheffield.co.uk","tier":"","message":"","currency":"","rating":7},{"name":"The Norfolk Arms, Ringinglow","phone":"+441142302197","twitter":"norfolkarms","address":"2 Ringinglow Village","lat":53.3498459459387,"lng":-1.564162710844004,"neighborhood":"Ecclesall","city_fetched":"Dronfield,UK","country":"United Kingdom","canonicalUrl":"https://foursquare.com/v/the-norfolk-arms-ringinglow/4b813d9bf964a520c89b30e3","categoryId":"4bf58dd8d48988d11b941735","category":"Pub","checkinsCount":335,"usersCount":249,"tipCount":4,"visitsCount":438,"url":"http://www.norfolkarms.com","tier":"","message":"","currency":"","rating":7},{"name":"Henry's","address":"38 Cambridge St","lat":53.37898301781214,"lng":-1.4720714092254639,"neighborhood":"Central Sheffield","city_fetched":"Dronfield,UK","country":"United Kingdom","canonicalUrl":"https://foursquare.com/v/henrys/4bbb7540c585a5934e42b6b7","categoryId":"4bf58dd8d48988d116941735","category":"Bar","checkinsCount":1010,"usersCount":385,"tipCount":18,"visitsCount":1115,"tier":2,"message":"Moderate","currency":"£","rating":6.9},{"name":"Phoenix Inn","phone":"+441142486440","address":"2 High Lane,  Ridgeway","lat":53.33507589008579,"lng":-1.3986968994140625,"city_fetched":"Dronfield,UK","country":"United Kingdom","canonicalUrl":"https://foursquare.com/v/phoenix-inn/4bf7b54f8d30d13ac969ff17","categoryId":"4bf58dd8d48988d11b941735","category":"Pub","checkinsCount":242,"usersCount":104,"tipCount":6,"visitsCount":293,"tier":"","message":"","currency":"","rating":6.9},{"name":"Frog and Parrot","phone":"+441142721280","address":"94 Division St","lat":53.379667807811956,"lng":-1.4763629436492918,"neighborhood":"Central Sheffield","city_fetched":"Dronfield,UK","country":"United Kingdom","canonicalUrl":"https://foursquare.com/v/frog-and-parrot/4b642e94f964a520dda22ae3","categoryId":"4bf58dd8d48988d11b941735","category":"Pub","checkinsCount":1146,"usersCount":582,"tipCount":19,"visitsCount":1166,"tier":"","message":"","currency":"","rating":6.7},{"name":"The Place","phone":"+441142671157","address":"Peel St.","lat":53.377360597554045,"lng":-1.4998483657836914,"city_fetched":"Dronfield,UK","country":"United Kingdom","canonicalUrl":"https://foursquare.com/v/the-place/4baf73c4f964a520ed003ce3","categoryId":"4bf58dd8d48988d116941735","category":"Bar","checkinsCount":287,"usersCount":145,"tipCount":4,"visitsCount":289,"url":"http://www.theplacesheffield.co.uk","tier":"","message":"","currency":"","rating":6.7},{"name":"The Sheffield Waterworks Company (Wetherspoon)","phone":"+441142765076","address":"2-12 Division St","lat":53.38019036035161,"lng":-1.473158817952455,"neighborhood":"Central Sheffield","city_fetched":"Dronfield,UK","country":"United Kingdom","canonicalUrl":"https://foursquare.com/v/the-sheffield-waterworks-company-wetherspoon/4c87abf2821e9eb0cecd8d89","categoryId":"4bf58dd8d48988d11b941735","category":"Pub","checkinsCount":1118,"usersCount":706,"tipCount":16,"visitsCount":1247,"url":"http://www.jdwetherspoon.co.uk","tier":"","message":"","currency":"","rating":6.7},{"name":"The Beer House","twitter":"beerhouse623","address":"623 Ecclesall Rd","lat":53.368245466801035,"lng":-1.5001449465438113,"city_fetched":"Dronfield,UK","state":"Sheffield","country":"United Kingdom","canonicalUrl":"https://foursquare.com/v/the-beer-house/548d9338498eb5ef05869523","categoryId":"4bf58dd8d48988d11b941735","category":"Pub","checkinsCount":96,"usersCount":49,"tipCount":3,"visitsCount":108,"url":"http://www.beer-house.co.uk","tier":"","message":"","currency":"","rating":6.7},{"name":"The Hop","phone":"+441142781000","twitter":"thehopsheffield","address":"West One Plaza","lat":53.37953981051795,"lng":-1.4801502227783203,"neighborhood":"Central Sheffield","city_fetched":"Dronfield,UK","country":"United Kingdom","canonicalUrl":"https://foursquare.com/v/the-hop/4eac2ebed3e3846cbd63ffcb","categoryId":"4bf58dd8d48988d116941735","category":"Bar","checkinsCount":1230,"usersCount":427,"tipCount":9,"visitsCount":1256,"url":"http://www.thehopsheffield.co.uk","tier":1,"message":"Cheap","currency":"£","rating":6.6},{"name":"Crosspool Tavern","phone":"+441142662113","address":"468 Manchester Rd.","lat":53.37984570266607,"lng":-1.5190644678467298,"neighborhood":"Crookes","city_fetched":"Dronfield,UK","country":"United Kingdom","canonicalUrl":"https://foursquare.com/v/crosspool-tavern/4cee22f0ed62721e0f1d5afd","categoryId":"4bf58dd8d48988d11b941735","category":"Pub","checkinsCount":646,"usersCount":158,"tipCount":4,"visitsCount":682,"tier":"","message":"","currency":"","rating":6.6},{"name":"Ranmoor Inn","phone":"+441142301325","address":"330 Fulwood Rd","lat":53.37175768777672,"lng":-1.5214439591089224,"city_fetched":"Dronfield,UK","state":"Sheffield","country":"United Kingdom","canonicalUrl":"https://foursquare.com/v/ranmoor-inn/4bcdfbf268f976b025366583","categoryId":"4bf58dd8d48988d11b941735","category":"Pub","checkinsCount":258,"usersCount":109,"tipCount":3,"visitsCount":326,"url":"http://www.ranmoorinnsheffield.co.uk","tier":"","message":"","currency":"","rating":6.4},{"name":"The Fox House","phone":"+441433630374","address":"Hathersage Road","lat":53.31886681594478,"lng":-1.601350074585747,"city_fetched":"Dronfield,UK","state":"Sheffield","country":"United Kingdom","canonicalUrl":"https://foursquare.com/v/the-fox-house/4b8f76b6f964a5203c5533e3","categoryId":"4bf58dd8d48988d11b941735","category":"Pub","checkinsCount":202,"usersCount":208,"tipCount":6,"visitsCount":261,"url":"http://www.vintageinn.co.uk/thefoxhouselongshaw","tier":"","message":"","currency":"","rating":6.4},{"name":"Psalter Tavern","phone":"+441142666188","address":"178-180 Psalter Ln","lat":53.36472792607781,"lng":-1.501581072807312,"neighborhood":"Nether Edge","city_fetched":"Dronfield,UK","country":"United Kingdom","canonicalUrl":"https://foursquare.com/v/psalter-tavern/4b55ffc0f964a5202bfb27e3","categoryId":"4bf58dd8d48988d11b941735","category":"Pub","checkinsCount":701,"usersCount":214,"tipCount":13,"visitsCount":861,"tier":"","message":"","currency":"","rating":6.4},{"name":"Spa Lane Vaults (Wetherspoon)","phone":"+441246246300","address":"34 St Mary's Gate","lat":53.23523670875366,"lng":-1.4239379587745766,"city_fetched":"Dronfield,UK","state":"Derbyshire","country":"United Kingdom","canonicalUrl":"https://foursquare.com/v/spa-lane-vaults-wetherspoon/4bebd94aa9900f4706381840","categoryId":"4bf58dd8d48988d11b941735","category":"Pub","checkinsCount":786,"usersCount":280,"tipCount":6,"visitsCount":860,"url":"http://www.jdwetherspoon.co.uk","tier":"","message":"","currency":"","rating":6.4},{"name":"Woodseats Palace (Wetherspoon)","phone":"+441142629210","address":"692 Chesterfield Rd.","lat":53.344226403466536,"lng":-1.478374860112807,"city_fetched":"Dronfield,UK","country":"United Kingdom","canonicalUrl":"https://foursquare.com/v/woodseats-palace-wetherspoon/4bb90cb97421a593db6dc240","categoryId":"4bf58dd8d48988d11b941735","category":"Pub","checkinsCount":539,"usersCount":168,"tipCount":7,"visitsCount":660,"url":"http://www.jdwetherspoon.co.uk","tier":"","message":"","currency":"","rating":6.4},{"name":"White Lion","phone":"+441142551500","address":"615 London Road","lat":53.36008,"lng":-1.473935,"city_fetched":"Dronfield,UK","state":"Sheffield","country":"United Kingdom","canonicalUrl":"https://foursquare.com/v/white-lion/4c7979c7df08a1cda1e5da5d","categoryId":"4bf58dd8d48988d11b941735","category":"Pub","checkinsCount":430,"usersCount":140,"tipCount":6,"visitsCount":487,"url":"http://www.whitelionsheffield.co.uk","tier":"","message":"","currency":"","rating":6.4},{"name":"The Edge","address":"34 Endcliffe Crescent","lat":53.372596927544144,"lng":-1.5069012423957024,"city_fetched":"Dronfield,UK","state":"Sheffield","country":"United Kingdom","canonicalUrl":"https://foursquare.com/v/the-edge/4b5f6e88f964a520edb929e3","categoryId":"4bf58dd8d48988d116941735","category":"Bar","checkinsCount":843,"usersCount":282,"tipCount":4,"visitsCount":1027,"tier":"","message":"","currency":"","rating":6.3},{"name":"Plug","phone":"+441142413040","twitter":"plugsheffield","address":"14-16 Matilda St.","lat":53.37652216286117,"lng":-1.4714813232421875,"neighborhood":"Central Sheffield","city_fetched":"Dronfield,UK","country":"United Kingdom","canonicalUrl":"https://foursquare.com/v/plug/4b534551f964a5201f9527e3","categoryId":"4bf58dd8d48988d11f941735","category":"Nightclub","checkinsCount":1084,"usersCount":647,"tipCount":14,"visitsCount":1180,"url":"http://www.the-plug.com","tier":"","message":"","currency":"","rating":6.3},{"name":"The Sheaf Island (Wetherspoon)","phone":"+441142677700","address":"Eccelsall Rd.","lat":53.37288342105123,"lng":-1.4818668365478516,"neighborhood":"Central Sheffield","city_fetched":"Dronfield,UK","country":"United Kingdom","canonicalUrl":"https://foursquare.com/v/the-sheaf-island-wetherspoon/4c5226f3f31a9c742d1578ea","categoryId":"4bf58dd8d48988d11b941735","category":"Pub","checkinsCount":1459,"usersCount":652,"tipCount":9,"visitsCount":1733,"url":"http://www.jdwetherspoon.co.uk","tier":"","message":"","currency":"","rating":6.3},{"name":"Fox & Duck","phone":"+441142663422","twitter":"broomhillfox","address":"Fulwood Rd","lat":53.37742747961062,"lng":-1.5008997917175293,"city_fetched":"Dronfield,UK","country":"United Kingdom","canonicalUrl":"https://foursquare.com/v/fox--duck/4bb5e7242ea1952107ddaa2f","categoryId":"4bf58dd8d48988d11b941735","category":"Pub","checkinsCount":333,"usersCount":170,"tipCount":4,"visitsCount":334,"url":"http://foxandduck.com","tier":"","message":"","currency":"","rating":6.2},{"name":"The Cremorne","phone":"+441142509974","address":"185 London Road","lat":53.368812270215976,"lng":-1.4762449264526367,"neighborhood":"Central Sheffield","city_fetched":"Dronfield,UK","country":"United Kingdom","canonicalUrl":"https://foursquare.com/v/the-cremorne/4b85893cf964a520016431e3","categoryId":"4bf58dd8d48988d11b941735","category":"Pub","checkinsCount":500,"usersCount":196,"tipCount":11,"visitsCount":557,"tier":"","message":"","currency":"","rating":6.2},{"name":"The Brew House","address":"Wellington St","lat":53.37861035453969,"lng":-1.4728401278966103,"neighborhood":"Central Sheffield","city_fetched":"Dronfield,UK","country":"United Kingdom","canonicalUrl":"https://foursquare.com/v/the-brew-house/53ac5074498e24eaf5d7dd8d","categoryId":"4bf58dd8d48988d116941735","category":"Bar","checkinsCount":207,"usersCount":106,"tipCount":5,"visitsCount":223,"tier":"","message":"","currency":"","rating":6.1},{"name":"Crucible Corner","address":"101 Norfolk St","lat":53.38074296989226,"lng":-1.467447280883789,"neighborhood":"Central Sheffield","city_fetched":"Dronfield,UK","state":"Sheffield","country":"United Kingdom","canonicalUrl":"https://foursquare.com/v/crucible-corner/4b50aa69f964a520422c27e3","categoryId":"4bf58dd8d48988d116941735","category":"Bar","checkinsCount":385,"usersCount":190,"tipCount":5,"visitsCount":388,"tier":"","message":"","currency":"","rating":6.1},{"name":"Donkey Derby","phone":"+441246554485","address":"Sheffield Rd.","lat":53.25122155713994,"lng":-1.4280584297041654,"city_fetched":"Dronfield,UK","state":"Derbyshire","country":"United Kingdom","canonicalUrl":"https://foursquare.com/v/donkey-derby/4e5a6535a8098920b3cac8c8","categoryId":"4bf58dd8d48988d11b941735","category":"Pub","checkinsCount":322,"usersCount":137,"tipCount":8,"visitsCount":341,"tier":"","message":"","currency":"","rating":6.1},{"name":"Ridgeway Arms","phone":"+441142477111","address":"Quarry Hill","lat":53.33310709079309,"lng":-1.3799544873913858,"neighborhood":"Mosborough","city_fetched":"Dronfield,UK","country":"United Kingdom","canonicalUrl":"https://foursquare.com/v/ridgeway-arms/4c829c4fe63376b00eb2b43d","categoryId":"4bf58dd8d48988d11b941735","category":"Pub","checkinsCount":228,"usersCount":74,"tipCount":2,"visitsCount":254,"tier":"","message":"","currency":"","rating":6},{"name":"Nottingham House","phone":"+441142681235","address":"Whitham Rd","lat":53.37857181852543,"lng":-1.498834490776062,"city_fetched":"Dronfield,UK","state":"Sheffield","country":"United Kingdom","canonicalUrl":"https://foursquare.com/v/nottingham-house/4b65b862f964a520affb2ae3","categoryId":"4bf58dd8d48988d11b941735","category":"Pub","checkinsCount":429,"usersCount":216,"tipCount":9,"visitsCount":528,"tier":"","message":"","currency":"","rating":6},{"name":"Revolution","phone":"+441142739469","twitter":"revolutionbars","address":"Fitzwilliam St.","lat":53.379667807811956,"lng":-1.4802950620651245,"neighborhood":"Central Sheffield","city_fetched":"Dronfield,UK","country":"United Kingdom","canonicalUrl":"https://foursquare.com/v/revolution/4aeb4fd9f964a520c4c021e3","categoryId":"4bf58dd8d48988d11e941735","category":"Cocktail Bar","checkinsCount":1490,"usersCount":600,"tipCount":10,"visitsCount":1528,"url":"http://www.revolution-bars.co.uk","tier":"","message":"","currency":"","rating":6},{"name":"The Washington","phone":"+441142765268","address":"87 Fitzwilliam Street","lat":53.37783100979037,"lng":-1.4781546592712402,"neighborhood":"Central Sheffield","city_fetched":"Dronfield,UK","state":"Sheffield","country":"United Kingdom","canonicalUrl":"https://foursquare.com/v/the-washington/4b642754f964a52089a12ae3","categoryId":"4bf58dd8d48988d11b941735","category":"Pub","checkinsCount":600,"usersCount":329,"tipCount":4,"visitsCount":677,"tier":"","message":"","currency":"","rating":6},{"name":"The Prince of Wales","phone":"+441142369176","twitter":"princeprincepub","address":"Ecclesall Rd. S","lat":53.35657691686293,"lng":-1.5106332603941588,"neighborhood":"Ecclesall","city_fetched":"Dronfield,UK","country":"United Kingdom","canonicalUrl":"https://foursquare.com/v/the-prince-of-wales/4bb4e1dcc29a95214ee3a735","categoryId":"4bf58dd8d48988d11b941735","category":"Pub","checkinsCount":378,"usersCount":205,"tipCount":9,"visitsCount":506,"url":"http://www.theprinceofwalessheffield.co.uk","tier":3,"message":"Expensive","currency":"£","rating":6},{"name":"Dempseys","phone":"+441142754616","twitter":"dempseysclub","address":"1 Hereford St.","lat":53.37417637810931,"lng":-1.4748501777648926,"neighborhood":"Central Sheffield","city_fetched":"Dronfield,UK","state":"Sheffield","country":"United Kingdom","canonicalUrl":"https://foursquare.com/v/dempseys/4bbfc099461576b026267932","categoryId":"4bf58dd8d48988d1d8941735","category":"Gay Bar","checkinsCount":947,"usersCount":254,"tipCount":7,"visitsCount":1034,"url":"http://dempseys-sheffield.com","tier":"","message":"","currency":"","rating":6},{"name":"Champs Sports Bar & Grill","phone":"+441142666333","twitter":"champssheff","address":"255 Ecclesall Rd","lat":53.37200969269781,"lng":-1.486324667930603,"city_fetched":"Dronfield,UK","country":"United Kingdom","canonicalUrl":"https://foursquare.com/v/champs-sports-bar--grill/4e9079de4fc6b925c2d9f018","categoryId":"4bf58dd8d48988d11d941735","category":"Sports Bar","checkinsCount":205,"usersCount":147,"tipCount":2,"visitsCount":221,"url":"http://www.champssheffield.com","tier":"","message":"","currency":"","rating":5.9},{"name":"Walkabout","phone":"+441142413400","twitter":"walkiesheffield","address":"Carver St","lat":53.38110135121976,"lng":-1.4744853973388672,"neighborhood":"Central Sheffield","city_fetched":"Dronfield,UK","country":"United Kingdom","canonicalUrl":"https://foursquare.com/v/walkabout/4bcf4616046076b04bfc6d71","categoryId":"4bf58dd8d48988d11d941735","category":"Sports Bar","checkinsCount":740,"usersCount":588,"tipCount":15,"visitsCount":963,"url":"http://walkaboutbars.com","tier":"","message":"","currency":"","rating":5.9},{"name":"Broomhill Tavern","phone":"+441142663470","address":"484 Glossop Rd","lat":53.376782,"lng":-1.5007582,"city_fetched":"Dronfield,UK","country":"United Kingdom","canonicalUrl":"https://foursquare.com/v/broomhill-tavern/4b79515bf964a520b8f32ee3","categoryId":"4bf58dd8d48988d11b941735","category":"Pub","checkinsCount":195,"usersCount":106,"tipCount":1,"visitsCount":198,"tier":"","message":"","currency":"","rating":5.9},{"name":"Crystal","phone":"+441142489099","address":"22 West St.","lat":53.38063,"lng":-1.473935,"neighborhood":"Central Sheffield","city_fetched":"Dronfield,UK","country":"United Kingdom","canonicalUrl":"https://foursquare.com/v/crystal/4bc1085cabf49521da68c093","categoryId":"4bf58dd8d48988d116941735","category":"Bar","checkinsCount":245,"usersCount":159,"tipCount":3,"visitsCount":252,"url":"http://www.crystalbar.uk.com","tier":"","message":"","currency":"","rating":5.9},{"name":"The Cavendish","phone":"+441142525781","twitter":"cavendish_sheff","address":"238 West St","lat":53.38034298717032,"lng":-1.4795118570327759,"neighborhood":"Central Sheffield","city_fetched":"Dronfield,UK","country":"United Kingdom","canonicalUrl":"https://foursquare.com/v/the-cavendish/4b5a1feff964a520cdae28e3","categoryId":"4bf58dd8d48988d11b941735","category":"Pub","checkinsCount":1204,"usersCount":693,"tipCount":17,"visitsCount":1421,"url":"http://www.screampubs.co.uk/thecavendishsheffield/","tier":"","message":"","currency":"","rating":5.8},{"name":"Porter Brook","address":"530-536 Ecclesall Rd","lat":53.368504997758016,"lng":-1.4984214305877683,"city_fetched":"Dronfield,UK","state":"Sheffield","country":"United Kingdom","canonicalUrl":"https://foursquare.com/v/porter-brook/4b8ac0e9f964a520bb7e32e3","categoryId":"4bf58dd8d48988d11b941735","category":"Pub","checkinsCount":366,"usersCount":184,"tipCount":8,"visitsCount":370,"tier":"","message":"","currency":"","rating":5.7},{"name":"Royal Standard","phone":"+441142722883","twitter":"thersbar","address":"156 St Marys Rd","lat":53.37395875442097,"lng":-1.4650440216064453,"neighborhood":"Central Sheffield","city_fetched":"Dronfield,UK","state":"Sheffield","country":"United Kingdom","canonicalUrl":"https://foursquare.com/v/royal-standard/4bf190dc70779521c6933e7c","categoryId":"4bf58dd8d48988d11b941735","category":"Pub","checkinsCount":954,"usersCount":157,"tipCount":10,"visitsCount":968,"tier":"","message":"","currency":"","rating":5.7},{"name":"The Graduate","phone":"+441142753767","twitter":"gradsheff","address":"94 Surrey St","lat":53.379973519482945,"lng":-1.4673898852132488,"neighborhood":"Central Sheffield","city_fetched":"Dronfield,UK","country":"United Kingdom","canonicalUrl":"https://foursquare.com/v/the-graduate/4cfe82452d80a143a8335dd8","categoryId":"4bf58dd8d48988d11b941735","category":"Pub","checkinsCount":1242,"usersCount":600,"tipCount":11,"visitsCount":1252,"tier":"","message":"","currency":"","rating":5.7},{"name":"Varsity","phone":"+441142759756","twitter":"partyatthepub","address":"173-179 West Street","lat":53.38008574388874,"lng":-1.4795994343304262,"neighborhood":"Central Sheffield","city_fetched":"Dronfield,UK","country":"United Kingdom","canonicalUrl":"https://foursquare.com/v/varsity/4ba12d37f964a520259f37e3","categoryId":"4bf58dd8d48988d11b941735","category":"Pub","checkinsCount":410,"usersCount":246,"tipCount":5,"visitsCount":411,"url":"http://www.varsitybars.com","tier":"","message":"","currency":"","rating":5.7},{"name":"The Roebuck Tavern","address":"72 Charles St","lat":53.37837661747421,"lng":-1.4693677425384521,"neighborhood":"Central Sheffield","city_fetched":"Dronfield,UK","country":"United Kingdom","canonicalUrl":"https://foursquare.com/v/the-roebuck-tavern/4be4405bcf200f474aaa113c","categoryId":"4bf58dd8d48988d11b941735","category":"Pub","checkinsCount":371,"usersCount":229,"tipCount":3,"visitsCount":393,"url":"http://www.theroebucksheffield.co.uk","tier":"","message":"","currency":"","rating":5.6},{"name":"Players","phone":"+441142767665","twitter":"sheffplayers","address":"125-127 West St.","lat":53.38066580831648,"lng":-1.4765001879384552,"neighborhood":"Central Sheffield","city_fetched":"Dronfield,UK","country":"United Kingdom","canonicalUrl":"https://foursquare.com/v/players/4b957451f964a5206fa334e3","categoryId":"4bf58dd8d48988d11d941735","category":"Sports Bar","checkinsCount":299,"usersCount":187,"tipCount":6,"visitsCount":300,"url":"http://www.playersbars.com/Sheffield","tier":"","message":"","currency":"","rating":5.6},{"name":"Green Room","phone":"+441142493329","address":"150-154 Devonshire St","lat":53.37954941032836,"lng":-1.4787957072257996,"neighborhood":"Central Sheffield","city_fetched":"Dronfield,UK","country":"United Kingdom","canonicalUrl":"https://foursquare.com/v/green-room/4b89811ff964a520ca3c32e3","categoryId":"4bf58dd8d48988d116941735","category":"Bar","checkinsCount":355,"usersCount":232,"tipCount":5,"visitsCount":359,"tier":"","message":"","currency":"","rating":5.6},{"name":"The Globe","phone":"+441142763124","twitter":"globesheffield","address":"Howard St","lat":53.37852861836987,"lng":-1.4663100242614746,"neighborhood":"Central Sheffield","city_fetched":"Dronfield,UK","country":"United Kingdom","canonicalUrl":"https://foursquare.com/v/the-globe/4b61b105f964a5205c1d2ae3","categoryId":"4bf58dd8d48988d11b941735","category":"Pub","checkinsCount":773,"usersCount":464,"tipCount":13,"visitsCount":788,"url":"http://www.screampubs.co.uk/theglobesheffield/","tier":"","message":"","currency":"","rating":5.6},{"name":"Brown Bear","address":"109 Norfolk Street","lat":53.38051898003086,"lng":-1.46817147731781,"neighborhood":"Central Sheffield","city_fetched":"Dronfield,UK","state":"Sheffield","country":"United Kingdom","canonicalUrl":"https://foursquare.com/v/brown-bear/4c83cede74d7b60c63e98cd8","categoryId":"4bf58dd8d48988d11b941735","category":"Pub","checkinsCount":280,"usersCount":150,"tipCount":9,"visitsCount":280,"tier":"","message":"","currency":"","rating":5.5},{"name":"The Swim Inn (Wetherspoon)","phone":"+441142527640","address":"217-231 Glossop Rd","lat":53.38007559315868,"lng":-1.4816549571492246,"neighborhood":"Central Sheffield","city_fetched":"Dronfield,UK","country":"United Kingdom","canonicalUrl":"https://foursquare.com/v/the-swim-inn-wetherspoon/4c87abf3821e9eb0cfcd8d89","categoryId":"4bf58dd8d48988d11b941735","category":"Pub","checkinsCount":1296,"usersCount":553,"tipCount":16,"visitsCount":1484,"url":"http://www.jdwetherspoon.co.uk","tier":"","message":"","currency":"","rating":5.5},{"name":"The Benjamin Huntsman (Wetherspoon)","phone":"+441142639500","address":"12-18 Cambridge St","lat":53.379877551395616,"lng":-1.4721915747680965,"neighborhood":"Central Sheffield","city_fetched":"Dronfield,UK","country":"United Kingdom","canonicalUrl":"https://foursquare.com/v/the-benjamin-huntsman-wetherspoon/4bc9b35bb6c49c7446ca8e91","categoryId":"4bf58dd8d48988d11b941735","category":"Pub","checkinsCount":1923,"usersCount":858,"tipCount":16,"visitsCount":2019,"url":"http://www.jdwetherspoon.co.uk","tier":1,"message":"Cheap","currency":"£","rating":5.5},{"name":"The Lock Keeper (Brewers Fayre)","phone":"+441246560700","twitter":"brewersfayre","address":"Tapton Lock Hill","lat":53.251131,"lng":-1.419936,"city_fetched":"Dronfield,UK","state":"Derbyshire","country":"United Kingdom","canonicalUrl":"https://foursquare.com/v/the-lock-keeper-brewers-fayre/4b9a3a6df964a520d9a535e3","categoryId":"4bf58dd8d48988d11b941735","category":"Pub","checkinsCount":380,"usersCount":196,"tipCount":3,"visitsCount":433,"url":"http://www.brewersfayre.co.uk/pub-restaurant/Derbyshire/Lock-Keeper-Chesterfield.html","tier":"","message":"","currency":"","rating":5.4},{"name":"Royal Oak","address":"Low Pavement","lat":53.23536313,"lng":-1.42779013,"city_fetched":"Dronfield,UK","state":"Derbyshire","country":"United Kingdom","canonicalUrl":"https://foursquare.com/v/royal-oak/4d46d2c12e326ea8fa1dfba6","categoryId":"4bf58dd8d48988d11b941735","category":"Pub","checkinsCount":68,"usersCount":56,"tipCount":2,"visitsCount":70,"tier":"","message":"","currency":"","rating":5.3},{"name":"The Portland Hotel (Wetherspoon)","phone":"+441246245410","address":"West Bars","lat":53.23523138318095,"lng":-1.4313672606038965,"city_fetched":"Dronfield,UK","state":"Derbyshire","country":"United Kingdom","canonicalUrl":"https://foursquare.com/v/the-portland-hotel-wetherspoon/4c87aaa7821e9eb0a1cc8d89","categoryId":"4bf58dd8d48988d11b941735","category":"Pub","checkinsCount":976,"usersCount":331,"tipCount":8,"visitsCount":1100,"url":"http://www.jdwetherspoon.co.uk","tier":"","message":"","currency":"","rating":5.3},{"name":"Soyo","phone":"+441142767552","twitter":"soyosheffield","address":"115 Rockingham St.","lat":53.38062777525356,"lng":-1.4755743741989136,"neighborhood":"Central Sheffield","city_fetched":"Dronfield,UK","country":"United Kingdom","canonicalUrl":"https://foursquare.com/v/soyo/4b040a8cf964a520145122e3","categoryId":"4bf58dd8d48988d116941735","category":"Bar","checkinsCount":682,"usersCount":349,"tipCount":6,"visitsCount":745,"url":"http://www.soyo.me","tier":"","message":"","currency":"","rating":5.2},{"name":"The Sportsman","address":"57 Benty Lane","lat":53.380513,"lng":-1.523231863975525,"neighborhood":"Crookes","city_fetched":"Dronfield,UK","country":"United Kingdom","canonicalUrl":"https://foursquare.com/v/the-sportsman/4bef026196edc9b6062a4af2","categoryId":"4bf58dd8d48988d11b941735","category":"Pub","checkinsCount":130,"usersCount":87,"tipCount":5,"visitsCount":178,"tier":"","message":"","currency":"","rating":5.2},{"name":"Popworld","phone":"+441142795581","twitter":"popworldsheff","address":"2-8 Carver St","lat":53.38061497583003,"lng":-1.474313735961914,"neighborhood":"Central Sheffield","city_fetched":"Dronfield,UK","country":"United Kingdom","canonicalUrl":"https://foursquare.com/v/popworld/4baea7bef964a52082cb3be3","categoryId":"4bf58dd8d48988d11f941735","category":"Nightclub","checkinsCount":328,"usersCount":166,"tipCount":5,"visitsCount":329,"url":"http://www.popworldsheffield.co.uk","tier":"","message":"","currency":"","rating":5.2},{"name":"The Nursery Tavern","phone":"+441142668934","twitter":"ilovetav","address":"276 Ecclesall Road","lat":53.371987289171024,"lng":-1.4875316619873047,"city_fetched":"Dronfield,UK","country":"United Kingdom","canonicalUrl":"https://foursquare.com/v/the-nursery-tavern/4b47c7fef964a520763e26e3","categoryId":"4bf58dd8d48988d11b941735","category":"Pub","checkinsCount":691,"usersCount":293,"tipCount":9,"visitsCount":693,"tier":"","message":"","currency":"","rating":5.1},{"name":"Robin Hood","phone":"+441142369107","address":"Millhouses Lane","lat":53.346247458463864,"lng":-1.4975309371948242,"neighborhood":"Ecclesall","city_fetched":"Dronfield,UK","state":"Sheffield","country":"United Kingdom","canonicalUrl":"https://foursquare.com/v/robin-hood/4b9ff2a8f964a520c94c37e3","categoryId":"4bf58dd8d48988d11b941735","category":"Pub","checkinsCount":160,"usersCount":98,"tipCount":4,"visitsCount":173,"tier":"","message":"","currency":"","rating":5.1}]