[{"name":"BrewDog Dundee","phone":"+441382221738","twitter":"brewdog","address":"Chamber of Commerce Building","lat":56.463067437579376,"lng":-2.970878307830639,"city_fetched":"Dundee","state":"Dundee City","country":"United Kingdom","canonicalUrl":"https://foursquare.com/v/brewdog-dundee/53974b4d498e085ff3cd4d3c","category":"Beer Bar","checkinsCount":283,"usersCount":195,"tipCount":10,"visitsCount":474,"url":"http://www.brewdog.com","tier":"","message":"","currency":"","rating":8.7},{"name":"Duke's Corner","phone":"+441382205052","twitter":"dukescorner","address":"13 Brown St","lat":56.45977559313808,"lng":-2.9789847135543823,"city_fetched":"Dundee","state":"Dundee City","country":"United Kingdom","canonicalUrl":"https://foursquare.com/v/dukes-corner/4b49f2b6f964a5208d7626e3","category":"Bar","checkinsCount":1113,"usersCount":399,"tipCount":18,"visitsCount":1236,"url":"http://www.dukescorner.co.uk","tier":"","message":"","currency":"","rating":8.6},{"name":"Drouthy's","phone":"+441382202187","address":"142-146 Perth Road","lat":56.456504414641046,"lng":-2.9833536613349545,"city_fetched":"Dundee","state":"Dundee City","country":"United Kingdom","canonicalUrl":"https://foursquare.com/v/drouthys/4bf803d9c07c9c7412c2bbef","category":"Bar","checkinsCount":311,"usersCount":160,"tipCount":4,"visitsCount":320,"tier":"","message":"","currency":"","rating":8.5},{"name":"Clarks On Lindsay Street","twitter":"clarksbardundee","address":"80 North Lindsay Street","lat":56.46116240130875,"lng":-2.9765819986988036,"city_fetched":"Dundee","state":"Dundee City","country":"United Kingdom","canonicalUrl":"https://foursquare.com/v/clarks-on-lindsay-street/4e4edaafd22daf51d26dc89e","category":"Bar","checkinsCount":211,"usersCount":99,"tipCount":2,"visitsCount":219,"url":"http://www.clarksonlindsaystreet.com","tier":"","message":"","currency":"","rating":8.2},{"name":"The West House","phone":"+441382525205","twitter":"thewesthouse","address":"2 Westport","lat":56.45937842035891,"lng":-2.9776060581207275,"city_fetched":"Dundee","state":"Dundee City","country":"United Kingdom","canonicalUrl":"https://foursquare.com/thewesthouse","category":"Bar","checkinsCount":218,"usersCount":96,"tipCount":3,"visitsCount":237,"url":"http://thewesthouse.co.uk","tier":"","message":"","currency":"","rating":8},{"name":"Malmaison Dundee","address":"44 Whitehall Crescent","lat":56.45869217200369,"lng":-2.9697916502519974,"city_fetched":"Dundee","state":"Dundee City","country":"United Kingdom","canonicalUrl":"https://foursquare.com/v/malmaison-dundee/528df373498ea0162dfdb66f","category":"Hotel","checkinsCount":205,"usersCount":151,"tipCount":10,"visitsCount":246,"tier":"","message":"","currency":"","rating":7.9},{"name":"The D'Arcy Thompson","phone":"+441382322694","address":"21-23 Old Hawkhill","lat":56.45933452772826,"lng":-2.9805041818905016,"city_fetched":"Dundee","state":"Dundee City","country":"United Kingdom","canonicalUrl":"https://foursquare.com/v/the-darcy-thompson/5149b4117ab4c9f32899c4d8","category":"Gastropub","checkinsCount":92,"usersCount":48,"tipCount":4,"visitsCount":94,"url":"http://www.darcythompson.co.uk","tier":"","message":"","currency":"","rating":7.8},{"name":"The Tinsmith","lat":56.45946682050914,"lng":-2.980248650173491,"city_fetched":"Dundee","country":"United Kingdom","canonicalUrl":"https://foursquare.com/v/the-tinsmith/539c9b17498ef21941425968","category":"Bar","checkinsCount":71,"usersCount":47,"tipCount":0,"visitsCount":91,"tier":"","message":"","currency":"","rating":7.7},{"name":"Trades House Bar","phone":"+441382229494","address":"40 Nethergate","lat":56.45937693836314,"lng":-2.971450388431549,"city_fetched":"Dundee","state":"Dundee City","country":"United Kingdom","canonicalUrl":"https://foursquare.com/v/trades-house-bar/4bcc8b9e68f976b049c96283","category":"Pub","checkinsCount":283,"usersCount":180,"tipCount":1,"visitsCount":286,"tier":"","message":"","currency":"","rating":7.5},{"name":"The Phoenix","phone":"+441382200014","address":"103 Nethergate","lat":56.457883549240115,"lng":-2.974784374277988,"city_fetched":"Dundee","state":"Dundee City","country":"United Kingdom","canonicalUrl":"https://foursquare.com/v/the-phoenix/4bd8766909ecb71374e7487c","category":"Bar","checkinsCount":229,"usersCount":139,"tipCount":4,"visitsCount":229,"tier":"","message":"","currency":"","rating":7.5},{"name":"Dr Noodles","phone":"+441382322155","twitter":"drnoodlebar","address":"89 Nethergate","lat":56.45816365795073,"lng":-2.974382936040456,"city_fetched":"Dundee","state":"Dundee City","country":"United Kingdom","canonicalUrl":"https://foursquare.com/v/dr-noodles/4e71e39cd22dbd62616b74ac","category":"Noodle House","checkinsCount":375,"usersCount":135,"tipCount":11,"visitsCount":417,"url":"http://www.drnoodles.co.uk","tier":"","message":"","currency":"","rating":7.4},{"name":"DUSA The Union","phone":"+441382386060","twitter":"dusa_theunion","address":"Airlie Place","lat":56.4577709952032,"lng":-2.982024404631503,"city_fetched":"Dundee","state":"Dundee City","country":"United Kingdom","canonicalUrl":"https://foursquare.com/v/dusa-the-union/4ba0eac2f964a520df8637e3","category":"Student Center","checkinsCount":1546,"usersCount":394,"tipCount":5,"visitsCount":1708,"url":"http://www.dusa.co.uk","tier":"","message":"","currency":"","rating":7.1},{"name":"The Globe","phone":"+441382224712","address":"2-38 W Port","lat":56.45964792959831,"lng":-2.979224640602269,"city_fetched":"Dundee","state":"Dundee City","country":"United Kingdom","canonicalUrl":"https://foursquare.com/v/the-globe/4da9f28e4df01c19b17ec273","category":"Pub","checkinsCount":250,"usersCount":127,"tipCount":0,"visitsCount":255,"tier":"","message":"","currency":"","rating":6.8},{"name":"Mennies","address":"167 Perth Rd","lat":56.45612216662781,"lng":-2.9931756813436348,"city_fetched":"Dundee","state":"Dundee City","country":"United Kingdom","canonicalUrl":"https://foursquare.com/v/mennies/4bb8f0481261d13a1021e998","category":"Bar","checkinsCount":215,"usersCount":69,"tipCount":6,"visitsCount":216,"tier":"","message":"","currency":"","rating":6.6},{"name":"Medina Bar & Grill","address":"113 Nethergate","lat":56.45776815824966,"lng":-2.9750743428372566,"city_fetched":"Dundee","state":"Dundee City","country":"United Kingdom","canonicalUrl":"https://foursquare.com/v/medina-bar--grill/4bad2aeef964a520f1343be3","category":"Bar","checkinsCount":222,"usersCount":118,"tipCount":6,"visitsCount":222,"tier":"","message":"","currency":"","rating":6.6},{"name":"The Counting House  (Wetherspoon)","phone":"+441382225251","address":"67-71 Reform St.","lat":56.462028136293924,"lng":-2.9716354608535767,"city_fetched":"Dundee","state":"Dundee City","country":"United Kingdom","canonicalUrl":"https://foursquare.com/v/the-counting-house--wetherspoon/4c87aadc821e9eb0d4cc8d89","category":"Pub","checkinsCount":1935,"usersCount":397,"tipCount":10,"visitsCount":2038,"url":"http://www.jdwetherspoon.co.uk","tier":"","message":"","currency":"","rating":6.4},{"name":"Tonic","phone":"+441382226103","address":"141 Nethergate","lat":56.45734506779109,"lng":-2.9761791229248047,"city_fetched":"Dundee","state":"Dundee City","country":"United Kingdom","canonicalUrl":"https://foursquare.com/v/tonic/4b5b798cf964a520ff0029e3","category":"Pub","checkinsCount":522,"usersCount":234,"tipCount":9,"visitsCount":547,"url":"http://www.tonic-live.co.uk","tier":"","message":"","currency":"","rating":6.3},{"name":"The Braes","phone":"+441382226344","twitter":"braesbar","address":"14-18 Perth Rd.","lat":56.45686402082502,"lng":-2.978797456269263,"city_fetched":"Dundee","state":"Dundee City","country":"United Kingdom","canonicalUrl":"https://foursquare.com/v/the-braes/4bbf7617ba9776b0172cffc8","category":"Bar","checkinsCount":473,"usersCount":248,"tipCount":8,"visitsCount":500,"url":"http://www.braesdundee.co.uk","tier":"","message":"","currency":"","rating":6.2},{"name":"Air Bar","address":"The Union","lat":56.458040750221336,"lng":-2.98253721327986,"city_fetched":"Dundee","state":"Dundee City","country":"United Kingdom","canonicalUrl":"https://foursquare.com/v/air-bar/4d47fa214c9ef04d96e46515","category":"Diner","checkinsCount":150,"usersCount":53,"tipCount":1,"visitsCount":150,"tier":"","message":"","currency":"","rating":6.2},{"name":"The Nether Inn","phone":"+441382349970","address":"134 Nethergate","lat":56.458179132223094,"lng":-2.974111652923862,"city_fetched":"Dundee","country":"United Kingdom","canonicalUrl":"https://foursquare.com/v/the-nether-inn/4b800d3af964a520ec4d30e3","category":"Bar","checkinsCount":553,"usersCount":259,"tipCount":9,"visitsCount":563,"tier":"","message":"","currency":"","rating":6.1},{"name":"Bank Bar","phone":"+441382205037","address":"7-9 Union Street","lat":56.45900495559873,"lng":-2.971254587173462,"city_fetched":"Dundee","state":"Dundee City","country":"United Kingdom","canonicalUrl":"https://foursquare.com/v/bank-bar/4b8986f2f964a520f93e32e3","category":"Pub","checkinsCount":115,"usersCount":68,"tipCount":1,"visitsCount":115,"tier":"","message":"","currency":"","rating":6.1},{"name":"The Underground","phone":"+448451666025","address":"25 South Tay Street","lat":56.45821600858186,"lng":-2.976051048236761,"city_fetched":"Dundee","state":"Dundee City","country":"United Kingdom","canonicalUrl":"https://foursquare.com/v/the-underground/4bda99580ef39c7400ba1d2d","category":"Nightclub","checkinsCount":313,"usersCount":85,"tipCount":5,"visitsCount":316,"tier":"","message":"","currency":"","rating":6.1},{"name":"Brewers Fayre Monifieth Farm","phone":"+441382530565","twitter":"brewersfayre","address":"Ethiebeaton Park","lat":56.491602,"lng":-2.8319403732449406,"city_fetched":"Dundee","country":"United Kingdom","canonicalUrl":"https://foursquare.com/v/brewers-fayre-monifieth-farm/4c4efae5960e76b0773724e7","category":"Pub","checkinsCount":68,"usersCount":53,"tipCount":1,"visitsCount":113,"tier":"","message":"","currency":"","rating":6.1},{"name":"Laings","phone":"+441382228250","address":"8 Roseangle","lat":56.45580498174592,"lng":-2.9817722765199908,"city_fetched":"Dundee","state":"Angus","country":"United Kingdom","canonicalUrl":"https://foursquare.com/v/laings/4bb4a57b8786ef3b2c746533","category":"Beer Garden","checkinsCount":238,"usersCount":143,"tipCount":4,"visitsCount":245,"tier":"","message":"","currency":"","rating":6.1},{"name":"Tickety Boo's","lat":56.46155875332657,"lng":-2.967960615374128,"city_fetched":"Dundee","country":"United Kingdom","canonicalUrl":"https://foursquare.com/v/tickety-boos/4bbd14128a4fb713bf933c9d","category":"Bar","checkinsCount":523,"usersCount":98,"tipCount":3,"visitsCount":523,"tier":"","message":"","currency":"","rating":6},{"name":"The Old Bank Bar","phone":"+441382226552","address":"34 Reform Street","lat":56.46124865292357,"lng":-2.9712706804275513,"city_fetched":"Dundee","state":"Dundee City","country":"United Kingdom","canonicalUrl":"https://foursquare.com/v/the-old-bank-bar/4bd7409d09ecb713d976467c","category":"Bar","checkinsCount":212,"usersCount":110,"tipCount":4,"visitsCount":232,"url":"http://www.oldbankbar-dundee.co.uk","tier":"","message":"","currency":"","rating":5.9},{"name":"The Bell Tree","phone":"+441382738112","address":"115-117 Lawers Dr","lat":56.48394,"lng":-2.852686,"city_fetched":"Dundee","state":"Dundee City","country":"United Kingdom","canonicalUrl":"https://foursquare.com/v/the-bell-tree/4c51c5c694790f47a7aa9da1","category":"Pub","checkinsCount":136,"usersCount":79,"tipCount":4,"visitsCount":157,"tier":"","message":"","currency":"","rating":5.8},{"name":"The Capitol (Lloyd's No. 1 Bar)","phone":"+441382205950","address":"7-9 Seagate","lat":56.46191462866434,"lng":-2.9675171191166494,"city_fetched":"Dundee","state":"Dundee City","country":"United Kingdom","canonicalUrl":"https://foursquare.com/v/the-capitol-lloyds-no-1-bar/4c87aadb821e9eb0d3cc8d89","category":"Pub","checkinsCount":614,"usersCount":297,"tipCount":10,"visitsCount":661,"url":"http://www.jdwetherspoon.co.uk","tier":"","message":"","currency":"","rating":5.8},{"name":"Liquid Nightclub","phone":"+441382205551","address":"21 South Ward Street","lat":56.460378,"lng":-2.976812,"city_fetched":"Dundee","state":"Dundee City","country":"United Kingdom","canonicalUrl":"https://foursquare.com/v/liquid-nightclub/4bce268029d4b713d30da8dc","category":"Nightclub","checkinsCount":354,"usersCount":156,"tipCount":4,"visitsCount":397,"tier":"","message":"","currency":"","rating":5.6},{"name":"The River Side Inn","lat":56.453874707221985,"lng":-3.0212346,"city_fetched":"Dundee","country":"United Kingdom","canonicalUrl":"https://foursquare.com/v/the-river-side-inn/4b814b06f964a520f69d30e3","category":"Beer Garden","checkinsCount":223,"usersCount":148,"tipCount":8,"visitsCount":251,"tier":"","message":"","currency":"","rating":5.5},{"name":"The Fort Hotel","address":"58 Fort St., Broughty Ferry","lat":56.4665545152623,"lng":-2.876437579001286,"city_fetched":"Dundee","state":"Dundee City","country":"United Kingdom","canonicalUrl":"https://foursquare.com/v/the-fort-hotel/4bded2e9fe0e62b526fa0506","category":"Pub","checkinsCount":128,"usersCount":74,"tipCount":2,"visitsCount":129,"tier":"","message":"","currency":"","rating":5.4},{"name":"Abertay Union","phone":"+441382308000","twitter":"abertayunion","address":"1 - 3 Bell Street","lat":56.462798712493324,"lng":-2.9746556282043457,"city_fetched":"Dundee","country":"United Kingdom","canonicalUrl":"https://foursquare.com/v/abertay-union/4c0167163f0a9c74cb4fa0ec","category":"Student Center","checkinsCount":791,"usersCount":125,"tipCount":7,"visitsCount":817,"url":"http://www.abertaysa.com","tier":"","message":"","currency":"","rating":5.1}]