[{"name":"Alhambra Theatre","phone":"+441383740384","address":"33-35 Canmore St.","lat":56.069957457815015,"lng":-3.457858066982452,"city_fetched":"Dunfermline","state":"Fife","country":"United Kingdom","canonicalUrl":"https://foursquare.com/v/alhambra-theatre/4bad11c9f964a5206d2a3be3","category":"Concert Hall","checkinsCount":200,"usersCount":140,"tipCount":0,"visitsCount":208,"tier":"","message":"","currency":"","rating":6.8},{"name":"The City Hotel","phone":"+441383722538","address":"20 Bridge Street","lat":56.07142261946077,"lng":-3.464796050558627,"city_fetched":"Dunfermline","state":"Fife","country":"United Kingdom","canonicalUrl":"https://foursquare.com/v/the-city-hotel/4bd31a40462cb713fd83dd07","category":"Hotel Bar","checkinsCount":141,"usersCount":77,"tipCount":3,"visitsCount":148,"tier":"","message":"","currency":"","rating":6.4},{"name":"The Brass House","phone":"+441383432197","address":"33 Carnegie Dr","lat":56.07280790805817,"lng":-3.462108,"city_fetched":"Dunfermline","state":"Fife","country":"United Kingdom","canonicalUrl":"https://foursquare.com/v/the-brass-house/4bd74b330b779c7414d804a0","category":"Bar","checkinsCount":104,"usersCount":51,"tipCount":3,"visitsCount":106,"url":"http://www.thebrasshouse.com","tier":"","message":"","currency":"","rating":6.3},{"name":"The Guildhall & Linen Exchange (Wetherspoon)","phone":"+441383625960","twitter":"jdwtweet","address":"79-83 High St.","lat":56.07139394076927,"lng":-3.461341830261463,"city_fetched":"Dunfermline","state":"Fife","country":"United Kingdom","canonicalUrl":"https://foursquare.com/v/the-guildhall--linen-exchange-wetherspoon/50015713e4b0eb34b4c5cd33","category":"Pub","checkinsCount":360,"usersCount":127,"tipCount":3,"visitsCount":402,"url":"http://www.jdwetherspoon.co.uk","tier":"","message":"","currency":"","rating":6.2},{"name":"The Seven Kings","phone":"+441383736290","address":"32-42 Bridge St.","lat":56.071182,"lng":-3.4653987,"city_fetched":"Dunfermline","state":"Fife","country":"United Kingdom","canonicalUrl":"https://foursquare.com/v/the-seven-kings/4b994959f964a5203d7035e3","category":"Pub","checkinsCount":364,"usersCount":163,"tipCount":10,"visitsCount":383,"tier":"","message":"","currency":"","rating":6.1}]