[{"name":"The Head Of Steam","phone":"+441913832173","address":"3 Reform Place","lat":54.777004,"lng":-1.580086,"city_fetched":"Durham,UK","state":"Durham","country":"United Kingdom","canonicalUrl":"https://foursquare.com/v/the-head-of-steam/4d272a3c342d6dcb9fc4eaca","categoryId":"4bf58dd8d48988d116941735","category":"Bar","checkinsCount":425,"usersCount":252,"tipCount":17,"visitsCount":541,"tier":"","message":"","currency":"","rating":8.2},{"name":"The John Duck","phone":"+441913741114","address":"91a Claypath","lat":54.7778456641969,"lng":-1.5738546873445087,"city_fetched":"Durham,UK","state":"Durham","country":"United Kingdom","canonicalUrl":"https://foursquare.com/v/the-john-duck/4f7c8728e4b0abe223b004be","categoryId":"4bf58dd8d48988d11b941735","category":"Pub","checkinsCount":212,"usersCount":87,"tipCount":5,"visitsCount":221,"tier":"","message":"","currency":"","rating":8.1},{"name":"The Dun Cow Inn","phone":"+441913869219","address":"37 Old Elvet","lat":54.77507995076938,"lng":-1.5688039453867515,"city_fetched":"Durham,UK","state":"Durham","country":"United Kingdom","canonicalUrl":"https://foursquare.com/v/the-dun-cow-inn/4b8730c3f964a5208db531e3","categoryId":"4bf58dd8d48988d11b941735","category":"Pub","checkinsCount":202,"usersCount":145,"tipCount":8,"visitsCount":251,"tier":"","message":"","currency":"","rating":8.1},{"name":"The Station House","twitter":"stationhousedhm","address":"North Road","lat":54.77810838989983,"lng":-1.5834815476772035,"city_fetched":"Durham,UK","state":"Durham","country":"United Kingdom","canonicalUrl":"https://foursquare.com/v/the-station-house/5666fdbf498ef642ffc2ea85","categoryId":"4bf58dd8d48988d11b941735","category":"Pub","checkinsCount":57,"usersCount":27,"tipCount":4,"visitsCount":69,"url":"http://www.stationhousedurham.co.uk","tier":"","message":"","currency":"","rating":8.1},{"name":"The Victoria Inn","phone":"+441913865269","address":"86 Hallgarth Street","lat":54.77207699810771,"lng":-1.5705366280872528,"city_fetched":"Durham,UK","state":"Durham","country":"United Kingdom","canonicalUrl":"https://foursquare.com/v/the-victoria-inn/4b879ccaf964a52062c431e3","categoryId":"4bf58dd8d48988d11b941735","category":"Pub","checkinsCount":190,"usersCount":96,"tipCount":6,"visitsCount":207,"tier":"","message":"","currency":"","rating":7.9},{"name":"Duke Of Wellington","address":"Darlington Road","lat":54.7667448998688,"lng":-1.5928334982230283,"city_fetched":"Durham,UK","state":"Durham","country":"United Kingdom","canonicalUrl":"https://foursquare.com/v/duke-of-wellington/4bcb40bc937ca5931024a992","categoryId":"4bf58dd8d48988d11b941735","category":"Pub","checkinsCount":164,"usersCount":124,"tipCount":3,"visitsCount":244,"tier":"","message":"","currency":"","rating":7.8},{"name":"The Court Inn","phone":"+441913847350","address":"Court Lane","lat":54.773989,"lng":-1.570123,"city_fetched":"Durham,UK","state":"Durham","country":"United Kingdom","canonicalUrl":"https://foursquare.com/v/the-court-inn/4b873117f964a5209fb531e3","categoryId":"4bf58dd8d48988d116941735","category":"Bar","checkinsCount":287,"usersCount":178,"tipCount":7,"visitsCount":299,"tier":"","message":"","currency":"","rating":7.7},{"name":"Lambton Worm","address":"52 North Rd","lat":54.87103855475104,"lng":-1.5755231180520262,"city_fetched":"Durham,UK","state":"Durham","country":"United Kingdom","canonicalUrl":"https://foursquare.com/v/lambton-worm/4bb5f58bef159c74593675f7","categoryId":"4bf58dd8d48988d116941735","category":"Bar","checkinsCount":223,"usersCount":122,"tipCount":4,"visitsCount":336,"url":"http://www.thelambton.com","tier":"","message":"","currency":"","rating":7.3},{"name":"The Boathouse","phone":"+441913866210","address":"Elvet Riverside","lat":54.77627098762498,"lng":-1.5733730792999268,"city_fetched":"Durham,UK","state":"Durham","country":"United Kingdom","canonicalUrl":"https://foursquare.com/v/the-boathouse/4cf036ab8333224b96c6028e","categoryId":"4bf58dd8d48988d11e941735","category":"Cocktail Bar","checkinsCount":261,"usersCount":182,"tipCount":4,"visitsCount":266,"url":"http://www.boathousedurham.co.uk","tier":"","message":"","currency":"","rating":7.2},{"name":"Ye Old Elm Tree","phone":"+441913864621","address":"12 Crossgate","lat":54.775789,"lng":-1.581563,"city_fetched":"Durham,UK","state":"Durham","country":"United Kingdom","canonicalUrl":"https://foursquare.com/v/ye-old-elm-tree/4b633cbdf964a520a86c2ae3","categoryId":"4bf58dd8d48988d11b941735","category":"Pub","checkinsCount":160,"usersCount":86,"tipCount":4,"visitsCount":166,"tier":"","message":"","currency":"","rating":7.2},{"name":"Whisky River Cocktail Bar & Café","address":"Elvet Riverside","lat":54.776379278847536,"lng":-1.573743224143982,"city_fetched":"Durham,UK","state":"Durham","country":"United Kingdom","canonicalUrl":"https://foursquare.com/v/whisky-river-cocktail-bar--caf%C3%A9/4e6bd15c88772457c50d9933","categoryId":"4bf58dd8d48988d11e941735","category":"Cocktail Bar","checkinsCount":137,"usersCount":100,"tipCount":0,"visitsCount":138,"tier":"","message":"","currency":"","rating":7.2},{"name":"The Market Tavern","phone":"+441913862069","address":"Market Place","lat":54.77712833468185,"lng":-1.5760475891827619,"city_fetched":"Durham,UK","state":"Durham","country":"United Kingdom","canonicalUrl":"https://foursquare.com/v/the-market-tavern/4b3919eff964a520345625e3","categoryId":"4bf58dd8d48988d11b941735","category":"Pub","checkinsCount":489,"usersCount":283,"tipCount":9,"visitsCount":498,"tier":"","message":"","currency":"","rating":7.1},{"name":"The Bishop Langley","phone":"+441913864779","address":"North Road","lat":54.77599758040618,"lng":-1.5786450823204892,"city_fetched":"Durham,UK","state":"Durham","country":"United Kingdom","canonicalUrl":"https://foursquare.com/v/the-bishop-langley/516993bb498e19f9e96c0ed7","categoryId":"4bf58dd8d48988d116941735","category":"Bar","checkinsCount":201,"usersCount":106,"tipCount":9,"visitsCount":203,"tier":"","message":"","currency":"","rating":6.9},{"name":"Swan and Three Cygnets","phone":"+441913840242","address":"Elvet Bridge","lat":54.77585792541504,"lng":-1.572615,"city_fetched":"Durham,UK","state":"Durham","country":"United Kingdom","canonicalUrl":"https://foursquare.com/v/swan-and-three-cygnets/4b64a1ecf964a520f3c32ae3","categoryId":"4bf58dd8d48988d11b941735","category":"Pub","checkinsCount":512,"usersCount":271,"tipCount":11,"visitsCount":539,"tier":"","message":"","currency":"","rating":6.9},{"name":"Cellar Door","lat":54.77585946575675,"lng":-1.5743079148869583,"city_fetched":"Durham,UK","country":"United Kingdom","canonicalUrl":"https://foursquare.com/v/cellar-door/4d4de44f9ee13704b6a2898b","categoryId":"4bf58dd8d48988d121941735","category":"Lounge","checkinsCount":119,"usersCount":89,"tipCount":5,"visitsCount":120,"tier":"","message":"","currency":"","rating":6.9},{"name":"The Water House  (Wetherspoon)","phone":"+441913706540","address":"65 North Rd.","lat":54.777148,"lng":-1.581338,"city_fetched":"Durham,UK","state":"Durham","country":"United Kingdom","canonicalUrl":"https://foursquare.com/v/the-water-house--wetherspoon/4b914aaaf964a52080b033e3","categoryId":"4bf58dd8d48988d11b941735","category":"Pub","checkinsCount":634,"usersCount":238,"tipCount":13,"visitsCount":721,"url":"http://www.jdwetherspoon.co.uk","tier":"","message":"","currency":"","rating":6.8},{"name":"Loveshack","phone":"+441913845757","address":"Unit 3 Walkergate","lat":54.77801908192898,"lng":-1.5760231018066406,"city_fetched":"Durham,UK","state":"Durham","country":"United Kingdom","canonicalUrl":"https://foursquare.com/v/loveshack/4b87281ff964a520bbb331e3","categoryId":"4bf58dd8d48988d11f941735","category":"Nightclub","checkinsCount":131,"usersCount":96,"tipCount":3,"visitsCount":131,"tier":"","message":"","currency":"","rating":6.6},{"name":"Ebony Champagne & Cocktail Bar","phone":"+441913757121","address":"Unit 8 Walkergate","lat":54.778408,"lng":-1.575564,"city_fetched":"Durham,UK","state":"Durham","country":"United Kingdom","canonicalUrl":"https://foursquare.com/v/ebony-champagne--cocktail-bar/4c030690302295210980de81","categoryId":"4bf58dd8d48988d11e941735","category":"Cocktail Bar","checkinsCount":314,"usersCount":188,"tipCount":10,"visitsCount":317,"tier":"","message":"","currency":"","rating":6.4},{"name":"Half Moon Inn","phone":"+441913741918","address":"81-82 New Elvet","lat":54.775395365091455,"lng":-1.5725469589233398,"city_fetched":"Durham,UK","state":"Durham","country":"United Kingdom","canonicalUrl":"https://foursquare.com/v/half-moon-inn/4b873074f964a5207fb531e3","categoryId":"4bf58dd8d48988d11b941735","category":"Pub","checkinsCount":256,"usersCount":137,"tipCount":5,"visitsCount":257,"tier":"","message":"","currency":"","rating":6.3},{"name":"Klute","phone":"+441913869859","address":"Elvet Bridge","lat":54.77597086472177,"lng":-1.5737593173980713,"city_fetched":"Durham,UK","state":"Durham","country":"United Kingdom","canonicalUrl":"https://foursquare.com/v/klute/4b8726edf964a52071b331e3","categoryId":"4bf58dd8d48988d11f941735","category":"Nightclub","checkinsCount":154,"usersCount":68,"tipCount":3,"visitsCount":155,"tier":"","message":"","currency":"","rating":6.2},{"name":"The Bishops' Mill  (Wetherspoon)","phone":"+441913708510","address":"Walkergate Leisure","lat":54.77841293374358,"lng":-1.5755937252856567,"city_fetched":"Durham,UK","state":"Darlington","country":"United Kingdom","canonicalUrl":"https://foursquare.com/v/the-bishops-mill--wetherspoon/4c87aadd821e9eb0d5cc8d89","categoryId":"4bf58dd8d48988d11b941735","category":"Pub","checkinsCount":1136,"usersCount":524,"tipCount":15,"visitsCount":1144,"url":"http://www.jdwetherspoon.co.uk","tier":1,"message":"Cheap","currency":"£","rating":6.1},{"name":"The Garden House","address":"North Road","lat":54.78304100117251,"lng":-1.5857251453294865,"city_fetched":"Durham,UK","state":"Durham","country":"United Kingdom","canonicalUrl":"https://foursquare.com/v/the-garden-house/4bdb38e8c79cc928efb481e9","categoryId":"4bf58dd8d48988d11b941735","category":"Pub","checkinsCount":90,"usersCount":84,"tipCount":3,"visitsCount":137,"tier":"","message":"","currency":"","rating":6},{"name":"Fabios","phone":"+441913839290","address":"66 Saddler Street","lat":54.776112118260535,"lng":-1.5751594719453543,"city_fetched":"Durham,UK","state":"Durham","country":"United Kingdom","canonicalUrl":"https://foursquare.com/v/fabios/4c0eb3ecd64c0f47129f285d","categoryId":"4bf58dd8d48988d116941735","category":"Bar","checkinsCount":304,"usersCount":127,"tipCount":6,"visitsCount":304,"tier":"","message":"","currency":"","rating":6},{"name":"The Angel","phone":"+441913865561","address":"53 Crossgate","lat":54.77603973772434,"lng":-1.5812783282755487,"city_fetched":"Durham,UK","state":"Durham","country":"United Kingdom","canonicalUrl":"https://foursquare.com/v/the-angel/4b633ffff964a520826d2ae3","categoryId":"4bf58dd8d48988d11b941735","category":"Pub","checkinsCount":325,"usersCount":71,"tipCount":3,"visitsCount":327,"tier":"","message":"","currency":"","rating":5.9},{"name":"The New Inn","address":"29 Church Street Head","lat":54.76890027523041,"lng":-1.573661,"city_fetched":"Durham,UK","state":"Durham","country":"United Kingdom","canonicalUrl":"https://foursquare.com/v/the-new-inn/4af1b971f964a52082e221e3","categoryId":"4bf58dd8d48988d11b941735","category":"Pub","checkinsCount":191,"usersCount":113,"tipCount":7,"visitsCount":191,"tier":"","message":"","currency":"","rating":5.7},{"name":"Shakespeare Tavern","phone":"+441913869709","address":"63 Saddler St","lat":54.776078,"lng":-1.574949175,"city_fetched":"Durham,UK","state":"Darlington","country":"United Kingdom","canonicalUrl":"https://foursquare.com/v/shakespeare-tavern/4b879dd4f964a52084c431e3","categoryId":"4bf58dd8d48988d11b941735","category":"Pub","checkinsCount":243,"usersCount":165,"tipCount":2,"visitsCount":245,"tier":"","message":"","currency":"","rating":5.5},{"name":"The Slug and Lettuce","address":"Unit 7 Walkergate","lat":54.77850327522117,"lng":-1.5754115581512451,"city_fetched":"Durham,UK","state":"Durham","country":"United Kingdom","canonicalUrl":"https://foursquare.com/v/the-slug-and-lettuce/4ba4b9d2f964a5206faf38e3","categoryId":"4bf58dd8d48988d116941735","category":"Bar","checkinsCount":513,"usersCount":336,"tipCount":9,"visitsCount":518,"tier":"","message":"","currency":"","rating":5.2}]