[{"name":"Bucksburn Manor","address":"Inverurie Road, Bucksburn","lat":57.179268,"lng":-2.178693,"neighborhood":"Bucksburn","city_fetched":"Dyce","state":"Aberdeen City","country":"United Kingdom","canonicalUrl":"https://foursquare.com/v/bucksburn-manor/4b93fc00f964a520045f34e3","category":"Pub","checkinsCount":145,"usersCount":68,"tipCount":3,"visitsCount":147,"tier":"","message":"","currency":"","rating":6.3},{"name":"The Granite City (Wetherspoon)","phone":"+441224725711","address":"ABZ Airport","lat":57.199829967978424,"lng":-2.2037458419799805,"city_fetched":"Dyce","state":"Aberdeen City","country":"United Kingdom","canonicalUrl":"https://foursquare.com/v/the-granite-city-wetherspoon/4c24ca91b7b8a59382053de8","category":"Pub","checkinsCount":412,"usersCount":253,"tipCount":5,"visitsCount":412,"url":"http://www.jdwetherspoon.co.uk","tier":"","message":"","currency":"","rating":5.2},{"name":"Spider's Web","lat":57.205603623407605,"lng":-2.1911025380328546,"neighborhood":"Dyce","city_fetched":"Dyce","state":"Aberdeen City","country":"United Kingdom","canonicalUrl":"https://foursquare.com/v/spiders-web/4c572a78d12a20a1391b66bd","category":"Bar","checkinsCount":137,"usersCount":68,"tipCount":0,"visitsCount":139,"tier":"","message":"","currency":"","rating":5},{"name":"The Globe","address":"Departure Lounge","lat":57.20055063968808,"lng":-2.203209400177002,"city_fetched":"Dyce","state":"Aberdeen City","country":"United Kingdom","canonicalUrl":"https://foursquare.com/v/the-globe/4c3aed234565e21e79d4556a","category":"Bar","checkinsCount":277,"usersCount":180,"tipCount":4,"visitsCount":278,"tier":"","message":"","currency":"","rating":4.9}]