[{"name":"The Plough Inn","phone":"+441342832933","twitter":"ploughdorm","address":"Plough Lane","lat":51.166794,"lng":0.00936,"city_fetched":"East Grinstead,UK","state":"Surrey","country":"United Kingdom","canonicalUrl":"https://foursquare.com/v/the-plough-inn/4d5ad5c6e092a35ddd370f0c","categoryId":"4bf58dd8d48988d11b941735","category":"Pub","checkinsCount":145,"usersCount":60,"tipCount":2,"visitsCount":176,"url":"http://www.ploughdormansland.com","tier":"","message":"","currency":"","rating":7.8},{"name":"The Sussex Arms - Shepherd Neame","phone":"+441342322979","address":"30 West Street","lat":51.124062930898795,"lng":-0.009932219982147217,"city_fetched":"East Grinstead,UK","country":"United Kingdom","canonicalUrl":"https://foursquare.com/v/the-sussex-arms--shepherd-neame/4d39df7c97e0a1cd105a683e","categoryId":"4bf58dd8d48988d11b941735","category":"Pub","checkinsCount":15,"usersCount":12,"tipCount":1,"visitsCount":15,"url":"http://www.shepherdneame.co.uk","tier":"","message":"","currency":"","rating":6.4},{"name":"The Old House At Home - Shepherd Neame","phone":"+441342832117","address":"West Street","lat":51.16126841514895,"lng":0.006761623919948103,"city_fetched":"East Grinstead,UK","state":"Surrey","country":"United Kingdom","canonicalUrl":"https://foursquare.com/v/the-old-house-at-home--shepherd-neame/4c3b76d462f1c9286b908f53","categoryId":"4bf58dd8d48988d11b941735","category":"Pub","checkinsCount":42,"usersCount":17,"tipCount":2,"visitsCount":42,"url":"http://www.shepherdneame.co.uk","tier":"","message":"","currency":"","rating":6.4},{"name":"The Swan","address":"Lewes Rd. Forest Row","lat":51.09849035739899,"lng":0.032962,"city_fetched":"East Grinstead,UK","state":"East Sussex","country":"United Kingdom","canonicalUrl":"https://foursquare.com/v/the-swan/4c816a09d4e2370403aa5d88","categoryId":"4bf58dd8d48988d116941735","category":"Bar","checkinsCount":243,"usersCount":130,"tipCount":6,"visitsCount":254,"url":"http://www.mountainrangerestaurants.websir.co.uk/swan/","tier":"","message":"","currency":"","rating":6.4},{"name":"The Warren","lat":51.37067239361812,"lng":0.008590609644438389,"city_fetched":"East Grinstead,UK","country":"United Kingdom","canonicalUrl":"https://foursquare.com/v/the-warren/4d4875b3847e6dcb47349fc4","categoryId":"4bf58dd8d48988d11b941735","category":"Pub","checkinsCount":111,"usersCount":105,"tipCount":0,"visitsCount":164,"tier":"","message":"","currency":"","rating":6.2},{"name":"The Ounce & Ivy Bush (Wetherspoon)","phone":"+441342335130","address":"The Atrium","lat":51.12639154308669,"lng":-0.008820933464082257,"city_fetched":"East Grinstead,UK","state":"West Sussex","country":"United Kingdom","canonicalUrl":"https://foursquare.com/v/the-ounce--ivy-bush-wetherspoon/4c1a30156a21c9b658a3cb97","categoryId":"4bf58dd8d48988d11b941735","category":"Pub","checkinsCount":1156,"usersCount":200,"tipCount":6,"visitsCount":1178,"url":"http://www.jdwetherspoon.co.uk","tier":"","message":"","currency":"","rating":6.1},{"name":"The Star Inn","address":"Church Rd","lat":51.17551,"lng":-0.01358,"city_fetched":"East Grinstead,UK","state":"Surrey","country":"United Kingdom","canonicalUrl":"https://foursquare.com/v/the-star-inn/4c0ba99b6071a5933386e132","categoryId":"4bf58dd8d48988d11b941735","category":"Pub","checkinsCount":162,"usersCount":101,"tipCount":5,"visitsCount":307,"tier":"","message":"","currency":"","rating":6},{"name":"The Dorset Arms","address":"High street","lat":51.12361590250932,"lng":-0.005707594842367282,"city_fetched":"East Grinstead,UK","state":"West Sussex","country":"United Kingdom","canonicalUrl":"https://foursquare.com/v/the-dorset-arms/4b367458f964a520d13525e3","categoryId":"4bf58dd8d48988d11b941735","category":"Pub","checkinsCount":334,"usersCount":143,"tipCount":5,"visitsCount":346,"tier":"","message":"","currency":"","rating":5.9},{"name":"The Star","phone":"+441342323239","address":"London Rd.","lat":51.139736,"lng":-0.038867,"city_fetched":"East Grinstead,UK","state":"West Sussex","country":"United Kingdom","canonicalUrl":"https://foursquare.com/v/the-star/4be5a5ffcf200f47977c133c","categoryId":"4bf58dd8d48988d116941735","category":"Bar","checkinsCount":167,"usersCount":119,"tipCount":3,"visitsCount":184,"tier":"","message":"","currency":"","rating":5.4}]