[{"name":"The Allison Arms","phone":"+441414231661","twitter":"theallisonarms","address":"720 Pollokshaws Rd","lat":55.83662389426425,"lng":-4.269992087583537,"neighborhood":"South Side","city_fetched":"East Kilbride,UK","state":"Glasgow City","country":"United Kingdom","canonicalUrl":"https://foursquare.com/v/the-allison-arms/4bcb2e8e511f952190e1b0c7","categoryId":"4bf58dd8d48988d116941735","category":"Bar","checkinsCount":262,"usersCount":72,"tipCount":5,"visitsCount":277,"tier":"","message":"","currency":"","rating":7.9},{"name":"The Bungo","phone":"+441414230023","twitter":"thebungo","address":"17-21 Nithsdale Rd.","lat":55.8365942199442,"lng":-4.271208360068231,"neighborhood":"South Side","city_fetched":"East Kilbride,UK","state":"Glasgow City","country":"United Kingdom","canonicalUrl":"https://foursquare.com/v/the-bungo/4ee51e01e30005f8b882bbd3","categoryId":"4bf58dd8d48988d116941735","category":"Bar","checkinsCount":463,"usersCount":237,"tipCount":16,"visitsCount":590,"tier":"","message":"","currency":"","rating":7.7},{"name":"Mulberry St Bar and Bistro","address":"778 Pollokshaws Rd","lat":55.835839,"lng":-4.271498,"neighborhood":"South Side","city_fetched":"East Kilbride,UK","state":"Glasgow City","country":"United Kingdom","canonicalUrl":"https://foursquare.com/v/mulberry-st-bar-and-bistro/4b6d6348f964a52045742ce3","categoryId":"4bf58dd8d48988d116941735","category":"Bar","checkinsCount":294,"usersCount":124,"tipCount":10,"visitsCount":300,"tier":"","message":"","currency":"","rating":6.9},{"name":"The Bank","phone":"+441416378461","address":"443 Clarkston Rd.","lat":55.810074,"lng":-4.270844,"neighborhood":"South Side","city_fetched":"East Kilbride,UK","state":"Glasgow City","country":"United Kingdom","canonicalUrl":"https://foursquare.com/v/the-bank/4bae53f1f964a52045a33be3","categoryId":"4bf58dd8d48988d116941735","category":"Bar","checkinsCount":173,"usersCount":84,"tipCount":5,"visitsCount":193,"url":"http://www.thebankglasgow.co.uk","tier":"","message":"","currency":"","rating":6.8},{"name":"The White Cart","phone":"+441416442711","address":"61 East Kilbride Rd","lat":55.780180571994514,"lng":-4.260699167413827,"city_fetched":"East Kilbride,UK","country":"United Kingdom","canonicalUrl":"https://foursquare.com/v/the-white-cart/4bdb11503904a593c994489e","categoryId":"4bf58dd8d48988d11b941735","category":"Pub","checkinsCount":127,"usersCount":83,"tipCount":3,"visitsCount":139,"tier":"","message":"","currency":"","rating":6.7},{"name":"Clockwork Beer Co","phone":"+441416490184","twitter":"clockworkbeerco","address":"1153-1155 Cathcart Rd","lat":55.82334562181112,"lng":-4.258747100830078,"neighborhood":"Cathcart","city_fetched":"East Kilbride,UK","country":"United Kingdom","canonicalUrl":"https://foursquare.com/v/clockwork-beer-co/4bae5929f964a5201ea63be3","categoryId":"4bf58dd8d48988d116941735","category":"Bar","checkinsCount":794,"usersCount":330,"tipCount":6,"visitsCount":1010,"url":"http://www.clockworkbeercompany.co.uk","tier":"","message":"","currency":"","rating":6.6},{"name":"Brewers Fayre","phone":"+448701977106","address":"10-12 Belziehill Rd.","lat":55.81943740243932,"lng":-4.040870660704493,"city_fetched":"East Kilbride,UK","state":"North Lanarkshire","country":"United Kingdom","canonicalUrl":"https://foursquare.com/v/brewers-fayre/4bdc1a3563c5c9b628672a68","categoryId":"4bf58dd8d48988d11b941735","category":"Pub","checkinsCount":117,"usersCount":68,"tipCount":1,"visitsCount":119,"tier":"","message":"","currency":"","rating":6.6},{"name":"Angels Hotel","phone":"+441698812106","address":"114 Main Street","lat":55.82274292871394,"lng":-4.08390998840332,"city_fetched":"East Kilbride,UK","country":"United Kingdom","canonicalUrl":"https://foursquare.com/v/angels-hotel/4b9d5e64f964a5206ba736e3","categoryId":"4bf58dd8d48988d116941735","category":"Bar","checkinsCount":167,"usersCount":96,"tipCount":3,"visitsCount":172,"tier":"","message":"","currency":"","rating":6.5},{"name":"Black Bear Beefeater","phone":"+441417731133","twitter":"beefeatergrill","address":"601 Hamilton Rd.","lat":55.83706175349525,"lng":-4.110604189236629,"neighborhood":"Baillieston","city_fetched":"East Kilbride,UK","state":"Glasgow City","country":"United Kingdom","canonicalUrl":"https://foursquare.com/v/black-bear-beefeater/4c442e1cfb6eb71368624e4a","categoryId":"4bf58dd8d48988d11b941735","category":"Pub","checkinsCount":121,"usersCount":91,"tipCount":2,"visitsCount":149,"url":"http://www.beefeater.co.uk","tier":"","message":"","currency":"","rating":6.5},{"name":"The Crooked Lum (Beefeater)","phone":"+441355222809","twitter":"beefeatergrill","address":"Brunel Way","lat":55.75807280341254,"lng":-4.171373270036985,"city_fetched":"East Kilbride,UK","state":"South Lanarkshire","country":"United Kingdom","canonicalUrl":"https://foursquare.com/v/the-crooked-lum-beefeater/4b630699f964a5205f5e2ae3","categoryId":"4bf58dd8d48988d11b941735","category":"Pub","checkinsCount":263,"usersCount":61,"tipCount":2,"visitsCount":263,"url":"http://www.beefeater.co.uk","tier":"","message":"","currency":"","rating":6.1},{"name":"Orchard Park Hotel Bar + Grill","phone":"+441416381044","twitter":"orchardparkgiff","address":"2 Park Rd.","lat":55.80211314396651,"lng":-4.295547008514404,"city_fetched":"East Kilbride,UK","country":"United Kingdom","canonicalUrl":"https://foursquare.com/orchardparkgiff","categoryId":"4bf58dd8d48988d116941735","category":"Bar","checkinsCount":275,"usersCount":132,"tipCount":7,"visitsCount":309,"url":"http://www.orchardparkhotel.co.uk","tier":"","message":"","currency":"","rating":6},{"name":"Church On The Hill","phone":"+441416369171","address":"29 Algie St","lat":55.82754509720813,"lng":-4.271500291859005,"neighborhood":"Langside","city_fetched":"East Kilbride,UK","state":"Glasgow City","country":"United Kingdom","canonicalUrl":"https://foursquare.com/v/church-on-the-hill/4ba55019f964a5207af938e3","categoryId":"4bf58dd8d48988d11b941735","category":"Pub","checkinsCount":363,"usersCount":233,"tipCount":10,"visitsCount":407,"tier":"","message":"","currency":"","rating":5.9},{"name":"Orion Way Table Table","phone":"+448701977306","address":"Off London Rd.","lat":55.836302530369686,"lng":-4.168979380717339,"city_fetched":"East Kilbride,UK","country":"United Kingdom","canonicalUrl":"https://foursquare.com/v/orion-way-table-table/4c556601fd2ea593db22a92b","categoryId":"4bf58dd8d48988d11b941735","category":"Pub","checkinsCount":246,"usersCount":71,"tipCount":1,"visitsCount":247,"tier":"","message":"","currency":"","rating":5.5}]