[{"name":"The Olympia (Wetherspoon)","phone":"+441495712910","address":"Morgan St.","lat":51.7710267510184,"lng":-3.24521541595459,"city_fetched":"Ebbw Vale,UK","state":"County Borough of Blaenau Gwent","country":"United Kingdom","canonicalUrl":"https://foursquare.com/v/the-olympia-wetherspoon/4b754709f964a52013042ee3","categoryId":"4bf58dd8d48988d11b941735","category":"Pub","checkinsCount":142,"usersCount":52,"tipCount":2,"visitsCount":144,"url":"http://www.jdwetherspoon.co.uk","tier":"","message":"","currency":"","rating":6.1},{"name":"The Picture House (Wetherspoon)","phone":"+441495352382","address":"Market St.","lat":51.77970981264353,"lng":-3.2077503204345703,"city_fetched":"Ebbw Vale,UK","state":"County Borough of Blaenau Gwent","country":"United Kingdom","canonicalUrl":"https://foursquare.com/v/the-picture-house-wetherspoon/4c6a70018e7c0f47e419e20f","categoryId":"4bf58dd8d48988d11b941735","category":"Pub","checkinsCount":111,"usersCount":47,"tipCount":2,"visitsCount":114,"url":"http://www.jdwetherspoon.co.uk","tier":"","message":"","currency":"","rating":6.1},{"name":"Victoria Park Brewers Fayre","phone":"+441495307185","address":"Victoria Business Park","lat":51.758662,"lng":-3.19972,"city_fetched":"Ebbw Vale,UK","state":"County Borough of Blaenau Gwent","country":"United Kingdom","canonicalUrl":"https://foursquare.com/v/victoria-park-brewers-fayre/4c4f0e81e3349521135fbf15","categoryId":"4bf58dd8d48988d11b941735","category":"Pub","checkinsCount":111,"usersCount":78,"tipCount":5,"visitsCount":124,"tier":"","message":"","currency":"","rating":5.4}]