[{"name":"BrewDog Edinburgh","phone":"+441346519009","twitter":"brewdog","address":"143 Cowgate","lat":55.94839032141322,"lng":-3.1897446513175964,"neighborhood":"Cowgate","city_fetched":"Edinburgh","state":"Edinburgh","country":"United Kingdom","canonicalUrl":"https://foursquare.com/v/brewdog-edinburgh/4d7fbc20b25d6dcb2893d342","category":"Beer Bar","checkinsCount":4533,"usersCount":3622,"tipCount":86,"visitsCount":5572,"url":"http://www.brewdog.com","tier":2,"message":"Moderate","currency":"£","rating":9.2},{"name":"Teuchters Landing","phone":"+441315547427","address":"1C Dock Pl","lat":55.97746020085387,"lng":-3.1714224815368652,"neighborhood":"Leith","city_fetched":"Edinburgh","state":"Edinburgh","country":"United Kingdom","canonicalUrl":"https://foursquare.com/v/teuchters-landing/4b2b7e7ef964a520d4b624e3","category":"Pub","checkinsCount":1628,"usersCount":609,"tipCount":22,"visitsCount":1873,"tier":"","message":"","currency":"","rating":9.2},{"name":"Roseleaf","phone":"+441314765268","address":"23-24 Sandport Pl","lat":55.975936834669426,"lng":-3.1733370744465335,"neighborhood":"The Shore","city_fetched":"Edinburgh","state":"Edinburgh","country":"United Kingdom","canonicalUrl":"https://foursquare.com/v/roseleaf/4b239e33f964a520435724e3","category":"Café","checkinsCount":933,"usersCount":597,"tipCount":39,"visitsCount":1147,"url":"http://www.roseleaf.co.uk","tier":"","message":"","currency":"","rating":9.2},{"name":"The Holyrood 9A","phone":"+441315565044","twitter":"holyrood9a","address":"9A Holyrood Rd","lat":55.949347003722714,"lng":-3.182644844055176,"neighborhood":"Canongate","city_fetched":"Edinburgh","state":"Edinburgh","country":"United Kingdom","canonicalUrl":"https://foursquare.com/v/the-holyrood-9a/4ba8f760f964a520a1fe39e3","category":"Pub","checkinsCount":3585,"usersCount":2752,"tipCount":122,"visitsCount":4439,"url":"http://www.theholyrood.co.uk","tier":2,"message":"Moderate","currency":"£","rating":9.1},{"name":"The Bow Bar","phone":"+441312267667","twitter":"bow_bar","address":"80 West Bow","lat":55.948524,"lng":-3.19419146,"neighborhood":"Cowgate","city_fetched":"Edinburgh","state":"Midlothian","country":"United Kingdom","canonicalUrl":"https://foursquare.com/v/the-bow-bar/4b05881df964a5208eb222e3","category":"Pub","checkinsCount":1659,"usersCount":1189,"tipCount":54,"visitsCount":1689,"tier":1,"message":"Cheap","currency":"£","rating":9.1},{"name":"Whiski Rooms","phone":"+441312257224","twitter":"whiskirooms","address":"4-7 North Bank St.","lat":55.94984861420049,"lng":-3.1934165954589844,"neighborhood":"The Mound","city_fetched":"Edinburgh","state":"Edinburgh","country":"United Kingdom","canonicalUrl":"https://foursquare.com/v/whiski-rooms/4e13688952b1655efa577d1f","category":"Whisky Bar","checkinsCount":1268,"usersCount":1314,"tipCount":46,"visitsCount":1519,"url":"http://www.whiskirooms.co.uk","tier":"","message":"","currency":"","rating":9.1},{"name":"The Scran & Scallie","phone":"+441313326281","twitter":"scranandscallie","address":"1 Comely Bank Rd","lat":55.95926157638422,"lng":-3.2144417289335663,"city_fetched":"Edinburgh","state":"Edinburgh","country":"United Kingdom","canonicalUrl":"https://foursquare.com/v/the-scran--scallie/5158308fe4b000868f141b02","category":"Gastropub","checkinsCount":762,"usersCount":660,"tipCount":28,"visitsCount":1164,"url":"http://www.scranandscallie.com","tier":2,"message":"Moderate","currency":"£","rating":9},{"name":"The Queens Arms","phone":"+441312251045","twitter":"queensarmsedinb","address":"49 Frederick St","lat":55.953549,"lng":-3.200679,"neighborhood":"New Town","city_fetched":"Edinburgh","state":"Edinburgh","country":"United Kingdom","canonicalUrl":"https://foursquare.com/v/the-queens-arms/4b9141eef964a520c3ad33e3","category":"Bar","checkinsCount":1642,"usersCount":982,"tipCount":23,"visitsCount":1833,"url":"http://www.queensarmsedinburgh.com","tier":"","message":"","currency":"","rating":9},{"name":"The Devil's Advocate","phone":"+441312254465","twitter":"thedaoldtown","address":"9 Advocates Close","lat":55.950334,"lng":-3.19167,"neighborhood":"Waverley Station","city_fetched":"Edinburgh","state":"Edinburgh","country":"United Kingdom","canonicalUrl":"https://foursquare.com/v/the-devils-advocate/527ab0e011d25d7b56936543","category":"Cocktail Bar","checkinsCount":876,"usersCount":982,"tipCount":27,"visitsCount":1219,"url":"http://devilsadvocateedinburgh.co.uk","tier":2,"message":"Moderate","currency":"£","rating":9},{"name":"The Balmoral Hotel","phone":"0131556241","address":"1 Princes St","lat":55.952984283309966,"lng":-3.1896615028381348,"neighborhood":"Waverley Station","city_fetched":"Edinburgh","state":"Edinburgh","country":"United Kingdom","canonicalUrl":"https://foursquare.com/v/the-balmoral-hotel/4ba35400f964a5206b3538e3","category":"Hotel","checkinsCount":3020,"usersCount":1698,"tipCount":43,"visitsCount":3080,"url":"http://www.thebalmoralhotel.com","tier":"","message":"","currency":"","rating":9},{"name":"OX184","twitter":"ox184","address":"184-186 Cowgate","lat":55.9486366303348,"lng":-3.1882810288358967,"neighborhood":"Cowgate","city_fetched":"Edinburgh","state":"Edinburgh","country":"United Kingdom","canonicalUrl":"https://foursquare.com/v/ox184/55106f57498edeebbbb26d1b","category":"Bar","checkinsCount":403,"usersCount":468,"tipCount":9,"visitsCount":621,"url":"http://www.ox184.co.uk","tier":"","message":"","currency":"","rating":9},{"name":"Scotch Malt Whisky Society","phone":"+441312202044","twitter":"smwsqueenstreet","address":"28 Queen St","lat":55.95451097556808,"lng":-3.19961479719111,"neighborhood":"New Town","city_fetched":"Edinburgh","state":"Edinburgh","country":"United Kingdom","canonicalUrl":"https://foursquare.com/v/scotch-malt-whisky-society/4b6416b7f964a520789e2ae3","category":"Whisky Bar","checkinsCount":1576,"usersCount":735,"tipCount":28,"visitsCount":1753,"url":"https://www.smws.com/queen-st","tier":3,"message":"Expensive","currency":"£","rating":9},{"name":"The Bon Vivant","phone":"+441312253275","twitter":"the_bon_vivant","address":"55 Thistle St","lat":55.953894,"lng":-3.199692,"neighborhood":"New Town","city_fetched":"Edinburgh","state":"Edinburgh","country":"United Kingdom","canonicalUrl":"https://foursquare.com/v/the-bon-vivant/4bae5d02f964a52023a83be3","category":"Cocktail Bar","checkinsCount":851,"usersCount":584,"tipCount":21,"visitsCount":927,"url":"http://bonvivantedinburgh.co.uk","tier":"","message":"","currency":"","rating":8.9},{"name":"The Dome","phone":"+441316248624","twitter":"domeedinburgh","address":"14 George St","lat":55.953270283539815,"lng":-3.195405453898266,"neighborhood":"New Town","city_fetched":"Edinburgh","state":"Edinburgh","country":"United Kingdom","canonicalUrl":"https://foursquare.com/v/the-dome/4b05881ff964a5200cb322e3","category":"Bar","checkinsCount":2499,"usersCount":2148,"tipCount":55,"visitsCount":2822,"url":"http://www.thedomeedinburgh.com","tier":"","message":"","currency":"","rating":8.9},{"name":"The Scotch Whisky Experience","phone":"+441312200441","twitter":"scotchwhiskyexp","address":"354 Castlehill","lat":55.9487897516782,"lng":-3.1957786065844744,"neighborhood":"Edinburgh Castle","city_fetched":"Edinburgh","state":"Edinburgh","country":"United Kingdom","canonicalUrl":"https://foursquare.com/v/the-scotch-whisky-experience/4bb35d3d42959c7436cf212c","category":"Museum","checkinsCount":5946,"usersCount":6126,"tipCount":113,"visitsCount":6616,"url":"http://www.scotchwhiskyexperience.co.uk","tier":"","message":"","currency":"","rating":8.9},{"name":"Nobles Cafe bar & Restaurant","phone":"+441316297215","twitter":"noblescafebar","address":"44A Constitution St","lat":55.974806789324894,"lng":-3.167088031768799,"neighborhood":"Leith","city_fetched":"Edinburgh","state":"Edinburgh","country":"United Kingdom","canonicalUrl":"https://foursquare.com/v/nobles-cafe-bar--restaurant/4b06c38af964a520d4ef22e3","category":"Gastropub","checkinsCount":1925,"usersCount":448,"tipCount":32,"visitsCount":2035,"url":"http://www.noblesbarleith.co.uk","tier":2,"message":"Moderate","currency":"£","rating":8.8},{"name":"Cameo Picturehouse","phone":"+441312282800","twitter":"cameocinema","address":"32 Home St","lat":55.942621901864605,"lng":-3.2038001830211384,"neighborhood":"Lochrin","city_fetched":"Edinburgh","state":"Edinburgh","country":"United Kingdom","canonicalUrl":"https://foursquare.com/v/cameo-picturehouse/4b0bbe6df964a520573323e3","category":"Movie Theater","checkinsCount":2165,"usersCount":966,"tipCount":31,"visitsCount":2623,"url":"http://www.picturehouses.co.uk/cinema/Cameo_Picturehouse/","tier":"","message":"","currency":"","rating":8.8},{"name":"Bramble Bar","phone":"+441312266343","address":"16A Queen St","lat":55.95490141801036,"lng":-3.197680000543702,"neighborhood":"New Town","city_fetched":"Edinburgh","state":"Edinburgh","country":"United Kingdom","canonicalUrl":"https://foursquare.com/v/bramble-bar/4b05881ff964a5200bb322e3","category":"Cocktail Bar","checkinsCount":906,"usersCount":647,"tipCount":48,"visitsCount":927,"url":"http://www.bramblebar.co.uk","tier":"","message":"","currency":"","rating":8.8},{"name":"The Royal McGregor","phone":"+441312257064","twitter":"royalmcgregor","address":"154 High St","lat":55.950040135580274,"lng":-3.189007289003318,"neighborhood":"Waverley Station","city_fetched":"Edinburgh","state":"Edinburgh","country":"United Kingdom","canonicalUrl":"https://foursquare.com/v/the-royal-mcgregor/4b62ccdbf964a52036532ae3","category":"Restaurant","checkinsCount":950,"usersCount":833,"tipCount":28,"visitsCount":1012,"url":"http://www.royalmcgregor.co.uk","tier":2,"message":"Moderate","currency":"£","rating":8.8},{"name":"Regent Bar","phone":"+441316618198","address":"2 Montrose Terrace","lat":55.95619391366135,"lng":-3.172426728678572,"neighborhood":"Abbeyhill","city_fetched":"Edinburgh","state":"Edinburgh","country":"United Kingdom","canonicalUrl":"https://foursquare.com/v/regent-bar/4b182762f964a520e5cd23e3","category":"Gay Bar","checkinsCount":899,"usersCount":690,"tipCount":34,"visitsCount":1404,"url":"http://www.theregentbar.co.uk","tier":"","message":"","currency":"","rating":8.8},{"name":"Scotch Malt Whisky Society","phone":"+441315543451","address":"The Vaults","lat":55.97367,"lng":-3.172722,"neighborhood":"Leith","city_fetched":"Edinburgh","state":"Edinburgh","country":"United Kingdom","canonicalUrl":"https://foursquare.com/v/scotch-malt-whisky-society/4c24ec2edb519521df152c3a","category":"Whisky Bar","checkinsCount":743,"usersCount":343,"tipCount":13,"visitsCount":795,"url":"https://www.smws.com/the-vaults","tier":"","message":"","currency":"","rating":8.8},{"name":"Renroc","address":"89-91 Montgomery St","lat":55.95945779161942,"lng":-3.1786634101444653,"neighborhood":"Leith","city_fetched":"Edinburgh","state":"Edinburgh","country":"United Kingdom","canonicalUrl":"https://foursquare.com/v/renroc/4b07cc15f964a5201b0023e3","category":"Café","checkinsCount":178,"usersCount":155,"tipCount":12,"visitsCount":257,"url":"http://caferenroc.co.uk/#!/","tier":"","message":"","currency":"","rating":8.8},{"name":"The Voodoo Rooms","phone":"+441315567060","twitter":"voodoorooms","address":"19A W Register St","lat":55.95365703746252,"lng":-3.1904983520507812,"neighborhood":"New Town","city_fetched":"Edinburgh","state":"Edinburgh","country":"United Kingdom","canonicalUrl":"https://foursquare.com/v/the-voodoo-rooms/4b05881ff964a52008b322e3","category":"Bar","checkinsCount":1869,"usersCount":1211,"tipCount":17,"visitsCount":1890,"url":"http://thevoodoorooms.com","tier":2,"message":"Moderate","currency":"£","rating":8.8},{"name":"The Hanging Bat","phone":"+441312290759","twitter":"thehangingbat","address":"133 Lothian Rd","lat":55.94533088197111,"lng":-3.2054758071899414,"neighborhood":"Tollcross","city_fetched":"Edinburgh","state":"Edinburgh","country":"United Kingdom","canonicalUrl":"https://foursquare.com/v/the-hanging-bat/50a5fe48f31cc1c07ae9f798","category":"Brewery","checkinsCount":2516,"usersCount":1620,"tipCount":47,"visitsCount":3405,"url":"http://www.thehangingbat.com","tier":2,"message":"Moderate","currency":"£","rating":8.8},{"name":"Angels With Bagpipes","phone":"+441312201111","twitter":"angels_food","address":"343 High St, Royal Mile","lat":55.94995201557718,"lng":-3.1909181054628197,"neighborhood":"Waverley Station","city_fetched":"Edinburgh","country":"United Kingdom","canonicalUrl":"https://foursquare.com/v/angels-with-bagpipes/4c4dfcbe51c2c92871c1aa9d","category":"Restaurant","checkinsCount":658,"usersCount":609,"tipCount":41,"visitsCount":670,"url":"http://www.angelswithbagpipes.co.uk","tier":2,"message":"Moderate","currency":"£","rating":8.7},{"name":"Red Squirrel","phone":"+441312299933","twitter":"redsquirrelbar","address":"21 Lothian Rd","lat":55.94828847486103,"lng":-3.2065680145667543,"neighborhood":"Edinburgh Castle","city_fetched":"Edinburgh","state":"Edinburgh","country":"United Kingdom","canonicalUrl":"https://foursquare.com/v/red-squirrel/4dc52b0dd4c0ad9c0f802e64","category":"Pub","checkinsCount":2334,"usersCount":1463,"tipCount":60,"visitsCount":2841,"url":"http://www.redsquirreledinburgh.co.uk","tier":2,"message":"Moderate","currency":"£","rating":8.7},{"name":"The Guildford Arms","phone":"+441315564312","twitter":"guildfordarms","address":"1-5 W Register St","lat":55.953646,"lng":-3.190062024470892,"neighborhood":"New Town","city_fetched":"Edinburgh","state":"Edinburgh","country":"United Kingdom","canonicalUrl":"https://foursquare.com/v/the-guildford-arms/4b05881ef964a520ceb222e3","category":"Pub","checkinsCount":2039,"usersCount":1152,"tipCount":22,"visitsCount":2199,"url":"http://www.guildfordarms.com","tier":"","message":"","currency":"","rating":8.7},{"name":"Filmhouse","phone":"+441312282688","twitter":"filmhouse","address":"88 Lothian Rd","lat":55.94646325389983,"lng":-3.2058737869664653,"neighborhood":"Tollcross","city_fetched":"Edinburgh","state":"Edinburgh","country":"United Kingdom","canonicalUrl":"https://foursquare.com/v/filmhouse/4b05881df964a52095b222e3","category":"Indie Movie Theater","checkinsCount":3492,"usersCount":1078,"tipCount":25,"visitsCount":3813,"tier":"","message":"","currency":"","rating":8.7},{"name":"The Black Cat","phone":"+441312253349","twitter":"theblackcatbar","address":"168 Rose St","lat":55.951790715730056,"lng":-3.2035821673401257,"neighborhood":"New Town","city_fetched":"Edinburgh","country":"United Kingdom","canonicalUrl":"https://foursquare.com/v/the-black-cat/4d87393581fdb1f716e333c0","category":"Bar","checkinsCount":1039,"usersCount":772,"tipCount":23,"visitsCount":1086,"url":"http://www.theblackcatbar.com","tier":"","message":"","currency":"","rating":8.6},{"name":"The King's Wark","phone":"+441315549260","twitter":"kingswark","address":"36 Shore","lat":55.976055476247076,"lng":-3.1696414947509766,"neighborhood":"The Shore","city_fetched":"Edinburgh","state":"Edinburgh","country":"United Kingdom","canonicalUrl":"https://foursquare.com/v/the-kings-wark/4baccf1df964a520070e3be3","category":"Bar","checkinsCount":847,"usersCount":436,"tipCount":19,"visitsCount":849,"url":"http://www.thekingswark.co.uk","tier":"","message":"","currency":"","rating":8.6},{"name":"The Jolly Botanist","phone":"+441312265596","address":"256-260 Morrison Street","lat":55.94613503208068,"lng":-3.215583211428524,"neighborhood":"Dalry","city_fetched":"Edinburgh","state":"Edinburgh","country":"United Kingdom","canonicalUrl":"https://foursquare.com/v/the-jolly-botanist/54ce6f65498e0e154a7b1658","category":"Pub","checkinsCount":226,"usersCount":214,"tipCount":9,"visitsCount":307,"url":"http://www.thejollybotanist.co.uk","tier":"","message":"","currency":"","rating":8.6},{"name":"The Cumberland Bar","phone":"+441315583134","twitter":"cumberland7","address":"1-3 Cumberland St","lat":55.95899060302951,"lng":-3.1971287727355957,"neighborhood":"New Town","city_fetched":"Edinburgh","state":"Edinburgh","country":"United Kingdom","canonicalUrl":"https://foursquare.com/v/the-cumberland-bar/4b06c3d4f964a520d8ef22e3","category":"Bar","checkinsCount":1143,"usersCount":588,"tipCount":16,"visitsCount":1438,"url":"http://cumberlandbar.co.uk","tier":"","message":"","currency":"","rating":8.6},{"name":"Whiski Bar & Restaurant","phone":"+441315563095","twitter":"whiskibar","address":"119 High St.","lat":55.950256,"lng":-3.18660143,"neighborhood":"Cowgate","city_fetched":"Edinburgh","state":"Midlothian","country":"United Kingdom","canonicalUrl":"https://foursquare.com/v/whiski-bar--restaurant/4b3562c2f964a520ba2c25e3","category":"Pub","checkinsCount":1682,"usersCount":1510,"tipCount":52,"visitsCount":1782,"url":"http://www.whiskibar.co.uk","tier":3,"message":"Expensive","currency":"£","rating":8.6},{"name":"Sofi's Bar","phone":"+441315557019","twitter":"boda_bar_tweets","address":"63-65 Henderson St","lat":55.9744225698548,"lng":-3.1721949577331543,"neighborhood":"Leith","city_fetched":"Edinburgh","state":"Edinburgh","country":"United Kingdom","canonicalUrl":"https://foursquare.com/v/sofis-bar/4b7f0adef964a520541230e3","category":"Bar","checkinsCount":545,"usersCount":255,"tipCount":8,"visitsCount":605,"url":"http://www.bodabar.com/sofis/","tier":"","message":"","currency":"","rating":8.5},{"name":"Panda and Sons","phone":"+441312200443","address":"79 Queen St","lat":55.95326948906598,"lng":-3.2068425345654283,"neighborhood":"New Town","city_fetched":"Edinburgh","state":"Edinburgh","country":"United Kingdom","canonicalUrl":"https://foursquare.com/v/panda-and-sons/52a0f62311d266f459ec1626","category":"Speakeasy","checkinsCount":459,"usersCount":519,"tipCount":23,"visitsCount":637,"url":"http://www.pandaandsons.com","tier":"","message":"","currency":"","rating":8.5},{"name":"Saint Giles Cafe & Bar","phone":"+441312256267","address":"6-8 St Giles' St","lat":55.949727015655,"lng":-3.192100712972883,"neighborhood":"Waverley Station","city_fetched":"Edinburgh","state":"Edinburgh","country":"United Kingdom","canonicalUrl":"https://foursquare.com/v/saint-giles-cafe--bar/4b0aeb1ef964a520052a23e3","category":"Café","checkinsCount":462,"usersCount":430,"tipCount":16,"visitsCount":480,"url":"http://www.saintgilescafebar.co.uk","tier":"","message":"","currency":"","rating":8.5},{"name":"The Dogs","phone":"+441312201208","twitter":"thedogsedin","address":"110 Hanover St","lat":55.954543,"lng":-3.197852,"neighborhood":"New Town","city_fetched":"Edinburgh","state":"Midlothian","country":"United Kingdom","canonicalUrl":"https://foursquare.com/v/the-dogs/4b06ce8df964a52095f022e3","category":"Gastropub","checkinsCount":934,"usersCount":812,"tipCount":57,"visitsCount":939,"url":"http://thedogsonline.co.uk","tier":2,"message":"Moderate","currency":"£","rating":8.5},{"name":"The Caley Sample Room","phone":"+441313377204","twitter":"thecaley","address":"42-58 Angle Park Terr","lat":55.9375637,"lng":-3.225855914285714,"neighborhood":"Ardmillan","city_fetched":"Edinburgh","state":"Edinburgh","country":"United Kingdom","canonicalUrl":"https://foursquare.com/v/the-caley-sample-room/4b3bd2b7f964a520e77b25e3","category":"Pub","checkinsCount":767,"usersCount":436,"tipCount":13,"visitsCount":988,"url":"http://www.thecaleysampleroom.co.uk","tier":"","message":"","currency":"","rating":8.4},{"name":"The Cambridge Bar","phone":"+441312262120","twitter":"cambridgebar20","address":"20 Young St","lat":55.952824511108666,"lng":-3.2059426353059473,"neighborhood":"New Town","city_fetched":"Edinburgh","state":"Edinburgh","country":"United Kingdom","canonicalUrl":"https://foursquare.com/v/the-cambridge-bar/4b05881ef964a520c2b222e3","category":"Bar","checkinsCount":1034,"usersCount":667,"tipCount":36,"visitsCount":1228,"url":"http://www.thecambridgebar.co.uk","tier":"","message":"","currency":"","rating":8.4},{"name":"The Rat Pack Piano Bar","phone":"+441312289147","address":"9 Shandwick Place","lat":55.95001297613176,"lng":-3.208391165127206,"neighborhood":"Haymarket","city_fetched":"Edinburgh","state":"Edinburgh","country":"United Kingdom","canonicalUrl":"https://foursquare.com/v/the-rat-pack-piano-bar/4b633229f964a520cc692ae3","category":"Piano Bar","checkinsCount":246,"usersCount":187,"tipCount":5,"visitsCount":249,"tier":"","message":"","currency":"","rating":8.4},{"name":"The Last Drop","phone":"+441312254851","address":"74-78 Grassmarket","lat":55.947702,"lng":-3.195185,"neighborhood":"Grassmarket","city_fetched":"Edinburgh","state":"Edinburgh","country":"United Kingdom","canonicalUrl":"https://foursquare.com/v/the-last-drop/4b801ee0f964a520035430e3","category":"Pub","checkinsCount":2079,"usersCount":2016,"tipCount":40,"visitsCount":2234,"url":"http://www.nicholsonspubs.co.uk/thelastdropgrassmarketedinburgh/","tier":"","message":"","currency":"","rating":8.4},{"name":"The Abbotsford Bar","phone":"+441312255276","address":"3-5 Rose St","lat":55.953211038805904,"lng":-3.1944921612739563,"neighborhood":"New Town","city_fetched":"Edinburgh","state":"Edinburgh","country":"United Kingdom","canonicalUrl":"https://foursquare.com/v/the-abbotsford-bar/4b05881ef964a520bab222e3","category":"Bar","checkinsCount":798,"usersCount":702,"tipCount":7,"visitsCount":862,"url":"http://www.theabbotsford.com","tier":"","message":"","currency":"","rating":8.4},{"name":"Monteiths","phone":"+441315570330","address":"61 High St","lat":55.95045534393882,"lng":-3.1854665279388428,"neighborhood":"Cowgate","city_fetched":"Edinburgh","state":"Edinburgh","country":"United Kingdom","canonicalUrl":"https://foursquare.com/v/monteiths/4b6dde7ff964a52037972ce3","category":"Restaurant","checkinsCount":474,"usersCount":345,"tipCount":20,"visitsCount":481,"url":"http://www.monteithsrestaurant.co.uk","tier":2,"message":"Moderate","currency":"£","rating":8.4},{"name":"Mums Great Comfort Food","phone":"+441312609806","twitter":"mumsedinburgh","address":"4A Forrest Rd","lat":55.9460296717291,"lng":-3.191228949116946,"city_fetched":"Edinburgh","state":"Midlothian","country":"United Kingdom","canonicalUrl":"https://foursquare.com/v/mums-great-comfort-food/4c264c2cc9bbef3b9ba2afac","category":"Diner","checkinsCount":987,"usersCount":783,"tipCount":39,"visitsCount":1011,"url":"http://www.mumsgreatcomfortfood.com","tier":1,"message":"Cheap","currency":"£","rating":8.3},{"name":"Blue Blazer","phone":"+441312295030","address":"2 Spittal St","lat":55.945895627324546,"lng":-3.2033729553222656,"neighborhood":"Edinburgh Castle","city_fetched":"Edinburgh","state":"Edinburgh","country":"United Kingdom","canonicalUrl":"https://foursquare.com/v/blue-blazer/4b05881ef964a520e8b222e3","category":"Pub","checkinsCount":1089,"usersCount":590,"tipCount":21,"visitsCount":1132,"url":"http://www.theblueblazer.co.uk","tier":"","message":"","currency":"","rating":8.3},{"name":"The Witchery By The Castle","phone":"+441312255613","twitter":"thewitcheryedin","address":"352 Castlehill","lat":55.94870132987881,"lng":-3.195554973275691,"neighborhood":"Edinburgh Castle","city_fetched":"Edinburgh","country":"United Kingdom","canonicalUrl":"https://foursquare.com/v/the-witchery-by-the-castle/4bce2e1eef109521b1aa8386","category":"Restaurant","checkinsCount":1417,"usersCount":1280,"tipCount":51,"visitsCount":1423,"url":"http://www.thewitchery.com","tier":3,"message":"Expensive","currency":"£","rating":8.3},{"name":"The Jazz Bar","phone":"+441312204298","twitter":"thejazzbar","address":"1A Chambers Street","lat":55.94793427524869,"lng":-3.1868498478351777,"neighborhood":"Cowgate","city_fetched":"Edinburgh","state":"Edinburgh","country":"United Kingdom","canonicalUrl":"https://foursquare.com/v/the-jazz-bar/4b05881ff964a5200fb322e3","category":"Jazz Club","checkinsCount":843,"usersCount":595,"tipCount":19,"visitsCount":871,"url":"http://www.thejazzbar.co.uk","tier":"","message":"","currency":"","rating":8.3},{"name":"The Café Royal","phone":"+441315561884","address":"19 W Register St","lat":55.95379364804295,"lng":-3.19042324709638,"neighborhood":"New Town","city_fetched":"Edinburgh","state":"Edinburgh","country":"United Kingdom","canonicalUrl":"https://foursquare.com/v/the-caf%C3%A9-royal/4b05881ef964a520c0b222e3","category":"Pub","checkinsCount":1733,"usersCount":1162,"tipCount":33,"visitsCount":1750,"url":"http://www.caferoyaledinburgh.co.uk","tier":"","message":"","currency":"","rating":8.3},{"name":"The Brauhaus","phone":"+441316560356","twitter":"the_brauhaus","address":"105 Lauriston Pl.","lat":55.944381610587136,"lng":-3.2018494606018066,"city_fetched":"Edinburgh","state":"Midlothian","country":"United Kingdom","canonicalUrl":"https://foursquare.com/v/the-brauhaus/4b464be2f964a520db1c26e3","category":"Pub","checkinsCount":644,"usersCount":404,"tipCount":12,"visitsCount":752,"tier":"","message":"","currency":"","rating":8.3},{"name":"Brass Monkey","phone":"+441315561961","address":"14 Drummond St","lat":55.947317,"lng":-3.185548,"neighborhood":"Newington","city_fetched":"Edinburgh","state":"Edinburgh","country":"United Kingdom","canonicalUrl":"https://foursquare.com/v/brass-monkey/4b06f423f964a52010f422e3","category":"Bar","checkinsCount":1299,"usersCount":810,"tipCount":18,"visitsCount":1406,"tier":"","message":"","currency":"","rating":8.3},{"name":"The Shore","phone":"+441315535080","address":"3 Shore","lat":55.97744230238103,"lng":-3.1693816779720336,"neighborhood":"The Shore","city_fetched":"Edinburgh","state":"Midlothian","country":"United Kingdom","canonicalUrl":"https://foursquare.com/v/the-shore/4b05881df964a5208bb222e3","category":"Seafood Restaurant","checkinsCount":458,"usersCount":307,"tipCount":14,"visitsCount":487,"tier":2,"message":"Moderate","currency":"£","rating":8.3},{"name":"The WestRoom","phone":"+441316299868","address":"3 Melville Pl.","lat":55.95136241720132,"lng":-3.211226463317871,"neighborhood":"Haymarket","city_fetched":"Edinburgh","state":"Edinburgh","country":"United Kingdom","canonicalUrl":"https://foursquare.com/v/the-westroom/4b8828f6f964a520ffe331e3","category":"Bar","checkinsCount":578,"usersCount":342,"tipCount":19,"visitsCount":644,"url":"http://www.thewestroom.co.uk","tier":"","message":"","currency":"","rating":8.3},{"name":"Hard Rock Cafe Edinburgh","phone":"+441312603000","twitter":"hardrockedin","address":"18-20 George St","lat":55.95356693713795,"lng":-3.1963348388671875,"neighborhood":"New Town","city_fetched":"Edinburgh","state":"Edinburgh","country":"United Kingdom","canonicalUrl":"https://foursquare.com/v/hard-rock-cafe-edinburgh/4bbc7f5de5b0d13a61496f7c","category":"American Restaurant","checkinsCount":4650,"usersCount":4242,"tipCount":82,"visitsCount":5259,"url":"http://www.facebook.com/hardrock","tier":3,"message":"Expensive","currency":"£","rating":8.3},{"name":"The Southern","phone":"+441316672288","twitter":"thesouthernbar","address":"22-26 South Clerk St","lat":55.940497446349276,"lng":-3.180742420646283,"neighborhood":"Newington","city_fetched":"Edinburgh","state":"Edinburgh","country":"United Kingdom","canonicalUrl":"https://foursquare.com/v/the-southern/4b61f244f964a520bf2c2ae3","category":"Pub","checkinsCount":1438,"usersCount":746,"tipCount":26,"visitsCount":1847,"url":"http://www.thesouthern.co.uk","tier":"","message":"","currency":"","rating":8.3},{"name":"Old Chain Pier","phone":"+441315524960","lat":55.98001028983233,"lng":-3.2040356437444326,"neighborhood":"Trinity","city_fetched":"Edinburgh","country":"United Kingdom","canonicalUrl":"https://foursquare.com/v/old-chain-pier/4bf9ae8f4a67c9280b4c27cf","category":"Pub","checkinsCount":384,"usersCount":275,"tipCount":11,"visitsCount":514,"tier":"","message":"","currency":"","rating":8.2},{"name":"The Albanach","phone":"+441312205277","address":"197 High St.","lat":55.9500833,"lng":-3.1882615,"neighborhood":"Cowgate","city_fetched":"Edinburgh","state":"Midlothian","country":"United Kingdom","canonicalUrl":"https://foursquare.com/v/the-albanach/4b05881ef964a520cbb222e3","category":"Pub","checkinsCount":1484,"usersCount":1265,"tipCount":43,"visitsCount":1512,"url":"http://www.albanach-edinburgh.co.uk","tier":"","message":"","currency":"","rating":8.2},{"name":"Andrew Usher And Co","phone":"+441316621757","twitter":"andyusherandco","address":"32b W Nicolson St","lat":55.94470537609042,"lng":-3.1853153000239613,"neighborhood":"Newington","city_fetched":"Edinburgh","state":"Edinburgh","country":"United Kingdom","canonicalUrl":"https://foursquare.com/v/andrew-usher-and-co/53b95b05498e7b6c99e72eab","category":"Pub","checkinsCount":327,"usersCount":125,"tipCount":5,"visitsCount":333,"url":"http://www.andrewushers.co.uk","tier":"","message":"","currency":"","rating":8.2},{"name":"The Cask & Barrel","phone":"+441315563132","address":"115 Broughton St","lat":55.9590607881546,"lng":-3.190581,"neighborhood":"Broughton","city_fetched":"Edinburgh","state":"Edinburgh","country":"United Kingdom","canonicalUrl":"https://foursquare.com/v/the-cask--barrel/4b1a645ff964a520bae923e3","category":"Bar","checkinsCount":561,"usersCount":431,"tipCount":14,"visitsCount":670,"tier":"","message":"","currency":"","rating":8.2},{"name":"The Beer Kitchen","phone":"+441312286392","twitter":"beerkitchenedi","address":"81-83 Lothian Rd","lat":55.94647927293624,"lng":-3.2057795497291144,"neighborhood":"Tollcross","city_fetched":"Edinburgh","state":"Edinburgh","country":"United Kingdom","canonicalUrl":"https://foursquare.com/v/the-beer-kitchen/55b26be8498e5700530ad008","category":"Pub","checkinsCount":363,"usersCount":240,"tipCount":9,"visitsCount":382,"url":"http://thebeerkitchen.co.uk","tier":"","message":"","currency":"","rating":8.2},{"name":"Kay's Bar","phone":"+441312251858","twitter":"kaysbarscotland","address":"39 Jamaica St","lat":55.95567522977689,"lng":-3.2049179077148438,"neighborhood":"New Town","city_fetched":"Edinburgh","state":"Edinburgh","country":"United Kingdom","canonicalUrl":"https://foursquare.com/v/kays-bar/4b05881df964a52096b222e3","category":"Pub","checkinsCount":501,"usersCount":279,"tipCount":16,"visitsCount":631,"url":"http://kaysbar.co.uk","tier":"","message":"","currency":"","rating":8.2},{"name":"Stockbridge Tap","phone":"+441313433000","twitter":"stockbridgetap","address":"2-6 Raeburn Pl","lat":55.95876678519699,"lng":-3.2100580167979085,"neighborhood":"Comely Bank","city_fetched":"Edinburgh","state":"Edinburgh","country":"United Kingdom","canonicalUrl":"https://foursquare.com/v/stockbridge-tap/4ba89f7ff964a520fde239e3","category":"Pub","checkinsCount":844,"usersCount":363,"tipCount":15,"visitsCount":930,"tier":"","message":"","currency":"","rating":8.2},{"name":"Forth Floor (Harvey Nichols)","phone":"+441315248350","twitter":"harveynichols","address":"30-34 St. Andrew Square","lat":55.95485978340154,"lng":-3.192225584472865,"neighborhood":"New Town","city_fetched":"Edinburgh","state":"Edinburgh","country":"United Kingdom","canonicalUrl":"https://foursquare.com/v/forth-floor-harvey-nichols/4b05881ff964a52004b322e3","category":"Restaurant","checkinsCount":533,"usersCount":343,"tipCount":6,"visitsCount":536,"url":"http://www.harveynichols.com","tier":2,"message":"Moderate","currency":"£","rating":8.1},{"name":"Michael Neave Kitchen And Whisky Bar","phone":"+441312264747","address":"21 Old Fishmarket Close","lat":55.949302853818196,"lng":-3.1895560413954964,"neighborhood":"Cowgate","city_fetched":"Edinburgh","state":"Edinburgh","country":"United Kingdom","canonicalUrl":"https://foursquare.com/v/michael-neave-kitchen-and-whisky-bar/501d5b56e4b0876f2b33db7e","category":"Restaurant","checkinsCount":61,"usersCount":59,"tipCount":8,"visitsCount":62,"tier":2,"message":"Moderate","currency":"£","rating":8.1},{"name":"The Basement","phone":"+441315570097","twitter":"thebasement_ed","address":"10A-12A Broughton St","lat":55.95697858972933,"lng":-3.1882131099700928,"neighborhood":"New Town","city_fetched":"Edinburgh","state":"Edinburgh","country":"United Kingdom","canonicalUrl":"https://foursquare.com/v/the-basement/4b28e9cdf964a520229624e3","category":"Bar","checkinsCount":923,"usersCount":530,"tipCount":18,"visitsCount":982,"url":"http://www.basement-bar-edinburgh.co.uk","tier":"","message":"","currency":"","rating":8.1},{"name":"The Dagda Bar","phone":"+441316679773","address":"93-95 Buccleuch St","lat":55.94223,"lng":-3.18421,"neighborhood":"Southside","city_fetched":"Edinburgh","state":"Edinburgh","country":"United Kingdom","canonicalUrl":"https://foursquare.com/v/the-dagda-bar/4b082a2ff964a520380523e3","category":"Pub","checkinsCount":254,"usersCount":133,"tipCount":9,"visitsCount":260,"tier":"","message":"","currency":"","rating":8.1},{"name":"Sandy Bell's","phone":"+441312252751","address":"25 Forrest Rd.","lat":55.94602046896384,"lng":-3.1911467275921743,"city_fetched":"Edinburgh","state":"Edinburgh","country":"United Kingdom","canonicalUrl":"https://foursquare.com/v/sandy-bells/4b61fd23f964a520352f2ae3","category":"Pub","checkinsCount":584,"usersCount":372,"tipCount":18,"visitsCount":585,"url":"http://www.sandybellsedinburgh.co.uk","tier":"","message":"","currency":"","rating":8.1},{"name":"The Magnum Restaurant and Bar","phone":"+441315574366","twitter":"magnumbar_rest","address":"1 Albany Street","lat":55.956744348548646,"lng":-3.193202018737793,"neighborhood":"New Town","city_fetched":"Edinburgh","state":"Edinburgh","country":"United Kingdom","canonicalUrl":"https://foursquare.com/v/the-magnum-restaurant-and-bar/4b09a536f964a520ee1a23e3","category":"Pub","checkinsCount":534,"usersCount":270,"tipCount":9,"visitsCount":576,"url":"http://www.themagnumrestaurant.co.uk","tier":"","message":"","currency":"","rating":8.1},{"name":"Paradise Palms","phone":"+441312254186","twitter":"edinburghpalms","address":"41 Lothian St","lat":55.946223155715806,"lng":-3.18899229528851,"neighborhood":"Newington","city_fetched":"Edinburgh","state":"Edinburgh","country":"United Kingdom","canonicalUrl":"https://foursquare.com/v/paradise-palms/53ac7522498e0e151cbe1577","category":"Cocktail Bar","checkinsCount":261,"usersCount":238,"tipCount":10,"visitsCount":409,"url":"http://www.theparadisepalms.com","tier":2,"message":"Moderate","currency":"£","rating":8.1},{"name":"The Caley Bar","phone":"+441312228899","twitter":"thecaleybar","address":"Princes Street","lat":55.949704439399284,"lng":-3.207334578037262,"neighborhood":"Haymarket","city_fetched":"Edinburgh","state":"Edinburgh","country":"United Kingdom","canonicalUrl":"https://foursquare.com/v/the-caley-bar/4d2e41035d4ca1cd7b9f161b","category":"Cocktail Bar","checkinsCount":216,"usersCount":122,"tipCount":5,"visitsCount":216,"url":"http://waldorfastoria3.hilton.com/en/hotels/united-kingdom/waldorf-astoria-edinburgh-the-caledonian-EDNCHWA/amenities/restaurants-caley-bar.html?WT.mc_id=zELWAKN0EMEA1WA2DMH3LocalSearch4DGGenericx6EDNCHWA","tier":"","message":"","currency":"","rating":8.1},{"name":"The Doric Tavern","phone":"+441312251084","address":"15 Market St","lat":55.95103414251525,"lng":-3.190591376627833,"neighborhood":"Waverley Station","city_fetched":"Edinburgh","state":"Midlothian","country":"United Kingdom","canonicalUrl":"https://foursquare.com/v/the-doric-tavern/4b05881df964a5209fb222e3","category":"Gastropub","checkinsCount":638,"usersCount":588,"tipCount":19,"visitsCount":662,"url":"http://www.the-doric.com","tier":2,"message":"Moderate","currency":"£","rating":8.1},{"name":"The Abbey","phone":"+441316684862","address":"65 South Clerk St","lat":55.93940323819909,"lng":-3.1796940830232745,"neighborhood":"Newington","city_fetched":"Edinburgh","state":"Edinburgh","country":"United Kingdom","canonicalUrl":"https://foursquare.com/v/the-abbey/4b58a849f964a520156428e3","category":"Bar","checkinsCount":636,"usersCount":199,"tipCount":4,"visitsCount":672,"url":"http://www.abbeybar.co.uk","tier":"","message":"","currency":"","rating":8},{"name":"The Theatre Royal Bar","phone":"+441315572142","address":"25-27 Greenside Place","lat":55.95710471900871,"lng":-3.185091018676758,"city_fetched":"Edinburgh","state":"Midlothian","country":"United Kingdom","canonicalUrl":"https://foursquare.com/v/the-theatre-royal-bar/4b1a979cf964a520fdec23e3","category":"Bar","checkinsCount":943,"usersCount":601,"tipCount":9,"visitsCount":987,"url":"http://www.theatreroyalbar.co.uk","tier":"","message":"","currency":"","rating":8},{"name":"Royal Mile Whiskies","phone":"+441312253383","address":"379 High St.","lat":55.9496168703244,"lng":-3.191706790847431,"neighborhood":"Cowgate","city_fetched":"Edinburgh","state":"Edinburgh","country":"United Kingdom","canonicalUrl":"https://foursquare.com/v/royal-mile-whiskies/4b058825f964a520c7b422e3","category":"Whisky Bar","checkinsCount":224,"usersCount":195,"tipCount":4,"visitsCount":224,"tier":"","message":"","currency":"","rating":8},{"name":"The Inn On The Mile","phone":"+441315569940","twitter":"theinnonthemile","address":"High St","lat":55.95007791454399,"lng":-3.1874349813217906,"neighborhood":"Cowgate","city_fetched":"Edinburgh","state":"Edinburgh","country":"United Kingdom","canonicalUrl":"https://foursquare.com/v/the-inn-on-the-mile/51f2dc29498ee0e57f6236fd","category":"Hotel","checkinsCount":698,"usersCount":632,"tipCount":16,"visitsCount":747,"url":"http://www.theinnonthemile.co.uk","tier":"","message":"","currency":"","rating":8},{"name":"Under the Stairs","phone":"+441314668550","twitter":"utsedinburgh","address":"3A Merchant St.","lat":55.94756578347242,"lng":-3.1920862197875977,"neighborhood":"Cowgate","city_fetched":"Edinburgh","state":"Edinburgh","country":"United Kingdom","canonicalUrl":"https://foursquare.com/v/under-the-stairs/4b081764f964a5209d0323e3","category":"Gastropub","checkinsCount":945,"usersCount":644,"tipCount":39,"visitsCount":953,"url":"http://www.underthestairs.org","tier":1,"message":"Cheap","currency":"£","rating":8},{"name":"Victoria Bar","phone":"+441315545706","address":"265 Leith Walk","lat":55.96587570190784,"lng":-3.1757569313049316,"neighborhood":"Leith","city_fetched":"Edinburgh","state":"Edinburgh","country":"United Kingdom","canonicalUrl":"https://foursquare.com/v/victoria-bar/4b1feae1f964a520c22a24e3","category":"Bar","checkinsCount":520,"usersCount":240,"tipCount":4,"visitsCount":520,"tier":"","message":"","currency":"","rating":8},{"name":"Dragonfly","phone":"+441312284543","address":"52 West Port","lat":55.94648144,"lng":-3.199589,"neighborhood":"Grassmarket","city_fetched":"Edinburgh","state":"Midlothian","country":"United Kingdom","canonicalUrl":"https://foursquare.com/v/dragonfly/4b05881ff964a52003b322e3","category":"Bar","checkinsCount":892,"usersCount":680,"tipCount":13,"visitsCount":1007,"tier":"","message":"","currency":"","rating":8},{"name":"Roseburn Bar","phone":"+441313371067","address":"1 Roseburn Terr","lat":55.945431,"lng":-3.23398709,"neighborhood":"Roseburn","city_fetched":"Edinburgh","state":"Edinburgh","country":"United Kingdom","canonicalUrl":"https://foursquare.com/v/roseburn-bar/4c7ff1fcd92ea093b35f3372","category":"Pub","checkinsCount":186,"usersCount":186,"tipCount":1,"visitsCount":263,"tier":"","message":"","currency":"","rating":8},{"name":"World's End","phone":"+441315563628","address":"12 High St.","lat":55.95054545150495,"lng":-3.1844472885131836,"neighborhood":"Cowgate","city_fetched":"Edinburgh","state":"Edinburgh","country":"United Kingdom","canonicalUrl":"https://foursquare.com/v/worlds-end/4b59f1a4f964a520b5a228e3","category":"Pub","checkinsCount":2505,"usersCount":2112,"tipCount":45,"visitsCount":2824,"url":"http://www.worldsend-edinburgh.co.uk","tier":2,"message":"Moderate","currency":"£","rating":7.9},{"name":"The Ox","address":"Broughton Street","lat":55.95926589094968,"lng":-3.191161332939871,"neighborhood":"New Town","city_fetched":"Edinburgh","state":"Edinburgh","country":"United Kingdom","canonicalUrl":"https://foursquare.com/v/the-ox/548c4586498eb38fd05c80f6","category":"Bar","checkinsCount":85,"usersCount":81,"tipCount":1,"visitsCount":95,"tier":"","message":"","currency":"","rating":7.9},{"name":"Forester's Guild","phone":"+441316692750","address":"40 Portobello High Street","lat":55.955078,"lng":-3.117922,"neighborhood":"Portobello","city_fetched":"Edinburgh","state":"Edinburgh","country":"United Kingdom","canonicalUrl":"https://foursquare.com/v/foresters-guild/5324a921498e58af852c8cdf","category":"Bar","checkinsCount":207,"usersCount":87,"tipCount":0,"visitsCount":311,"url":"http://www.forestersguild.co.uk","tier":"","message":"","currency":"","rating":7.9},{"name":"52 Canoes Tiki Den","phone":"+441312264732","address":"13-14 Melville Pl","lat":55.9515367008838,"lng":-3.2116691136027518,"neighborhood":"Haymarket","city_fetched":"Edinburgh","state":"Edinburgh","country":"United Kingdom","canonicalUrl":"https://foursquare.com/v/52-canoes-tiki-den/4fbfdd87e4b0c9a9f0c510ce","category":"Bar","checkinsCount":371,"usersCount":217,"tipCount":9,"visitsCount":402,"tier":"","message":"","currency":"","rating":7.9},{"name":"The Bailie","phone":"+441312254673","twitter":"bailie_bar","address":"2-4 St Stephen St","lat":55.957494398015044,"lng":-3.2072119134778356,"neighborhood":"New Town","city_fetched":"Edinburgh","state":"Edinburgh","country":"United Kingdom","canonicalUrl":"https://foursquare.com/v/the-bailie/4b465892f964a520341e26e3","category":"Pub","checkinsCount":635,"usersCount":324,"tipCount":7,"visitsCount":659,"url":"http://thebailiebar.co.uk","tier":"","message":"","currency":"","rating":7.9},{"name":"The Amber Rose","phone":"+441312261224","address":"22–26 Castle St","lat":55.951747,"lng":-3.203362,"neighborhood":"New Town","city_fetched":"Edinburgh","state":"Edinburgh","country":"United Kingdom","canonicalUrl":"https://foursquare.com/v/the-amber-rose/4babe736f964a520c0d33ae3","category":"Pub","checkinsCount":866,"usersCount":493,"tipCount":10,"visitsCount":874,"url":"http://www.theamberroseedinburgh.co.uk","tier":"","message":"","currency":"","rating":7.9},{"name":"The Rabbie Burns","phone":"+441316290507","address":"103 High St.","lat":55.950362,"lng":-3.186204,"neighborhood":"Cowgate","city_fetched":"Edinburgh","state":"Edinburgh","country":"United Kingdom","canonicalUrl":"https://foursquare.com/v/the-rabbie-burns/4c455f36dd1f2d7f0f2381f9","category":"Pub","checkinsCount":332,"usersCount":288,"tipCount":12,"visitsCount":335,"tier":"","message":"","currency":"","rating":7.9},{"name":"Lebowskis","phone":"+441314661779","address":"18 Morrison St","lat":55.94572740616559,"lng":-3.206334114074707,"neighborhood":"Tollcross","city_fetched":"Edinburgh","state":"Edinburgh","country":"United Kingdom","canonicalUrl":"https://foursquare.com/v/lebowskis/4b5616f1f964a520d6ff27e3","category":"Pub","checkinsCount":1581,"usersCount":942,"tipCount":34,"visitsCount":1647,"url":"http://www.lebowskis.co.uk","tier":"","message":"","currency":"","rating":7.9},{"name":"The Last Word Saloon","phone":"+441312259009","twitter":"lastwordsaloon","address":"44 St Stephen St","lat":55.957849,"lng":-3.206538,"neighborhood":"New Town","city_fetched":"Edinburgh","state":"Edinburgh","country":"United Kingdom","canonicalUrl":"https://foursquare.com/v/the-last-word-saloon/4fa043dbe4b0bed4fa6eb428","category":"Cocktail Bar","checkinsCount":292,"usersCount":178,"tipCount":4,"visitsCount":295,"url":"http://www.lastwordsaloon.com","tier":"","message":"","currency":"","rating":7.9},{"name":"Jolly Judge","phone":"+441312252669","twitter":"jolly_judge","address":"7 James Court","lat":55.94954824942551,"lng":-3.193995952606201,"neighborhood":"The Mound","city_fetched":"Edinburgh","state":"Edinburgh","country":"United Kingdom","canonicalUrl":"https://foursquare.com/v/jolly-judge/4af4a0d6f964a52076f421e3","category":"Pub","checkinsCount":861,"usersCount":706,"tipCount":19,"visitsCount":913,"url":"http://www.jollyjudge.co.uk","tier":"","message":"","currency":"","rating":7.9},{"name":"Bijou","address":"Leith Links","lat":55.96975403966456,"lng":-3.159879263314379,"city_fetched":"Edinburgh","state":"Edinburgh","country":"United Kingdom","canonicalUrl":"https://foursquare.com/v/bijou/4c42fc76da3dc928c63ccbb9","category":"Bar","checkinsCount":80,"usersCount":61,"tipCount":3,"visitsCount":94,"url":"http://www.bijoubistro.co.uk","tier":"","message":"","currency":"","rating":7.9},{"name":"Le Di-Vin","phone":"+441312258678","address":"9 Randolph Place","lat":55.951496,"lng":-3.2100442,"neighborhood":"New Town","city_fetched":"Edinburgh","state":"Edinburgh","country":"United Kingdom","canonicalUrl":"https://foursquare.com/v/le-divin/4c13f400a1010f47849c4b18","category":"Wine Bar","checkinsCount":251,"usersCount":141,"tipCount":3,"visitsCount":256,"url":"http://www.ledivin.co.uk","tier":"","message":"","currency":"","rating":7.8},{"name":"Woodland Creatures","phone":"+441316295509","twitter":"woodlandsleith","address":"260-262 Leith Walk","lat":55.96605504680613,"lng":-3.1756792796889153,"neighborhood":"Pilrig","city_fetched":"Edinburgh","state":"Edinburgh","country":"United Kingdom","canonicalUrl":"https://foursquare.com/v/woodland-creatures/511e6328e4b07cd154db645f","category":"Bar","checkinsCount":410,"usersCount":151,"tipCount":8,"visitsCount":442,"tier":"","message":"","currency":"","rating":7.8},{"name":"The Banshee Labyrinth","phone":"+441315588209","twitter":"b_labyrinth","address":"29-35 Niddry St","lat":55.949440117536135,"lng":-3.1868934631347656,"neighborhood":"Cowgate","city_fetched":"Edinburgh","state":"Edinburgh","country":"United Kingdom","canonicalUrl":"https://foursquare.com/v/the-banshee-labyrinth/4b733b97f964a5206ba32de3","category":"Nightclub","checkinsCount":1037,"usersCount":686,"tipCount":23,"visitsCount":1120,"url":"http://www.thebansheelabyrinth.com","tier":"","message":"","currency":"","rating":7.8},{"name":"Safari Lounge","phone":"+441316612855","twitter":"thesafarilounge","address":"21 Cadzow Place","lat":55.95717175441451,"lng":-3.167442822221366,"neighborhood":"Abbeyhill","city_fetched":"Edinburgh","state":"Edinburgh","country":"United Kingdom","canonicalUrl":"https://foursquare.com/v/safari-lounge/51f0420b498e5ed73bf1af9d","category":"Bar","checkinsCount":232,"usersCount":170,"tipCount":5,"visitsCount":360,"url":"http://www.thesafarilounge.co.uk","tier":"","message":"","currency":"","rating":7.8},{"name":"Whighams Wine Cellars","address":"13 Hope St","lat":55.95089710560021,"lng":-3.20806250730209,"neighborhood":"New Town","city_fetched":"Edinburgh","state":"Midlothian","country":"United Kingdom","canonicalUrl":"https://foursquare.com/v/whighams-wine-cellars/4b05881ef964a520fab222e3","category":"Wine Bar","checkinsCount":547,"usersCount":360,"tipCount":5,"visitsCount":585,"url":"http://whighams.com","tier":"","message":"","currency":"","rating":7.8},{"name":"The Bon Vivant","phone":"+441313153311","address":"4-6 Dean St","lat":55.95861568053315,"lng":-3.2103883797773975,"neighborhood":"Comely Bank","city_fetched":"Edinburgh","state":"Edinburgh","country":"United Kingdom","canonicalUrl":"https://foursquare.com/v/the-bon-vivant/500c6960e4b0092313071829","category":"Cocktail Bar","checkinsCount":184,"usersCount":100,"tipCount":7,"visitsCount":185,"url":"http://bonvivant-stockbridge.co.uk","tier":"","message":"","currency":"","rating":7.8},{"name":"Joseph Pearce","phone":"+441315564140","twitter":"boda_bar_tweets","address":"23 Elm Row","lat":55.95918278987259,"lng":-3.183159828186035,"neighborhood":"Leith","city_fetched":"Edinburgh","state":"Edinburgh","country":"United Kingdom","canonicalUrl":"https://foursquare.com/v/joseph-pearce/4b15990df964a520e8b023e3","category":"Pub","checkinsCount":1540,"usersCount":1019,"tipCount":22,"visitsCount":2128,"url":"http://www.bodabar.com/mt-static/pearce.html","tier":"","message":"","currency":"","rating":7.8},{"name":"The Royal Dick","phone":"+448458743000","address":"1 Summerhall Pl","lat":55.939914857755944,"lng":-3.1817265556318572,"neighborhood":"Newington","city_fetched":"Edinburgh","state":"Edinburgh","country":"United Kingdom","canonicalUrl":"https://foursquare.com/v/the-royal-dick/50225a08e4b068cff86a58ba","category":"Bar","checkinsCount":510,"usersCount":271,"tipCount":10,"visitsCount":529,"url":"http://www.summerhall.co.uk/bar-cafe/","tier":"","message":"","currency":"","rating":7.8},{"name":"Bridge Inn","phone":"+441313331320","address":"27 Baird Rd","lat":55.92313664860313,"lng":-3.3791716551403495,"neighborhood":"Ratho","city_fetched":"Edinburgh","state":"Midlothian","country":"United Kingdom","canonicalUrl":"https://foursquare.com/v/bridge-inn/4bbf8940abf4952183cfbd93","category":"Pub","checkinsCount":619,"usersCount":313,"tipCount":6,"visitsCount":782,"tier":"","message":"","currency":"","rating":7.8},{"name":"Half Way House","phone":"+441312257101","address":"24 Fleshmarket Close","lat":55.951055917639465,"lng":-3.1888356718735817,"neighborhood":"Waverley Station","city_fetched":"Edinburgh","state":"Edinburgh","country":"United Kingdom","canonicalUrl":"https://foursquare.com/v/half-way-house/4b3e3e6ff964a5200f9a25e3","category":"Pub","checkinsCount":602,"usersCount":490,"tipCount":12,"visitsCount":606,"url":"http://halfwayhouse-edinburgh.com","tier":"","message":"","currency":"","rating":7.8},{"name":"Montpeliers Bar & Brasserie","phone":"+441312293115","twitter":"montpeliers_bar","address":"159-161 Bruntsfield Pl","lat":55.93601692229188,"lng":-3.209050444605377,"neighborhood":"Greenhill","city_fetched":"Edinburgh","state":"Edinburgh","country":"United Kingdom","canonicalUrl":"https://foursquare.com/v/montpeliers-bar--brasserie/4b13f6c1f964a520029b23e3","category":"Gastropub","checkinsCount":1070,"usersCount":659,"tipCount":17,"visitsCount":1298,"url":"http://www.montpeliersedinburgh.co.uk","tier":2,"message":"Moderate","currency":"£","rating":7.8},{"name":"Teuchters","phone":"+441312261036","address":"26 William St","lat":55.949328,"lng":-3.212488,"neighborhood":"Haymarket","city_fetched":"Edinburgh","state":"Edinburgh","country":"United Kingdom","canonicalUrl":"https://foursquare.com/v/teuchters/4b06d5dbf964a5201df122e3","category":"Pub","checkinsCount":902,"usersCount":521,"tipCount":12,"visitsCount":1057,"tier":"","message":"","currency":"","rating":7.8},{"name":"The Espy","phone":"+441316690082","address":"62 Bath St","lat":55.95475323036276,"lng":-3.1106351904939893,"neighborhood":"Portobello","city_fetched":"Edinburgh","state":"Edinburgh","country":"United Kingdom","canonicalUrl":"https://foursquare.com/v/the-espy/4bb32f96715eef3bf7fe85bb","category":"Gastropub","checkinsCount":980,"usersCount":419,"tipCount":20,"visitsCount":1122,"url":"http://www.the-espy.com","tier":"","message":"","currency":"","rating":7.8},{"name":"The Library Bar","phone":"+441316504673","address":"13 Bristo Sq","lat":55.9453623283786,"lng":-3.1888458784604246,"neighborhood":"Newington","city_fetched":"Edinburgh","state":"Midlothian","country":"United Kingdom","canonicalUrl":"https://foursquare.com/v/the-library-bar/4b859387f964a520756631e3","category":"Bar","checkinsCount":2177,"usersCount":789,"tipCount":13,"visitsCount":2217,"url":"http://www.eusa.ed.ac.uk/eatdrink/teviot/bars-and-cafes/","tier":2,"message":"Moderate","currency":"£","rating":7.8},{"name":"Jeremiah's  Taproom","phone":"+441315568201","twitter":"jeremiahtap","address":"7-8 Elm Row","lat":55.95833595943405,"lng":-3.1837499141693115,"neighborhood":"Leith","city_fetched":"Edinburgh","state":"Edinburgh","country":"United Kingdom","canonicalUrl":"https://foursquare.com/v/jeremiahs--taproom/51f822a8498ec110597d4845","category":"Bar","checkinsCount":741,"usersCount":428,"tipCount":15,"visitsCount":1053,"url":"http://www.jeremiahstaproom.co.uk","tier":"","message":"","currency":"","rating":7.8},{"name":"Captains Bar","twitter":"captainsedin","address":"4 South College Street","lat":55.94715182919561,"lng":-3.1863955317717654,"neighborhood":"Newington","city_fetched":"Edinburgh","state":"Edinburgh","country":"United Kingdom","canonicalUrl":"https://foursquare.com/v/captains-bar/4c4c974f9c8d2d7fcacea76c","category":"Pub","checkinsCount":275,"usersCount":184,"tipCount":9,"visitsCount":275,"url":"http://captainsedinburgh.webs.com","tier":"","message":"","currency":"","rating":7.8},{"name":"The Queen's Hall","phone":"+441316682019","twitter":"queens_hall","address":"85-89 Clerk St","lat":55.94117314141256,"lng":-3.1818294525146484,"neighborhood":"Newington","city_fetched":"Edinburgh","state":"Edinburgh","country":"United Kingdom","canonicalUrl":"https://foursquare.com/v/the-queens-hall/4b058823f964a52033b422e3","category":"Concert Hall","checkinsCount":972,"usersCount":470,"tipCount":6,"visitsCount":1024,"url":"http://www.thequeenshall.net","tier":"","message":"","currency":"","rating":7.8},{"name":"The Three Sisters","phone":"+441316226801","twitter":"the3sistersbar","address":"139 Cowgate","lat":55.94823819553931,"lng":-3.1901901987701984,"neighborhood":"Cowgate","city_fetched":"Edinburgh","state":"Edinburgh","country":"United Kingdom","canonicalUrl":"https://foursquare.com/v/the-three-sisters/4b05881ef964a520e2b222e3","category":"Pub","checkinsCount":2247,"usersCount":1596,"tipCount":23,"visitsCount":2377,"url":"http://www.thethreesistersbar.co.uk","tier":"","message":"","currency":"","rating":7.8},{"name":"Greyfriars Bobby's Bar","phone":"+441312258328","address":"34A Candlemaker Row","lat":55.94699417722261,"lng":-3.1912182922934353,"neighborhood":"Newington","city_fetched":"Edinburgh","state":"Edinburgh","country":"United Kingdom","canonicalUrl":"https://foursquare.com/v/greyfriars-bobbys-bar/4b05881df964a5209cb222e3","category":"Pub","checkinsCount":1358,"usersCount":1179,"tipCount":22,"visitsCount":1363,"url":"http://www.nicholsonspubs.co.uk/greyfriarsbobbysbarcandlemakerrowedinburgh/","tier":"","message":"","currency":"","rating":7.8},{"name":"Lucky Liquor Co","address":"Queen Street","lat":55.95435581402641,"lng":-3.2016104062101665,"neighborhood":"New Town","city_fetched":"Edinburgh","state":"Edinburgh","country":"United Kingdom","canonicalUrl":"https://foursquare.com/v/lucky-liquor-co/51ca24b0498e8016a7840441","category":"Bar","checkinsCount":285,"usersCount":192,"tipCount":11,"visitsCount":332,"tier":"","message":"","currency":"","rating":7.8},{"name":"The Fountain","phone":"+441312291899","twitter":"thefountainbar","address":"131 Dundee St","lat":55.9404518499211,"lng":-3.218153067794651,"neighborhood":"Fountainbridge","city_fetched":"Edinburgh","state":"Edinburgh","country":"United Kingdom","canonicalUrl":"https://foursquare.com/v/the-fountain/4fca8bf1e4b087d22a56e033","category":"Pub","checkinsCount":826,"usersCount":359,"tipCount":11,"visitsCount":873,"url":"http://thefountainbar.co.uk","tier":"","message":"","currency":"","rating":7.8},{"name":"Deacon Brodie's Tavern","phone":"+441312256531","address":"435 Lawnmarket","lat":55.94953623478606,"lng":-3.1929552555084224,"neighborhood":"The Mound","city_fetched":"Edinburgh","state":"Edinburgh","country":"United Kingdom","canonicalUrl":"https://foursquare.com/v/deacon-brodies-tavern/4b0ed8adf964a520d05b23e3","category":"Pub","checkinsCount":2481,"usersCount":2844,"tipCount":34,"visitsCount":3136,"url":"http://www.nicholsonspubs.co.uk/deaconbrodiestavernroyalmileedinburgh/","tier":"","message":"","currency":"","rating":7.8},{"name":"Hemma","phone":"+441316293327","twitter":"hemmabar","address":"The Tun Building, 75 Holyrood Rd","lat":55.95062483257399,"lng":-3.177285706305563,"neighborhood":"Canongate","city_fetched":"Edinburgh","state":"Midlothian","country":"United Kingdom","canonicalUrl":"https://foursquare.com/v/hemma/4fbd111ae4b0a73b8865a19f","category":"Bar","checkinsCount":818,"usersCount":585,"tipCount":13,"visitsCount":1009,"url":"http://www.bodabar.com/hemma/","tier":"","message":"","currency":"","rating":7.8},{"name":"Brass Monkey","phone":"+441315545286","address":"360-362 Leith Walk","lat":55.96384239392033,"lng":-3.1780513117679714,"neighborhood":"Pilrig","city_fetched":"Edinburgh","state":"Edinburgh","country":"United Kingdom","canonicalUrl":"https://foursquare.com/v/brass-monkey/4d83c01ad5fab60c4422d39b","category":"Bar","checkinsCount":1627,"usersCount":490,"tipCount":16,"visitsCount":1824,"tier":2,"message":"Moderate","currency":"£","rating":7.8},{"name":"Ghillie Dhu","phone":"+441312229930","twitter":"ghilliedhu1","address":"2 Rutland Pl","lat":55.949863632378054,"lng":-3.2079488039016724,"neighborhood":"Haymarket","city_fetched":"Edinburgh","state":"Edinburgh","country":"United Kingdom","canonicalUrl":"https://foursquare.com/v/ghillie-dhu/4b8fb3b3f964a520da5d33e3","category":"Music Venue","checkinsCount":2130,"usersCount":1534,"tipCount":41,"visitsCount":2322,"url":"http://www.ghillie-dhu.co.uk","tier":"","message":"","currency":"","rating":7.7},{"name":"Hector's","phone":"+441313431735","twitter":"hectorspub","address":"47-49 Deanhaugh St","lat":55.95879841523216,"lng":-3.209981918334961,"city_fetched":"Edinburgh","state":"Edinburgh","country":"United Kingdom","canonicalUrl":"https://foursquare.com/v/hectors/4b05881df964a5209db222e3","category":"Pub","checkinsCount":1108,"usersCount":603,"tipCount":28,"visitsCount":1171,"url":"http://www.hectorsstockbridge.co.uk","tier":"","message":"","currency":"","rating":7.7},{"name":"Bannerman's","phone":"+441315563254","twitter":"bannermansbar","address":"212 Cowgate","lat":55.94880253040805,"lng":-3.1869318942710803,"neighborhood":"Cowgate","city_fetched":"Edinburgh","state":"Edinburgh","country":"United Kingdom","canonicalUrl":"https://foursquare.com/v/bannermans/4b05881ff964a52017b322e3","category":"Pub","checkinsCount":1174,"usersCount":719,"tipCount":10,"visitsCount":1308,"tier":"","message":"","currency":"","rating":7.7},{"name":"Frankenstein","phone":"+441316221818","twitter":"frank_pub_edin","address":"26 George IV Bridge","lat":55.94732,"lng":-3.19157,"neighborhood":"Cowgate","city_fetched":"Edinburgh","state":"Midlothian","country":"United Kingdom","canonicalUrl":"https://foursquare.com/v/frankenstein/4b466f21f964a520ca2026e3","category":"Bar","checkinsCount":2142,"usersCount":1851,"tipCount":43,"visitsCount":2169,"url":"http://www.frankenstein-pub.co.uk","tier":"","message":"","currency":"","rating":7.7},{"name":"Kilderkin","phone":"+441315562101","twitter":"kil_der_kin","address":"65 - 67 Canongate","lat":55.95219137947874,"lng":-3.177022933959961,"neighborhood":"Canongate","city_fetched":"Edinburgh","state":"Edinburgh","country":"United Kingdom","canonicalUrl":"https://foursquare.com/v/kilderkin/4e594e601495a891127d67b7","category":"Pub","checkinsCount":700,"usersCount":404,"tipCount":15,"visitsCount":708,"tier":"","message":"","currency":"","rating":7.7},{"name":"Tonic","phone":"+441312256431","address":"34A North Castle St","lat":55.95259984711677,"lng":-3.2038450241088867,"neighborhood":"New Town","city_fetched":"Edinburgh","state":"Midlothian","country":"United Kingdom","canonicalUrl":"https://foursquare.com/v/tonic/4b05881ff964a5200ab322e3","category":"Bar","checkinsCount":530,"usersCount":265,"tipCount":5,"visitsCount":531,"tier":"","message":"","currency":"","rating":7.7},{"name":"Usquabae","lat":55.95025861671077,"lng":-3.20815168505362,"neighborhood":"New Town","city_fetched":"Edinburgh","country":"United Kingdom","canonicalUrl":"https://foursquare.com/v/usquabae/554bd62a498e6819b461ea44","category":"Whisky Bar","checkinsCount":80,"usersCount":60,"tipCount":3,"visitsCount":80,"tier":"","message":"","currency":"","rating":7.7},{"name":"The Sheep Heid Inn","phone":"+441316617974","twitter":"sheepheid","address":"43-45 The Causeway","lat":55.941953536329194,"lng":-3.148455521043885,"neighborhood":"Duddingston","city_fetched":"Edinburgh","state":"Edinburgh","country":"United Kingdom","canonicalUrl":"https://foursquare.com/v/the-sheep-heid-inn/4b05881ef964a520ddb222e3","category":"Pub","checkinsCount":698,"usersCount":733,"tipCount":33,"visitsCount":907,"url":"http://www.sheepheid.co.uk","tier":"","message":"","currency":"","rating":7.7},{"name":"Dirty Dick's","phone":"+441312200709","address":"159 Rose St","lat":55.95148696692227,"lng":-3.204947565033162,"neighborhood":"New Town","city_fetched":"Edinburgh","state":"Edinburgh","country":"United Kingdom","canonicalUrl":"https://foursquare.com/v/dirty-dicks/4b632d25f964a5204f682ae3","category":"Restaurant","checkinsCount":865,"usersCount":850,"tipCount":19,"visitsCount":959,"tier":"","message":"","currency":"","rating":7.6},{"name":"Hoot The Reedemer","address":"7 Hanover Place","lat":55.952384206777865,"lng":-3.196582247281675,"neighborhood":"New Town","city_fetched":"Edinburgh","state":"Edinburgh","country":"United Kingdom","canonicalUrl":"https://foursquare.com/v/hoot-the-reedemer/55bfd427498ef64252a85b6e","category":"Dive Bar","checkinsCount":102,"usersCount":76,"tipCount":5,"visitsCount":105,"tier":"","message":"","currency":"","rating":7.6},{"name":"SCOTCH Whisky Bar | Balmoral Hotel","phone":"+441315562414","twitter":"the_balmoral","address":"The Balmoral Hotel","lat":55.95312,"lng":-3.189551,"neighborhood":"Waverley Station","city_fetched":"Edinburgh","state":"Edinburgh","country":"United Kingdom","canonicalUrl":"https://foursquare.com/v/scotch-whisky-bar--balmoral-hotel/4fc0fd89e4b0c9fe0599e476","category":"Whisky Bar","checkinsCount":76,"usersCount":68,"tipCount":2,"visitsCount":76,"url":"http://thebalmoralhotel.com","tier":"","message":"","currency":"","rating":7.6},{"name":"Clerk's Bar","address":"South Clerk Street","lat":55.93979520923305,"lng":-3.179866598634073,"neighborhood":"Newington","city_fetched":"Edinburgh","state":"Edinburgh","country":"United Kingdom","canonicalUrl":"https://foursquare.com/v/clerks-bar/531f9fdb498e1d6d5570a8cb","category":"Bar","checkinsCount":306,"usersCount":207,"tipCount":9,"visitsCount":364,"tier":"","message":"","currency":"","rating":7.6},{"name":"Southpour","phone":"+441316501100","twitter":"southpoursays","address":"1-5 Newington Road","lat":55.939093,"lng":-3.179376,"neighborhood":"Newington","city_fetched":"Edinburgh","state":"Edinburgh","country":"United Kingdom","canonicalUrl":"https://foursquare.com/v/southpour/56e54ccacd104059d628efcc","category":"Pub","checkinsCount":62,"usersCount":76,"tipCount":4,"visitsCount":97,"tier":"","message":"","currency":"","rating":7.6},{"name":"The Royal Mile Tavern","phone":"+441315579681","twitter":"royalmiletavern","address":"127 High St","lat":55.95037124335457,"lng":-3.186560869216919,"neighborhood":"Waverley Station","city_fetched":"Edinburgh","state":"Edinburgh","country":"United Kingdom","canonicalUrl":"https://foursquare.com/v/the-royal-mile-tavern/4c31fb7c09a99c744e740b2a","category":"Pub","checkinsCount":1455,"usersCount":1248,"tipCount":36,"visitsCount":1492,"url":"http://www.royalmiletavern.com","tier":"","message":"","currency":"","rating":7.6},{"name":"Harvey Nichols Forth Floor Bar","twitter":"harveynichols","address":"30-34 St Andrews Square","lat":55.95469586472259,"lng":-3.192717735196993,"neighborhood":"New Town","city_fetched":"Edinburgh","state":"Edinburgh","country":"United Kingdom","canonicalUrl":"https://foursquare.com/v/harvey-nichols-forth-floor-bar/5045053d183fcb060e8d5ee3","category":"Bar","checkinsCount":106,"usersCount":80,"tipCount":3,"visitsCount":107,"url":"http://www.harveynichols.com","tier":"","message":"","currency":"","rating":7.6},{"name":"The Bonnington","phone":"+441315545824","twitter":"bonningtonbar","address":"284 Bonnington Road","lat":55.96891211158224,"lng":-3.18469442084194,"neighborhood":"Pilrig","city_fetched":"Edinburgh","state":"Edinburgh","country":"United Kingdom","canonicalUrl":"https://foursquare.com/v/the-bonnington/4b93e3a1f964a520af5734e3","category":"Pub","checkinsCount":347,"usersCount":131,"tipCount":8,"visitsCount":373,"tier":"","message":"","currency":"","rating":7.6},{"name":"Malt & Hops","phone":"+441315550083","address":"45 Shore","lat":55.975978,"lng":-3.170179,"neighborhood":"The Shore","city_fetched":"Edinburgh","state":"Midlothian","country":"United Kingdom","canonicalUrl":"https://foursquare.com/v/malt--hops/4c02b079310fc9b6e8d1c461","category":"Pub","checkinsCount":252,"usersCount":130,"tipCount":7,"visitsCount":254,"url":"http://www.barcalisa.com","tier":"","message":"","currency":"","rating":7.6},{"name":"The Royal Oak","phone":"+441315572976","address":"1 Infirmary St","lat":55.947907,"lng":-3.18637,"neighborhood":"Newington","city_fetched":"Edinburgh","state":"Edinburgh","country":"United Kingdom","canonicalUrl":"https://foursquare.com/v/the-royal-oak/4b1787c3f964a52031c623e3","category":"Pub","checkinsCount":452,"usersCount":322,"tipCount":8,"visitsCount":453,"url":"http://www.royal-oak-folk.com","tier":"","message":"","currency":"","rating":7.6},{"name":"Starbank Inn","address":"Starbank Road","lat":55.97991588339621,"lng":-3.2021860761759586,"neighborhood":"Trinity","city_fetched":"Edinburgh","state":"Midlothian","country":"United Kingdom","canonicalUrl":"https://foursquare.com/v/starbank-inn/4bf9b12c5efe2d7f60ae6c34","category":"Bar","checkinsCount":157,"usersCount":89,"tipCount":6,"visitsCount":174,"tier":"","message":"","currency":"","rating":7.6},{"name":"Divino","address":"5 Merchant Street","lat":55.94771882914496,"lng":-3.1920998631286217,"neighborhood":"Cowgate","city_fetched":"Edinburgh","state":"Edinburgh","country":"United Kingdom","canonicalUrl":"https://foursquare.com/v/divino/4c66f2a47abde21e55056568","category":"Wine Bar","checkinsCount":256,"usersCount":182,"tipCount":10,"visitsCount":256,"tier":"","message":"","currency":"","rating":7.6},{"name":"Sneaky Pete's","phone":"+441312251757","address":"73 Cowgate","lat":55.948293,"lng":-3.191556,"neighborhood":"Cowgate","city_fetched":"Edinburgh","state":"Edinburgh","country":"United Kingdom","canonicalUrl":"https://foursquare.com/v/sneaky-petes/4b05881ff964a5200db322e3","category":"Nightclub","checkinsCount":724,"usersCount":307,"tipCount":8,"visitsCount":725,"url":"http://www.sneakypetes.co.uk","tier":"","message":"","currency":"","rating":7.6},{"name":"Jakes Place","phone":"+441312261446","address":"9-13 Market Street","lat":55.95090587967244,"lng":-3.190798759460449,"neighborhood":"Waverley Station","city_fetched":"Edinburgh","state":"Edinburgh","country":"United Kingdom","canonicalUrl":"https://foursquare.com/v/jakes-place/51769cf0fe700d0e2bf59246","category":"Bar","checkinsCount":254,"usersCount":174,"tipCount":9,"visitsCount":254,"tier":"","message":"","currency":"","rating":7.6},{"name":"Cloisters","phone":"+441312219997","twitter":"cloisters_bar","address":"26 Brougham St","lat":55.94321601769541,"lng":-3.202064037322998,"city_fetched":"Edinburgh","state":"Edinburgh","country":"United Kingdom","canonicalUrl":"https://foursquare.com/v/cloisters/4b118404f964a520477e23e3","category":"Pub","checkinsCount":2075,"usersCount":720,"tipCount":23,"visitsCount":2344,"url":"http://www.cloistersbar.com","tier":"","message":"","currency":"","rating":7.6},{"name":"The Mercat Bar","phone":"+441312258716","address":"28 West Maitland St","lat":55.946837,"lng":-3.215641,"neighborhood":"Coates","city_fetched":"Edinburgh","state":"Edinburgh","country":"United Kingdom","canonicalUrl":"https://foursquare.com/v/the-mercat-bar/4b6334c9f964a5208d6a2ae3","category":"Bar","checkinsCount":580,"usersCount":426,"tipCount":18,"visitsCount":653,"url":"http://www.mercatbar.com","tier":"","message":"","currency":"","rating":7.6},{"name":"The Pear Tree","phone":"+441316677533","twitter":"pear_tree_house","address":"38 W Nicolson St","lat":55.94434710372921,"lng":-3.18554684848515,"neighborhood":"Newington","city_fetched":"Edinburgh","state":"Edinburgh","country":"United Kingdom","canonicalUrl":"https://foursquare.com/v/the-pear-tree/4af47d94f964a52013f321e3","category":"Pub","checkinsCount":1641,"usersCount":988,"tipCount":13,"visitsCount":1738,"url":"http://www.pear-tree-house.co.uk/index.php","tier":"","message":"","currency":"","rating":7.6},{"name":"The Mad Hatter","lat":55.94659423828125,"lng":-3.2142786979675293,"neighborhood":"Coates","city_fetched":"Edinburgh","country":"United Kingdom","canonicalUrl":"https://foursquare.com/v/the-mad-hatter/5319f317498e9f7011859bad","category":"Bar","checkinsCount":87,"usersCount":60,"tipCount":4,"visitsCount":93,"tier":"","message":"","currency":"","rating":7.6},{"name":"St Vincent Bar","phone":"+441312257447","address":"11 St Vincent St","lat":55.95812575042658,"lng":-3.2033300399780273,"neighborhood":"New Town","city_fetched":"Edinburgh","state":"Edinburgh","country":"United Kingdom","canonicalUrl":"https://foursquare.com/v/st-vincent-bar/4b9bde9af964a520782f36e3","category":"Pub","checkinsCount":426,"usersCount":217,"tipCount":1,"visitsCount":504,"tier":"","message":"","currency":"","rating":7.5},{"name":"Pickle & Custard","lat":55.945948584228006,"lng":-3.2055852882370304,"neighborhood":"Tollcross","city_fetched":"Edinburgh","country":"United Kingdom","canonicalUrl":"https://foursquare.com/v/pickle--custard/5440111f498e1e3b7592c912","category":"Bar","checkinsCount":57,"usersCount":54,"tipCount":2,"visitsCount":57,"tier":"","message":"","currency":"","rating":7.5},{"name":"El Barrio - Latino Bar & Grill","phone":"+441312206818","address":"47 Hanover St.","lat":55.95305,"lng":-3.197011,"neighborhood":"New Town","city_fetched":"Edinburgh","state":"Edinburgh","country":"United Kingdom","canonicalUrl":"https://foursquare.com/v/el-barrio--latino-bar--grill/4b24f7e8f964a520d36a24e3","category":"Latin American Restaurant","checkinsCount":126,"usersCount":110,"tipCount":4,"visitsCount":126,"tier":"","message":"","currency":"","rating":7.5},{"name":"Scotsman Lounge","address":"73 Cockburn Street","lat":55.950301,"lng":-3.18836315,"neighborhood":"Waverley Station","city_fetched":"Edinburgh","state":"Edinburgh","country":"United Kingdom","canonicalUrl":"https://foursquare.com/v/scotsman-lounge/4b216bdff964a5209b3b24e3","category":"Pub","checkinsCount":232,"usersCount":208,"tipCount":4,"visitsCount":233,"tier":"","message":"","currency":"","rating":7.5},{"name":"The Salisbury Arms","phone":"+441316674518","twitter":"salisburyarms","address":"58 Dalkeith Road","lat":55.938321936134805,"lng":-3.1736848877328705,"neighborhood":"Newington","city_fetched":"Edinburgh","state":"Edinburgh","country":"United Kingdom","canonicalUrl":"https://foursquare.com/v/the-salisbury-arms/4ddaa4c4922ef477d2b9fc4b","category":"Bar","checkinsCount":858,"usersCount":599,"tipCount":15,"visitsCount":1176,"tier":"","message":"","currency":"","rating":7.5},{"name":"Barony Bar","phone":"+441315582874","address":"81-85 Broughton St","lat":55.95835,"lng":-3.18966,"neighborhood":"Broughton","city_fetched":"Edinburgh","state":"Edinburgh","country":"United Kingdom","canonicalUrl":"https://foursquare.com/v/barony-bar/4b05881ef964a520b5b222e3","category":"Pub","checkinsCount":467,"usersCount":338,"tipCount":7,"visitsCount":497,"tier":"","message":"","currency":"","rating":7.5},{"name":"Sygn Bar","phone":"+441312256060","twitter":"sygnbarsays","address":"15 Charlotte Ln","lat":55.9514097,"lng":-3.2095772,"neighborhood":"New Town","city_fetched":"Edinburgh","state":"Edinburgh","country":"United Kingdom","canonicalUrl":"https://foursquare.com/v/sygn-bar/4b05881ff964a52007b322e3","category":"Cocktail Bar","checkinsCount":770,"usersCount":436,"tipCount":21,"visitsCount":810,"url":"http://www.sygn.co.uk","tier":"","message":"","currency":"","rating":7.5},{"name":"The Canny Man's","phone":"+441314471484","twitter":"cannymans","address":"237 Morningside Rd","lat":55.92762734817101,"lng":-3.2091665267944336,"neighborhood":"Morningside","city_fetched":"Edinburgh","state":"Midlothian","country":"United Kingdom","canonicalUrl":"https://foursquare.com/v/the-canny-mans/4b05881ef964a520c3b222e3","category":"Pub","checkinsCount":516,"usersCount":265,"tipCount":9,"visitsCount":574,"url":"http://www.cannymans.co.uk","tier":"","message":"","currency":"","rating":7.5},{"name":"The Black Fox","phone":"+441315532268","address":"17 Albert Street","lat":55.96215849642258,"lng":-3.179746728603485,"neighborhood":"Leith","city_fetched":"Edinburgh","state":"Edinburgh","country":"United Kingdom","canonicalUrl":"https://foursquare.com/v/the-black-fox/54907d40498ecbfa119795f9","category":"Bar","checkinsCount":135,"usersCount":78,"tipCount":5,"visitsCount":144,"url":"http://www.blackfoxleith.com","tier":"","message":"","currency":"","rating":7.5},{"name":"Ryan's Bar","phone":"+441312266669","twitter":"ryans_bar","address":"2-4 Hope St.","lat":55.95029919368664,"lng":-3.2082717123470954,"neighborhood":"New Town","city_fetched":"Edinburgh","state":"Edinburgh","country":"United Kingdom","canonicalUrl":"https://foursquare.com/ryans_bar","category":"Bar","checkinsCount":1244,"usersCount":950,"tipCount":20,"visitsCount":1262,"url":"http://www.ryansbaredinburgh.co.uk","tier":"","message":"","currency":"","rating":7.4},{"name":"No.8 Lister Square","phone":"+441312294634","twitter":"no8listersquare","address":"8 Lister Square","lat":55.943797455426704,"lng":-3.1941602372963374,"city_fetched":"Edinburgh","state":"Edinburgh","country":"United Kingdom","canonicalUrl":"https://foursquare.com/v/no8-lister-square/554e5bf8498e73f71834b850","category":"Bar","checkinsCount":106,"usersCount":57,"tipCount":2,"visitsCount":109,"tier":"","message":"","currency":"","rating":7.4},{"name":"Cabaret Voltaire","phone":"+441312474704","twitter":"cabaretvoltaire","address":"36-38 Blair St","lat":55.948864952279884,"lng":-3.187588255306524,"neighborhood":"Cowgate","city_fetched":"Edinburgh","state":"Edinburgh","country":"United Kingdom","canonicalUrl":"https://foursquare.com/v/cabaret-voltaire/4b05881ff964a520ffb222e3","category":"Nightclub","checkinsCount":988,"usersCount":803,"tipCount":13,"visitsCount":1126,"url":"http://www.thecabaretvoltaire.com","tier":"","message":"","currency":"","rating":7.4},{"name":"Rose & Crown","phone":"+441312254039","address":"170 Rose St","lat":55.951524606869576,"lng":-3.204113245010376,"neighborhood":"New Town","city_fetched":"Edinburgh","state":"Edinburgh","country":"United Kingdom","canonicalUrl":"https://foursquare.com/v/rose--crown/4bfff12fdaf9c9b612f6faef","category":"Pub","checkinsCount":516,"usersCount":484,"tipCount":7,"visitsCount":537,"url":"http://www.roseandcrownedinburgh.com","tier":"","message":"","currency":"","rating":7.4},{"name":"Black Bull","phone":"+441312256636","address":"12 Grassmarket","lat":55.947207,"lng":-3.197295,"neighborhood":"Grassmarket","city_fetched":"Edinburgh","state":"Edinburgh","country":"United Kingdom","canonicalUrl":"https://foursquare.com/v/black-bull/4bd84fe3f645c9b6b094a7e0","category":"Pub","checkinsCount":1076,"usersCount":902,"tipCount":11,"visitsCount":1126,"url":"http://www.blackbulledinburgh.co.uk","tier":"","message":"","currency":"","rating":7.4},{"name":"Revolution Vodka Bar","phone":"+441312205679","twitter":"revolutionbars","address":"30a Chambers St","lat":55.94733865019104,"lng":-3.1907465627465585,"neighborhood":"Cowgate","city_fetched":"Edinburgh","state":"Edinburgh","country":"United Kingdom","canonicalUrl":"https://foursquare.com/v/revolution-vodka-bar/4b466f95f964a520d92026e3","category":"Cocktail Bar","checkinsCount":837,"usersCount":624,"tipCount":11,"visitsCount":865,"url":"http://www.revolution-bars.co.uk","tier":"","message":"","currency":"","rating":7.4},{"name":"Whistle Binkies","phone":"+441315575114","twitter":"tweetbinkies","address":"4-6 South Bridge","lat":55.94987264328182,"lng":-3.1870222091674805,"neighborhood":"Cowgate","city_fetched":"Edinburgh","state":"Edinburgh","country":"United Kingdom","canonicalUrl":"https://foursquare.com/v/whistle-binkies/4b05881ff964a52001b322e3","category":"Rock Club","checkinsCount":1171,"usersCount":856,"tipCount":21,"visitsCount":1178,"url":"http://www.whistlebinkies.com","tier":"","message":"","currency":"","rating":7.4},{"name":"The Blackbird","phone":"+441312282280","address":"37-39 Leven St","lat":55.94103464629766,"lng":-3.203515994270686,"neighborhood":"Fountainbridge","city_fetched":"Edinburgh","state":"Edinburgh","country":"United Kingdom","canonicalUrl":"https://foursquare.com/v/the-blackbird/506b4838e4b038c6d742c949","category":"Pub","checkinsCount":451,"usersCount":385,"tipCount":6,"visitsCount":588,"url":"http://www.theblackbirdedinburgh.co.uk","tier":"","message":"","currency":"","rating":7.4},{"name":"Checkpoint","phone":"+441312259352","twitter":"checkpointedi","address":"3 Bristo Pl","lat":55.946220127960075,"lng":-3.190099998445783,"neighborhood":"Newington","city_fetched":"Edinburgh","state":"Edinburgh","country":"United Kingdom","canonicalUrl":"https://foursquare.com/v/checkpoint/51e9caec498e58d505a2a21f","category":"Gastropub","checkinsCount":133,"usersCount":120,"tipCount":5,"visitsCount":168,"url":"http://checkpointedinburgh.com","tier":"","message":"","currency":"","rating":7.4},{"name":"Finnegan's Wake","phone":"+441312259348","twitter":"finneganswakeed","address":"9B Victoria St","lat":55.94857505154987,"lng":-3.193577527999878,"neighborhood":"Cowgate","city_fetched":"Edinburgh","state":"Edinburgh","country":"United Kingdom","canonicalUrl":"https://foursquare.com/v/finnegans-wake/4c3db7d37d002d7fb41cb018","category":"Bar","checkinsCount":1209,"usersCount":770,"tipCount":20,"visitsCount":1241,"url":"http://www.finnegans-wake.co.uk","tier":"","message":"","currency":"","rating":7.4},{"name":"The Mitre","phone":"+441316523902","address":"131-133 High St.","lat":55.950363485716856,"lng":-3.186788735804419,"neighborhood":"Waverley Station","city_fetched":"Edinburgh","state":"Edinburgh","country":"United Kingdom","canonicalUrl":"https://foursquare.com/v/the-mitre/4b23b886f964a520865824e3","category":"Pub","checkinsCount":1237,"usersCount":969,"tipCount":21,"visitsCount":1246,"url":"http://www.nicholsonspubs.co.uk/restaurants/scotlandandnorthernireland/themitrebarroyalmileedinburgh","tier":"","message":"","currency":"","rating":7.4},{"name":"The Orchard Bar & Restaurant","phone":"+441315500850","twitter":"theorchardbar","address":"1 Howard Place","lat":55.963590813614154,"lng":-3.200969696044922,"neighborhood":"Warriston","city_fetched":"Edinburgh","country":"United Kingdom","canonicalUrl":"https://foursquare.com/v/the-orchard-bar--restaurant/4b56da41f964a520041d28e3","category":"Pub","checkinsCount":739,"usersCount":386,"tipCount":14,"visitsCount":940,"url":"http://theorchardbar.co.uk","tier":"","message":"","currency":"","rating":7.4},{"name":"Peacock Alley","phone":"+441312228905","twitter":"waedinburgh","address":"Princes Street","lat":55.94957482253309,"lng":-3.207290386878146,"neighborhood":"Haymarket","city_fetched":"Edinburgh","state":"Edinburgh","country":"United Kingdom","canonicalUrl":"https://foursquare.com/v/peacock-alley/514755f5e4b0ff6e3cb3dd1b","category":"Tea Room","checkinsCount":115,"usersCount":76,"tipCount":1,"visitsCount":115,"url":"http://waldorfastoria3.hilton.com/en/hotels/united-kingdom/waldorf-astoria-edinburgh-the-caledonian-EDNCHWA/amenities/restaurants-peacock-alley.html?WT.mc_id=zELWAKN0EMEA1WA2DMH3LocalSearch4DGGenericx6EDNCHWA","tier":"","message":"","currency":"","rating":7.4},{"name":"The Other Place","phone":"+441315561024","address":"2-4 Broughton Rd","lat":55.96261796871548,"lng":-3.196356296539306,"neighborhood":"Broughton","city_fetched":"Edinburgh","state":"Edinburgh","country":"United Kingdom","canonicalUrl":"https://foursquare.com/v/the-other-place/51d5c6eb498ea03f2309274e","category":"Bar","checkinsCount":451,"usersCount":228,"tipCount":7,"visitsCount":582,"url":"http://www.theotherplaceedinburgh.com","tier":"","message":"","currency":"","rating":7.4},{"name":"Hotel du Vin & Bistro","phone":"+448447364255","address":"11 Bristo Place","lat":55.946147,"lng":-3.190407,"neighborhood":"Newington","city_fetched":"Edinburgh","state":"Midlothian","country":"United Kingdom","canonicalUrl":"https://foursquare.com/v/hotel-du-vin--bistro/4b2a754df964a52090a924e3","category":"Hotel Bar","checkinsCount":777,"usersCount":521,"tipCount":10,"visitsCount":838,"url":"http://www.hotelduvin.com/hotels/edinburgh/edinburgh.aspx","tier":"","message":"","currency":"","rating":7.3},{"name":"Crafter's Barn","address":"9 North Bank Street","lat":55.94999450857668,"lng":-3.1939199884810696,"neighborhood":"The Mound","city_fetched":"Edinburgh","state":"Edinburgh","country":"United Kingdom","canonicalUrl":"https://foursquare.com/v/crafters-barn/5336e90f498e8f96b23c538b","category":"Gastropub","checkinsCount":89,"usersCount":81,"tipCount":3,"visitsCount":89,"tier":"","message":"","currency":"","rating":7.3},{"name":"Maggie Dickson's","address":"92 Grassmarket","lat":55.947769,"lng":-3.1948672,"neighborhood":"Grassmarket","city_fetched":"Edinburgh","state":"Midlothian","country":"United Kingdom","canonicalUrl":"https://foursquare.com/v/maggie-dicksons/4b05881ef964a520d4b222e3","category":"Pub","checkinsCount":902,"usersCount":831,"tipCount":14,"visitsCount":905,"tier":"","message":"","currency":"","rating":7.3},{"name":"The Granary","phone":"+448451666005","address":"32-34 Shore","lat":55.97637856690036,"lng":-3.169876045152797,"neighborhood":"The Shore","city_fetched":"Edinburgh","state":"Midlothian","country":"United Kingdom","canonicalUrl":"https://foursquare.com/v/the-granary/4bd8790035aad13a84f790f3","category":"Bar","checkinsCount":705,"usersCount":405,"tipCount":11,"visitsCount":711,"tier":"","message":"","currency":"","rating":7.3},{"name":"The White Hart","phone":"+441312262806","address":"34 Grassmarket","lat":55.94732167392812,"lng":-3.1966188966020654,"neighborhood":"Grassmarket","city_fetched":"Edinburgh","state":"Edinburgh","country":"United Kingdom","canonicalUrl":"https://foursquare.com/v/the-white-hart/4b1abf15f964a520e0f023e3","category":"Restaurant","checkinsCount":1321,"usersCount":1219,"tipCount":24,"visitsCount":1351,"tier":"","message":"","currency":"","rating":7.3},{"name":"Arcade Bar - Haggis & Whisky House","phone":"+441312201297","address":"48 Cockburn St","lat":55.950491,"lng":-3.188814,"neighborhood":"Waverley Station","city_fetched":"Edinburgh","state":"Midlothian","country":"United Kingdom","canonicalUrl":"https://foursquare.com/v/arcade-bar--haggis--whisky-house/4b0f08d5f964a520635e23e3","category":"Whisky Bar","checkinsCount":455,"usersCount":412,"tipCount":19,"visitsCount":462,"url":"http://www.arcadepub.co.uk","tier":"","message":"","currency":"","rating":7.3},{"name":"The Liquid Room","phone":"+441312252564","twitter":"liquidrooms","address":"9C Victoria St","lat":55.948541761878275,"lng":-3.193520370508196,"neighborhood":"Cowgate","city_fetched":"Edinburgh","state":"Edinburgh","country":"United Kingdom","canonicalUrl":"https://foursquare.com/v/the-liquid-room/4b05881ff964a52019b322e3","category":"Nightclub","checkinsCount":736,"usersCount":500,"tipCount":6,"visitsCount":753,"url":"http://www.liquidroom.com","tier":"","message":"","currency":"","rating":7.3},{"name":"The Oxford Bar","address":"8 Young St.","lat":55.953017036149326,"lng":-3.2046110064654285,"neighborhood":"New Town","city_fetched":"Edinburgh","state":"Edinburgh","country":"United Kingdom","canonicalUrl":"https://foursquare.com/v/the-oxford-bar/4b93cf47f964a520cc5234e3","category":"Bar","checkinsCount":318,"usersCount":263,"tipCount":7,"visitsCount":344,"tier":"","message":"","currency":"","rating":7.3},{"name":"Beer & Skittles","address":"Picardy Place","lat":55.95709165015072,"lng":-3.186788347385357,"neighborhood":"Broughton","city_fetched":"Edinburgh","country":"United Kingdom","canonicalUrl":"https://foursquare.com/v/beer--skittles/5307cadc11d24c5d272c9ad4","category":"Bar","checkinsCount":151,"usersCount":98,"tipCount":4,"visitsCount":152,"tier":"","message":"","currency":"","rating":7.3},{"name":"Copper Blossom","lat":55.95277484170572,"lng":-3.2034984418291703,"neighborhood":"New Town","city_fetched":"Edinburgh","country":"United Kingdom","canonicalUrl":"https://foursquare.com/v/copper-blossom/55fdf458498ea821bd176344","category":"Cocktail Bar","checkinsCount":76,"usersCount":90,"tipCount":3,"visitsCount":107,"tier":"","message":"","currency":"","rating":7.3},{"name":"Hawes Inn","phone":"+441313311990","address":"7 Newhalls Road","lat":55.99030591305783,"lng":-3.3849182588189866,"neighborhood":"South Queensferry","city_fetched":"Edinburgh","state":"Edinburgh","country":"United Kingdom","canonicalUrl":"https://foursquare.com/v/hawes-inn/4b579f64f964a520ad3928e3","category":"Pub","checkinsCount":329,"usersCount":259,"tipCount":10,"visitsCount":352,"tier":"","message":"","currency":"","rating":7.3},{"name":"The Fiddlers Arms","phone":"+441312290327","address":"11/13 Grassmarket","lat":55.94708177251559,"lng":-3.1975250846440924,"neighborhood":"Grassmarket","city_fetched":"Edinburgh","state":"Edinburgh","country":"United Kingdom","canonicalUrl":"https://foursquare.com/v/the-fiddlers-arms/4dd042d552b1f8915bc3d84a","category":"Bar","checkinsCount":811,"usersCount":740,"tipCount":15,"visitsCount":832,"url":"http://www.thefiddlersarms.com","tier":"","message":"","currency":"","rating":7.3},{"name":"Golden Rule","phone":"+441312293413","twitter":"goldenrulepub","address":"30 Yeaman Pl","lat":55.939034014295146,"lng":-3.218822479248047,"neighborhood":"Polwarth","city_fetched":"Edinburgh","state":"Edinburgh","country":"United Kingdom","canonicalUrl":"https://foursquare.com/v/golden-rule/4b3bc449f964a520ab7a25e3","category":"Pub","checkinsCount":253,"usersCount":134,"tipCount":4,"visitsCount":312,"url":"http://www.goldenruleedinburgh.co.uk","tier":"","message":"","currency":"","rating":7.3},{"name":"Orocco Pier","phone":"+448701181664","twitter":"oroccopier","address":"17 High St","lat":55.99036447104253,"lng":-3.3965134620666504,"neighborhood":"South Queensferry","city_fetched":"Edinburgh","state":"Edinburgh","country":"United Kingdom","canonicalUrl":"https://foursquare.com/v/orocco-pier/4b2a49a5f964a520e8a624e3","category":"Hotel","checkinsCount":634,"usersCount":461,"tipCount":20,"visitsCount":711,"url":"http://www.oroccopier.co.uk","tier":"","message":"","currency":"","rating":7.2},{"name":"Angels Share","phone":"+441312477000","address":"9-11 Hope St","lat":55.95060047628023,"lng":-3.2080068829092845,"neighborhood":"New Town","city_fetched":"Edinburgh","state":"Midlothian","country":"United Kingdom","canonicalUrl":"https://foursquare.com/v/angels-share/4b05881ef964a520fbb222e3","category":"Hotel","checkinsCount":952,"usersCount":594,"tipCount":12,"visitsCount":1061,"url":"http://www.angelssharehotel.com","tier":"","message":"","currency":"","rating":7.2},{"name":"The Kenilworth","phone":"+441312261773","address":"152-154 Rose St","lat":55.9518790189654,"lng":-3.202342987060547,"neighborhood":"New Town","city_fetched":"Edinburgh","state":"Edinburgh","country":"United Kingdom","canonicalUrl":"https://foursquare.com/v/the-kenilworth/4b05881ef964a520d1b222e3","category":"Pub","checkinsCount":654,"usersCount":604,"tipCount":10,"visitsCount":695,"url":"http://www.nicholsonspubs.co.uk/thekenilworthrosestreetedinburgh/","tier":"","message":"","currency":"","rating":7.2},{"name":"99 Hanover Street","phone":"+441312258200","twitter":"99hanoverstreet","address":"99 Hanover St","lat":55.954445,"lng":-3.19775,"neighborhood":"New Town","city_fetched":"Edinburgh","state":"Edinburgh","country":"United Kingdom","canonicalUrl":"https://foursquare.com/v/99-hanover-street/4b24fd9cf964a5200d6b24e3","category":"Bar","checkinsCount":915,"usersCount":603,"tipCount":14,"visitsCount":928,"url":"http://www.99hanoverstreet.com","tier":"","message":"","currency":"","rating":7.2},{"name":"The Compass Bar","phone":"+441315541979","twitter":"thecompassleith","address":"44 Queen Charlotte St","lat":55.97346975896797,"lng":-3.1679644173398316,"neighborhood":"Leith","city_fetched":"Edinburgh","state":"Edinburgh","country":"United Kingdom","canonicalUrl":"https://foursquare.com/v/the-compass-bar/4b098fa8f964a520741923e3","category":"Gastropub","checkinsCount":629,"usersCount":172,"tipCount":6,"visitsCount":684,"url":"http://www.thecompassleith.co.uk","tier":"","message":"","currency":"","rating":7.2},{"name":"The Potting Shed","address":"32 Potterrow","lat":55.945217072839604,"lng":-3.186856437130811,"neighborhood":"Newington","city_fetched":"Edinburgh","state":"Edinburgh","country":"United Kingdom","canonicalUrl":"https://foursquare.com/v/the-potting-shed/520105d8498e365ba7fb2ee1","category":"Gastropub","checkinsCount":605,"usersCount":405,"tipCount":6,"visitsCount":727,"tier":2,"message":"Moderate","currency":"£","rating":7.2},{"name":"The Huxley","phone":"+441312293402","twitter":"thehuxleyedin","address":"1-3 Rutland St.","lat":55.95016427967802,"lng":-3.207748783208241,"neighborhood":"New Town","city_fetched":"Edinburgh","state":"Edinburgh","country":"United Kingdom","canonicalUrl":"https://foursquare.com/v/the-huxley/510c1cafe4b0a3ee42bd5757","category":"Bar","checkinsCount":767,"usersCount":525,"tipCount":16,"visitsCount":802,"tier":"","message":"","currency":"","rating":7.2},{"name":"Treacle","phone":"+441315570627","address":"39-41 Broughton St","lat":55.957314715778715,"lng":-3.1883611857104257,"neighborhood":"Broughton","city_fetched":"Edinburgh","state":"Edinburgh","country":"United Kingdom","canonicalUrl":"https://foursquare.com/v/treacle/4b09a4def964a520e91a23e3","category":"Bar","checkinsCount":1386,"usersCount":775,"tipCount":22,"visitsCount":1479,"url":"http://www.treacleedinburgh.co.uk","tier":"","message":"","currency":"","rating":7.2},{"name":"The Advocate","phone":"+441312262749","address":"7 Hunter Sq","lat":55.949620337184015,"lng":-3.1876659393310547,"neighborhood":"Cowgate","city_fetched":"Edinburgh","state":"Midlothian","country":"United Kingdom","canonicalUrl":"https://foursquare.com/v/the-advocate/4c029c4bf423a593dd01cf16","category":"Pub","checkinsCount":776,"usersCount":616,"tipCount":11,"visitsCount":785,"url":"http://www.theadvocate-edinburgh.co.uk","tier":"","message":"","currency":"","rating":7.1},{"name":"The Black Bull Tavern","phone":"+441315575121","address":"43 Leith St","lat":55.95427746642,"lng":-3.1872591081527695,"city_fetched":"Edinburgh","state":"Edinburgh","country":"United Kingdom","canonicalUrl":"https://foursquare.com/v/the-black-bull-tavern/4b40f4f5f964a52039be25e3","category":"Pub","checkinsCount":953,"usersCount":357,"tipCount":13,"visitsCount":997,"tier":"","message":"","currency":"","rating":7.1},{"name":"Malt Shovel","address":"11 Cockburn Street","lat":55.950613,"lng":-3.190818,"neighborhood":"Waverley Station","city_fetched":"Edinburgh","state":"Edinburgh","country":"United Kingdom","canonicalUrl":"https://foursquare.com/v/malt-shovel/4b05881df964a5209eb222e3","category":"Bar","checkinsCount":885,"usersCount":796,"tipCount":14,"visitsCount":923,"tier":"","message":"","currency":"","rating":7.1},{"name":"The Old Bell","phone":"+441316681573","address":"233-235 Causewayside","lat":55.93492367445945,"lng":-3.1792116165161133,"neighborhood":"Southside","city_fetched":"Edinburgh","state":"Edinburgh","country":"United Kingdom","canonicalUrl":"https://foursquare.com/v/the-old-bell/4b12d9d8f964a520678f23e3","category":"Pub","checkinsCount":410,"usersCount":254,"tipCount":9,"visitsCount":479,"tier":"","message":"","currency":"","rating":7.1},{"name":"The Castle Arms","phone":"+441312257432","address":"6 Johnston Terrace","lat":55.94861871764661,"lng":-3.194788388792711,"neighborhood":"Grassmarket","city_fetched":"Edinburgh","state":"Edinburgh","country":"United Kingdom","canonicalUrl":"https://foursquare.com/v/the-castle-arms/4bfeccb6daf9c9b69248f9ef","category":"Pub","checkinsCount":1163,"usersCount":1048,"tipCount":24,"visitsCount":1183,"url":"http://www.thecastlearmsbistro.co.uk","tier":"","message":"","currency":"","rating":7.1},{"name":"Heads & Tales","twitter":"headsntalesbar","address":"1 Rutland Street","lat":55.95011358642315,"lng":-3.2079500625006374,"neighborhood":"Haymarket","city_fetched":"Edinburgh","state":"Edinburgh","country":"United Kingdom","canonicalUrl":"https://foursquare.com/v/heads--tales/53876089498e4e40eeeca040","category":"Cocktail Bar","checkinsCount":137,"usersCount":105,"tipCount":1,"visitsCount":137,"url":"http://www.headsandtalesbar.com","tier":"","message":"","currency":"","rating":7.1},{"name":"The White Horse","lat":55.950682,"lng":-3.183662,"neighborhood":"Canongate","city_fetched":"Edinburgh","country":"United Kingdom","canonicalUrl":"https://foursquare.com/v/the-white-horse/4c70555ab5a5236a2a0c5052","category":"Bar","checkinsCount":289,"usersCount":232,"tipCount":9,"visitsCount":291,"tier":"","message":"","currency":"","rating":7.1},{"name":"Element","phone":"+441312253297","twitter":"elementbaredin","address":"110-114 Rose St","lat":55.952148,"lng":-3.20060334,"neighborhood":"New Town","city_fetched":"Edinburgh","state":"Edinburgh","country":"United Kingdom","canonicalUrl":"https://foursquare.com/v/element/4b5a3d71f964a520bdb628e3","category":"Bar","checkinsCount":646,"usersCount":623,"tipCount":9,"visitsCount":805,"url":"http://www.elementedinburgh.co.uk","tier":"","message":"","currency":"","rating":7.1},{"name":"Wolf+Water","lat":55.9772506454994,"lng":-3.1729993034045494,"neighborhood":"Leith","city_fetched":"Edinburgh","country":"United Kingdom","canonicalUrl":"https://foursquare.com/v/wolfwater/554cec71498e53034f7f5665","category":"Bar","checkinsCount":127,"usersCount":63,"tipCount":4,"visitsCount":129,"tier":"","message":"","currency":"","rating":7},{"name":"Clouds & Soil","phone":"+441316292728","twitter":"cloudsandsoil","address":"4 Picardy Place","lat":55.956889605491085,"lng":-3.187496548130135,"neighborhood":"Broughton","city_fetched":"Edinburgh","state":"Edinburgh","country":"United Kingdom","canonicalUrl":"https://foursquare.com/v/clouds--soil/537537bd498eb915bcf14aae","category":"Gastropub","checkinsCount":63,"usersCount":45,"tipCount":3,"visitsCount":64,"url":"http://www.cloudsandsoil.com","tier":2,"message":"Moderate","currency":"£","rating":7},{"name":"The Auld Hoose","phone":"+441316682934","address":"23-25 St Leonards Street","lat":55.94346836552352,"lng":-3.180263042449951,"neighborhood":"Newington","city_fetched":"Edinburgh","state":"Midlothian","country":"United Kingdom","canonicalUrl":"https://foursquare.com/v/the-auld-hoose/4b585bbef964a5203e5428e3","category":"Pub","checkinsCount":893,"usersCount":503,"tipCount":19,"visitsCount":1112,"tier":2,"message":"Moderate","currency":"£","rating":7},{"name":"Boda Bar","phone":"+441315535900","twitter":"boda_bar_tweets","address":"229 Leith Walk","lat":55.9665752530819,"lng":-3.175102472305298,"neighborhood":"Leith","city_fetched":"Edinburgh","state":"Edinburgh","country":"United Kingdom","canonicalUrl":"https://foursquare.com/v/boda-bar/4b157e8ef964a520acad23e3","category":"Bar","checkinsCount":315,"usersCount":162,"tipCount":5,"visitsCount":315,"url":"http://www.bodabar.com","tier":"","message":"","currency":"","rating":7},{"name":"Antico","phone":"+448701181664","address":"Orocco Pier","lat":55.9903129762583,"lng":-3.3966308432825523,"neighborhood":"South Queensferry","city_fetched":"Edinburgh","state":"Edinburgh","country":"United Kingdom","canonicalUrl":"https://foursquare.com/v/antico/4cc1ddb3d43ba143727c54f8","category":"Bar","checkinsCount":146,"usersCount":113,"tipCount":6,"visitsCount":146,"url":"http://www.oroccopier.co.uk/edinburgh_bar/Default.asp","tier":"","message":"","currency":"","rating":7},{"name":"Pilgrim Bar","twitter":"pilgrimbar","address":"3 Robertson's Close","lat":55.948826877204525,"lng":-3.186519446099706,"neighborhood":"Cowgate","city_fetched":"Edinburgh","state":"Edinburgh","country":"United Kingdom","canonicalUrl":"https://foursquare.com/v/pilgrim-bar/51b65eba498e747a7aca084c","category":"Bar","checkinsCount":276,"usersCount":231,"tipCount":1,"visitsCount":285,"url":"http://www.pilgrimbar.co.uk","tier":"","message":"","currency":"","rating":7},{"name":"The Standing Order (Wetherspoon)","phone":"+441312254460","address":"62-66 George St","lat":55.95285236982974,"lng":-3.1995209447125013,"neighborhood":"New Town","city_fetched":"Edinburgh","state":"Edinburgh","country":"United Kingdom","canonicalUrl":"https://foursquare.com/v/the-standing-order-wetherspoon/4b05881ef964a520e0b222e3","category":"Pub","checkinsCount":4264,"usersCount":3141,"tipCount":67,"visitsCount":5089,"url":"http://www.jdwetherspoon.co.uk","tier":1,"message":"Cheap","currency":"£","rating":7},{"name":"Port O Leith Bar","phone":"+441315543568","address":"Constitution St","lat":55.97463547583777,"lng":-3.167298687768229,"neighborhood":"Leith","city_fetched":"Edinburgh","state":"Edinburgh","country":"United Kingdom","canonicalUrl":"https://foursquare.com/v/port-o-leith-bar/4c5fa9ecb6f3be9a4ec65d73","category":"Pub","checkinsCount":105,"usersCount":73,"tipCount":6,"visitsCount":105,"tier":"","message":"","currency":"","rating":7},{"name":"Mother's Gin & Draft Bar","phone":"+441312256490","address":"24 Howe St","lat":55.95624145941839,"lng":-3.2027401717659716,"neighborhood":"New Town","city_fetched":"Edinburgh","state":"Edinburgh","country":"United Kingdom","canonicalUrl":"https://foursquare.com/v/mothers-gin--draft-bar/5324414e498ef46115a1b2a2","category":"Bar","checkinsCount":66,"usersCount":53,"tipCount":2,"visitsCount":66,"url":"http://www.mothersedinburgh.co.uk","tier":"","message":"","currency":"","rating":6.9},{"name":"The White Lady (Wetherspoon)","phone":"+441313140680","twitter":"jdwtweet","address":"92-98 St Johns Rd","lat":55.942935879638995,"lng":-3.2825034856796265,"neighborhood":"Corstorphine","city_fetched":"Edinburgh","state":"Edinburgh","country":"United Kingdom","canonicalUrl":"https://foursquare.com/v/the-white-lady-wetherspoon/4e00a15b315175a7f3f9f045","category":"Pub","checkinsCount":814,"usersCount":293,"tipCount":7,"visitsCount":913,"url":"http://www.jdwetherspoon.co.uk","tier":"","message":"","currency":"","rating":6.9},{"name":"Cask & Barrel Southside","address":"26 W Preston St","lat":55.93913,"lng":-3.1800106666666665,"neighborhood":"Newington","city_fetched":"Edinburgh","state":"Midlothian","country":"United Kingdom","canonicalUrl":"https://foursquare.com/v/cask--barrel-southside/4bf03babc601a5933a73c3d1","category":"Pub","checkinsCount":268,"usersCount":153,"tipCount":11,"visitsCount":269,"tier":"","message":"","currency":"","rating":6.9},{"name":"Iglu","phone":"+441314765333","address":"2B Jamaica Street","lat":55.956103,"lng":-3.202637377777778,"neighborhood":"New Town","city_fetched":"Edinburgh","state":"Midlothian","country":"United Kingdom","canonicalUrl":"https://foursquare.com/v/iglu/4b9aa440f964a520e8c835e3","category":"Bar","checkinsCount":157,"usersCount":105,"tipCount":3,"visitsCount":157,"tier":"","message":"","currency":"","rating":6.9},{"name":"Ensign Ewart","phone":"+441312257440","address":"521-523 Lawnmarket","lat":55.9491219708464,"lng":-3.194252152661598,"neighborhood":"Cowgate","city_fetched":"Edinburgh","state":"Edinburgh","country":"United Kingdom","canonicalUrl":"https://foursquare.com/v/ensign-ewart/4af4a39ef964a52092f421e3","category":"Pub","checkinsCount":538,"usersCount":579,"tipCount":11,"visitsCount":624,"tier":"","message":"","currency":"","rating":6.9},{"name":"Athletic Arms","phone":"+441313373822","address":"1-3 Angle Park Terr","lat":55.93903464825225,"lng":-3.2236177699063546,"neighborhood":"Ardmillan","city_fetched":"Edinburgh","state":"Edinburgh","country":"United Kingdom","canonicalUrl":"https://foursquare.com/v/athletic-arms/4b05881df964a52092b222e3","category":"Pub","checkinsCount":253,"usersCount":171,"tipCount":5,"visitsCount":302,"tier":"","message":"","currency":"","rating":6.8},{"name":"The Cramond Inn","address":"30 Cramond Village","lat":55.979732754885106,"lng":-3.2999883799380845,"neighborhood":"Cramond","city_fetched":"Edinburgh","state":"Edinburgh","country":"United Kingdom","canonicalUrl":"https://foursquare.com/v/the-cramond-inn/4b05881ef964a520c8b222e3","category":"Pub","checkinsCount":212,"usersCount":134,"tipCount":11,"visitsCount":214,"tier":"","message":"","currency":"","rating":6.8},{"name":"1 Grange Road","phone":"+441316672335","address":"1 Grange Road","lat":55.936919,"lng":-3.18035,"neighborhood":"Newington","city_fetched":"Edinburgh","state":"Edinburgh","country":"United Kingdom","canonicalUrl":"https://foursquare.com/v/1-grange-road/4b07fc57f964a520ee0123e3","category":"Pub","checkinsCount":373,"usersCount":174,"tipCount":4,"visitsCount":385,"tier":"","message":"","currency":"","rating":6.6}]