[{"name":"The Prince Albert","phone":"+441353663494","address":"62 Silver St","lat":52.39760479929713,"lng":0.25969822028266704,"city_fetched":"Ely","state":"Cambridgeshire","country":"United Kingdom","canonicalUrl":"https://foursquare.com/v/the-prince-albert/4e3d75e68877b00cfc472e3c","category":"Pub","checkinsCount":226,"usersCount":102,"tipCount":6,"visitsCount":320,"tier":"","message":"","currency":"","rating":8.6},{"name":"The Hereward","phone":"+441353772050","address":"45 Market St","lat":52.400043,"lng":0.26382744312286377,"city_fetched":"Ely","state":"Cambridgeshire","country":"United Kingdom","canonicalUrl":"https://foursquare.com/v/the-hereward/4c73d3ca57b6a143d013c9cc","category":"Bar","checkinsCount":261,"usersCount":127,"tipCount":7,"visitsCount":268,"url":"http://www.herewardely.co.uk","tier":"","message":"","currency":"","rating":6.8},{"name":"The Royal Standard","phone":"+441353645194","twitter":"royalstandard24","address":"24 Fore Hill","lat":52.398249009619725,"lng":0.2673947811126709,"city_fetched":"Ely","state":"Cambridgeshire","country":"United Kingdom","canonicalUrl":"https://foursquare.com/v/the-royal-standard/52eac2e4498ec8875a7fa937","category":"Pub","checkinsCount":117,"usersCount":61,"tipCount":5,"visitsCount":123,"url":"http://www.theroyalstandardely.com","tier":2,"message":"Moderate","currency":"Â£","rating":6.8},{"name":"Minster Tavern","phone":"+441353668492","address":"1 Minster Place","lat":52.3994802477175,"lng":0.2624241709693618,"city_fetched":"Ely","state":"Cambridgeshire","country":"United Kingdom","canonicalUrl":"https://foursquare.com/v/minster-tavern/4c177e04216fc9b692798f96","category":"Pub","checkinsCount":635,"usersCount":155,"tipCount":8,"visitsCount":646,"url":"http://www.minstertavernely.co.uk","tier":"","message":"","currency":"","rating":6.5},{"name":"The Cutter Inn","phone":"+441353662713","address":"42 Annesdale","lat":52.39402445400973,"lng":0.26780711069875124,"city_fetched":"Ely","state":"Cambridgeshire","country":"United Kingdom","canonicalUrl":"https://foursquare.com/v/the-cutter-inn/4bd71ccd637ba593524ef970","category":"Pub","checkinsCount":414,"usersCount":326,"tipCount":6,"visitsCount":533,"tier":"","message":"","currency":"","rating":6.4},{"name":"Town House Pub","phone":"+441353664338","address":"60-64 Market St","lat":52.4003725249115,"lng":0.26386620790955884,"city_fetched":"Ely","state":"Cambridgeshire","country":"United Kingdom","canonicalUrl":"https://foursquare.com/v/town-house-pub/4baa62d8f964a52047653ae3","category":"Pub","checkinsCount":335,"usersCount":60,"tipCount":4,"visitsCount":342,"tier":"","message":"","currency":"","rating":6.2},{"name":"The Lamb Hotel","phone":"+441353663574","address":"2 Lynn Rd","lat":52.399774,"lng":0.26267945766448975,"city_fetched":"Ely","state":"Cambridgeshire","country":"United Kingdom","canonicalUrl":"https://foursquare.com/v/the-lamb-hotel/4bc7823193bdeee1f97637ae","category":"Hotel Bar","checkinsCount":329,"usersCount":175,"tipCount":3,"visitsCount":334,"tier":"","message":"","currency":"","rating":5.6}]