[{"name":"The Old Fire House","phone":"+441392277279","address":"50 New North Rd","lat":50.72675099941483,"lng":-3.5280436277389526,"city_fetched":"Exeter","state":"Devon","country":"United Kingdom","canonicalUrl":"https://foursquare.com/v/the-old-fire-house/4b7f31ccf964a520271e30e3","category":"Pub","checkinsCount":1574,"usersCount":691,"tipCount":29,"visitsCount":1748,"url":"http://www.lemonrock.com/oldfirehouse","tier":"","message":"","currency":"","rating":8.9},{"name":"The Fat Pig","phone":"+441392437217","address":"2 John St","lat":50.72103894721258,"lng":-3.533831834793091,"city_fetched":"Exeter","state":"Devon","country":"United Kingdom","canonicalUrl":"https://foursquare.com/v/the-fat-pig/4be4770e7e2a76b022b21c9b","category":"Pub","checkinsCount":249,"usersCount":169,"tipCount":8,"visitsCount":276,"tier":"","message":"","currency":"","rating":8.3},{"name":"The Imperial (Wetherspoon)","phone":"+441392434050","address":"New North Rd","lat":50.73037076236953,"lng":-3.5397863388061523,"city_fetched":"Exeter","state":"Devon","country":"United Kingdom","canonicalUrl":"https://foursquare.com/v/the-imperial-wetherspoon/4b216dcbf964a520b23b24e3","category":"Pub","checkinsCount":2371,"usersCount":1157,"tipCount":33,"visitsCount":2970,"url":"http://www.jdwetherspoon.co.uk","tier":1,"message":"Cheap","currency":"£","rating":8.3},{"name":"The Mill On The Exe","phone":"+441392214464","twitter":"millontheexe","address":"Bonhay Rd.","lat":50.722044066141365,"lng":-3.539431935137359,"city_fetched":"Exeter","state":"Devon","country":"United Kingdom","canonicalUrl":"https://foursquare.com/v/the-mill-on-the-exe/4bd09c5841b9ef3be770fae5","category":"Pub","checkinsCount":731,"usersCount":526,"tipCount":10,"visitsCount":1004,"url":"http://www.millontheexe.co.uk","tier":"","message":"","currency":"","rating":8},{"name":"On The Waterfront","phone":"+441392210590","twitter":"otwexeter","address":"11 The Quay","lat":50.71818411527763,"lng":-3.530433943389173,"city_fetched":"Exeter","state":"Devon","country":"United Kingdom","canonicalUrl":"https://foursquare.com/v/on-the-waterfront/4b9797b3f964a520860a35e3","category":"Pub","checkinsCount":964,"usersCount":550,"tipCount":23,"visitsCount":978,"url":"http://www.waterfrontexeter.co.uk","tier":"","message":"","currency":"","rating":8},{"name":"Exeter Phoenix","phone":"+441392667080","twitter":"exeterphoenix","address":"Bradninch Pl","lat":50.7251987719836,"lng":-3.5313001382968725,"city_fetched":"Exeter","state":"Devon","country":"United Kingdom","canonicalUrl":"https://foursquare.com/v/exeter-phoenix/4bc8c79a8b7c9c745ce638cf","category":"Music Venue","checkinsCount":866,"usersCount":284,"tipCount":10,"visitsCount":887,"tier":"","message":"","currency":"","rating":7.9},{"name":"The Oddfellows","phone":"+441392209050","twitter":"theoddfellows","address":"60 New North Rd","lat":50.726649125867,"lng":-3.528413772583008,"city_fetched":"Exeter","state":"Devon","country":"United Kingdom","canonicalUrl":"https://foursquare.com/v/the-oddfellows/4b61f474f964a520542d2ae3","category":"Pub","checkinsCount":950,"usersCount":276,"tipCount":16,"visitsCount":983,"url":"http://www.theoddfellowsbar.co.uk","tier":"","message":"","currency":"","rating":7.9},{"name":"Double Locks","phone":"+441392256947","address":"Canal Banks","lat":50.699856724453866,"lng":-3.512704567949881,"city_fetched":"Exeter","state":"Devon","country":"United Kingdom","canonicalUrl":"https://foursquare.com/v/double-locks/4bcb09ee3740b71351ad6165","category":"Pub","checkinsCount":561,"usersCount":450,"tipCount":9,"visitsCount":740,"tier":"","message":"","currency":"","rating":7.7},{"name":"Rendezvous","phone":"+441392270222","twitter":"rendezvouswbar","address":"38-40 Southernhay East","lat":50.721705,"lng":-3.527198,"city_fetched":"Exeter","state":"Devon","country":"United Kingdom","canonicalUrl":"https://foursquare.com/v/rendezvous/4c56e07712f0d13aa4c505ad","category":"Bar","checkinsCount":93,"usersCount":61,"tipCount":2,"visitsCount":100,"url":"http://www.winebar10.co.uk","tier":"","message":"","currency":"","rating":7.7},{"name":"Cosy Club","phone":"+441392848744","address":"1 Souythernhay Gdns","lat":50.721343,"lng":-3.52712,"city_fetched":"Exeter","state":"Devon","country":"United Kingdom","canonicalUrl":"https://foursquare.com/v/cosy-club/515c4074e4b0b029384dd4ae","category":"Café","checkinsCount":190,"usersCount":156,"tipCount":7,"visitsCount":258,"tier":"","message":"","currency":"","rating":7.7},{"name":"The Lighter Inn","address":"The Quay","lat":50.68129611,"lng":-3.464866,"city_fetched":"Exeter","state":"Devon","country":"United Kingdom","canonicalUrl":"https://foursquare.com/v/the-lighter-inn/4c54337ea724e21e4b15fef5","category":"Pub","checkinsCount":219,"usersCount":178,"tipCount":7,"visitsCount":276,"url":"http://lighterinn.co.uk","tier":"","message":"","currency":"","rating":7.6},{"name":"The Beer Cellar","phone":"+441392757570","twitter":"beercellarexe","address":"2 South St","lat":50.72242117828391,"lng":-3.5321688652038574,"city_fetched":"Exeter","state":"Devon","country":"United Kingdom","canonicalUrl":"https://foursquare.com/beercellarexe","category":"Bar","checkinsCount":254,"usersCount":72,"tipCount":7,"visitsCount":284,"tier":"","message":"","currency":"","rating":7.6},{"name":"The Bowling Green","address":"Blackboy road","lat":50.729618,"lng":-3.51758,"city_fetched":"Exeter","state":"Devon","country":"United Kingdom","canonicalUrl":"https://foursquare.com/v/the-bowling-green/4b5b77c6f964a520710029e3","category":"Bar","checkinsCount":329,"usersCount":112,"tipCount":5,"visitsCount":333,"tier":"","message":"","currency":"","rating":7.6},{"name":"Countess Wear (Beefeater)","phone":"+441392428000","twitter":"beefeater","address":"398 Topsham Rd.","lat":50.7004021131643,"lng":-3.4942482588454156,"city_fetched":"Exeter","state":"Devon","country":"United Kingdom","canonicalUrl":"https://foursquare.com/v/countess-wear-beefeater/4c44538afb6eb713a36f4e4a","category":"Pub","checkinsCount":286,"usersCount":175,"tipCount":5,"visitsCount":316,"url":"http://www.beefeater.co.uk/steak-restaurant/Devon/Countess-Wear-Exeter.html","tier":"","message":"","currency":"","rating":7.6},{"name":"The Rusty Bike","phone":"+441392214440","address":"67 Howell Rd","lat":50.729163,"lng":-3.5292774438858032,"city_fetched":"Exeter","state":"Devon","country":"United Kingdom","canonicalUrl":"https://foursquare.com/v/the-rusty-bike/4bdb7fca2a3a0f471879afb6","category":"Pub","checkinsCount":239,"usersCount":134,"tipCount":7,"visitsCount":262,"tier":"","message":"","currency":"","rating":7.5},{"name":"Ship Inn","address":"Exeter, Devon EX4 3LW","lat":50.723495,"lng":-3.530268,"city_fetched":"Exeter","state":"Devon","country":"United Kingdom","canonicalUrl":"https://foursquare.com/v/ship-inn/4c387fb5ae2da593c7b500c6","category":"Pub","checkinsCount":353,"usersCount":206,"tipCount":4,"visitsCount":357,"tier":"","message":"","currency":"","rating":7.4},{"name":"City Gate Hotel","phone":"+441392495811","twitter":"citygateexeter","address":"Iron Bridge, Lower North St","lat":50.72370292660438,"lng":-3.534908943600969,"city_fetched":"Exeter","state":"Devon","country":"United Kingdom","canonicalUrl":"https://foursquare.com/v/city-gate-hotel/4c25dbbbf7ced13aec46256d","category":"Pub","checkinsCount":343,"usersCount":176,"tipCount":2,"visitsCount":371,"url":"http://www.citygatehotel.com","tier":"","message":"","currency":"","rating":7.3},{"name":"Blue Ball","address":"Sandygate","lat":50.70858778087552,"lng":-3.4640533721765028,"city_fetched":"Exeter","state":"Devon","country":"United Kingdom","canonicalUrl":"https://foursquare.com/v/blue-ball/4bc85c4592b376b03a33513a","category":"Gastropub","checkinsCount":101,"usersCount":95,"tipCount":5,"visitsCount":160,"tier":2,"message":"Moderate","currency":"£","rating":7.2},{"name":"The Barn Owl","phone":"+441392449011","address":"Guardian Rd","lat":50.72556415884091,"lng":-3.4714356064796448,"city_fetched":"Exeter","state":"Devon","country":"United Kingdom","canonicalUrl":"https://foursquare.com/v/the-barn-owl/4bae031ef964a520c47a3be3","category":"Pub","checkinsCount":462,"usersCount":230,"tipCount":6,"visitsCount":529,"tier":2,"message":"Moderate","currency":"£","rating":7.2},{"name":"The Monkey Suit","phone":"+441392431420","address":"Sidwell St.","lat":50.72652894946282,"lng":-3.5246936582027932,"city_fetched":"Exeter","state":"Devon","country":"United Kingdom","canonicalUrl":"https://foursquare.com/v/the-monkey-suit/4be5cff85254d13a519060e1","category":"Bar","checkinsCount":540,"usersCount":339,"tipCount":8,"visitsCount":683,"tier":"","message":"","currency":"","rating":7.1},{"name":"Lemon Grove","lat":50.734909202588966,"lng":-3.5299218777274564,"city_fetched":"Exeter","state":"Devon","country":"United Kingdom","canonicalUrl":"https://foursquare.com/v/lemon-grove/4b89a6f2f964a520454932e3","category":"Nightclub","checkinsCount":255,"usersCount":136,"tipCount":4,"visitsCount":268,"tier":"","message":"","currency":"","rating":7},{"name":"The Sorry Head","address":"Exeter, Devon EX4 6TZ","lat":50.729448869925676,"lng":-3.5192111134529114,"city_fetched":"Exeter","state":"Devon","country":"United Kingdom","canonicalUrl":"https://foursquare.com/v/the-sorry-head/4cfeb7042432a093e7ff161a","category":"Bar","checkinsCount":362,"usersCount":84,"tipCount":7,"visitsCount":417,"tier":"","message":"","currency":"","rating":7},{"name":"Arena Nightclub","phone":"+441392491419","address":"Summerland Street","lat":50.727097367820456,"lng":-3.5220837593078613,"city_fetched":"Exeter","state":"Devon","country":"United Kingdom","canonicalUrl":"https://foursquare.com/v/arena-nightclub/4bf5af14004ed13a1d1641a0","category":"Nightclub","checkinsCount":952,"usersCount":304,"tipCount":6,"visitsCount":1254,"url":"http://www.arenaclubbing.co.uk/exeter","tier":"","message":"","currency":"","rating":6.9},{"name":"Starz","lat":50.724454,"lng":-3.535578,"city_fetched":"Exeter","state":"Devon","country":"United Kingdom","canonicalUrl":"https://foursquare.com/v/starz/4c57307c744a0f47c16ac8cb","category":"Restaurant","checkinsCount":123,"usersCount":75,"tipCount":7,"visitsCount":126,"tier":2,"message":"Moderate","currency":"£","rating":6.9}]