[{"name":"Double Locks","phone":"+441392256947","address":"Canal Banks","lat":50.699856724453866,"lng":-3.512704567949881,"city_fetched":"Exminster,UK","state":"Devon","country":"United Kingdom","canonicalUrl":"https://foursquare.com/v/double-locks/4bcb09ee3740b71351ad6165","categoryId":"4bf58dd8d48988d11b941735","category":"Pub","checkinsCount":561,"usersCount":450,"tipCount":9,"visitsCount":740,"tier":"","message":"","currency":"","rating":7.8},{"name":"The Lighter Inn","address":"The Quay","lat":50.68129611,"lng":-3.464866,"city_fetched":"Exminster,UK","state":"Devon","country":"United Kingdom","canonicalUrl":"https://foursquare.com/v/the-lighter-inn/4c54337ea724e21e4b15fef5","categoryId":"4bf58dd8d48988d11b941735","category":"Pub","checkinsCount":219,"usersCount":178,"tipCount":7,"visitsCount":276,"url":"http://lighterinn.co.uk","tier":"","message":"","currency":"","rating":7.5},{"name":"Countess Wear (Beefeater)","phone":"+441392428000","twitter":"beefeater","address":"398 Topsham Rd.","lat":50.7004021131643,"lng":-3.4942482588454156,"city_fetched":"Exminster,UK","state":"Devon","country":"United Kingdom","canonicalUrl":"https://foursquare.com/v/countess-wear-beefeater/4c44538afb6eb713a36f4e4a","categoryId":"4bf58dd8d48988d11b941735","category":"Pub","checkinsCount":286,"usersCount":175,"tipCount":5,"visitsCount":316,"url":"http://www.beefeater.co.uk/steak-restaurant/Devon/Countess-Wear-Exeter.html","tier":"","message":"","currency":"","rating":7.5},{"name":"Turf Locks","twitter":"turflockspub","address":"Exminster, Devon","lat":50.66501860880911,"lng":-3.4673845106426797,"city_fetched":"Exminster,UK","state":"Devon","country":"United Kingdom","canonicalUrl":"https://foursquare.com/v/turf-locks/4bc9e837937ca5936a91a692","categoryId":"4bf58dd8d48988d11b941735","category":"Pub","checkinsCount":168,"usersCount":94,"tipCount":1,"visitsCount":170,"url":"http://turfpub.net","tier":"","message":"","currency":"","rating":7.4}]