[{"name":"Behind The Wall","phone":"+441324633338","address":"14 Melville St","lat":56.001212,"lng":-3.785243,"city_fetched":"Falkirk","state":"Falkirk","country":"United Kingdom","canonicalUrl":"https://foursquare.com/v/behind-the-wall/4b707754f964a5202a1c2de3","category":"Pub","checkinsCount":563,"usersCount":257,"tipCount":17,"visitsCount":637,"url":"http://www.behindthewall.co.uk","tier":"","message":"","currency":"","rating":8},{"name":"Johnston's Bar Bistro","phone":"+441324637299","address":"14 Lint Riggs","lat":56.00021683229411,"lng":-3.7867641448974605,"city_fetched":"Falkirk","state":"Falkirk","country":"United Kingdom","canonicalUrl":"https://foursquare.com/v/johnstons-bar-bistro/5160813cf31cd21c788ad9f3","category":"Bar","checkinsCount":41,"usersCount":23,"tipCount":3,"visitsCount":42,"url":"http://www.johnstons-bar-bistro.co.uk","tier":"","message":"","currency":"","rating":7.5},{"name":"Sportsters","phone":"+441324673220","address":"8-12 Princes St","lat":56.000564,"lng":-3.783524,"city_fetched":"Falkirk","state":"Falkirk","country":"United Kingdom","canonicalUrl":"https://foursquare.com/v/sportsters/4b759b60f964a52027172ee3","category":"Sports Bar","checkinsCount":708,"usersCount":169,"tipCount":5,"visitsCount":750,"tier":"","message":"","currency":"","rating":6.9},{"name":"City","phone":"+441324673220","address":"8-12 Princes St","lat":56.000564,"lng":-3.783674,"city_fetched":"Falkirk","state":"Falkirk","country":"United Kingdom","canonicalUrl":"https://foursquare.com/v/city/4c07a68c88ba9521980fe88f","category":"Nightclub","checkinsCount":362,"usersCount":65,"tipCount":4,"visitsCount":364,"url":"http://www.cityfalkirk.co.uk","tier":"","message":"","currency":"","rating":6.8},{"name":"Carron Works (Wetherspoon)","phone":"+441324673020","address":"Bank St","lat":56.000300824577394,"lng":-3.783416748046875,"city_fetched":"Falkirk","state":"Falkirk","country":"United Kingdom","canonicalUrl":"https://foursquare.com/v/carron-works-wetherspoon/4c87aaf6821e9eb0e9cc8d89","category":"Pub","checkinsCount":836,"usersCount":223,"tipCount":1,"visitsCount":880,"url":"http://www.jdwetherspoon.co.uk","tier":"","message":"","currency":"","rating":6.7}]