[{"name":"The Fareham","phone":"+441329220686","address":"54 Trinity St.","lat":50.854089118320424,"lng":-1.1833691596984863,"city_fetched":"Fareham","state":"Hampshire","country":"United Kingdom","canonicalUrl":"https://foursquare.com/v/the-fareham/4bb7bca41261d13a6bcbe798","category":"Pub","checkinsCount":218,"usersCount":74,"tipCount":4,"visitsCount":276,"url":"http://www.thefarehampub.co.uk","tier":"","message":"","currency":"","rating":7.4},{"name":"Cams Mill","phone":"+441329287506","twitter":"camsmillfareham","address":"Cams Hall Estate","lat":50.85227319274461,"lng":-1.1659394286323166,"city_fetched":"Fareham","state":"Hampshire","country":"United Kingdom","canonicalUrl":"https://foursquare.com/v/cams-mill/528a297a11d24e4d2aefbdf7","category":"Pub","checkinsCount":226,"usersCount":123,"tipCount":4,"visitsCount":322,"url":"http://www.camsmill.co.uk","tier":"","message":"","currency":"","rating":6.9},{"name":"Oast & Squire (Beefeater)","phone":"+441329844377","twitter":"beefeatergrill","address":"2 Peak Ln","lat":50.851133009381385,"lng":-1.2114944901827471,"city_fetched":"Fareham","state":"Hampshire","country":"United Kingdom","canonicalUrl":"https://foursquare.com/v/oast--squire-beefeater/4c4d8cd914b7b7137fa36078","category":"Pub","checkinsCount":158,"usersCount":123,"tipCount":2,"visitsCount":207,"url":"http://www.beefeater.co.uk","tier":"","message":"","currency":"","rating":6.2},{"name":"The Crown Inn (Wetherspoon)","phone":"+441329241750","address":"40 West St.","lat":50.85224680231901,"lng":-1.176760196685791,"city_fetched":"Fareham","state":"Hampshire","country":"United Kingdom","canonicalUrl":"https://foursquare.com/v/the-crown-inn-wetherspoon/4b5e035ef964a5202b7929e3","category":"Pub","checkinsCount":1074,"usersCount":215,"tipCount":10,"visitsCount":1132,"url":"http://www.jdwetherspoon.co.uk","tier":"","message":"","currency":"","rating":6.1},{"name":"The Lord Arthur Lee (Wetherspoon)","phone":"+441329280447","twitter":"jdwtweet","address":"100-108 West St.","lat":50.85243645585565,"lng":-1.1813843250274658,"city_fetched":"Fareham","state":"Hampshire","country":"United Kingdom","canonicalUrl":"https://foursquare.com/v/the-lord-arthur-lee-wetherspoon/4cd2b78ddf88a35d65706aa0","category":"Pub","checkinsCount":797,"usersCount":233,"tipCount":10,"visitsCount":936,"url":"http://www.jdwetherspoon.co.uk/home/pubs/the-lord-arthur-lee","tier":"","message":"","currency":"","rating":6},{"name":"The Slug and Lettuce","phone":"+441329236213","twitter":"slugfareham","address":"64 West St.","lat":50.85236,"lng":-1.177989,"city_fetched":"Fareham","state":"Hampshire","country":"United Kingdom","canonicalUrl":"https://foursquare.com/v/the-slug-and-lettuce/4f22bc07e4b0831874c76408","category":"Gastropub","checkinsCount":59,"usersCount":46,"tipCount":2,"visitsCount":63,"tier":"","message":"","currency":"","rating":5.8},{"name":"Red Lion Hotel","phone":"+441329822640","address":"East St.","lat":50.85207408146291,"lng":-1.174190640449524,"city_fetched":"Fareham","state":"Hampshire","country":"United Kingdom","canonicalUrl":"https://foursquare.com/v/red-lion-hotel/4c3dc29e4bc9a5937a68d471","category":"Pub","checkinsCount":234,"usersCount":119,"tipCount":5,"visitsCount":249,"tier":"","message":"","currency":"","rating":5.5}]