[{"name":"Hog's Back Brewery","phone":"+441252783000","twitter":"hogsbackbrewery","address":"Manor Farm, The Street","lat":51.228616323663516,"lng":-0.7319211959838867,"city_fetched":"Farnborough,UK","state":"Surrey","country":"United Kingdom","canonicalUrl":"https://foursquare.com/v/hogs-back-brewery/4b2398c4f964a520175724e3","categoryId":"50327c8591d4c4b30a586d5d","category":"Brewery","checkinsCount":335,"usersCount":266,"tipCount":12,"visitsCount":445,"tier":"","message":"","currency":"","rating":8.9},{"name":"The Prince of Wales","phone":"+441252545578","twitter":"londonirishpubs","address":"184 Rectory Rd","lat":51.30033626786888,"lng":-0.7431094549994298,"city_fetched":"Farnborough,UK","state":"Hampshire","country":"United Kingdom","canonicalUrl":"https://foursquare.com/v/the-prince-of-wales/4ee61a462da504839760f903","categoryId":"4bf58dd8d48988d11b941735","category":"Pub","checkinsCount":676,"usersCount":124,"tipCount":9,"visitsCount":756,"url":"http://www.theprinceinfarnborough.co.uk","tier":"","message":"","currency":"","rating":8.5},{"name":"The Fox & Hounds","phone":"+441252663686","address":"71 Crookham Rd","lat":51.2710171,"lng":-0.850359,"city_fetched":"Farnborough,UK","state":"Hampshire","country":"United Kingdom","canonicalUrl":"https://foursquare.com/v/the-fox--hounds/4b731a37f964a5208c9b2de3","categoryId":"4bf58dd8d48988d11b941735","category":"Pub","checkinsCount":227,"usersCount":126,"tipCount":3,"visitsCount":314,"url":"http://www.foxandhoundscc.co.uk","tier":"","message":"","currency":"","rating":8.4},{"name":"The Foresters","phone":"+441252616503","address":"Aldershot Rd","lat":51.267342551098366,"lng":-0.8173227310180664,"city_fetched":"Farnborough,UK","state":"Hampshire","country":"United Kingdom","canonicalUrl":"https://foursquare.com/v/the-foresters/4b2aaeebf964a520a3ad24e3","categoryId":"4bf58dd8d48988d11b941735","category":"Pub","checkinsCount":169,"usersCount":141,"tipCount":4,"visitsCount":231,"url":"http://www.forestersatchurchcrookham.co.uk","tier":"","message":"","currency":"","rating":8},{"name":"The Kingfisher On The Quay","phone":"+441252372656","address":"The Quays","lat":51.29706374,"lng":-0.737198,"city_fetched":"Farnborough,UK","state":"Surrey","country":"United Kingdom","canonicalUrl":"https://foursquare.com/v/the-kingfisher-on-the-quay/4b7c686bf964a5207e912fe3","categoryId":"4bf58dd8d48988d11b941735","category":"Pub","checkinsCount":393,"usersCount":358,"tipCount":10,"visitsCount":568,"url":"http://www.mcmullens.co.uk/kingfisheronthequay","tier":"","message":"","currency":"","rating":8},{"name":"The Squirrel","phone":"+441252523980","address":"125 Park Road","lat":51.280601,"lng":-0.738103,"city_fetched":"Farnborough,UK","state":"Hampshire","country":"United Kingdom","canonicalUrl":"https://foursquare.com/v/the-squirrel/4b28cdeaf964a520509524e3","categoryId":"4bf58dd8d48988d11b941735","category":"Pub","checkinsCount":224,"usersCount":121,"tipCount":9,"visitsCount":270,"tier":"","message":"","currency":"","rating":7.9},{"name":"The Crab & Anchor","phone":"+441252378388","address":"Links Way","lat":51.29157307629222,"lng":-0.7871103286743164,"city_fetched":"Farnborough,UK","state":"Hampshire","country":"United Kingdom","canonicalUrl":"https://foursquare.com/v/the-crab--anchor/4b28d79ff964a5209e9524e3","categoryId":"4bf58dd8d48988d11b941735","category":"Pub","checkinsCount":266,"usersCount":133,"tipCount":6,"visitsCount":274,"url":"http://www.crabandanchor.co.uk","tier":"","message":"","currency":"","rating":7.9},{"name":"The Exchequer","phone":"+441252615336","twitter":"theexchequerpub","address":"Crondall Rd","lat":51.26108740899516,"lng":-0.8661983991115628,"city_fetched":"Farnborough,UK","state":"Hampshire","country":"United Kingdom","canonicalUrl":"https://foursquare.com/v/the-exchequer/4bd1c4e6046076b01a687271","categoryId":"4bf58dd8d48988d11b941735","category":"Pub","checkinsCount":182,"usersCount":123,"tipCount":9,"visitsCount":242,"url":"http://www.exchequercrookham.co.uk","tier":"","message":"","currency":"","rating":7.9},{"name":"The Good Intent","phone":"+441483810387","address":"Puttenham","lat":51.22195950683941,"lng":-0.6678953503929466,"city_fetched":"Farnborough,UK","country":"United Kingdom","canonicalUrl":"https://foursquare.com/v/the-good-intent/4b7ee286f964a520d10630e3","categoryId":"4bf58dd8d48988d11b941735","category":"Pub","checkinsCount":79,"usersCount":56,"tipCount":4,"visitsCount":115,"url":"http://www.thegoodintentpub.co.uk","tier":"","message":"","currency":"","rating":7.7},{"name":"The Swan","phone":"+441252757919","twitter":"chefandbrewer","address":"2 Hutton Rd","lat":51.26686593291339,"lng":-0.7190948724746704,"city_fetched":"Farnborough,UK","state":"Surrey","country":"United Kingdom","canonicalUrl":"https://foursquare.com/v/the-swan/4b47818af964a520463426e3","categoryId":"4bf58dd8d48988d11b941735","category":"Pub","checkinsCount":624,"usersCount":303,"tipCount":12,"visitsCount":749,"url":"http://www.chefandbrewer.com","tier":"","message":"","currency":"","rating":7.6},{"name":"Heron On The Lake","phone":"+441252812522","address":"14 Old Cove Rd","lat":51.29216685058119,"lng":-0.8281749486923218,"city_fetched":"Farnborough,UK","state":"Hampshire","country":"United Kingdom","canonicalUrl":"https://foursquare.com/v/heron-on-the-lake/4b7e90c5f964a52003f32fe3","categoryId":"4bf58dd8d48988d11b941735","category":"Pub","checkinsCount":660,"usersCount":459,"tipCount":19,"visitsCount":855,"tier":"","message":"","currency":"","rating":7.6},{"name":"The Crown & Cushion","phone":"+441252545253","twitter":"crowncushion","address":"Minley Road","lat":51.30714620775169,"lng":-0.804222822189331,"city_fetched":"Farnborough,UK","state":"Surrey","country":"United Kingdom","canonicalUrl":"https://foursquare.com/v/the-crown--cushion/4b212ec3f964a520d53724e3","categoryId":"4bf58dd8d48988d11b941735","category":"Pub","checkinsCount":375,"usersCount":198,"tipCount":12,"visitsCount":444,"url":"http://www.baronspubs.com/crownandcushion/","tier":"","message":"","currency":"","rating":7.6},{"name":"The White Hart","phone":"+441483799715","address":"The Green","lat":51.29348520333045,"lng":-0.6453609466552734,"city_fetched":"Farnborough,UK","state":"Surrey","country":"United Kingdom","canonicalUrl":"https://foursquare.com/v/the-white-hart/4b8a92fcf964a520ff7232e3","categoryId":"4bf58dd8d48988d11b941735","category":"Pub","checkinsCount":368,"usersCount":248,"tipCount":8,"visitsCount":497,"url":"http://www.thewhitehartpirbright.co.uk","tier":"","message":"","currency":"","rating":7.5},{"name":"Sky Bar","phone":"+441252555893","twitter":"aviatorbytag","address":"55 Farnborough Rd","lat":51.27927662614645,"lng":-0.7545304205179819,"city_fetched":"Farnborough,UK","state":"Hampshire","country":"United Kingdom","canonicalUrl":"https://foursquare.com/v/sky-bar/4c057dba191f20a1082ae314","categoryId":"4bf58dd8d48988d1d5941735","category":"Hotel Bar","checkinsCount":391,"usersCount":234,"tipCount":5,"visitsCount":394,"url":"http://www.aviatorbytag.com","tier":"","message":"","currency":"","rating":7.5},{"name":"The Tilly Shilling (Wetherspoon)","phone":"+441252893560","twitter":"jdwtweet","address":"24-30 Victoria Rd","lat":51.293598811834556,"lng":-0.7566016270320718,"city_fetched":"Farnborough,UK","state":"Hampshire","country":"United Kingdom","canonicalUrl":"https://foursquare.com/v/the-tilly-shilling-wetherspoon/4e281690b61c9d28cbf0a8e2","categoryId":"4bf58dd8d48988d11b941735","category":"Pub","checkinsCount":1236,"usersCount":364,"tipCount":16,"visitsCount":1485,"url":"http://www.jdwetherspoon.co.uk","tier":"","message":"","currency":"","rating":7.1},{"name":"The Greyhound","phone":"+441252338013","address":"1 Ash St","lat":51.244382902417904,"lng":-0.7289347302636675,"city_fetched":"Farnborough,UK","state":"Surrey","country":"United Kingdom","canonicalUrl":"https://foursquare.com/v/the-greyhound/4ba240b8f964a5203ae737e3","categoryId":"4bf58dd8d48988d11b941735","category":"Pub","checkinsCount":209,"usersCount":90,"tipCount":5,"visitsCount":242,"url":"http://www.thegreyhoundaldershot.co.uk","tier":"","message":"","currency":"","rating":7},{"name":"The Oatsheaf","phone":"+441252819508","address":"2 Crookham Rd","lat":51.27826915931119,"lng":-0.8460506350526845,"city_fetched":"Farnborough,UK","state":"Hampshire","country":"United Kingdom","canonicalUrl":"https://foursquare.com/v/the-oatsheaf/4ace567df964a520f7cf20e3","categoryId":"4bf58dd8d48988d11b941735","category":"Pub","checkinsCount":595,"usersCount":314,"tipCount":9,"visitsCount":704,"tier":"","message":"","currency":"","rating":7},{"name":"The Swan","phone":"+441252544654","address":"91 Farnborough Rd","lat":51.28299100631173,"lng":-0.7530355453491211,"city_fetched":"Farnborough,UK","state":"Hampshire","country":"United Kingdom","canonicalUrl":"https://foursquare.com/v/the-swan/4b2243fcf964a520e84424e3","categoryId":"4bf58dd8d48988d11b941735","category":"Pub","checkinsCount":606,"usersCount":405,"tipCount":11,"visitsCount":749,"tier":"","message":"","currency":"","rating":7},{"name":"The Old Wheatsheaf","phone":"+441252835074","address":"205 Frimley Green Rd","lat":51.30537718089199,"lng":-0.7293596863746643,"city_fetched":"Farnborough,UK","state":"Surrey","country":"United Kingdom","canonicalUrl":"https://foursquare.com/v/the-old-wheatsheaf/4b48d1d2f964a520925826e3","categoryId":"4bf58dd8d48988d11b941735","category":"Pub","checkinsCount":219,"usersCount":77,"tipCount":5,"visitsCount":252,"tier":"","message":"","currency":"","rating":6.9},{"name":"Snow Goose","phone":"+441252545132","address":"135 Fernhill Rd","lat":51.303011,"lng":-0.776184,"city_fetched":"Farnborough,UK","state":"Hampshire","country":"United Kingdom","canonicalUrl":"https://foursquare.com/v/snow-goose/4b28d082f964a520669524e3","categoryId":"4bf58dd8d48988d11b941735","category":"Pub","checkinsCount":105,"usersCount":35,"tipCount":4,"visitsCount":119,"tier":"","message":"","currency":"","rating":6.9},{"name":"The Prince Arthur (Wetherspoon)","phone":"+441252622660","address":"238 Fleet Rd.","lat":51.27885708371413,"lng":-0.845099687576294,"city_fetched":"Farnborough,UK","state":"Hampshire","country":"United Kingdom","canonicalUrl":"https://foursquare.com/v/the-prince-arthur-wetherspoon/4b2ac160f964a520fbae24e3","categoryId":"4bf58dd8d48988d11b941735","category":"Pub","checkinsCount":822,"usersCount":251,"tipCount":5,"visitsCount":889,"url":"http://www.jdwetherspoon.co.uk","tier":"","message":"","currency":"","rating":6.9},{"name":"Plough & Horses - Shepherd Neame","phone":"+441252545199","twitter":"shepherdneame","address":"90 Fleet Rd","lat":51.295912148141745,"lng":-0.7833632826805115,"city_fetched":"Farnborough,UK","state":"Hampshire","country":"United Kingdom","canonicalUrl":"https://foursquare.com/v/plough--horses--shepherd-neame/4b28d00ff964a520629524e3","categoryId":"4bf58dd8d48988d11b941735","category":"Pub","checkinsCount":233,"usersCount":115,"tipCount":4,"visitsCount":365,"url":"http://www.shepherdneame.co.uk","tier":"","message":"","currency":"","rating":6.4},{"name":"The Queen Hotel (Wetherspoon)","phone":"+441252361770","twitter":"jdwtweet","address":"1 High St","lat":51.24958597104154,"lng":-0.7672107712353647,"city_fetched":"Farnborough,UK","state":"Hampshire","country":"United Kingdom","canonicalUrl":"https://foursquare.com/v/the-queen-hotel-wetherspoon/53205159498e91cfd7ce2e3e","categoryId":"4bf58dd8d48988d11b941735","category":"Pub","checkinsCount":301,"usersCount":80,"tipCount":1,"visitsCount":330,"url":"http://www.jdwetherspoon.co.uk/home/pubs/the-queen-hotel","tier":"","message":"","currency":"","rating":6.3},{"name":"Propaganda","phone":"+441252620198","twitter":"midhurst7fish","address":"317-321 Fleet Rd","lat":51.279047,"lng":-0.844619,"city_fetched":"Farnborough,UK","state":"Hampshire","country":"United Kingdom","canonicalUrl":"https://foursquare.com/v/propaganda/4b4a3a82f964a520bc7f26e3","categoryId":"4bf58dd8d48988d121941735","category":"Lounge","checkinsCount":343,"usersCount":165,"tipCount":5,"visitsCount":355,"url":"http://www.musiccanteen.co.uk","tier":"","message":"","currency":"","rating":6},{"name":"Rackstraws Farm (Beefeater)","phone":"+441252878181","twitter":"beefeater","address":"221 Yorktown Rd","lat":51.345443831676256,"lng":-0.7860072790156986,"city_fetched":"Farnborough,UK","state":"Bracknell Forest","country":"United Kingdom","canonicalUrl":"https://foursquare.com/v/rackstraws-farm-beefeater/4bf58e0c5e800f475db4e5d4","categoryId":"4bf58dd8d48988d11b941735","category":"Pub","checkinsCount":307,"usersCount":177,"tipCount":8,"visitsCount":359,"url":"http://www.beefeater.co.uk/steak-restaurant/Berkshire/Rackstraws-Farm-Sandhurst.html","tier":"","message":"","currency":"","rating":6},{"name":"The Alexandra","phone":"+441252519964","twitter":"alexandra_pub","address":"74 Victoria Rd","lat":51.29339173344556,"lng":-0.7589566785850571,"city_fetched":"Farnborough,UK","state":"Hampshire","country":"United Kingdom","canonicalUrl":"https://foursquare.com/v/the-alexandra/4b23c799f964a520875924e3","categoryId":"4bf58dd8d48988d11b941735","category":"Pub","checkinsCount":115,"usersCount":48,"tipCount":5,"visitsCount":117,"tier":"","message":"","currency":"","rating":6},{"name":"Brewers Fayre","phone":"+441252546654","address":"101 Ively Rd","lat":51.28885925927591,"lng":-0.7788482893999071,"city_fetched":"Farnborough,UK","state":"Hampshire","country":"United Kingdom","canonicalUrl":"https://foursquare.com/v/brewers-fayre/4b2cfbb4f964a520c6cb24e3","categoryId":"4bf58dd8d48988d11b941735","category":"Pub","checkinsCount":298,"usersCount":126,"tipCount":3,"visitsCount":302,"tier":"","message":"","currency":"","rating":6},{"name":"The Crabtree","phone":"+44127624875","twitter":"crabanddragon","address":"220 Frimley Rd","lat":51.32163792224368,"lng":-0.7531750202178955,"city_fetched":"Farnborough,UK","state":"Surrey","country":"United Kingdom","canonicalUrl":"https://foursquare.com/v/the-crabtree/4b6b4056f964a52032fc2be3","categoryId":"4bf58dd8d48988d11b941735","category":"Pub","checkinsCount":338,"usersCount":170,"tipCount":8,"visitsCount":428,"url":"http://www.emberinns.co.uk/the-crabtree-camberley","tier":"","message":"","currency":"","rating":5.9},{"name":"The Gloster","phone":"+441252511840","address":"O'Gorman Ave","lat":51.28481702395834,"lng":-0.7546161417636622,"city_fetched":"Farnborough,UK","state":"Hampshire","country":"United Kingdom","canonicalUrl":"https://foursquare.com/v/the-gloster/518cf369498edf83d53d7f7c","categoryId":"4bf58dd8d48988d11b941735","category":"Pub","checkinsCount":288,"usersCount":166,"tipCount":4,"visitsCount":447,"url":"http://www.hungryhorse.co.uk/pub-finder/details/gloster-farnborough","tier":"","message":"","currency":"","rating":5.7},{"name":"New Inn","phone":"+44127632012","address":"Hawley Rd.","lat":51.316987794460836,"lng":-0.76629638671875,"city_fetched":"Farnborough,UK","state":"Surrey","country":"United Kingdom","canonicalUrl":"https://foursquare.com/v/new-inn/4b365459f964a520fa3225e3","categoryId":"4bf58dd8d48988d11b941735","category":"Pub","checkinsCount":242,"usersCount":100,"tipCount":3,"visitsCount":278,"tier":"","message":"","currency":"","rating":5.6},{"name":"Ye Olde White Hart","phone":"+44127622816","address":"Frimley High St","lat":51.31457369943049,"lng":-0.7434225082397461,"city_fetched":"Farnborough,UK","state":"Surrey","country":"United Kingdom","canonicalUrl":"https://foursquare.com/v/ye-olde-white-hart/4b82d3e5f964a5209be730e3","categoryId":"4bf58dd8d48988d11b941735","category":"Pub","checkinsCount":322,"usersCount":127,"tipCount":12,"visitsCount":389,"tier":"","message":"","currency":"","rating":5.3},{"name":"The Public House","twitter":"village_resorts","address":"Pinehurst Rd","lat":51.28712608517884,"lng":-0.7598657135082256,"city_fetched":"Farnborough,UK","state":"Hampshire","country":"United Kingdom","canonicalUrl":"https://foursquare.com/v/the-public-house/4baca78ef964a5202e013be3","categoryId":"4bf58dd8d48988d11b941735","category":"Pub","checkinsCount":559,"usersCount":198,"tipCount":14,"visitsCount":578,"url":"http://www.village-hotels.co.uk","tier":"","message":"","currency":"","rating":5},{"name":"The North Camp","phone":"+441252510181","address":"95 Lynchford Rd","lat":51.2748570252585,"lng":-0.7462120056152344,"city_fetched":"Farnborough,UK","state":"Hampshire","country":"United Kingdom","canonicalUrl":"https://foursquare.com/v/the-north-camp/4b7c6a39f964a520df912fe3","categoryId":"4bf58dd8d48988d11b941735","category":"Pub","checkinsCount":73,"usersCount":52,"tipCount":2,"visitsCount":75,"tier":"","message":"","currency":"","rating":4.6}]