[{"name":"Phoenix Tavern","address":"Abbey St.","lat":51.317861771663374,"lng":0.893599031437931,"city_fetched":"Faversham","state":"Kent","country":"United Kingdom","canonicalUrl":"https://foursquare.com/v/phoenix-tavern/4c824fd574d7b60c2dae7ed8","category":"Pub","checkinsCount":223,"usersCount":77,"tipCount":11,"visitsCount":228,"tier":"","message":"","currency":"","rating":7.8},{"name":"The Sun Inn - Shepherd Neame","phone":"+441795535098","address":"10 West Street","lat":51.31595176090408,"lng":0.8899006247520447,"city_fetched":"Faversham","state":"Kent","country":"United Kingdom","canonicalUrl":"https://foursquare.com/v/the-sun-inn--shepherd-neame/4c55aaefb3b09c74719b4fb4","category":"Pub","checkinsCount":563,"usersCount":201,"tipCount":5,"visitsCount":647,"url":"http://www.shepherdneame.co.uk","tier":"","message":"","currency":"","rating":7.5},{"name":"Shepherd Neame","phone":"+441795532206","address":"17 Court Street","lat":51.31667158880029,"lng":0.8915719125350232,"city_fetched":"Faversham","state":"Kent","country":"United Kingdom","canonicalUrl":"https://foursquare.com/v/shepherd-neame/4c4fd5421886c9b64f32af27","category":"Brewery","checkinsCount":253,"usersCount":187,"tipCount":7,"visitsCount":278,"url":"http://www.shepherdneame.co.uk","tier":"","message":"","currency":"","rating":7.5},{"name":"The Albion Taverna - Shepherd Neame","phone":"+441795591411","address":"29 Front Brents","lat":51.3191169,"lng":0.8916266,"city_fetched":"Faversham","state":"Kent","country":"United Kingdom","canonicalUrl":"https://foursquare.com/v/the-albion-taverna--shepherd-neame/4bf8642bc07c9c7442d5bbef","category":"Pub","checkinsCount":103,"usersCount":69,"tipCount":6,"visitsCount":113,"url":"http://www.shepherdneame.co.uk","tier":"","message":"","currency":"","rating":6.8},{"name":"Bear Inn - Shepherd Neame","phone":"+441795532668","address":"Market Place","lat":51.315862909040476,"lng":0.8909064531326294,"city_fetched":"Faversham","state":"Kent","country":"United Kingdom","canonicalUrl":"https://foursquare.com/v/bear-inn--shepherd-neame/4e14257db3ad51e832e99387","category":"Pub","checkinsCount":85,"usersCount":62,"tipCount":1,"visitsCount":86,"url":"http://www.shepherdneame.co.uk","tier":"","message":"","currency":"","rating":6.5},{"name":"The Anchor - Shepherd Neame","phone":"+441795536471","address":"52 Abbey Street","lat":51.32035222750236,"lng":0.8966892957687378,"city_fetched":"Faversham","state":"Kent","country":"United Kingdom","canonicalUrl":"https://foursquare.com/v/the-anchor--shepherd-neame/4bb65ce8941ad13aed4e1fe3","category":"Pub","checkinsCount":243,"usersCount":92,"tipCount":7,"visitsCount":269,"url":"http://www.shepherdneame.co.uk","tier":"","message":"","currency":"","rating":6.4},{"name":"The Bull Inn - Shepherd Neame","phone":"+441795534740","address":"1 Tanner Street","lat":51.31660221836255,"lng":0.8853542804718018,"city_fetched":"Faversham","state":"Kent","country":"United Kingdom","canonicalUrl":"https://foursquare.com/v/the-bull-inn--shepherd-neame/4e1446b2b3ad51e832e99f17","category":"Pub","checkinsCount":50,"usersCount":17,"tipCount":0,"visitsCount":51,"url":"http://www.shepherdneame.co.uk","tier":"","message":"","currency":"","rating":6.4},{"name":"The Three Tuns - Shepherd Neame","phone":"+441795532663","address":"Tanner Street","lat":51.31572041040935,"lng":0.8851504325866699,"city_fetched":"Faversham","state":"Kent","country":"United Kingdom","canonicalUrl":"https://foursquare.com/v/the-three-tuns--shepherd-neame/4d52f3a23626a093910834bd","category":"Pub","checkinsCount":11,"usersCount":6,"tipCount":0,"visitsCount":11,"url":"http://www.shepherdneame.co.uk","tier":"","message":"","currency":"","rating":6.4},{"name":"The Three Mariners - Shepherd Neame","phone":"+441795533633","address":"2 Church Street","lat":51.32988093386655,"lng":0.8788043260574341,"city_fetched":"Faversham","state":"Kent","country":"United Kingdom","canonicalUrl":"https://foursquare.com/v/the-three-mariners--shepherd-neame/4bb4d9dcbc82a5934ef13e72","category":"Pub","checkinsCount":70,"usersCount":54,"tipCount":3,"visitsCount":85,"url":"http://www.shepherdneame.co.uk","tier":"","message":"","currency":"","rating":6.4},{"name":"The Market Inn - Shepherd Neame","phone":"+441795532529","address":"East Street","lat":51.31438090164143,"lng":0.8959650993347168,"city_fetched":"Faversham","state":"Kent","country":"United Kingdom","canonicalUrl":"https://foursquare.com/v/the-market-inn--shepherd-neame/4d657170b470a143048e26fe","category":"Pub","checkinsCount":52,"usersCount":34,"tipCount":3,"visitsCount":53,"url":"http://www.shepherdneame.co.uk","tier":"","message":"","currency":"","rating":6.4},{"name":"Crown & Anchor - Shepherd Neame","phone":"+441795532812","address":"The Mall","lat":51.309912795501354,"lng":0.8882886171340942,"city_fetched":"Faversham","state":"Kent","country":"United Kingdom","canonicalUrl":"https://foursquare.com/v/crown--anchor--shepherd-neame/4e26b003814dc40f38b2182c","category":"Pub","checkinsCount":14,"usersCount":11,"tipCount":0,"visitsCount":14,"url":"http://www.shepherdneame.co.uk","tier":"","message":"","currency":"","rating":6.4},{"name":"The Limes - Shepherd Neame","phone":"+441795532007","address":"59 Preston Street","lat":51.312710035439515,"lng":0.8902655319746617,"city_fetched":"Faversham","state":"Kent","country":"United Kingdom","canonicalUrl":"https://foursquare.com/v/the-limes--shepherd-neame/4e0f31d9d164fff335b27f3e","category":"Pub","checkinsCount":35,"usersCount":32,"tipCount":1,"visitsCount":36,"url":"http://www.shepherdneame.co.uk","tier":"","message":"","currency":"","rating":6.3},{"name":"Railway Hotel - Shepherd Neame","phone":"+441795533173","address":"Preston St","lat":51.31223492372831,"lng":0.8900722861289978,"city_fetched":"Faversham","state":"Kent","country":"United Kingdom","canonicalUrl":"https://foursquare.com/v/railway-hotel--shepherd-neame/4b6210d7f964a5206d332ae3","category":"Pub","checkinsCount":112,"usersCount":67,"tipCount":2,"visitsCount":114,"url":"http://www.shepherdneame.co.uk","tier":"","message":"","currency":"","rating":6.2},{"name":"The Leading Light (Wetherspoon)","phone":"+441795535075","address":"20-22 Preston St.","lat":51.31369228025976,"lng":0.8912463495466969,"city_fetched":"Faversham","state":"Kent","country":"United Kingdom","canonicalUrl":"https://foursquare.com/v/the-leading-light-wetherspoon/4c87aaf9821e9eb0eccc8d89","category":"Pub","checkinsCount":502,"usersCount":129,"tipCount":3,"visitsCount":552,"url":"http://www.jdwetherspoon.co.uk","tier":"","message":"","currency":"","rating":5.9}]