[{"name":"Smokin' Aces","phone":"+447886953733","twitter":"smokinacesbmth","address":"103 Commercial Road","lat":50.719714412355415,"lng":-1.8851262331008911,"city_fetched":"Ferndown,UK","state":"Dorset","country":"United Kingdom","canonicalUrl":"https://foursquare.com/v/smokin-aces/4cf06fb67e93f04dc9374769","categoryId":"4bf58dd8d48988d11e941735","category":"Cocktail Bar","checkinsCount":672,"usersCount":339,"tipCount":10,"visitsCount":715,"url":"http://www.smokin-aces.co.uk","tier":"","message":"","currency":"","rating":8.4},{"name":"Camden","phone":"+441202540979","twitter":"camdenbar_west","address":"46 Seamoor Rd","lat":50.72254562169998,"lng":-1.9043416975055558,"city_fetched":"Ferndown,UK","state":"Dorset","country":"United Kingdom","canonicalUrl":"https://foursquare.com/v/camden/5426c28b498e0a36cc3692a3","categoryId":"4bf58dd8d48988d116941735","category":"Bar","checkinsCount":124,"usersCount":35,"tipCount":1,"visitsCount":143,"url":"http://www.camdenbar.co.uk","tier":"","message":"","currency":"","rating":8.3},{"name":"Brunswick","phone":"+441202290197","address":"199 Malmesbury Park Rd","lat":50.733706,"lng":-1.862756,"city_fetched":"Ferndown,UK","state":"Dorset","country":"United Kingdom","canonicalUrl":"https://foursquare.com/v/brunswick/4bdc6987fed22d7f290a58c9","categoryId":"4bf58dd8d48988d116941735","category":"Bar","checkinsCount":581,"usersCount":240,"tipCount":6,"visitsCount":892,"tier":"","message":"","currency":"","rating":8.1},{"name":"Framptons","lat":50.84645168700447,"lng":-1.7931540002240927,"city_fetched":"Ferndown,UK","state":"Hampshire","country":"United Kingdom","canonicalUrl":"https://foursquare.com/v/framptons/4dc53f4c1f6ef43b8a0fbca3","categoryId":"4bf58dd8d48988d123941735","category":"Wine Bar","checkinsCount":251,"usersCount":121,"tipCount":3,"visitsCount":305,"tier":"","message":"","currency":"","rating":7.8},{"name":"Ringwood Brewery","phone":"+441425471177","address":"138 Christchurch Rd","lat":50.840900053886266,"lng":-1.7871665954589844,"city_fetched":"Ferndown,UK","state":"Hampshire","country":"United Kingdom","canonicalUrl":"https://foursquare.com/v/ringwood-brewery/4b785320f964a52079c52ee3","categoryId":"50327c8591d4c4b30a586d5d","category":"Brewery","checkinsCount":277,"usersCount":209,"tipCount":1,"visitsCount":354,"tier":"","message":"","currency":"","rating":7.8},{"name":"Sixty Million Postcards","phone":"+441202292697","twitter":"60mpc","address":"19-21 Exeter Rd","lat":50.71849983185251,"lng":-1.8797455158388314,"city_fetched":"Ferndown,UK","state":"Dorset","country":"United Kingdom","canonicalUrl":"https://foursquare.com/v/sixty-million-postcards/4b44aadff964a520f9f825e3","categoryId":"4bf58dd8d48988d116941735","category":"Bar","checkinsCount":3178,"usersCount":1367,"tipCount":47,"visitsCount":3554,"url":"http://sixtymillionpostcards.com","tier":2,"message":"Moderate","currency":"£","rating":7.7},{"name":"The Goat and Tricycle","phone":"+441202314220","twitter":"goatandtricycle","address":"27-29 W Hill Rd.","lat":50.71931621172789,"lng":-1.88764333557502,"neighborhood":"Dorset","city_fetched":"Ferndown,UK","state":"Dorset","country":"United Kingdom","canonicalUrl":"https://foursquare.com/v/the-goat-and-tricycle/4bc3124f920eb713a1e41c2c","categoryId":"4bf58dd8d48988d11b941735","category":"Pub","checkinsCount":665,"usersCount":350,"tipCount":14,"visitsCount":714,"url":"http://www.goatandtricycle.co.uk/home","tier":"","message":"","currency":"","rating":7.7},{"name":"Inferno","phone":"+441202589167","twitter":"infernobmth","address":"36-42 Holdenhurst Rd.","lat":50.72324270903507,"lng":-1.8648485601083145,"city_fetched":"Ferndown,UK","state":"Dorset","country":"United Kingdom","canonicalUrl":"https://foursquare.com/v/inferno/4b6dd4daf964a520ec932ce3","categoryId":"4bf58dd8d48988d11b941735","category":"Pub","checkinsCount":927,"usersCount":410,"tipCount":6,"visitsCount":988,"url":"http://www.theinfernobournemouth.co.uk","tier":"","message":"","currency":"","rating":7.7},{"name":"Halo","phone":"+441202552562","address":"Exeter Rd","lat":50.71930262003535,"lng":-1.880309063173558,"city_fetched":"Ferndown,UK","state":"Dorset","country":"United Kingdom","canonicalUrl":"https://foursquare.com/v/halo/51aee54bc6409cc4bf18a4bf","categoryId":"4bf58dd8d48988d11f941735","category":"Nightclub","checkinsCount":1100,"usersCount":674,"tipCount":8,"visitsCount":1177,"url":"http://halobournemouth.com","tier":"","message":"","currency":"","rating":7.6},{"name":"Three Legged Cross Pub","lat":50.84437,"lng":-1.863374,"city_fetched":"Ferndown,UK","country":"United Kingdom","canonicalUrl":"https://foursquare.com/v/three-legged-cross-pub/4d88ddfa6daeb60cc0aa43e0","categoryId":"4bf58dd8d48988d11b941735","category":"Pub","checkinsCount":116,"usersCount":71,"tipCount":4,"visitsCount":142,"tier":"","message":"","currency":"","rating":7.6},{"name":"Circo lounge","phone":"+441202540823","twitter":"circolounge","address":"66 Poole Rd.","lat":50.72308247741317,"lng":-1.9024496328411928,"city_fetched":"Ferndown,UK","state":"Dorset","country":"United Kingdom","canonicalUrl":"https://foursquare.com/v/circo-lounge/4f4801abe4b0525939c3208e","categoryId":"4bf58dd8d48988d121941735","category":"Lounge","checkinsCount":415,"usersCount":235,"tipCount":7,"visitsCount":497,"tier":"","message":"","currency":"","rating":7.6},{"name":"Cameo","phone":"+441202311178","address":"Fir Vale Rd","lat":50.72199537215919,"lng":-1.8740858453330405,"city_fetched":"Ferndown,UK","state":"Dorset","country":"United Kingdom","canonicalUrl":"https://foursquare.com/v/cameo/514e595ae4b020b3b13c398c","categoryId":"4bf58dd8d48988d11f941735","category":"Nightclub","checkinsCount":2524,"usersCount":1492,"tipCount":11,"visitsCount":3239,"url":"http://www.cameonightclub.co.uk/bournemouth","tier":"","message":"","currency":"","rating":7.6},{"name":"The Fish Inn","phone":"+441425473185","address":"The Bridges","lat":50.84590346980929,"lng":-1.7994002109759801,"city_fetched":"Ferndown,UK","state":"Hampshire","country":"United Kingdom","canonicalUrl":"https://foursquare.com/v/the-fish-inn/4bcaf301937ca59368a7a892","categoryId":"4bf58dd8d48988d11b941735","category":"Pub","checkinsCount":191,"usersCount":142,"tipCount":5,"visitsCount":239,"tier":"","message":"","currency":"","rating":7.6},{"name":"The Parkstone and Heatherlands  (Wetherspoon)","phone":"+441202853020","address":"433-457 Wimborne Road","lat":50.74337692413087,"lng":-1.8786229537004515,"city_fetched":"Ferndown,UK","state":"Dorset","country":"United Kingdom","canonicalUrl":"https://foursquare.com/v/the-parkstone-and-heatherlands--wetherspoon/4c87aa70821e9eb06dcc8d89","categoryId":"4bf58dd8d48988d11b941735","category":"Pub","checkinsCount":1122,"usersCount":424,"tipCount":6,"visitsCount":1349,"url":"http://www.jdwetherspoon.co.uk","tier":"","message":"","currency":"","rating":7.6},{"name":"1812 Cocktail Bar","phone":"+441202203050","address":"Exeter Road","lat":50.717685084414775,"lng":-1.8786406517028809,"city_fetched":"Ferndown,UK","state":"Dorset","country":"United Kingdom","canonicalUrl":"https://foursquare.com/v/1812-cocktail-bar/4b95500bf964a520c89b34e3","categoryId":"4bf58dd8d48988d11e941735","category":"Cocktail Bar","checkinsCount":840,"usersCount":547,"tipCount":20,"visitsCount":934,"url":"http://eighteen-twelve.com","tier":"","message":"","currency":"","rating":7.4},{"name":"The Fiveways","address":"438 Charminster Rd","lat":50.743719726890106,"lng":-1.861446282621345,"city_fetched":"Ferndown,UK","state":"Dorset","country":"United Kingdom","canonicalUrl":"https://foursquare.com/v/the-fiveways/4bc9b9f0937ca593c52da692","categoryId":"4bf58dd8d48988d11b941735","category":"Pub","checkinsCount":570,"usersCount":310,"tipCount":5,"visitsCount":789,"tier":"","message":"","currency":"","rating":7.4},{"name":"The Old Thatch","phone":"+441202877192","address":"285 Wimborne Road","lat":50.80483052,"lng":-1.92525,"city_fetched":"Ferndown,UK","state":"Dorset","country":"United Kingdom","canonicalUrl":"https://foursquare.com/v/the-old-thatch/4bf7cd718d30d13a4f86ff17","categoryId":"4bf58dd8d48988d11b941735","category":"Pub","checkinsCount":83,"usersCount":61,"tipCount":3,"visitsCount":91,"tier":"","message":"","currency":"","rating":7.3},{"name":"The Inn on The Furlong","address":"12 Meeting House Ln","lat":50.84687768786211,"lng":-1.792367091026263,"city_fetched":"Ferndown,UK","state":"Hampshire","country":"United Kingdom","canonicalUrl":"https://foursquare.com/v/the-inn-on-the-furlong/4b699366f964a52001a82be3","categoryId":"4bf58dd8d48988d11b941735","category":"Pub","checkinsCount":403,"usersCount":102,"tipCount":6,"visitsCount":420,"tier":"","message":"","currency":"","rating":7.2},{"name":"The Mary Shelley (Wetherspoon)","phone":"+441202786510","address":"St. Peter's Rd.","lat":50.72063377937046,"lng":-1.8762078881263733,"city_fetched":"Ferndown,UK","state":"Dorset","country":"United Kingdom","canonicalUrl":"https://foursquare.com/v/the-mary-shelley-wetherspoon/4bc1c082b492d13af767a660","categoryId":"4bf58dd8d48988d11b941735","category":"Pub","checkinsCount":3434,"usersCount":1692,"tipCount":17,"visitsCount":4074,"url":"http://www.jdwetherspoon.co.uk","tier":2,"message":"Moderate","currency":"£","rating":7.2},{"name":"Bar So","phone":"+441202203050","twitter":"bar_so","address":"Exeter Rd","lat":50.717685,"lng":-1.879075,"city_fetched":"Ferndown,UK","state":"Dorset","country":"United Kingdom","canonicalUrl":"https://foursquare.com/v/bar-so/4ba29a74f964a5205b0838e3","categoryId":"4bf58dd8d48988d116941735","category":"Bar","checkinsCount":706,"usersCount":557,"tipCount":6,"visitsCount":876,"tier":"","message":"","currency":"","rating":7.2},{"name":"The Curlew","address":"287 Christchurch Rd.","lat":50.78179409612868,"lng":-1.8760958385467983,"city_fetched":"Ferndown,UK","state":"Dorset","country":"United Kingdom","canonicalUrl":"https://foursquare.com/v/the-curlew/4b8282b4f964a52006d630e3","categoryId":"4bf58dd8d48988d11b941735","category":"Pub","checkinsCount":199,"usersCount":168,"tipCount":7,"visitsCount":259,"tier":"","message":"","currency":"","rating":7.2},{"name":"Buffalo","address":"Withermoor Road","lat":50.74196876,"lng":-1.8804,"city_fetched":"Ferndown,UK","state":"Dorset","country":"United Kingdom","canonicalUrl":"https://foursquare.com/v/buffalo/4b523044f964a520646e27e3","categoryId":"4bf58dd8d48988d116941735","category":"Bar","checkinsCount":453,"usersCount":198,"tipCount":6,"visitsCount":516,"tier":"","message":"","currency":"","rating":7.2},{"name":"Conto lounge","phone":"+441202539274","address":"418 Wimborne Rd","lat":50.74251686009119,"lng":-1.8789830408916173,"city_fetched":"Ferndown,UK","state":"Dorset","country":"United Kingdom","canonicalUrl":"https://foursquare.com/v/conto-lounge/4f203da0e4b0ec749ca866ff","categoryId":"4bf58dd8d48988d121941735","category":"Lounge","checkinsCount":445,"usersCount":285,"tipCount":14,"visitsCount":556,"url":"http://www.thelounges.co.uk","tier":"","message":"","currency":"","rating":7.2},{"name":"Hot Rocks","phone":"+441202555559","address":"Pier Approach","lat":50.716362207382744,"lng":-1.8764853652424531,"city_fetched":"Ferndown,UK","state":"Dorset","country":"United Kingdom","canonicalUrl":"https://foursquare.com/v/hot-rocks/4c2f8f1d213c2d7f4116315d","categoryId":"4bf58dd8d48988d116941735","category":"Bar","checkinsCount":714,"usersCount":551,"tipCount":12,"visitsCount":716,"url":"http://www.hotrocks.com","tier":"","message":"","currency":"","rating":7.1},{"name":"Eden","address":"Terrace Rd","lat":50.719404,"lng":-1.880673,"city_fetched":"Ferndown,UK","state":"Dorset","country":"United Kingdom","canonicalUrl":"https://foursquare.com/v/eden/53d3ea43498ebed2ce227936","categoryId":"4bf58dd8d48988d117941735","category":"Beer Garden","checkinsCount":265,"usersCount":166,"tipCount":0,"visitsCount":294,"tier":"","message":"","currency":"","rating":7.1},{"name":"Lambs Green Inn","lat":50.787789,"lng":-2.00707,"city_fetched":"Ferndown,UK","country":"United Kingdom","canonicalUrl":"https://foursquare.com/v/lambs-green-inn/4b9bcfaff964a5200b2836e3","categoryId":"4bf58dd8d48988d11b941735","category":"Pub","checkinsCount":133,"usersCount":87,"tipCount":2,"visitsCount":168,"tier":"","message":"","currency":"","rating":7.1},{"name":"Aruba","phone":"+441202554211","twitter":"arubabmouth","address":"Pier Approach","lat":50.716033438353485,"lng":-1.8754982825612887,"city_fetched":"Ferndown,UK","state":"Dorset","country":"United Kingdom","canonicalUrl":"https://foursquare.com/v/aruba/4b76c5d2f964a5201d5e2ee3","categoryId":"4bf58dd8d48988d116941735","category":"Bar","checkinsCount":2183,"usersCount":1408,"tipCount":29,"visitsCount":2356,"url":"http://www.aruba-bournemouth.co.uk","tier":"","message":"","currency":"","rating":7},{"name":"Revolution","address":"163-167 Old Christchurch Rd","lat":50.722232744237466,"lng":-1.870432401146206,"city_fetched":"Ferndown,UK","state":"Dorset","country":"United Kingdom","canonicalUrl":"https://foursquare.com/v/revolution/50eb1351e4b05b31f6fd61f6","categoryId":"4bf58dd8d48988d11b941735","category":"Pub","checkinsCount":898,"usersCount":547,"tipCount":7,"visitsCount":1015,"tier":"","message":"","currency":"","rating":7},{"name":"Angel Inn","phone":"+441202873778","address":"188 Ringwood Road","lat":50.791387,"lng":-1.903927,"city_fetched":"Ferndown,UK","state":"Dorset","country":"United Kingdom","canonicalUrl":"https://foursquare.com/v/angel-inn/4c0038fa37850f47a7f3973f","categoryId":"4bf58dd8d48988d11b941735","category":"Pub","checkinsCount":210,"usersCount":156,"tipCount":3,"visitsCount":275,"url":"http://www.theangellongham.co.uk","tier":"","message":"","currency":"","rating":6.8},{"name":"The Brasshouse","phone":"+441202589681","address":"8-9 Westover Rd","lat":50.71942912302455,"lng":-1.87591552734375,"city_fetched":"Ferndown,UK","state":"Dorset","country":"United Kingdom","canonicalUrl":"https://foursquare.com/v/the-brasshouse/4ce7d511948f224b1378ec5d","categoryId":"4bf58dd8d48988d11b941735","category":"Pub","checkinsCount":2250,"usersCount":1241,"tipCount":8,"visitsCount":2924,"tier":"","message":"","currency":"","rating":6.8},{"name":"The Moon in the Square (Wetherspoon)","phone":"+441202652090","address":"8 Exeter Rd.","lat":50.71971887557716,"lng":-1.8801851726348722,"city_fetched":"Ferndown,UK","state":"Dorset","country":"United Kingdom","canonicalUrl":"https://foursquare.com/v/the-moon-in-the-square-wetherspoon/4b994a33f964a520747035e3","categoryId":"4bf58dd8d48988d11b941735","category":"Pub","checkinsCount":3577,"usersCount":1628,"tipCount":26,"visitsCount":3763,"url":"http://www.jdwetherspoon.co.uk","tier":2,"message":"Moderate","currency":"£","rating":6.7},{"name":"The Winchester","phone":"+441202557937","address":"39 Poole Hill","lat":50.71974154310399,"lng":-1.8876593735713088,"city_fetched":"Ferndown,UK","state":"Dorset","country":"United Kingdom","canonicalUrl":"https://foursquare.com/v/the-winchester/4b93db83f964a5208e5534e3","categoryId":"4bf58dd8d48988d116941735","category":"Bar","checkinsCount":458,"usersCount":240,"tipCount":5,"visitsCount":475,"url":"http://thewinchester-bournemouth.co.uk","tier":"","message":"","currency":"","rating":6.7},{"name":"Ink Bar","phone":"+441202789669","address":"Richmond hill","lat":50.721338,"lng":-1.878662,"city_fetched":"Ferndown,UK","state":"Dorset","country":"United Kingdom","canonicalUrl":"https://foursquare.com/v/ink-bar/4bb4dd4d2ba29c748465ef2d","categoryId":"4bf58dd8d48988d11e941735","category":"Cocktail Bar","checkinsCount":238,"usersCount":140,"tipCount":7,"visitsCount":241,"tier":"","message":"","currency":"","rating":6.7},{"name":"Shamrock Bar","phone":"+441202297084","address":"97 St Michaels Rd.","lat":50.71627044651813,"lng":-1.8834686279296875,"city_fetched":"Ferndown,UK","state":"Dorset","country":"United Kingdom","canonicalUrl":"https://foursquare.com/v/shamrock-bar/4de681948877a085f8cb1182","categoryId":"4bf58dd8d48988d116941735","category":"Bar","checkinsCount":145,"usersCount":103,"tipCount":1,"visitsCount":145,"tier":"","message":"","currency":"","rating":6.6},{"name":"Walkabout","phone":"+441202295072","twitter":"walkaboutbourno","address":"156-164 Christchurch Rd","lat":50.72232070418892,"lng":-1.8727980453438278,"city_fetched":"Ferndown,UK","state":"Dorset","country":"United Kingdom","canonicalUrl":"https://foursquare.com/v/walkabout/4b6f5cb7f964a5203bed2ce3","categoryId":"4bf58dd8d48988d116941735","category":"Bar","checkinsCount":1391,"usersCount":960,"tipCount":11,"visitsCount":1667,"url":"http://walkaboutbars.com","tier":"","message":"","currency":"","rating":6.6},{"name":"The Olive Branch","address":"East Borough","lat":50.800699,"lng":-1.986874,"city_fetched":"Ferndown,UK","state":"Dorset","country":"United Kingdom","canonicalUrl":"https://foursquare.com/v/the-olive-branch/4c1379d6a1010f4714a34a18","categoryId":"4bf58dd8d48988d116941735","category":"Bar","checkinsCount":562,"usersCount":211,"tipCount":9,"visitsCount":641,"url":"http://theolivebranchwimborne.co.uk","tier":"","message":"","currency":"","rating":6.6},{"name":"Smugglers Haunt (Beefeater)","phone":"+441202874210","twitter":"beefeatergrill","address":"Ringwood Rd","lat":50.810950245976905,"lng":-1.874564687623966,"city_fetched":"Ferndown,UK","state":"Dorset","country":"United Kingdom","canonicalUrl":"https://foursquare.com/v/smugglers-haunt-beefeater/4ba33420f964a520d12f38e3","categoryId":"4bf58dd8d48988d11b941735","category":"Pub","checkinsCount":229,"usersCount":127,"tipCount":9,"visitsCount":234,"url":"http://www.beefeater.co.uk","tier":"","message":"","currency":"","rating":6.6},{"name":"Sound Circus","phone":"+441202900014","twitter":"sound_circus","address":"140 Holdenhurst Road","lat":50.72705090733904,"lng":-1.8612774692286536,"city_fetched":"Ferndown,UK","state":"Dorset","country":"United Kingdom","canonicalUrl":"https://foursquare.com/v/sound-circus/4c38f6eb2c8020a19bdd8b00","categoryId":"4bf58dd8d48988d11f941735","category":"Nightclub","checkinsCount":493,"usersCount":135,"tipCount":2,"visitsCount":494,"url":"http://www.soundcircus.co.uk","tier":"","message":"","currency":"","rating":6.5},{"name":"The Blackwater Stream (Wetherspoon)","phone":"+441202642580","twitter":"jdwtweet","address":"180 Lower Blandford Rd.","lat":50.75930522447624,"lng":-1.9935035705566406,"city_fetched":"Ferndown,UK","state":"Dorset","country":"United Kingdom","canonicalUrl":"https://foursquare.com/v/the-blackwater-stream-wetherspoon/4d642fd34e1ea1cd34b541b9","categoryId":"4bf58dd8d48988d11b941735","category":"Pub","checkinsCount":532,"usersCount":137,"tipCount":4,"visitsCount":601,"url":"http://www.jdwetherspoon.co.uk","tier":"","message":"","currency":"","rating":6.5},{"name":"The Christopher Creeke (Lloyds No. 1 Bar)","phone":"+441202200950","address":"Holdenhurst Rd.","lat":50.72257900702199,"lng":-1.8658416921381202,"city_fetched":"Ferndown,UK","state":"Dorset","country":"United Kingdom","canonicalUrl":"https://foursquare.com/v/the-christopher-creeke-lloyds-no-1-bar/4c87aa6e821e9eb06bcc8d89","categoryId":"4bf58dd8d48988d11b941735","category":"Pub","checkinsCount":1852,"usersCount":487,"tipCount":5,"visitsCount":1906,"url":"http://www.jdwetherspoon.co.uk","tier":"","message":"","currency":"","rating":6.4},{"name":"Willett Arms","address":"1 Oakley Ln","lat":50.7871,"lng":-1.9765242654830217,"city_fetched":"Ferndown,UK","state":"Dorset","country":"United Kingdom","canonicalUrl":"https://foursquare.com/v/willett-arms/4d1b866770d76ea8fdd44e73","categoryId":"4bf58dd8d48988d11b941735","category":"Pub","checkinsCount":181,"usersCount":111,"tipCount":5,"visitsCount":237,"tier":"","message":"","currency":"","rating":6.4},{"name":"Sherbet Lounge","address":"163-167 Old Christchurch Rd.","lat":50.721962703209265,"lng":-1.8707656860351562,"city_fetched":"Ferndown,UK","state":"Dorset","country":"United Kingdom","canonicalUrl":"https://foursquare.com/v/sherbet-lounge/4c4adaf9bad7a593469102ab","categoryId":"4bf58dd8d48988d121941735","category":"Lounge","checkinsCount":452,"usersCount":220,"tipCount":5,"visitsCount":452,"tier":"","message":"","currency":"","rating":6.4},{"name":"Old Fire Station","phone":"+441202963889","address":"36 Holdenhurst Rd","lat":50.723186410447816,"lng":-1.8651635830702795,"city_fetched":"Ferndown,UK","state":"Dorset","country":"United Kingdom","canonicalUrl":"https://foursquare.com/v/old-fire-station/4b75e8e4f964a520fc2d2ee3","categoryId":"4bf58dd8d48988d11f941735","category":"Nightclub","checkinsCount":838,"usersCount":346,"tipCount":5,"visitsCount":847,"tier":"","message":"","currency":"","rating":6.4},{"name":"The Porterhouse","address":"County Gates Ln","lat":50.72901333882301,"lng":-1.9154722387191168,"city_fetched":"Ferndown,UK","state":"Dorset","country":"United Kingdom","canonicalUrl":"https://foursquare.com/v/the-porterhouse/4d2de8d4d9d8a143bac8f4d7","categoryId":"4bf58dd8d48988d11b941735","category":"Pub","checkinsCount":793,"usersCount":93,"tipCount":7,"visitsCount":813,"tier":"","message":"","currency":"","rating":6.3},{"name":"Hop and Kilderkin","lat":50.73974685184315,"lng":-1.879098613689584,"city_fetched":"Ferndown,UK","country":"United Kingdom","canonicalUrl":"https://foursquare.com/v/hop-and-kilderkin/4b894be4f964a520662932e3","categoryId":"4bf58dd8d48988d11b941735","category":"Pub","checkinsCount":411,"usersCount":178,"tipCount":6,"visitsCount":421,"tier":"","message":"","currency":"","rating":6.2},{"name":"The Man In The Wall (Wetherspoon)","phone":"+441202639800","twitter":"jdwtweet","address":"10 West Borough","lat":50.800728,"lng":-1.988263,"city_fetched":"Ferndown,UK","state":"Dorset","country":"United Kingdom","canonicalUrl":"https://foursquare.com/v/the-man-in-the-wall-wetherspoon/4f143e35e4b03856f31e7667","categoryId":"4bf58dd8d48988d11b941735","category":"Pub","checkinsCount":362,"usersCount":163,"tipCount":3,"visitsCount":410,"url":"http://www.jdwetherspoon.co.uk","tier":"","message":"","currency":"","rating":6.2},{"name":"The Westbourne Pub","phone":"+441202763327","address":"45 Poole Rd.","lat":50.72247190003075,"lng":-1.9010064195540515,"city_fetched":"Ferndown,UK","state":"Dorset","country":"United Kingdom","canonicalUrl":"https://foursquare.com/v/the-westbourne-pub/4b7b02bef964a520f44b2fe3","categoryId":"4bf58dd8d48988d11b941735","category":"Pub","checkinsCount":1559,"usersCount":469,"tipCount":5,"visitsCount":1688,"tier":"","message":"","currency":"","rating":6.2},{"name":"The Hop Inn","phone":"+441202244626","address":"6 Westcliff Road","lat":50.71652178986392,"lng":-1.883653700351715,"city_fetched":"Ferndown,UK","state":"Dorset","country":"United Kingdom","canonicalUrl":"https://foursquare.com/v/the-hop-inn/4bb62d462f70c9b69aff8430","categoryId":"4bf58dd8d48988d116941735","category":"Bar","checkinsCount":209,"usersCount":132,"tipCount":2,"visitsCount":209,"tier":"","message":"","currency":"","rating":6.2},{"name":"The Lost Garden","lat":50.718041572450794,"lng":-1.8799227968881937,"city_fetched":"Ferndown,UK","country":"United Kingdom","canonicalUrl":"https://foursquare.com/v/the-lost-garden/51cde545498e703fd33fbfb9","categoryId":"4bf58dd8d48988d11e941735","category":"Cocktail Bar","checkinsCount":219,"usersCount":161,"tipCount":3,"visitsCount":222,"tier":"","message":"","currency":"","rating":6.1},{"name":"Richmond Arms","phone":"+441202514524","address":"153 Charminster Rd","lat":50.736386367343975,"lng":-1.8656825554559204,"city_fetched":"Ferndown,UK","state":"Dorset","country":"United Kingdom","canonicalUrl":"https://foursquare.com/v/richmond-arms/4c38d3ddae2da5932d6e01c6","categoryId":"4bf58dd8d48988d11b941735","category":"Pub","checkinsCount":1251,"usersCount":519,"tipCount":8,"visitsCount":1499,"tier":"","message":"","currency":"","rating":6.1},{"name":"Bear Cross","phone":"+441202574413","address":"High Howe Lane","lat":50.769538948644815,"lng":-1.9195293886679086,"city_fetched":"Ferndown,UK","state":"Dorset","country":"United Kingdom","canonicalUrl":"https://foursquare.com/v/bear-cross/4bac10c9f964a520d7e13ae3","categoryId":"4bf58dd8d48988d11b941735","category":"Pub","checkinsCount":369,"usersCount":151,"tipCount":3,"visitsCount":416,"tier":"","message":"","currency":"","rating":6},{"name":"The White Hart","phone":"+441202848478","address":"6 Corn Mkt","lat":50.79926909578965,"lng":-1.9889817995700398,"city_fetched":"Ferndown,UK","state":"Dorset","country":"United Kingdom","canonicalUrl":"https://foursquare.com/v/the-white-hart/4bfd72254cf820a1a67becf4","categoryId":"4bf58dd8d48988d11b941735","category":"Pub","checkinsCount":193,"usersCount":87,"tipCount":5,"visitsCount":196,"url":"http://www.thewhitehartwimborne.co.uk","tier":"","message":"","currency":"","rating":5.9},{"name":"Slug & Lettuce","address":"Richmond Hill","lat":50.72048196788533,"lng":-1.8799495697021484,"city_fetched":"Ferndown,UK","state":"Dorset","country":"United Kingdom","canonicalUrl":"https://foursquare.com/v/slug--lettuce/4bd6fce66f64952197ad71ec","categoryId":"4bf58dd8d48988d11b941735","category":"Pub","checkinsCount":1780,"usersCount":918,"tipCount":15,"visitsCount":1805,"tier":"","message":"","currency":"","rating":5.9},{"name":"The Nightjar (Wetherspoon)","phone":"+441202855572","address":"94 Victoria Rd","lat":50.80349793042876,"lng":-1.8906978349392138,"city_fetched":"Ferndown,UK","state":"Dorset","country":"United Kingdom","canonicalUrl":"https://foursquare.com/v/the-nightjar-wetherspoon/4c87aafb821e9eb0eecc8d89","categoryId":"4bf58dd8d48988d11b941735","category":"Pub","checkinsCount":575,"usersCount":112,"tipCount":2,"visitsCount":627,"url":"http://www.jdwetherspoon.co.uk","tier":"","message":"","currency":"","rating":5.9},{"name":"The Woolpack","phone":"+441425672252","address":"Ringwood Rd","lat":50.77138878040376,"lng":-1.7787401575314457,"city_fetched":"Ferndown,UK","state":"Hampshire","country":"United Kingdom","canonicalUrl":"https://foursquare.com/v/the-woolpack/4c4c5271c668e21e656158fb","categoryId":"4bf58dd8d48988d11b941735","category":"Pub","checkinsCount":152,"usersCount":98,"tipCount":4,"visitsCount":172,"url":"http://woolpackinnsopley.co.uk","tier":"","message":"","currency":"","rating":5.8},{"name":"DYMK","phone":"+441202318566","twitter":"d_y_m_k","address":"31 Poole Hill","lat":50.71971514038939,"lng":-1.8874038068467458,"city_fetched":"Ferndown,UK","state":"Dorset","country":"United Kingdom","canonicalUrl":"https://foursquare.com/v/dymk/4c3100d0213c2d7f1156335d","categoryId":"4bf58dd8d48988d1d8941735","category":"Gay Bar","checkinsCount":494,"usersCount":170,"tipCount":6,"visitsCount":516,"url":"http://www.dymk-bar.com","tier":"","message":"","currency":"","rating":5.8},{"name":"Xchange","phone":"+441202294321","twitter":"xchangeclub","address":"4 The Triangle","lat":50.7199950564995,"lng":-1.8853251550003138,"city_fetched":"Ferndown,UK","state":"Dorset","country":"United Kingdom","canonicalUrl":"https://foursquare.com/v/xchange/4b9af9baf964a5207be835e3","categoryId":"4bf58dd8d48988d1d8941735","category":"Gay Bar","checkinsCount":204,"usersCount":70,"tipCount":6,"visitsCount":204,"tier":"","message":"","currency":"","rating":5.7},{"name":"Dylan's Bar","phone":"+441202965781","address":"Bournemouth University","lat":50.742857,"lng":-1.896748,"city_fetched":"Ferndown,UK","state":"Dorset","country":"United Kingdom","canonicalUrl":"https://foursquare.com/v/dylans-bar/4bd98c752e6f0f4711f10a08","categoryId":"4bf58dd8d48988d116941735","category":"Bar","checkinsCount":922,"usersCount":219,"tipCount":9,"visitsCount":925,"tier":"","message":"","currency":"","rating":5.7},{"name":"Yates","address":"2 Dean Park Crescent","lat":50.72270120535947,"lng":-1.874340407941566,"city_fetched":"Ferndown,UK","state":"Dorset","country":"United Kingdom","canonicalUrl":"https://foursquare.com/v/yates/4bcb0e4e937ca59360c5a892","categoryId":"4bf58dd8d48988d116941735","category":"Bar","checkinsCount":1257,"usersCount":677,"tipCount":9,"visitsCount":1418,"tier":"","message":"","currency":"","rating":5.5},{"name":"The Avon Causeway","address":"Avon Causeway","lat":50.77850209270552,"lng":-1.8086515181085283,"city_fetched":"Ferndown,UK","state":"Dorset","country":"United Kingdom","canonicalUrl":"https://foursquare.com/v/the-avon-causeway/4bcccf330687ef3b0ef0dfcc","categoryId":"4bf58dd8d48988d11b941735","category":"Pub","checkinsCount":136,"usersCount":109,"tipCount":4,"visitsCount":210,"tier":"","message":"","currency":"","rating":5.4},{"name":"BAR : [ME]","twitter":"barmebmth","address":"134-136 Old Christchurch Rd","lat":50.72253045356217,"lng":-1.8744933411626186,"city_fetched":"Ferndown,UK","state":"Dorset","country":"United Kingdom","canonicalUrl":"https://foursquare.com/v/bar--me/4bdcb4d1afe8c9b611a25085","categoryId":"4bf58dd8d48988d116941735","category":"Bar","checkinsCount":330,"usersCount":131,"tipCount":5,"visitsCount":331,"url":"http://www.barme.co.uk","tier":"","message":"","currency":"","rating":5.2},{"name":"Litten Tree","phone":"+441202438001","twitter":"littentreebmth","address":"207 Old Christchurch Rd.","lat":50.722404198004085,"lng":-1.8684015268074903,"city_fetched":"Ferndown,UK","state":"Hampshire","country":"United Kingdom","canonicalUrl":"https://foursquare.com/v/litten-tree/4bcb06eccc8cd13a418fbecf","categoryId":"4bf58dd8d48988d116941735","category":"Bar","checkinsCount":613,"usersCount":395,"tipCount":7,"visitsCount":673,"url":"http://www.littentree-bournemouth.co.uk","tier":"","message":"","currency":"","rating":5}]