[{"name":"Strawberry Gardens","phone":"+441253771991","address":"Poulton Rd.","lat":53.921253688699686,"lng":-3.019009460011863,"city_fetched":"Fleetwood,UK","state":"Lancashire","country":"United Kingdom","canonicalUrl":"https://foursquare.com/v/strawberry-gardens/4dd7a1a38877f1150fedb624","categoryId":"4bf58dd8d48988d11b941735","category":"Pub","checkinsCount":155,"usersCount":89,"tipCount":3,"visitsCount":209,"tier":"","message":"","currency":"","rating":8.1},{"name":"The Jolly Tars (Wetherspoon)","phone":"+441253856042","twitter":"jdwtweet","address":"154-158 Victoria Road West","lat":53.876439149458776,"lng":-3.0375246625792416,"city_fetched":"Fleetwood,UK","state":"Lancashire","country":"United Kingdom","canonicalUrl":"https://foursquare.com/v/the-jolly-tars-wetherspoon/4e08764db61c60b0454b3ad6","categoryId":"4bf58dd8d48988d11b941735","category":"Pub","checkinsCount":1513,"usersCount":247,"tipCount":17,"visitsCount":1737,"url":"http://www.jdwetherspoon.co.uk","tier":"","message":"","currency":"","rating":7.5},{"name":"The Thomas Drummond (Wetherspoon)","phone":"+441253775020","address":"London St.","lat":53.92203799374487,"lng":-3.011563774702409,"city_fetched":"Fleetwood,UK","state":"Lancashire","country":"United Kingdom","canonicalUrl":"https://foursquare.com/v/the-thomas-drummond-wetherspoon/4c4c04dc5609c9b6ea10ed91","categoryId":"4bf58dd8d48988d11b941735","category":"Pub","checkinsCount":491,"usersCount":139,"tipCount":4,"visitsCount":524,"url":"http://www.jdwetherspoon.co.uk","tier":"","message":"","currency":"","rating":7.1},{"name":"The Bay Horse","lat":53.87069269095456,"lng":-2.9993144962877616,"city_fetched":"Fleetwood,UK","state":"Blackpool","country":"United Kingdom","canonicalUrl":"https://foursquare.com/v/the-bay-horse/4bc99840cc8cd13a56d7bbcf","categoryId":"4bf58dd8d48988d11b941735","category":"Pub","checkinsCount":186,"usersCount":66,"tipCount":1,"visitsCount":241,"tier":"","message":"","currency":"","rating":6.5},{"name":"The Castle Gardens","phone":"+441253890015","address":"Poulton Rd","lat":53.85362189178583,"lng":-3.0056234895102913,"city_fetched":"Fleetwood,UK","state":"Lancashire","country":"United Kingdom","canonicalUrl":"https://foursquare.com/v/the-castle-gardens/4b5dec36f964a520f47329e3","categoryId":"4bf58dd8d48988d11b941735","category":"Pub","checkinsCount":510,"usersCount":193,"tipCount":5,"visitsCount":696,"url":"http://www.emberinns.co.uk","tier":"","message":"","currency":"","rating":6.4},{"name":"Marsh Mill Tavern","phone":"+441253862586","twitter":"atthetavernn","address":"Marsh Mill","lat":53.874385403010976,"lng":-3.0125334520841016,"city_fetched":"Fleetwood,UK","state":"Sefton","country":"United Kingdom","canonicalUrl":"https://foursquare.com/v/marsh-mill-tavern/4c38c45893db0f470a332292","categoryId":"4bf58dd8d48988d11b941735","category":"Pub","checkinsCount":224,"usersCount":100,"tipCount":7,"visitsCount":250,"tier":"","message":"","currency":"","rating":6},{"name":"Thornton Lodge","address":"lambs road","lat":53.85855796872278,"lng":-2.983012726337981,"city_fetched":"Fleetwood,UK","state":"Blackpool","country":"United Kingdom","canonicalUrl":"https://foursquare.com/v/thornton-lodge/4bc7609f92b376b083994f3a","categoryId":"4bf58dd8d48988d11b941735","category":"Pub","checkinsCount":200,"usersCount":106,"tipCount":2,"visitsCount":245,"tier":"","message":"","currency":"","rating":5.8},{"name":"The Red Lion (Beefeater)","phone":"+441253354942","twitter":"beefeater","address":"Devonshire Rd","lat":53.85487190264812,"lng":-3.0398182937016873,"city_fetched":"Fleetwood,UK","state":"Blackpool","country":"United Kingdom","canonicalUrl":"https://foursquare.com/v/the-red-lion-beefeater/4d10ffac5584f04d17405b16","categoryId":"4bf58dd8d48988d11b941735","category":"Pub","checkinsCount":254,"usersCount":112,"tipCount":1,"visitsCount":265,"url":"http://www.beefeater.co.uk/steak-restaurant/Lancashire/Red-Lion-Churchtown.html","tier":"","message":"","currency":"","rating":5.6},{"name":"Golden Eagle","phone":"+441253856564","address":"Warren Drive","lat":53.8661940829625,"lng":-3.0346298217773438,"city_fetched":"Fleetwood,UK","state":"Blackpool","country":"United Kingdom","canonicalUrl":"https://foursquare.com/v/golden-eagle/4c6eb58610faa143397ff168","categoryId":"4bf58dd8d48988d11b941735","category":"Pub","checkinsCount":254,"usersCount":83,"tipCount":2,"visitsCount":310,"tier":"","message":"","currency":"","rating":4.9}]