[{"name":"Five Bells","phone":"+441303813334","address":"Five Bells","lat":51.13824354511223,"lng":1.0007435336831239,"city_fetched":"Folkestone,UK","country":"United Kingdom","canonicalUrl":"https://foursquare.com/v/five-bells/4cd5bb5ba5b3468805d88f50","categoryId":"4bf58dd8d48988d11b941735","category":"Pub","checkinsCount":140,"usersCount":111,"tipCount":5,"visitsCount":230,"tier":"","message":"","currency":"","rating":8.1},{"name":"The Chambers","address":"Cheriton Place","lat":51.078203,"lng":1.176426,"city_fetched":"Folkestone,UK","state":"Kent","country":"United Kingdom","canonicalUrl":"https://foursquare.com/v/the-chambers/4c0a9a41ed259521cf2a1356","categoryId":"4bf58dd8d48988d116941735","category":"Bar","checkinsCount":334,"usersCount":103,"tipCount":10,"visitsCount":345,"tier":"","message":"","currency":"","rating":7.5},{"name":"The Samuel Peto (Wetherspoon)","phone":"+441303251154","address":"23 Rendezvous St.","lat":51.08063736971201,"lng":1.1812908308431966,"city_fetched":"Folkestone,UK","state":"Kent","country":"United Kingdom","canonicalUrl":"https://foursquare.com/v/the-samuel-peto-wetherspoon/4ba530a1f964a520b4e938e3","categoryId":"4bf58dd8d48988d11b941735","category":"Pub","checkinsCount":464,"usersCount":254,"tipCount":3,"visitsCount":527,"url":"http://www.jdwetherspoon.co.uk","tier":"","message":"","currency":"","rating":6.9},{"name":"Prince Albert","phone":"+441304204272","address":"83 Biggin St.","lat":51.127601922920284,"lng":1.3092218734503431,"city_fetched":"Folkestone,UK","state":"Kent","country":"United Kingdom","canonicalUrl":"https://foursquare.com/v/prince-albert/4c618106de6920a18f7a9864","categoryId":"4bf58dd8d48988d11b941735","category":"Pub","checkinsCount":357,"usersCount":93,"tipCount":11,"visitsCount":361,"tier":"","message":"","currency":"","rating":6.9},{"name":"The Kings Head - Shepherd Neame","phone":"+441303266283","address":"117 High Street","lat":51.071972856274236,"lng":1.0870537161827087,"city_fetched":"Folkestone,UK","state":"Kent","country":"United Kingdom","canonicalUrl":"https://foursquare.com/v/the-kings-head--shepherd-neame/4c8fd9765fdf6dcb3fca2b91","categoryId":"4bf58dd8d48988d11b941735","category":"Pub","checkinsCount":44,"usersCount":40,"tipCount":2,"visitsCount":51,"url":"http://www.shepherdneame.co.uk","tier":"","message":"","currency":"","rating":6.8},{"name":"The White Horse","phone":"+441304202911","address":"St. James St.","lat":51.12624042390799,"lng":1.3177143037319183,"city_fetched":"Folkestone,UK","state":"Kent","country":"United Kingdom","canonicalUrl":"https://foursquare.com/v/the-white-horse/4c098289a1b32d7f6dd397f0","categoryId":"4bf58dd8d48988d11b941735","category":"Pub","checkinsCount":528,"usersCount":197,"tipCount":20,"visitsCount":571,"tier":"","message":"","currency":"","rating":6.7},{"name":"The Tiger Inn","phone":"+441303862130","address":"Scots Lane","lat":51.134147386990946,"lng":1.024373173713684,"city_fetched":"Folkestone,UK","state":"Kent","country":"United Kingdom","canonicalUrl":"https://foursquare.com/v/the-tiger-inn/4b5c63fdf964a520b32d29e3","categoryId":"4bf58dd8d48988d11b941735","category":"Pub","checkinsCount":92,"usersCount":63,"tipCount":6,"visitsCount":94,"tier":"","message":"","currency":"","rating":6.7},{"name":"The Walnut Tree","lat":51.091485,"lng":0.944218,"city_fetched":"Folkestone,UK","country":"United Kingdom","canonicalUrl":"https://foursquare.com/v/the-walnut-tree/4d73a6e05838a093ceb81bdb","categoryId":"4bf58dd8d48988d11b941735","category":"Pub","checkinsCount":32,"usersCount":20,"tipCount":1,"visitsCount":34,"url":"http://www.shepherdneame.co.uk","tier":"","message":"","currency":"","rating":6.6},{"name":"Kittiwake","phone":"+441304820809","address":"Menzies Rd.","lat":51.152486,"lng":1.291293,"city_fetched":"Folkestone,UK","state":"Kent","country":"United Kingdom","canonicalUrl":"https://foursquare.com/v/kittiwake/4c67ff097abde21e795d6768","categoryId":"4bf58dd8d48988d11b941735","category":"Pub","checkinsCount":123,"usersCount":95,"tipCount":4,"visitsCount":151,"url":"http://www.kittiwakepub.co.uk","tier":"","message":"","currency":"","rating":6.6},{"name":"The Eight Bells (Wetherspoon)","phone":"+441304205030","address":"19 Cannon St.","lat":51.125397888536924,"lng":1.3127803802490234,"city_fetched":"Folkestone,UK","state":"Kent","country":"United Kingdom","canonicalUrl":"https://foursquare.com/v/the-eight-bells-wetherspoon/4b783a25f964a520e9bd2ee3","categoryId":"4bf58dd8d48988d11b941735","category":"Pub","checkinsCount":551,"usersCount":378,"tipCount":7,"visitsCount":584,"url":"http://www.jdwetherspoon.co.uk","tier":"","message":"","currency":"","rating":6.6},{"name":"The Globe Inn - Shepherd Neame","phone":"+441303266290","address":"High St","lat":51.07119084770194,"lng":1.0807371139526367,"city_fetched":"Folkestone,UK","state":"Kent","country":"United Kingdom","canonicalUrl":"https://foursquare.com/v/the-globe-inn--shepherd-neame/4e65eed4091afcffda11ddb1","categoryId":"4bf58dd8d48988d11b941735","category":"Pub","checkinsCount":13,"usersCount":7,"tipCount":0,"visitsCount":13,"url":"http://www.shepherdneame.co.uk","tier":"","message":"","currency":"","rating":6.5},{"name":"Rose & Crown - Shepherd Neame","phone":"+441303840226","address":"High Street","lat":51.153096704206106,"lng":1.1110541224479675,"city_fetched":"Folkestone,UK","state":"Kent","country":"United Kingdom","canonicalUrl":"https://foursquare.com/v/rose--crown--shepherd-neame/4c1f26f55668b713b399f569","categoryId":"4bf58dd8d48988d11b941735","category":"Pub","checkinsCount":34,"usersCount":26,"tipCount":0,"visitsCount":37,"url":"http://www.shepherdneame.co.uk","tier":"","message":"","currency":"","rating":6.5},{"name":"The Pullman","address":"7-9 Church St.","lat":51.07968926430388,"lng":1.1814879304969956,"city_fetched":"Folkestone,UK","state":"Kent","country":"United Kingdom","canonicalUrl":"https://foursquare.com/v/the-pullman/4d3c2adcd625224ba7a78efa","categoryId":"4bf58dd8d48988d11b941735","category":"Pub","checkinsCount":60,"usersCount":54,"tipCount":3,"visitsCount":65,"tier":"","message":"","currency":"","rating":6.5},{"name":"The Nailbox - Shepherd Neame","phone":"+441303253748","address":"Coolindge Ln","lat":51.08417991454742,"lng":1.1515742540359497,"city_fetched":"Folkestone,UK","state":"Kent","country":"United Kingdom","canonicalUrl":"https://foursquare.com/v/the-nailbox--shepherd-neame/4e661e61091afcffda171bc7","categoryId":"4bf58dd8d48988d11b941735","category":"Pub","checkinsCount":8,"usersCount":7,"tipCount":0,"visitsCount":8,"url":"http://www.shepherdneame.co.uk","tier":"","message":"","currency":"","rating":6.4},{"name":"Bailiffs Sergeant - Shepherd Neame","phone":"+441303872503","address":"Jefferstone Lane","lat":51.009201644034846,"lng":0.9780514240264893,"city_fetched":"Folkestone,UK","state":"Kent","country":"United Kingdom","canonicalUrl":"https://foursquare.com/v/bailiffs-sergeant--shepherd-neame/4c95ff3a01dd76b0b10fc048","categoryId":"4bf58dd8d48988d11b941735","category":"Pub","checkinsCount":20,"usersCount":6,"tipCount":0,"visitsCount":20,"url":"http://www.shepherdneame.co.uk","tier":"","message":"","currency":"","rating":6.4},{"name":"Mermaid Inn - Shepherd Neame","phone":"+441227830581","address":"The Street","lat":51.2294561350806,"lng":1.1358699202537537,"city_fetched":"Folkestone,UK","state":"Kent","country":"United Kingdom","canonicalUrl":"https://foursquare.com/v/mermaid-inn--shepherd-neame/4d62ce0229ef236a4005c059","categoryId":"4bf58dd8d48988d11b941735","category":"Pub","checkinsCount":13,"usersCount":8,"tipCount":0,"visitsCount":15,"url":"http://www.shepherdneame.co.uk","tier":"","message":"","currency":"","rating":6.4},{"name":"Royal Oak - Shepherd Neame","phone":"+441304822073","address":"Lower Road, River","lat":51.14421281401309,"lng":1.279585361480713,"city_fetched":"Folkestone,UK","state":"Kent","country":"United Kingdom","canonicalUrl":"https://foursquare.com/v/royal-oak--shepherd-neame/4e674961814db7421777bcab","categoryId":"4bf58dd8d48988d11b941735","category":"Pub","checkinsCount":13,"usersCount":13,"tipCount":0,"visitsCount":16,"url":"http://www.shepherdneame.co.uk","tier":"","message":"","currency":"","rating":6.4},{"name":"The Lord Nelson - Shepherd Neame","phone":"+441304247074","address":"Flying Horse Lane","lat":51.1245595463805,"lng":1.3146471977233887,"city_fetched":"Folkestone,UK","state":"Kent","country":"United Kingdom","canonicalUrl":"https://foursquare.com/v/the-lord-nelson--shepherd-neame/4bf564676a31d13a76d0962e","categoryId":"4bf58dd8d48988d11b941735","category":"Pub","checkinsCount":7,"usersCount":6,"tipCount":0,"visitsCount":7,"url":"http://www.shepherdneame.co.uk","tier":"","message":"","currency":"","rating":6.4},{"name":"The Hope Inn","phone":"+441304853256","lat":51.15328176706742,"lng":1.3726767897605896,"city_fetched":"Folkestone,UK","state":"Kent","country":"United Kingdom","canonicalUrl":"https://foursquare.com/v/the-hope-inn/4d1e4b632eb1f04d6a8bdec1","categoryId":"4bf58dd8d48988d11b941735","category":"Pub","checkinsCount":10,"usersCount":10,"tipCount":0,"visitsCount":10,"url":"http://www.shepherdneame.co.uk","tier":"","message":"","currency":"","rating":6.4},{"name":"Plough and Harrow - Shepherd Neame","phone":"+441304617582","address":"Dover Road","lat":51.21174294563828,"lng":1.2993800640106201,"city_fetched":"Folkestone,UK","state":"Kent","country":"United Kingdom","canonicalUrl":"https://foursquare.com/v/plough-and-harrow--shepherd-neame/4e663db6091afcffda1b225a","categoryId":"4bf58dd8d48988d11b941735","category":"Pub","checkinsCount":8,"usersCount":7,"tipCount":0,"visitsCount":8,"url":"http://www.shepherdneame.co.uk","tier":"","message":"","currency":"","rating":6.3},{"name":"The Master Brewer - Shepherd Neame","phone":"+441303250903","address":"Perries Mead","lat":51.09068655794343,"lng":1.161831021308899,"city_fetched":"Folkestone,UK","state":"Kent","country":"United Kingdom","canonicalUrl":"https://foursquare.com/v/the-master-brewer--shepherd-neame/4c61bce9fa7bc92864780c27","categoryId":"4bf58dd8d48988d11b941735","category":"Pub","checkinsCount":137,"usersCount":23,"tipCount":1,"visitsCount":138,"url":"http://www.shepherdneame.co.uk","tier":"","message":"","currency":"","rating":6.3},{"name":"The Britannia - Shepherd Neame","phone":"+441303238502","address":"26 Horn St.","lat":51.081406478651715,"lng":1.1232447624206543,"city_fetched":"Folkestone,UK","state":"Kent","country":"United Kingdom","canonicalUrl":"https://foursquare.com/v/the-britannia--shepherd-neame/4e1442dcb3ad51e832e99d45","categoryId":"4bf58dd8d48988d11b941735","category":"Pub","checkinsCount":31,"usersCount":13,"tipCount":0,"visitsCount":33,"url":"http://www.shepherdneame.co.uk","tier":"","message":"","currency":"","rating":6.3},{"name":"First And Last - Shepherd Neame","phone":"+441314450534","address":"57/58 East Cliff","lat":51.12639108545639,"lng":1.3254404067993164,"city_fetched":"Folkestone,UK","state":"Kent","country":"United Kingdom","canonicalUrl":"https://foursquare.com/v/first-and-last--shepherd-neame/4c66ad7fc2ead13ae04ab480","categoryId":"4bf58dd8d48988d11b941735","category":"Pub","checkinsCount":11,"usersCount":8,"tipCount":1,"visitsCount":11,"url":"http://www.shepherdneame.co.uk","tier":"","message":"","currency":"","rating":6.2},{"name":"The Malvern Inn - Shepherd Neame","phone":"+441304204010","address":"Clarendon Road","lat":51.12372361736165,"lng":1.3054619318449918,"city_fetched":"Folkestone,UK","state":"Kent","country":"United Kingdom","canonicalUrl":"https://foursquare.com/v/the-malvern-inn--shepherd-neame/4e6fa4691838a9b627bd765d","categoryId":"4bf58dd8d48988d11b941735","category":"Pub","checkinsCount":14,"usersCount":9,"tipCount":1,"visitsCount":14,"url":"http://www.shepherdneame.co.uk","tier":"","message":"","currency":"","rating":6},{"name":"The Mayfly","lat":51.11205241556551,"lng":1.1618964903509021,"city_fetched":"Folkestone,UK","country":"United Kingdom","canonicalUrl":"https://foursquare.com/v/the-mayfly/4c5d684794fd0f478238cb45","categoryId":"4bf58dd8d48988d11b941735","category":"Pub","checkinsCount":121,"usersCount":68,"tipCount":5,"visitsCount":165,"tier":"","message":"","currency":"","rating":5.9},{"name":"The Plough (Beefeater)","phone":"+441304213340","twitter":"beefeatergrill","address":"Folkestone Rd","lat":51.11102999097418,"lng":1.2600388198117574,"city_fetched":"Folkestone,UK","state":"Kent","country":"United Kingdom","canonicalUrl":"https://foursquare.com/v/the-plough-beefeater/4bdec949ffdec9283494e9a1","categoryId":"4bf58dd8d48988d11b941735","category":"Pub","checkinsCount":165,"usersCount":121,"tipCount":3,"visitsCount":192,"url":"http://www.beefeater.co.uk","tier":"","message":"","currency":"","rating":5.8},{"name":"Duke of York (Brewers Fayre)","phone":"+448701977075","twitter":"brewersfayre","address":"Jubilee Way","lat":51.14445706757557,"lng":1.3305350709622086,"city_fetched":"Folkestone,UK","state":"Kent","country":"United Kingdom","canonicalUrl":"https://foursquare.com/v/duke-of-york-brewers-fayre/4c4ef41afa9d952110ed700a","categoryId":"4bf58dd8d48988d11b941735","category":"Pub","checkinsCount":126,"usersCount":100,"tipCount":2,"visitsCount":140,"url":"http://www.brewersfayre.co.uk/pub-restaurant/Kent/Duke-of-York-Dover.html","tier":"","message":"","currency":"","rating":4.9}]