[{"name":"The Alma Inn","address":"25 King's Head Street","lat":51.94743820394963,"lng":1.2864626988926784,"neighborhood":"CO12 3EE","city_fetched":"Frinton and Walton,UK","state":"Essex","country":"United Kingdom","canonicalUrl":"https://foursquare.com/v/the-alma-inn/4c3b6b74be4620a196540c13","categoryId":"4bf58dd8d48988d11b941735","category":"Pub","checkinsCount":163,"usersCount":84,"tipCount":7,"visitsCount":182,"url":"http://www.almaharwich.co.uk","tier":"","message":"","currency":"","rating":8},{"name":"Black Buoy","phone":"+441206822425","twitter":"blackbuoypub","address":"Black Buoy Hill","lat":51.854689848692274,"lng":0.9602411936218951,"city_fetched":"Frinton and Walton,UK","state":"Essex","country":"United Kingdom","canonicalUrl":"https://foursquare.com/v/black-buoy/4d7563f10e258cfaa5bcdfd4","categoryId":"4bf58dd8d48988d11b941735","category":"Pub","checkinsCount":164,"usersCount":64,"tipCount":3,"visitsCount":173,"url":"http://www.blackbuoy.co.uk","tier":"","message":"","currency":"","rating":8},{"name":"The Butt and Oyster","phone":"+441473780764","address":"Pinmill Rd, Pin Mill","lat":51.9963876881077,"lng":1.212471658321099,"city_fetched":"Frinton and Walton,UK","state":"Suffolk","country":"United Kingdom","canonicalUrl":"https://foursquare.com/v/the-butt-and-oyster/4baa61abf964a520ce643ae3","categoryId":"4bf58dd8d48988d11b941735","category":"Pub","checkinsCount":257,"usersCount":202,"tipCount":9,"visitsCount":290,"url":"http://www.debeninns.co.uk/buttandoyster/","tier":"","message":"","currency":"","rating":7.4},{"name":"The Greyhound","address":"62 High Street, Wivenhoe","lat":51.85771447801962,"lng":0.9599505487313073,"city_fetched":"Frinton and Walton,UK","state":"Essex","country":"United Kingdom","canonicalUrl":"https://foursquare.com/v/the-greyhound/4bc1dc51920eb7131f351b2c","categoryId":"4bf58dd8d48988d11b941735","category":"Pub","checkinsCount":286,"usersCount":59,"tipCount":3,"visitsCount":289,"tier":"","message":"","currency":"","rating":7.4},{"name":"The Alex","phone":"+441394282958","address":"123 Undercliff Rd W","lat":51.95986,"lng":1.350577,"city_fetched":"Frinton and Walton,UK","state":"Suffolk","country":"United Kingdom","canonicalUrl":"https://foursquare.com/v/the-alex/4b9f8768f964a520202937e3","categoryId":"4bf58dd8d48988d116941735","category":"Bar","checkinsCount":555,"usersCount":289,"tipCount":15,"visitsCount":727,"tier":"","message":"","currency":"","rating":7.3},{"name":"The Victory","phone":"+441255677857","twitter":"thevicwalton","address":"Suffolk Street","lat":51.84876953664028,"lng":1.2714958190917969,"city_fetched":"Frinton and Walton,UK","state":"Essex","country":"United Kingdom","canonicalUrl":"https://foursquare.com/v/the-victory/4c02ad2b0d0e0f473676019a","categoryId":"4bf58dd8d48988d11b941735","category":"Pub","checkinsCount":133,"usersCount":34,"tipCount":2,"visitsCount":142,"tier":"","message":"","currency":"","rating":7},{"name":"The Lock & Barrel - Shepherd Neame","phone":"+441255672597","address":"28 Connaught Avenue","lat":51.83156259557787,"lng":1.2456527352333069,"city_fetched":"Frinton and Walton,UK","state":"Essex","country":"United Kingdom","canonicalUrl":"https://foursquare.com/v/the-lock--barrel--shepherd-neame/4bc8d711fb84c9b601d9193e","categoryId":"4bf58dd8d48988d11b941735","category":"Pub","checkinsCount":161,"usersCount":53,"tipCount":3,"visitsCount":161,"url":"http://www.shepherdneame.co.uk","tier":"","message":"","currency":"","rating":6.3},{"name":"The Robin Hood Pub","phone":"+441255476785","address":"211 London Rd","lat":51.80799350448238,"lng":1.1497966291998398,"city_fetched":"Frinton and Walton,UK","state":"Essex","country":"United Kingdom","canonicalUrl":"https://foursquare.com/v/the-robin-hood-pub/4c03c4d7310fc9b6794ac661","categoryId":"4bf58dd8d48988d11b941735","category":"Pub","checkinsCount":228,"usersCount":78,"tipCount":5,"visitsCount":253,"url":"http://www.vintageinn.co.uk/therobinhoodclactononsea/","tier":"","message":"","currency":"","rating":6.2},{"name":"Owl and the Pussycat (Hungry Horse)","phone":"+441394671810","address":"Grange Farm Ave","lat":51.965659,"lng":1.3267171382904053,"city_fetched":"Frinton and Walton,UK","state":"Suffolk","country":"United Kingdom","canonicalUrl":"https://foursquare.com/v/owl-and-the-pussycat-hungry-horse/4bf6d38613aed13ae245eaf7","categoryId":"4bf58dd8d48988d11b941735","category":"Pub","checkinsCount":256,"usersCount":61,"tipCount":4,"visitsCount":300,"tier":"","message":"","currency":"","rating":5.9},{"name":"Brewers Fayre","phone":"+441255509660","address":"Parkeston Road","lat":51.939086168836795,"lng":1.2579774856567383,"city_fetched":"Frinton and Walton,UK","state":"Essex","country":"United Kingdom","canonicalUrl":"https://foursquare.com/v/brewers-fayre/4bc899b86501c9b622744029","categoryId":"4bf58dd8d48988d11b941735","category":"Pub","checkinsCount":142,"usersCount":89,"tipCount":5,"visitsCount":155,"tier":"","message":"","currency":"","rating":5.8},{"name":"Moon and Starfish (Wetherspoon)","phone":"+441255222998","address":"1 Marine Parade E.","lat":51.78768828327693,"lng":1.1541231172214292,"city_fetched":"Frinton and Walton,UK","state":"Essex","country":"United Kingdom","canonicalUrl":"https://foursquare.com/v/moon-and-starfish-wetherspoon/4bc243bb461576b049297d32","categoryId":"4bf58dd8d48988d11b941735","category":"Pub","checkinsCount":520,"usersCount":220,"tipCount":9,"visitsCount":537,"url":"http://www.jdwetherspoon.co.uk","tier":"","message":"","currency":"","rating":5.5}]