[{"name":"Best Western the Russell Hotel","phone":"+441622692221","twitter":"russellhotel","address":"136 Boxley Road","lat":51.285101508059974,"lng":0.5318376641113273,"city_fetched":"Gillingham,UK","state":"Kent","country":"United Kingdom","canonicalUrl":"https://foursquare.com/russellhotel","categoryId":"4bf58dd8d48988d1d5941735","category":"Hotel Bar","checkinsCount":173,"usersCount":85,"tipCount":3,"visitsCount":173,"url":"http://www.therussellhotel.com","tier":"","message":"","currency":"","rating":7.5},{"name":"The Man Of Kent","phone":"+447772214315","address":"6 - 8 Kent Street","lat":51.3837307381873,"lng":0.5054140090942383,"city_fetched":"Gillingham,UK","state":"Kent","country":"United Kingdom","canonicalUrl":"https://foursquare.com/v/the-man-of-kent/4b5b5fd1f964a520cdf828e3","categoryId":"4bf58dd8d48988d11b941735","category":"Pub","checkinsCount":779,"usersCount":142,"tipCount":9,"visitsCount":822,"tier":"","message":"","currency":"","rating":7.3},{"name":"The Society Rooms (Wetherspoon)","phone":"+441622350910","address":"Brenchley House","lat":51.277448670740625,"lng":0.5216981604861238,"city_fetched":"Gillingham,UK","state":"Kent","country":"United Kingdom","canonicalUrl":"https://foursquare.com/v/the-society-rooms-wetherspoon/4b6fc203f964a520b8fb2ce3","categoryId":"4bf58dd8d48988d11b941735","category":"Pub","checkinsCount":1190,"usersCount":422,"tipCount":9,"visitsCount":1441,"url":"http://www.jdwetherspoon.co.uk","tier":"","message":"","currency":"","rating":7.2},{"name":"Ye Olde Thirsty Pig","address":"Knightrider Street","lat":51.270527710515495,"lng":0.5250155925750732,"city_fetched":"Gillingham,UK","state":"Kent","country":"United Kingdom","canonicalUrl":"https://foursquare.com/v/ye-olde-thirsty-pig/4b71b958f964a52093582de3","categoryId":"4bf58dd8d48988d116941735","category":"Bar","checkinsCount":730,"usersCount":104,"tipCount":3,"visitsCount":788,"tier":"","message":"","currency":"","rating":7.2},{"name":"The Eagle Tavern","lat":51.38776502748889,"lng":0.5056139357414833,"city_fetched":"Gillingham,UK","country":"United Kingdom","canonicalUrl":"https://foursquare.com/v/the-eagle-tavern/4c4595ffdd1f2d7fce5e81f9","categoryId":"4bf58dd8d48988d11b941735","category":"Pub","checkinsCount":207,"usersCount":112,"tipCount":4,"visitsCount":217,"tier":"","message":"","currency":"","rating":7.2},{"name":"The Ship Inn","phone":"+441634402222","address":"Upnor Road","lat":51.41154702009611,"lng":0.5301064252853394,"city_fetched":"Gillingham,UK","state":"Kent","country":"United Kingdom","canonicalUrl":"https://foursquare.com/v/the-ship-inn/4b7edd41f964a5203c0530e3","categoryId":"4bf58dd8d48988d11b941735","category":"Pub","checkinsCount":782,"usersCount":77,"tipCount":5,"visitsCount":804,"url":"http://www.shiprochester.co.uk","tier":"","message":"","currency":"","rating":7.2},{"name":"The Flower Pot","address":"96 Sandling Rd.","lat":51.28260292094916,"lng":0.5186988976957234,"city_fetched":"Gillingham,UK","state":"Kent","country":"United Kingdom","canonicalUrl":"https://foursquare.com/v/the-flower-pot/4ca76203931bb60c98ad9ce2","categoryId":"4bf58dd8d48988d11b941735","category":"Pub","checkinsCount":163,"usersCount":83,"tipCount":7,"visitsCount":278,"tier":"","message":"","currency":"","rating":7.1},{"name":"The Tudor Rose - Shepherd Neame","address":"29 High St","lat":51.40620496914011,"lng":0.5260831117630005,"city_fetched":"Gillingham,UK","state":"Kent","country":"United Kingdom","canonicalUrl":"https://foursquare.com/v/the-tudor-rose--shepherd-neame/4d31bb3a2e56236a9d7515b4","categoryId":"4bf58dd8d48988d11b941735","category":"Pub","checkinsCount":48,"usersCount":43,"tipCount":2,"visitsCount":49,"url":"http://www.shepherdneame.co.uk","tier":"","message":"","currency":"","rating":7.1},{"name":"The Source Bar","phone":"+441622678174","twitter":"sourcemaidstone","address":"4-6 Rose Yard","lat":51.27409358041185,"lng":0.5221435678106214,"city_fetched":"Gillingham,UK","state":"Kent","country":"United Kingdom","canonicalUrl":"https://foursquare.com/v/the-source-bar/4d01546df94a6dcbf206f943","categoryId":"4bf58dd8d48988d11f941735","category":"Nightclub","checkinsCount":132,"usersCount":69,"tipCount":6,"visitsCount":132,"url":"http://www.thesourcebar.co.uk","tier":2,"message":"Moderate","currency":"Â£","rating":7},{"name":"The Golden Lion (Wetherspoon)","phone":"+441634880521","address":"147-149 High St.","lat":51.38669189643161,"lng":0.5066880583763123,"city_fetched":"Gillingham,UK","state":"Kent","country":"United Kingdom","canonicalUrl":"https://foursquare.com/v/the-golden-lion-wetherspoon/4ba4049cf964a520487838e3","categoryId":"4bf58dd8d48988d11b941735","category":"Pub","checkinsCount":1369,"usersCount":477,"tipCount":5,"visitsCount":1555,"url":"http://www.jdwetherspoon.co.uk/home/pubs/the-golden-lion-rochester","tier":"","message":"","currency":"","rating":7},{"name":"The Early Bird - Shepherd Neame","phone":"+441622734237","address":"Grovewood Drive","lat":51.27707857723489,"lng":0.5566227436065674,"city_fetched":"Gillingham,UK","state":"Kent","country":"United Kingdom","canonicalUrl":"https://foursquare.com/v/the-early-bird--shepherd-neame/4ccf3d4f3bd6236a46568421","categoryId":"4bf58dd8d48988d11b941735","category":"Pub","checkinsCount":152,"usersCount":26,"tipCount":0,"visitsCount":158,"url":"http://www.shepherdneame.co.uk","tier":"","message":"","currency":"","rating":6.7},{"name":"Ship & Trades - Shepherd Neame","phone":"+441634895200","address":"Chatham Maritime","lat":51.40246867600972,"lng":0.536382794380188,"city_fetched":"Gillingham,UK","state":"Kent","country":"United Kingdom","canonicalUrl":"https://foursquare.com/v/ship--trades--shepherd-neame/4bc77d6b93bdeee1677037ae","categoryId":"4bf58dd8d48988d11b941735","category":"Pub","checkinsCount":480,"usersCount":335,"tipCount":5,"visitsCount":776,"url":"http://www.shepherdneame.co.uk","tier":"","message":"","currency":"","rating":6.6},{"name":"The Dragoon - Shepherd Neame","phone":"+441622752620","address":"40 Sandling Road","lat":51.28038050432386,"lng":0.5197691917419434,"city_fetched":"Gillingham,UK","state":"Kent","country":"United Kingdom","canonicalUrl":"https://foursquare.com/v/the-dragoon--shepherd-neame/4d9762dcc19fb60ca4509565","categoryId":"4bf58dd8d48988d11b941735","category":"Pub","checkinsCount":30,"usersCount":14,"tipCount":0,"visitsCount":30,"url":"http://www.shepherdneame.co.uk","tier":"","message":"","currency":"","rating":6.5},{"name":"The Mackland Arms (Shepherd Neame)","phone":"+441634232178","address":"213 Station Rd.","lat":51.367900608886735,"lng":0.6143009662628174,"city_fetched":"Gillingham,UK","state":"Kent","country":"United Kingdom","canonicalUrl":"https://foursquare.com/v/the-mackland-arms-shepherd-neame/4e25cad5d4c0d18a28a9d399","categoryId":"4bf58dd8d48988d11b941735","category":"Pub","checkinsCount":275,"usersCount":13,"tipCount":0,"visitsCount":276,"url":"http://www.shepherdneame.co.uk","tier":"","message":"","currency":"","rating":6.5},{"name":"The Ship Inn","phone":"+441634402222","address":"347 High St","lat":51.38333730364682,"lng":0.5152789405766904,"city_fetched":"Gillingham,UK","state":"Kent","country":"United Kingdom","canonicalUrl":"https://foursquare.com/v/the-ship-inn/4cd04ad5f6378cfa5740b4d6","categoryId":"4bf58dd8d48988d1d8941735","category":"Gay Bar","checkinsCount":69,"usersCount":36,"tipCount":3,"visitsCount":112,"url":"http://www.shiprochester.co.uk","tier":"","message":"","currency":"","rating":6.5},{"name":"Fishermans Arms - Shepherd Neame","phone":"+441622755443","address":"40 Lower Stone Street","lat":51.271009324994814,"lng":0.5249914526939392,"city_fetched":"Gillingham,UK","state":"Kent","country":"United Kingdom","canonicalUrl":"https://foursquare.com/v/fishermans-arms--shepherd-neame/4c0322809a7920a19491cf79","categoryId":"4bf58dd8d48988d11b941735","category":"Pub","checkinsCount":279,"usersCount":36,"tipCount":1,"visitsCount":290,"url":"http://www.shepherdneame.co.uk","tier":"","message":"","currency":"","rating":6.5},{"name":"The Royal Albion - Shepherd Neame","phone":"+441622691789","address":"19 Havock Lane","lat":51.27559028352032,"lng":0.5200052261352539,"city_fetched":"Gillingham,UK","state":"Kent","country":"United Kingdom","canonicalUrl":"https://foursquare.com/v/the-royal-albion--shepherd-neame/4c2915b297d00f4715e240ea","categoryId":"4bf58dd8d48988d11b941735","category":"Pub","checkinsCount":84,"usersCount":31,"tipCount":1,"visitsCount":84,"url":"http://www.shepherdneame.co.uk","tier":"","message":"","currency":"","rating":6.5},{"name":"Beacon Court Tavern - Shepherd Neame","phone":"+441634853186","address":"Canterbury Street","lat":51.383738,"lng":0.545176,"city_fetched":"Gillingham,UK","state":"Kent","country":"United Kingdom","canonicalUrl":"https://foursquare.com/v/beacon-court-tavern--shepherd-neame/4c13d259a9c220a16f74569d","categoryId":"4bf58dd8d48988d11b941735","category":"Pub","checkinsCount":74,"usersCount":33,"tipCount":0,"visitsCount":74,"url":"http://www.shepherdneame.co.uk","tier":"","message":"","currency":"","rating":6.5},{"name":"The Watermans Arms - Shepherd Neame","phone":"+441634861503","address":"151 High Street","lat":51.350889049794475,"lng":0.4585397243499756,"city_fetched":"Gillingham,UK","state":"Kent","country":"United Kingdom","canonicalUrl":"https://foursquare.com/v/the-watermans-arms--shepherd-neame/4e688229b3ad5d9197525853","categoryId":"4bf58dd8d48988d11b941735","category":"Pub","checkinsCount":6,"usersCount":6,"tipCount":0,"visitsCount":6,"url":"http://www.shepherdneame.co.uk","tier":"","message":"","currency":"","rating":6.4},{"name":"Rose Inn - Shepherd Neame","phone":"+441634231047","address":"High Street","lat":51.36166248679956,"lng":0.6170180439949036,"city_fetched":"Gillingham,UK","state":"Kent","country":"United Kingdom","canonicalUrl":"https://foursquare.com/v/rose-inn--shepherd-neame/4e24590a1fc7c0ef9858630f","categoryId":"4bf58dd8d48988d11b941735","category":"Pub","checkinsCount":106,"usersCount":23,"tipCount":1,"visitsCount":138,"url":"http://www.shepherdneame.co.uk","tier":"","message":"","currency":"","rating":6.4},{"name":"The Dewdrop - Shepherd Neame","phone":"+441634232173","address":"Begonia Avenue","lat":51.37111730566377,"lng":0.5912339687347412,"city_fetched":"Gillingham,UK","state":"Kent","country":"United Kingdom","canonicalUrl":"https://foursquare.com/v/the-dewdrop--shepherd-neame/4dc8520445ddf311e6e6877b","categoryId":"4bf58dd8d48988d11b941735","category":"Pub","checkinsCount":12,"usersCount":8,"tipCount":0,"visitsCount":12,"url":"http://www.shepherdneame.co.uk","tier":"","message":"","currency":"","rating":6.4},{"name":"The Brenchley","phone":"+441622755773","twitter":"thebrenchley","address":"91 High St","lat":51.27345539591324,"lng":0.522449708048457,"city_fetched":"Gillingham,UK","state":"Kent","country":"United Kingdom","canonicalUrl":"https://foursquare.com/v/the-brenchley/529a4c2711d21f5474807d34","categoryId":"4bf58dd8d48988d11b941735","category":"Pub","checkinsCount":185,"usersCount":89,"tipCount":3,"visitsCount":196,"url":"http://www.thebrenchley.co.uk","tier":"","message":"","currency":"","rating":6.4},{"name":"The Muggleton Inn (Wetherspoon)","phone":"+441622691527","address":"8-9 High St.","lat":51.27364888543476,"lng":0.5219364166259766,"city_fetched":"Gillingham,UK","state":"Kent","country":"United Kingdom","canonicalUrl":"https://foursquare.com/v/the-muggleton-inn-wetherspoon/4c212da83389c9b6e8604ffb","categoryId":"4bf58dd8d48988d11b941735","category":"Pub","checkinsCount":741,"usersCount":359,"tipCount":13,"visitsCount":790,"url":"http://www.jdwetherspoon.co.uk","tier":"","message":"","currency":"","rating":6.4},{"name":"Railway Tavern - Shepherd Neame","phone":"+441474822705","address":"Chequers St, Lower Higham","lat":51.428313625499285,"lng":0.4649770259857178,"city_fetched":"Gillingham,UK","state":"Kent","country":"United Kingdom","canonicalUrl":"https://foursquare.com/v/railway-tavern--shepherd-neame/4e67424c814db7421776ee53","categoryId":"4bf58dd8d48988d11b941735","category":"Pub","checkinsCount":13,"usersCount":9,"tipCount":0,"visitsCount":13,"url":"http://www.shepherdneame.co.uk","tier":"","message":"","currency":"","rating":6.4},{"name":"The British Queen - Shepherd Neame","phone":"+441622686699","address":"Square Hill","lat":51.273075007889545,"lng":0.5323487520217896,"city_fetched":"Gillingham,UK","state":"Kent","country":"United Kingdom","canonicalUrl":"https://foursquare.com/v/the-british-queen--shepherd-neame/4d15e614cc216ea87b3a66d3","categoryId":"4bf58dd8d48988d11b941735","category":"Pub","checkinsCount":9,"usersCount":6,"tipCount":1,"visitsCount":9,"url":"http://www.shepherdneame.co.uk","tier":"","message":"","currency":"","rating":6.4},{"name":"Coopers","phone":"+442083317572","twitter":"gkunions","address":"Jellicoe Building","lat":51.398161267870464,"lng":0.5371713265566459,"city_fetched":"Gillingham,UK","state":"Kent","country":"United Kingdom","canonicalUrl":"https://foursquare.com/v/coopers/4cd7dc877bb06dcbe6149fb2","categoryId":"50327c8591d4c4b30a586d5d","category":"Brewery","checkinsCount":146,"usersCount":67,"tipCount":3,"visitsCount":166,"url":"http://www.gkunions.co.uk","tier":"","message":"","currency":"","rating":6.4},{"name":"The Fenn Bell Inn - Shepherd Neame","phone":"+441634270213","address":"St Mary Hoo","lat":51.45193432842702,"lng":0.5894637107849121,"city_fetched":"Gillingham,UK","state":"Kent","country":"United Kingdom","canonicalUrl":"https://foursquare.com/v/the-fenn-bell-inn--shepherd-neame/4e301d6d922e47c92927635a","categoryId":"4bf58dd8d48988d11b941735","category":"Pub","checkinsCount":13,"usersCount":11,"tipCount":0,"visitsCount":20,"url":"http://www.shepherdneame.co.uk","tier":"","message":"","currency":"","rating":6.4},{"name":"White Hart","lat":51.373401014658654,"lng":0.45812990688490285,"city_fetched":"Gillingham,UK","country":"United Kingdom","canonicalUrl":"https://foursquare.com/v/white-hart/4c461c59f88dc92838c6ae75","categoryId":"4bf58dd8d48988d11b941735","category":"Pub","checkinsCount":36,"usersCount":33,"tipCount":1,"visitsCount":49,"url":"http://www.shepherdneame.co.uk","tier":"","message":"","currency":"","rating":6.4},{"name":"The Two Brewers - Shepherd Neame","phone":"+441634812448","address":"113 High Street","lat":51.388136416812216,"lng":0.5052316188812256,"city_fetched":"Gillingham,UK","state":"Kent","country":"United Kingdom","canonicalUrl":"https://foursquare.com/v/the-two-brewers--shepherd-neame/4bddf493ffdec928141de7a1","categoryId":"4bf58dd8d48988d11b941735","category":"Pub","checkinsCount":136,"usersCount":58,"tipCount":1,"visitsCount":138,"url":"http://www.shepherdneame.co.uk","tier":"","message":"","currency":"","rating":6.4},{"name":"The Alma - Shepherd Neame","phone":"+441634735316","address":"Alma Place, Strood","lat":51.39402449968159,"lng":0.4915952682495117,"city_fetched":"Gillingham,UK","state":"Kent","country":"United Kingdom","canonicalUrl":"https://foursquare.com/v/the-alma--shepherd-neame/4e141d7ab3ad51e832e9915b","categoryId":"4bf58dd8d48988d11b941735","category":"Pub","checkinsCount":5,"usersCount":5,"tipCount":1,"visitsCount":5,"url":"http://www.shepherdneame.co.uk","tier":"","message":"","currency":"","rating":6.4},{"name":"Gardeners Arms - Shepherd Neame","phone":"+441474823901","address":"2 Forge Lane","lat":51.415507692654835,"lng":0.45757403476221653,"city_fetched":"Gillingham,UK","state":"Kent","country":"United Kingdom","canonicalUrl":"https://foursquare.com/v/gardeners-arms--shepherd-neame/4c3e1b976faac9b64ec20d76","categoryId":"4bf58dd8d48988d11b941735","category":"Pub","checkinsCount":72,"usersCount":16,"tipCount":1,"visitsCount":83,"url":"http://www.shepherdneame.co.uk","tier":"","message":"","currency":"","rating":6.4},{"name":"Yew Tree","lat":51.298520815166796,"lng":0.5206768296683708,"city_fetched":"Gillingham,UK","country":"United Kingdom","canonicalUrl":"https://foursquare.com/v/yew-tree/4d8c9bf8fa9437040685d3c5","categoryId":"4bf58dd8d48988d11b941735","category":"Pub","checkinsCount":15,"usersCount":14,"tipCount":1,"visitsCount":15,"url":"http://www.shepherdneame.co.uk","tier":"","message":"","currency":"","rating":6.3},{"name":"Six Bells - Shepherd Neame","phone":"+441634220609","address":"181 Church St","lat":51.46128360065736,"lng":0.4977911710739136,"city_fetched":"Gillingham,UK","state":"Kent","country":"United Kingdom","canonicalUrl":"https://foursquare.com/v/six-bells--shepherd-neame/4dec7286d164ef597d1e93ba","categoryId":"4bf58dd8d48988d11b941735","category":"Pub","checkinsCount":43,"usersCount":19,"tipCount":3,"visitsCount":45,"url":"http://www.shepherdneame.co.uk","tier":"","message":"","currency":"","rating":6.2},{"name":"The Harrow - Shepherd Neame","phone":"+441795842546","address":"The Street","lat":51.32543947891067,"lng":0.6401413679122925,"city_fetched":"Gillingham,UK","state":"Kent","country":"United Kingdom","canonicalUrl":"https://foursquare.com/v/the-harrow--shepherd-neame/4d1cea7d8629224b3f74f486","categoryId":"4bf58dd8d48988d11b941735","category":"Pub","checkinsCount":6,"usersCount":7,"tipCount":0,"visitsCount":7,"url":"http://www.shepherdneame.co.uk","tier":"","message":"","currency":"","rating":6.2},{"name":"The Swan - Shepherd Neame","phone":"+441622751264","address":"2 County Road","lat":51.277863813112866,"lng":0.5245247483253479,"city_fetched":"Gillingham,UK","state":"Kent","country":"United Kingdom","canonicalUrl":"https://foursquare.com/v/the-swan--shepherd-neame/4da89ae1f7b12d2d9a0f8c68","categoryId":"4bf58dd8d48988d11b941735","category":"Pub","checkinsCount":15,"usersCount":7,"tipCount":1,"visitsCount":17,"url":"http://www.shepherdneame.co.uk","tier":"","message":"","currency":"","rating":6.2},{"name":"White Rabbit","address":"Sandling Rd","lat":51.27992004818815,"lng":0.5192141509654449,"city_fetched":"Gillingham,UK","state":"Kent","country":"United Kingdom","canonicalUrl":"https://foursquare.com/v/white-rabbit/4aec41a8f964a520b3c521e3","categoryId":"4bf58dd8d48988d11b941735","category":"Pub","checkinsCount":249,"usersCount":175,"tipCount":4,"visitsCount":302,"tier":"","message":"","currency":"","rating":6.1},{"name":"Honourable Pilot (Brewers Fayre)","phone":"+441634261500","twitter":"brewersfayre","address":"Will Adams Way, Watling Street","lat":51.3704338487226,"lng":0.5699038976287841,"city_fetched":"Gillingham,UK","state":"Kent","country":"United Kingdom","canonicalUrl":"https://foursquare.com/v/honourable-pilot-brewers-fayre/4c4f0c44e33495210261be15","categoryId":"4bf58dd8d48988d11b941735","category":"Pub","checkinsCount":349,"usersCount":184,"tipCount":4,"visitsCount":386,"url":"http://www.brewersfayre.co.uk/pub-restaurant/Kent/Honourable-Pilot-Gillingham.html","tier":"","message":"","currency":"","rating":6},{"name":"The Casino Rooms Nightclub","phone":"+441634832888","twitter":"casinorooms","address":"Blue Boar Ln","lat":51.38781169662109,"lng":0.5065298080444336,"city_fetched":"Gillingham,UK","state":"Kent","country":"United Kingdom","canonicalUrl":"https://foursquare.com/v/the-casino-rooms-nightclub/4c117fc872caa593f0aa5da4","categoryId":"4bf58dd8d48988d11f941735","category":"Nightclub","checkinsCount":329,"usersCount":130,"tipCount":5,"visitsCount":329,"url":"http://www.casinoroomsnightclub.net","tier":"","message":"","currency":"","rating":6},{"name":"The Dog & Gun - Shepherd Neame","phone":"+441622759046","address":"213 Boxley Road","lat":51.2820791743806,"lng":0.526118017026753,"city_fetched":"Gillingham,UK","state":"Kent","country":"United Kingdom","canonicalUrl":"https://foursquare.com/v/the-dog--gun--shepherd-neame/4be1759d9897b713e2994bea","categoryId":"4bf58dd8d48988d11b941735","category":"Pub","checkinsCount":42,"usersCount":27,"tipCount":1,"visitsCount":43,"url":"http://www.shepherdneame.co.uk","tier":"","message":"","currency":"","rating":6},{"name":"The Bull Inn","phone":"+441622752888","address":"Boxley Rd., Penenden Heath","lat":51.289245,"lng":0.5372514814266445,"city_fetched":"Gillingham,UK","state":"Kent","country":"United Kingdom","canonicalUrl":"https://foursquare.com/v/the-bull-inn/4bce0d1e68f976b0e4576583","categoryId":"4bf58dd8d48988d11b941735","category":"Pub","checkinsCount":87,"usersCount":58,"tipCount":4,"visitsCount":104,"tier":"","message":"","currency":"","rating":6},{"name":"The Alexandra Hotel - Shepherd Neame","phone":"+441634830545","address":"Railway Street","lat":51.380684123134216,"lng":0.5210811995577899,"city_fetched":"Gillingham,UK","state":"Kent","country":"United Kingdom","canonicalUrl":"https://foursquare.com/v/the-alexandra-hotel--shepherd-neame/4e141c42b3ad51e832e990f9","categoryId":"4bf58dd8d48988d11b941735","category":"Pub","checkinsCount":621,"usersCount":41,"tipCount":1,"visitsCount":621,"url":"http://www.shepherdneame.co.uk","tier":"","message":"","currency":"","rating":5.9},{"name":"The Crown Freehouse","phone":"+441634814874","address":"2 High St.","lat":51.3912797230442,"lng":0.5018949508666992,"city_fetched":"Gillingham,UK","state":"Kent","country":"United Kingdom","canonicalUrl":"https://foursquare.com/v/the-crown-freehouse/4da0d11ad686b60c9d0c9828","categoryId":"4bf58dd8d48988d11b941735","category":"Pub","checkinsCount":185,"usersCount":107,"tipCount":4,"visitsCount":185,"url":"http://www.thecrownrochester.co.uk","tier":"","message":"","currency":"","rating":5.9},{"name":"Drakes Cork and Cask","address":"9 Fairmeadow","lat":51.27303861961739,"lng":0.5187227740436414,"city_fetched":"Gillingham,UK","state":"Kent","country":"United Kingdom","canonicalUrl":"https://foursquare.com/v/drakes-cork-and-cask/4b7173eff964a5206b472de3","categoryId":"4bf58dd8d48988d11b941735","category":"Pub","checkinsCount":532,"usersCount":104,"tipCount":5,"visitsCount":537,"tier":"","message":"","currency":"","rating":5.9},{"name":"Mu Mu","phone":"+441622669800","address":"108-110 Week St.","lat":51.27709871165582,"lng":0.5220866203308105,"city_fetched":"Gillingham,UK","state":"Kent","country":"United Kingdom","canonicalUrl":"https://foursquare.com/v/mu-mu/4bb8efdd3db7b71316ce219a","categoryId":"4bf58dd8d48988d116941735","category":"Bar","checkinsCount":357,"usersCount":196,"tipCount":11,"visitsCount":377,"tier":"","message":"","currency":"","rating":5.8},{"name":"The Cricketers","phone":"+441634387272","address":"88 High St","lat":51.363216654140665,"lng":0.608067512512207,"city_fetched":"Gillingham,UK","state":"Kent","country":"United Kingdom","canonicalUrl":"https://foursquare.com/v/the-cricketers/4b9c22e0f964a520c14d36e3","categoryId":"4bf58dd8d48988d11b941735","category":"Pub","checkinsCount":473,"usersCount":137,"tipCount":5,"visitsCount":500,"url":"http://www.gkflamegrill.co.uk/locations/cricketers-rainham","tier":"","message":"","currency":"","rating":5.7},{"name":"Brewers Fayre","phone":"+441732521630","twitter":"brewersfayre","address":"Castle Way","lat":51.306391654871824,"lng":0.4241752624511719,"city_fetched":"Gillingham,UK","state":"Kent","country":"United Kingdom","canonicalUrl":"https://foursquare.com/v/brewers-fayre/4c1cbd1deac020a14bf146c2","categoryId":"4bf58dd8d48988d11b941735","category":"Pub","checkinsCount":191,"usersCount":100,"tipCount":6,"visitsCount":222,"url":"http://www.brewersfayre.co.uk/pub-restaurant/Kent/Castle-Lake-Maidstone.html","tier":"","message":"","currency":"","rating":5.7},{"name":"The Star","phone":"+441634851174","address":"Watling St","lat":51.37172679483938,"lng":0.561525821685791,"city_fetched":"Gillingham,UK","state":"Kent","country":"United Kingdom","canonicalUrl":"https://foursquare.com/v/the-star/4b71bfd1f964a520295a2de3","categoryId":"4bf58dd8d48988d11b941735","category":"Pub","checkinsCount":323,"usersCount":153,"tipCount":3,"visitsCount":371,"url":"http://www.hungryhorse.co.uk/pubs/star-gillingham","tier":"","message":"","currency":"","rating":5.5},{"name":"The Cricketers","phone":"+441634851226","address":"Sturdee Ave","lat":51.380904988528144,"lng":0.5613461136817932,"city_fetched":"Gillingham,UK","state":"Kent","country":"United Kingdom","canonicalUrl":"https://foursquare.com/v/the-cricketers/4c8ba90a1797236a1cff6c88","categoryId":"4bf58dd8d48988d11b941735","category":"Pub","checkinsCount":256,"usersCount":65,"tipCount":4,"visitsCount":273,"url":"http://www.thecricketersgillingham.co.uk","tier":"","message":"","currency":"","rating":5.3},{"name":"The George Vaults","phone":"+441634817165","address":"35 High Street","lat":51.390399491018044,"lng":0.503449427860801,"city_fetched":"Gillingham,UK","state":"Kent","country":"United Kingdom","canonicalUrl":"https://foursquare.com/v/the-george-vaults/4c9f33fa0e9bb1f77951ee5f","categoryId":"4bf58dd8d48988d116941735","category":"Bar","checkinsCount":565,"usersCount":166,"tipCount":6,"visitsCount":595,"tier":"","message":"","currency":"","rating":5.1},{"name":"The City Wall","lat":51.38777822018171,"lng":0.5053442716598511,"city_fetched":"Gillingham,UK","country":"United Kingdom","canonicalUrl":"https://foursquare.com/v/the-city-wall/4bd466eda8b3a59380af6b5f","categoryId":"4bf58dd8d48988d11b941735","category":"Pub","checkinsCount":327,"usersCount":79,"tipCount":2,"visitsCount":330,"tier":"","message":"","currency":"","rating":5},{"name":"Manor Farm (Beefeater)","phone":"+441634373230","twitter":"beefeatergrill","address":"High St","lat":51.364806,"lng":0.60348,"city_fetched":"Gillingham,UK","state":"Kent","country":"United Kingdom","canonicalUrl":"https://foursquare.com/v/manor-farm-beefeater/4c4d883314b7b713d6d15f78","categoryId":"4bf58dd8d48988d11b941735","category":"Pub","checkinsCount":233,"usersCount":144,"tipCount":8,"visitsCount":293,"url":"http://www.beefeater.co.uk","tier":"","message":"","currency":"","rating":5}]