[{"name":"Ubiquitous Chip","phone":"+441413345007","twitter":"ubiquitouschip","address":"8-12 Ashton Ln.","lat":55.87486391450842,"lng":-4.2931439048608695,"neighborhood":"Hillhead","city_fetched":"Glasgow,UK","state":"Glasgow City","country":"United Kingdom","canonicalUrl":"https://foursquare.com/v/ubiquitous-chip/4b58d626f964a520d56d28e3","categoryId":"4bf58dd8d48988d116941735","category":"Bar","checkinsCount":1732,"usersCount":1091,"tipCount":26,"visitsCount":1801,"url":"http://www.ubiquitouschip.co.uk","tier":3,"message":"Expensive","currency":"£","rating":9.1},{"name":"BrewDog Glasgow","phone":"+441413347175","twitter":"brewdog","address":"1397 Argyle St","lat":55.868201944982154,"lng":-4.292078912258148,"neighborhood":"Yorkhill","city_fetched":"Glasgow,UK","state":"Glasgow City","country":"United Kingdom","canonicalUrl":"https://foursquare.com/v/brewdog-glasgow/4e1c4c481fc714dc5c3143ed","categoryId":"56aa371ce4b08b9a8d57356c","category":"Beer Bar","checkinsCount":3381,"usersCount":1684,"tipCount":32,"visitsCount":4204,"url":"http://www.brewdog.com","tier":2,"message":"Moderate","currency":"£","rating":9.1},{"name":"WEST Brewery, Bar & Restaurant","phone":"+441415500135","twitter":"westbeer","address":"Templeton Building","lat":55.85092089280965,"lng":-4.233952760696411,"neighborhood":"Bridgeton","city_fetched":"Glasgow,UK","state":"Glasgow City","country":"United Kingdom","canonicalUrl":"https://foursquare.com/v/west-brewery-bar--restaurant/4b4def09f964a5207adb26e3","categoryId":"50327c8591d4c4b30a586d5d","category":"Brewery","checkinsCount":2040,"usersCount":1100,"tipCount":42,"visitsCount":2469,"url":"http://www.westbeer.com","tier":2,"message":"Moderate","currency":"£","rating":9},{"name":"The Butterfly and the Pig","phone":"+441412217711","twitter":"butterflyandpig","address":"153 Bath St","lat":55.86433093487769,"lng":-4.261043071746826,"neighborhood":"City Centre","city_fetched":"Glasgow,UK","state":"Glasgow City","country":"United Kingdom","canonicalUrl":"https://foursquare.com/v/the-butterfly-and-the-pig/4b1fe8d7f964a520a32a24e3","categoryId":"4bf58dd8d48988d116941735","category":"Bar","checkinsCount":1630,"usersCount":1253,"tipCount":74,"visitsCount":1809,"url":"http://www.thebutterflyandthepig.com","tier":"","message":"","currency":"","rating":9},{"name":"The Howlin' Wolf","phone":"+441413333333","twitter":"howlinwolfglas","address":"100 Bath Street","lat":55.86405044040584,"lng":-4.258187180945954,"neighborhood":"City Centre","city_fetched":"Glasgow,UK","state":"Glasgow City","country":"United Kingdom","canonicalUrl":"https://foursquare.com/v/the-howlin-wolf/53220210498e48f21ce03d27","categoryId":"4bf58dd8d48988d11b941735","category":"Pub","checkinsCount":363,"usersCount":268,"tipCount":15,"visitsCount":436,"url":"http://www.thehowlinwolf.co.uk","tier":"","message":"","currency":"","rating":8.9},{"name":"Inn Deep","phone":"+441413571075","twitter":"inndeepbar","address":"445 Great Western Road","lat":55.87457609550969,"lng":-4.280677326429707,"neighborhood":"Hillhead","city_fetched":"Glasgow,UK","state":"Glasgow City","country":"United Kingdom","canonicalUrl":"https://foursquare.com/v/inn-deep/50489002e4b02a1c178f2de7","categoryId":"4bf58dd8d48988d116941735","category":"Bar","checkinsCount":999,"usersCount":508,"tipCount":14,"visitsCount":1295,"url":"http://www.inndeep.com","tier":2,"message":"Moderate","currency":"£","rating":8.9},{"name":"The Finnieston Bar & Restaurant","phone":"+441412222884","address":"1125 Argyle St.","lat":55.864733509056194,"lng":-4.284170094805439,"neighborhood":"Kelvingrove Park","city_fetched":"Glasgow,UK","state":"Glasgow City","country":"United Kingdom","canonicalUrl":"https://foursquare.com/v/the-finnieston-bar--restaurant/4e6a7758d164c37bf4985343","categoryId":"4bf58dd8d48988d116941735","category":"Bar","checkinsCount":478,"usersCount":310,"tipCount":14,"visitsCount":505,"url":"http://www.thefinniestonbar.com","tier":"","message":"","currency":"","rating":8.9},{"name":"DogHouse Merchant City","phone":"+441358724924","twitter":"doghousemcity","address":"99 Hutcheson St","lat":55.85934242169009,"lng":-4.247760673792262,"neighborhood":"Merchant City","city_fetched":"Glasgow,UK","state":"Glasgow City","country":"United Kingdom","canonicalUrl":"https://foursquare.com/v/doghouse-merchant-city/53e52950498ee2c0974731b8","categoryId":"56aa371ce4b08b9a8d57356c","category":"Beer Bar","checkinsCount":555,"usersCount":387,"tipCount":6,"visitsCount":791,"url":"http://www.brewdog.com","tier":2,"message":"Moderate","currency":"£","rating":8.9},{"name":"The Pot Still","phone":"+441413330980","address":"145 Hope St.","lat":55.86271980671793,"lng":-4.257845878601074,"neighborhood":"City Centre","city_fetched":"Glasgow,UK","state":"Glasgow City","country":"United Kingdom","canonicalUrl":"https://foursquare.com/v/the-pot-still/4bb7a8451261d13a09a7e798","categoryId":"4bf58dd8d48988d122941735","category":"Whisky Bar","checkinsCount":1203,"usersCount":939,"tipCount":33,"visitsCount":1461,"url":"http://thepotstill.co.uk","tier":"","message":"","currency":"","rating":8.9},{"name":"Firebird","phone":"+441413340594","twitter":"firebirdglasgow","address":"1321 Argyle St","lat":55.866764,"lng":-4.290524,"neighborhood":"Yorkhill","city_fetched":"Glasgow,UK","state":"Glasgow City","country":"United Kingdom","canonicalUrl":"https://foursquare.com/v/firebird/4b7ae4edf964a5205c442fe3","categoryId":"4bf58dd8d48988d11b941735","category":"Pub","checkinsCount":609,"usersCount":400,"tipCount":15,"visitsCount":816,"url":"http://www.firebirdglasgow.com","tier":"","message":"","currency":"","rating":8.9},{"name":"Sub Club","phone":"+441412484600","twitter":"subclub","address":"22 Jamaica St.","lat":55.857876386841944,"lng":-4.256998300552368,"neighborhood":"Merchant City","city_fetched":"Glasgow,UK","state":"Glasgow City","country":"United Kingdom","canonicalUrl":"https://foursquare.com/v/sub-club/4c54b19ea724e21e442cc8f6","categoryId":"4bf58dd8d48988d11f941735","category":"Nightclub","checkinsCount":308,"usersCount":200,"tipCount":10,"visitsCount":309,"url":"http://www.subclub.co.uk","tier":"","message":"","currency":"","rating":8.9},{"name":"The Belle","phone":"+441413392299","address":"617 Great Western Road","lat":55.876627432772786,"lng":-4.285813271999359,"neighborhood":"Hillhead","city_fetched":"Glasgow,UK","state":"Glasgow City","country":"United Kingdom","canonicalUrl":"https://foursquare.com/v/the-belle/4be5f1282468c9281fce0043","categoryId":"4bf58dd8d48988d116941735","category":"Bar","checkinsCount":379,"usersCount":246,"tipCount":10,"visitsCount":422,"tier":"","message":"","currency":"","rating":8.8},{"name":"Kelvingrove Cafe","address":"1163 Argyle Street","lat":55.86517953853383,"lng":-4.285210630963659,"neighborhood":"Kelvingrove Park","city_fetched":"Glasgow,UK","state":"Glasgow City","country":"United Kingdom","canonicalUrl":"https://foursquare.com/v/kelvingrove-cafe/5103f2cbe4b01e27aec042ac","categoryId":"4bf58dd8d48988d116941735","category":"Bar","checkinsCount":359,"usersCount":249,"tipCount":10,"visitsCount":398,"tier":"","message":"","currency":"","rating":8.8},{"name":"The Ben Nevis","phone":"+441415765204","address":"1147 Argyle St","lat":55.86494960029276,"lng":-4.2849288634092515,"neighborhood":"Finnieston","city_fetched":"Glasgow,UK","state":"Glasgow City","country":"United Kingdom","canonicalUrl":"https://foursquare.com/v/the-ben-nevis/4b687ef1f964a520237c2be3","categoryId":"4bf58dd8d48988d122941735","category":"Whisky Bar","checkinsCount":580,"usersCount":366,"tipCount":15,"visitsCount":603,"url":"http://thebennevis.co.uk","tier":"","message":"","currency":"","rating":8.8},{"name":"Stereo","phone":"+441412222254","twitter":"stereoglasgow","address":"22-28 Renfield Ln","lat":55.861107565723685,"lng":-4.257830848534248,"neighborhood":"Merchant City","city_fetched":"Glasgow,UK","state":"Glasgow City","country":"United Kingdom","canonicalUrl":"https://foursquare.com/v/stereo/4ade0865f964a5208b6721e3","categoryId":"4bf58dd8d48988d116941735","category":"Bar","checkinsCount":1566,"usersCount":885,"tipCount":37,"visitsCount":1767,"url":"http://www.stereocafebar.com","tier":"","message":"","currency":"","rating":8.8},{"name":"Gin71","phone":"+441413532959","twitter":"gin71bar","address":"71 Renfield Street","lat":55.862828414711934,"lng":-4.256473348888946,"neighborhood":"Merchant City","city_fetched":"Glasgow,UK","state":"Glasgow City","country":"United Kingdom","canonicalUrl":"https://foursquare.com/v/gin71/536d3b5011d2fa1bd01363a6","categoryId":"4bf58dd8d48988d11e941735","category":"Cocktail Bar","checkinsCount":116,"usersCount":105,"tipCount":7,"visitsCount":117,"url":"http://www.gin71.com","tier":"","message":"","currency":"","rating":8.8},{"name":"The 13th Note","phone":"+441415531638","twitter":"official13thnot","address":"50-60 King St.","lat":55.85595547007519,"lng":-4.246832728385925,"neighborhood":"Merchant City","city_fetched":"Glasgow,UK","state":"Glasgow City","country":"United Kingdom","canonicalUrl":"https://foursquare.com/v/the-13th-note/4bd9f527ffafd13a6af49a85","categoryId":"4bf58dd8d48988d116941735","category":"Bar","checkinsCount":1073,"usersCount":613,"tipCount":19,"visitsCount":1175,"url":"http://www.13thnote.co.uk","tier":"","message":"","currency":"","rating":8.7},{"name":"Hillhead Bookclub","phone":"+441415761700","twitter":"hhbookclub","address":"17 Vinicombe St.","lat":55.877044220486354,"lng":-4.290611743927002,"neighborhood":"Hillhead","city_fetched":"Glasgow,UK","state":"Glasgow City","country":"United Kingdom","canonicalUrl":"https://foursquare.com/v/hillhead-bookclub/4bd91f5eefb2ef3b1666ec9c","categoryId":"4bf58dd8d48988d11b941735","category":"Pub","checkinsCount":1899,"usersCount":1323,"tipCount":31,"visitsCount":2249,"url":"http://www.hillheadbookclub.com","tier":2,"message":"Moderate","currency":"£","rating":8.7},{"name":"The Tiki Bar & Kitsch Inn","phone":"+441413321341","address":"214 Bath St.","lat":55.86474032899429,"lng":-4.264411926269531,"neighborhood":"City Centre","city_fetched":"Glasgow,UK","state":"Glasgow City","country":"United Kingdom","canonicalUrl":"https://foursquare.com/v/the-tiki-bar--kitsch-inn/4d1e398e6e8c3704d4cee49f","categoryId":"4bf58dd8d48988d11e941735","category":"Cocktail Bar","checkinsCount":550,"usersCount":367,"tipCount":16,"visitsCount":592,"url":"http://www.tikibarglasgow.com","tier":"","message":"","currency":"","rating":8.3},{"name":"The Bon Accord","phone":"+441412484427","twitter":"thebonaccord","address":"153 North St.","lat":55.86404194819755,"lng":-4.271310567855835,"neighborhood":"City Centre","city_fetched":"Glasgow,UK","state":"Glasgow City","country":"United Kingdom","canonicalUrl":"https://foursquare.com/v/the-bon-accord/4b852d7bf964a5207d4f31e3","categoryId":"4bf58dd8d48988d122941735","category":"Whisky Bar","checkinsCount":1250,"usersCount":493,"tipCount":14,"visitsCount":1477,"url":"http://www.bonaccordweb.co.uk","tier":"","message":"","currency":"","rating":8.3},{"name":"Drygate","phone":"+441412128810","twitter":"drygate","address":"85 Drygate","lat":55.86025500120764,"lng":-4.233698453804788,"neighborhood":"East End","city_fetched":"Glasgow,UK","state":"Glasgow City","country":"United Kingdom","canonicalUrl":"https://foursquare.com/v/drygate/537dcf0d498e02df07785e2f","categoryId":"50327c8591d4c4b30a586d5d","category":"Brewery","checkinsCount":856,"usersCount":788,"tipCount":24,"visitsCount":1311,"url":"http://drygate.com","tier":"","message":"","currency":"","rating":8.3},{"name":"Chinaskis","phone":"+441412210061","address":"239 North St","lat":55.86584205937743,"lng":-4.272018671035767,"neighborhood":"Kelvingrove Park","city_fetched":"Glasgow,UK","state":"Glasgow City","country":"United Kingdom","canonicalUrl":"https://foursquare.com/v/chinaskis/4b5f25daf964a52015a929e3","categoryId":"4bf58dd8d48988d116941735","category":"Bar","checkinsCount":826,"usersCount":301,"tipCount":19,"visitsCount":845,"url":"http://www.chinaskis.com","tier":"","message":"","currency":"","rating":8.3},{"name":"Blackfriars","phone":"+441415525924","twitter":"blackfriars_bar","address":"36 Bell St","lat":55.85803896019351,"lng":-4.244474881964993,"neighborhood":"Merchant City","city_fetched":"Glasgow,UK","state":"Glasgow City","country":"United Kingdom","canonicalUrl":"https://foursquare.com/v/blackfriars/4b4e0f8af964a5201ce026e3","categoryId":"4bf58dd8d48988d116941735","category":"Bar","checkinsCount":2316,"usersCount":915,"tipCount":23,"visitsCount":2674,"url":"http://www.blackfriarsglasgow.com","tier":"","message":"","currency":"","rating":8.3},{"name":"Max's Bar & Grill","phone":"+441412211379","twitter":"lacheetahclub","address":"73 Queen St","lat":55.859529,"lng":-4.252106,"neighborhood":"Merchant City","city_fetched":"Glasgow,UK","state":"Glasgow City","country":"United Kingdom","canonicalUrl":"https://foursquare.com/v/maxs-bar--grill/4b76f668f964a520036f2ee3","categoryId":"4bf58dd8d48988d11b941735","category":"Pub","checkinsCount":781,"usersCount":352,"tipCount":11,"visitsCount":886,"url":"http://www.maxsbar.co.uk","tier":"","message":"","currency":"","rating":8.2},{"name":"Cottiers","phone":"+441413575825","twitter":"cottiers_venue","address":"93-95 Hyndland St","lat":55.874010746320145,"lng":-4.302091598510742,"neighborhood":"Partick","city_fetched":"Glasgow,UK","state":"Glasgow City","country":"United Kingdom","canonicalUrl":"https://foursquare.com/v/cottiers/4beefc5216290f47b62cf51e","categoryId":"4bf58dd8d48988d11b941735","category":"Pub","checkinsCount":1099,"usersCount":485,"tipCount":10,"visitsCount":1321,"url":"http://www.cottiers.com","tier":"","message":"","currency":"","rating":8.2},{"name":"Lebowskis","phone":"+441415647988","address":"1008 Argyll Street","lat":55.864005824711384,"lng":-4.281728267669678,"neighborhood":"City Centre","city_fetched":"Glasgow,UK","state":"Glasgow City","country":"United Kingdom","canonicalUrl":"https://foursquare.com/v/lebowskis/4b65dd17f964a520ac042be3","categoryId":"4bf58dd8d48988d116941735","category":"Bar","checkinsCount":782,"usersCount":619,"tipCount":25,"visitsCount":1025,"tier":"","message":"","currency":"","rating":8.2},{"name":"Browns","phone":"+441412217830","twitter":"brownsglasgow","address":"1 George Square","lat":55.860581,"lng":-4.249379,"neighborhood":"Merchant City","city_fetched":"Glasgow,UK","state":"Glasgow City","country":"United Kingdom","canonicalUrl":"https://foursquare.com/v/browns/4d9de1b8ffb92d43dba52388","categoryId":"4bf58dd8d48988d11e941735","category":"Cocktail Bar","checkinsCount":616,"usersCount":398,"tipCount":12,"visitsCount":635,"url":"http://www.browns-restaurants.co.uk/locations/glasgow/","tier":"","message":"","currency":"","rating":8.1},{"name":"The Raven","phone":"+441413326151","twitter":"theravenglasgow","address":"81 - 85 Renfield Street","lat":55.863602,"lng":-4.255901,"neighborhood":"Merchant City","city_fetched":"Glasgow,UK","state":"Glasgow City","country":"United Kingdom","canonicalUrl":"https://foursquare.com/v/the-raven/53a5ada8498ea256c9338e39","categoryId":"4bf58dd8d48988d116941735","category":"Bar","checkinsCount":470,"usersCount":353,"tipCount":8,"visitsCount":647,"url":"http://www.theravenglasgow.co.uk","tier":"","message":"","currency":"","rating":8.1},{"name":"The State Bar","phone":"+441413322159","twitter":"state_the","address":"148 Holland St","lat":55.865403781554505,"lng":-4.266078477419258,"neighborhood":"City Centre","city_fetched":"Glasgow,UK","state":"Glasgow City","country":"United Kingdom","canonicalUrl":"https://foursquare.com/v/the-state-bar/4b607d0df964a52035e929e3","categoryId":"4bf58dd8d48988d116941735","category":"Bar","checkinsCount":1538,"usersCount":343,"tipCount":15,"visitsCount":1590,"url":"http://comedyatthestate.co.uk","tier":"","message":"","currency":"","rating":8.1},{"name":"Variety Bar","phone":"+441413324449","address":"401 Sauchiehall Street","lat":55.86594440432944,"lng":-4.2681884765625,"neighborhood":"City Centre","city_fetched":"Glasgow,UK","country":"United Kingdom","canonicalUrl":"https://foursquare.com/v/variety-bar/4b65c96bf964a520b3ff2ae3","categoryId":"4bf58dd8d48988d118941735","category":"Dive Bar","checkinsCount":390,"usersCount":235,"tipCount":4,"visitsCount":420,"tier":"","message":"","currency":"","rating":8},{"name":"Distill","phone":"+441413373006","address":"1102-1106 Argyle St","lat":55.86488866029961,"lng":-4.284366137044983,"neighborhood":"Kelvingrove Park","city_fetched":"Glasgow,UK","country":"United Kingdom","canonicalUrl":"https://foursquare.com/v/distill/4b48bdb4f964a520fd5426e3","categoryId":"4bf58dd8d48988d116941735","category":"Bar","checkinsCount":526,"usersCount":272,"tipCount":8,"visitsCount":540,"url":"http://www.distillbar.co.uk","tier":"","message":"","currency":"","rating":8},{"name":"Ashton Lane","address":"Ashton Ln","lat":55.87486543960862,"lng":-4.292993545532227,"neighborhood":"Hillhead","city_fetched":"Glasgow,UK","state":"Glasgow City","country":"United Kingdom","canonicalUrl":"https://foursquare.com/v/ashton-lane/4cd4639a7da9a35d9857e3b9","categoryId":"4bf58dd8d48988d11a941735","category":"Other Nightlife","checkinsCount":1015,"usersCount":522,"tipCount":11,"visitsCount":1019,"tier":"","message":"","currency":"","rating":8},{"name":"Nice 'n' Sleazy","phone":"+441413330900","twitter":"nice_n_sleazy","address":"421 Sauchiehall St","lat":55.865840990863845,"lng":-4.268908781880859,"neighborhood":"City Centre","city_fetched":"Glasgow,UK","state":"Glasgow City","country":"United Kingdom","canonicalUrl":"https://foursquare.com/v/nice-n-sleazy/4b2bc508f964a52095ba24e3","categoryId":"4bf58dd8d48988d116941735","category":"Bar","checkinsCount":1682,"usersCount":1016,"tipCount":35,"visitsCount":1728,"url":"http://nicensleazy.com","tier":"","message":"","currency":"","rating":8},{"name":"The Allison Arms","phone":"+441414231661","twitter":"theallisonarms","address":"720 Pollokshaws Rd","lat":55.83662389426425,"lng":-4.269992087583537,"neighborhood":"South Side","city_fetched":"Glasgow,UK","state":"Glasgow City","country":"United Kingdom","canonicalUrl":"https://foursquare.com/v/the-allison-arms/4bcb2e8e511f952190e1b0c7","categoryId":"4bf58dd8d48988d116941735","category":"Bar","checkinsCount":262,"usersCount":72,"tipCount":5,"visitsCount":277,"tier":"","message":"","currency":"","rating":7.9},{"name":"The Sparkle Horse","address":"Dowanhill Street","lat":55.87129358189487,"lng":-4.3003495501134354,"neighborhood":"Partick","city_fetched":"Glasgow,UK","state":"Glasgow City","country":"United Kingdom","canonicalUrl":"https://foursquare.com/v/the-sparkle-horse/50d20bc9e4b029fc6804c7a9","categoryId":"4bf58dd8d48988d116941735","category":"Bar","checkinsCount":352,"usersCount":170,"tipCount":10,"visitsCount":423,"tier":"","message":"","currency":"","rating":7.9},{"name":"Republic Bier Halle","phone":"+441412040706","address":"9 Gordon St","lat":55.86039029587364,"lng":-4.254530668258667,"neighborhood":"Merchant City","city_fetched":"Glasgow,UK","state":"Glasgow City","country":"United Kingdom","canonicalUrl":"https://foursquare.com/v/republic-bier-halle/4b4df610f964a52050dc26e3","categoryId":"4bf58dd8d48988d11b941735","category":"Pub","checkinsCount":1399,"usersCount":787,"tipCount":35,"visitsCount":1450,"url":"http://www.republicbierhalle.com","tier":"","message":"","currency":"","rating":7.9},{"name":"The Left Bank","phone":"+441413395969","address":"33 Gibson St.","lat":55.872441,"lng":-4.28261,"neighborhood":"Hillhead","city_fetched":"Glasgow,UK","state":"Glasgow City","country":"United Kingdom","canonicalUrl":"https://foursquare.com/v/the-left-bank/4b609ccdf964a52037f029e3","categoryId":"4bf58dd8d48988d116941735","category":"Bar","checkinsCount":583,"usersCount":394,"tipCount":15,"visitsCount":641,"tier":"","message":"","currency":"","rating":7.9},{"name":"Clutha","lat":55.85456085205078,"lng":-4.250060081481934,"neighborhood":"Merchant City","city_fetched":"Glasgow,UK","country":"United Kingdom","canonicalUrl":"https://foursquare.com/v/clutha/55ba4ae6498e9ddd9b04f40f","categoryId":"4bf58dd8d48988d11b941735","category":"Pub","checkinsCount":45,"usersCount":36,"tipCount":1,"visitsCount":48,"tier":"","message":"","currency":"","rating":7.9},{"name":"Babbity Bowster","phone":"+441415525055","address":"16–18 Blackfriars St","lat":55.858395,"lng":-4.242643,"neighborhood":"Merchant City","city_fetched":"Glasgow,UK","state":"Glasgow City","country":"United Kingdom","canonicalUrl":"https://foursquare.com/v/babbity-bowster/4b673d3af964a5202c432be3","categoryId":"4bf58dd8d48988d11b941735","category":"Pub","checkinsCount":460,"usersCount":338,"tipCount":13,"visitsCount":522,"url":"http://www.babbitybowster.com","tier":"","message":"","currency":"","rating":7.9},{"name":"Slouch","phone":"+441412215518","twitter":"slouchglasgow","address":"203-205 Bath St","lat":55.86468915496568,"lng":-4.2638325691223145,"neighborhood":"City Centre","city_fetched":"Glasgow,UK","state":"Glasgow City","country":"United Kingdom","canonicalUrl":"https://foursquare.com/v/slouch/4c9b86697421b71359eb0614","categoryId":"4bf58dd8d48988d116941735","category":"Bar","checkinsCount":854,"usersCount":506,"tipCount":16,"visitsCount":975,"url":"http://www.slouch-bar.co.uk","tier":"","message":"","currency":"","rating":7.9},{"name":"Anchor Line","address":"12-16 St Vincent Place","lat":55.86107833661313,"lng":-4.25276250755877,"neighborhood":"Merchant City","city_fetched":"Glasgow,UK","state":"Glasgow City","country":"United Kingdom","canonicalUrl":"https://foursquare.com/v/anchor-line/543d3e26498e1b6b7dc59538","categoryId":"4bf58dd8d48988d11e941735","category":"Cocktail Bar","checkinsCount":152,"usersCount":114,"tipCount":5,"visitsCount":152,"tier":"","message":"","currency":"","rating":7.8},{"name":"The Ark","phone":"+441415594331","twitter":"glasgowstheark","address":"42 North Frederick St.","lat":55.862139603339614,"lng":-4.248514578021439,"neighborhood":"Townhead","city_fetched":"Glasgow,UK","state":"Glasgow City","country":"United Kingdom","canonicalUrl":"https://foursquare.com/v/the-ark/4bbe3eaa8ca376b0b88ac77a","categoryId":"4bf58dd8d48988d11b941735","category":"Pub","checkinsCount":1167,"usersCount":518,"tipCount":15,"visitsCount":1265,"url":"http://www.thearkglasgow.co.uk","tier":1,"message":"Cheap","currency":"£","rating":7.8},{"name":"Brel Bar Restaurant","phone":"+441413424966","address":"39 Ashton Lane","lat":55.87454643656764,"lng":-4.293057918548584,"neighborhood":"Hillhead","city_fetched":"Glasgow,UK","state":"Glasgow City","country":"United Kingdom","canonicalUrl":"https://foursquare.com/v/brel-bar-restaurant/4b633169f964a5208b692ae3","categoryId":"4bf58dd8d48988d116941735","category":"Bar","checkinsCount":1295,"usersCount":805,"tipCount":22,"visitsCount":1381,"tier":"","message":"","currency":"","rating":7.8},{"name":"Tabac","phone":"+441415721448","twitter":"glasgowtabac","address":"10 Mitchell Lane","lat":55.859781427529335,"lng":-4.254943523467205,"neighborhood":"Merchant City","city_fetched":"Glasgow,UK","state":"Glasgow City","country":"United Kingdom","canonicalUrl":"https://foursquare.com/v/tabac/55171561498e009720e96c09","categoryId":"4bf58dd8d48988d116941735","category":"Bar","checkinsCount":82,"usersCount":57,"tipCount":1,"visitsCount":82,"tier":"","message":"","currency":"","rating":7.8},{"name":"The Bungo","phone":"+441414230023","twitter":"thebungo","address":"17-21 Nithsdale Rd.","lat":55.8365942199442,"lng":-4.271208360068231,"neighborhood":"South Side","city_fetched":"Glasgow,UK","state":"Glasgow City","country":"United Kingdom","canonicalUrl":"https://foursquare.com/v/the-bungo/4ee51e01e30005f8b882bbd3","categoryId":"4bf58dd8d48988d116941735","category":"Bar","checkinsCount":463,"usersCount":237,"tipCount":16,"visitsCount":590,"tier":"","message":"","currency":"","rating":7.7},{"name":"Bacchus","phone":"+441415720080","address":"80 Glassford Street","lat":55.85939677558766,"lng":-4.248686931436595,"neighborhood":"Merchant City","city_fetched":"Glasgow,UK","country":"United Kingdom","canonicalUrl":"https://foursquare.com/v/bacchus/4bfbe313d931c928945b838b","categoryId":"4bf58dd8d48988d116941735","category":"Bar","checkinsCount":1020,"usersCount":240,"tipCount":2,"visitsCount":1170,"url":"http://www.bacchusglasgow.co.uk","tier":"","message":"","currency":"","rating":7.7},{"name":"DRAM!","phone":"+441413321622","address":"232-246 Woodlands Rd","lat":55.871107,"lng":-4.27708,"neighborhood":"Woodlands","city_fetched":"Glasgow,UK","state":"Glasgow City","country":"United Kingdom","canonicalUrl":"https://foursquare.com/v/dram/4d28d36debacb1f71b01f54f","categoryId":"4bf58dd8d48988d116941735","category":"Bar","checkinsCount":612,"usersCount":473,"tipCount":10,"visitsCount":869,"url":"http://www.dramglasgow.co.uk","tier":"","message":"","currency":"","rating":7.7},{"name":"BLOC+","phone":"+441415746066","twitter":"blocglasgow","address":"117 Bath St","lat":55.86405323784239,"lng":-4.2591945868734795,"neighborhood":"City Centre","city_fetched":"Glasgow,UK","state":"Glasgow City","country":"United Kingdom","canonicalUrl":"https://foursquare.com/v/bloc/4bc0841cf8219c7407a4b110","categoryId":"4bf58dd8d48988d116941735","category":"Bar","checkinsCount":1045,"usersCount":640,"tipCount":17,"visitsCount":1200,"url":"http://bloc.ru","tier":"","message":"","currency":"","rating":7.7},{"name":"29 Private Members Club","phone":"+441412255615","address":"29 Royal Exchange Square","lat":55.85991161196125,"lng":-4.253361225128174,"neighborhood":"Merchant City","city_fetched":"Glasgow,UK","state":"Glasgow City","country":"United Kingdom","canonicalUrl":"https://foursquare.com/v/29-private-members-club/4bac6b08f964a52041f43ae3","categoryId":"4bf58dd8d48988d11f941735","category":"Nightclub","checkinsCount":847,"usersCount":329,"tipCount":9,"visitsCount":854,"tier":"","message":"","currency":"","rating":7.7},{"name":"Scotia Bar","phone":"+441415528681","twitter":"thescotiabar","address":"Stockwell ST","lat":55.855407479544105,"lng":-4.250292778015137,"neighborhood":"Merchant City","city_fetched":"Glasgow,UK","state":"Glasgow City","country":"United Kingdom","canonicalUrl":"https://foursquare.com/v/scotia-bar/4c3dba31a9509c74a39b395b","categoryId":"4bf58dd8d48988d116941735","category":"Bar","checkinsCount":307,"usersCount":233,"tipCount":12,"visitsCount":323,"url":"http://scotiabar.net","tier":"","message":"","currency":"","rating":7.6},{"name":"Solid Rock Cafe","phone":"+441412211105","address":"19 Hope St","lat":55.859100591314636,"lng":-4.259190811883333,"neighborhood":"Merchant City","city_fetched":"Glasgow,UK","state":"Glasgow City","country":"United Kingdom","canonicalUrl":"https://foursquare.com/v/solid-rock-cafe/4b75abdaf964a520cd1b2ee3","categoryId":"4bf58dd8d48988d116941735","category":"Bar","checkinsCount":1405,"usersCount":523,"tipCount":24,"visitsCount":1421,"tier":"","message":"","currency":"","rating":7.6},{"name":"McChuills","phone":"+441415522324","twitter":"mcchuillsbar","address":"40 High St.","lat":55.857799307633044,"lng":-4.242398459572092,"neighborhood":"Bellgrove","city_fetched":"Glasgow,UK","state":"Glasgow City","country":"United Kingdom","canonicalUrl":"https://foursquare.com/v/mcchuills/4b96baaef964a520b8e034e3","categoryId":"4bf58dd8d48988d116941735","category":"Bar","checkinsCount":195,"usersCount":115,"tipCount":5,"visitsCount":212,"url":"http://mcchuills.co.uk","tier":"","message":"","currency":"","rating":7.6},{"name":"Blue Dog","phone":"+441412290707","address":"151 West George St.","lat":55.86245248302627,"lng":-4.257545471191406,"neighborhood":"Merchant City","city_fetched":"Glasgow,UK","state":"Glasgow City","country":"United Kingdom","canonicalUrl":"https://foursquare.com/v/blue-dog/4b511ac5f964a520ad4227e3","categoryId":"4bf58dd8d48988d11e941735","category":"Cocktail Bar","checkinsCount":588,"usersCount":324,"tipCount":10,"visitsCount":605,"url":"http://bluedogglasgow.com","tier":"","message":"","currency":"","rating":7.6},{"name":"Urban Bar & Brasserie","phone":"+441412485636","twitter":"urbanbarglasgow","address":"23-25 St Vincent Pl","lat":55.860983374049724,"lng":-4.253060817718506,"neighborhood":"Merchant City","city_fetched":"Glasgow,UK","state":"Glasgow City","country":"United Kingdom","canonicalUrl":"https://foursquare.com/v/urban-bar--brasserie/4bab7f33f964a52000ae3ae3","categoryId":"4bf58dd8d48988d11e941735","category":"Cocktail Bar","checkinsCount":379,"usersCount":200,"tipCount":3,"visitsCount":381,"url":"http://www.urbanbrasserie.co.uk","tier":"","message":"","currency":"","rating":7.5},{"name":"The Three Judges","phone":"+441413373055","twitter":"the3judges","address":"145 Dumbarton Rd","lat":55.870477,"lng":-4.299719,"neighborhood":"Partick","city_fetched":"Glasgow,UK","state":"Glasgow City","country":"United Kingdom","canonicalUrl":"https://foursquare.com/v/the-three-judges/4d0263ce3fd4224b72abb677","categoryId":"4bf58dd8d48988d11b941735","category":"Pub","checkinsCount":789,"usersCount":310,"tipCount":13,"visitsCount":858,"url":"http://www.threejudges.co.uk","tier":"","message":"","currency":"","rating":7.5},{"name":"The Wee Pub","phone":"+441413345007","address":"8-12 Ashton Ln","lat":55.874853401805595,"lng":-4.29290771484375,"neighborhood":"Hillhead","city_fetched":"Glasgow,UK","state":"Glasgow City","country":"United Kingdom","canonicalUrl":"https://foursquare.com/v/the-wee-pub/4df12ea8e4cda09e6d99163d","categoryId":"4bf58dd8d48988d11b941735","category":"Pub","checkinsCount":127,"usersCount":81,"tipCount":1,"visitsCount":128,"tier":"","message":"","currency":"","rating":7.5},{"name":"Park Bar","phone":"+441413391715","twitter":"officialparkbar","address":"1202 Argyle Street","lat":55.865691551605146,"lng":-4.287092685699463,"neighborhood":"Kelvingrove Park","city_fetched":"Glasgow,UK","country":"United Kingdom","canonicalUrl":"https://foursquare.com/v/park-bar/4c94906b38dd8cfa881bca62","categoryId":"4bf58dd8d48988d116941735","category":"Bar","checkinsCount":214,"usersCount":173,"tipCount":8,"visitsCount":258,"tier":"","message":"","currency":"","rating":7.5},{"name":"Vodka Wodka","phone":"+441413410669","address":"31 Ashton Ln","lat":55.87462680274931,"lng":-4.292835604548126,"neighborhood":"Hillhead","city_fetched":"Glasgow,UK","state":"Glasgow City","country":"United Kingdom","canonicalUrl":"https://foursquare.com/v/vodka-wodka/4bb620c1ef159c74107375f7","categoryId":"4bf58dd8d48988d116941735","category":"Bar","checkinsCount":490,"usersCount":356,"tipCount":10,"visitsCount":490,"tier":"","message":"","currency":"","rating":7.5},{"name":"The Corinthian","phone":"+441415521101","twitter":"corinthianclub","address":"191 Ingram St.","lat":55.85975505996792,"lng":-4.249691963195801,"neighborhood":"Merchant City","city_fetched":"Glasgow,UK","state":"Glasgow City","country":"United Kingdom","canonicalUrl":"https://foursquare.com/v/the-corinthian/4c6586789cb82d7fc10e8ed2","categoryId":"4bf58dd8d48988d116941735","category":"Bar","checkinsCount":1559,"usersCount":1132,"tipCount":22,"visitsCount":1730,"url":"http://www.thecorinthianclub.co.uk","tier":"","message":"","currency":"","rating":7.5},{"name":"The Lismore Bar","phone":"+441415760102","address":"206 Dumbarton Rd","lat":55.87084460585647,"lng":-4.301522970199585,"neighborhood":"Partick","city_fetched":"Glasgow,UK","state":"Glasgow City","country":"United Kingdom","canonicalUrl":"https://foursquare.com/v/the-lismore-bar/4b76fff5f964a52018732ee3","categoryId":"4bf58dd8d48988d122941735","category":"Whisky Bar","checkinsCount":399,"usersCount":151,"tipCount":6,"visitsCount":401,"tier":"","message":"","currency":"","rating":7.5},{"name":"Sloans","phone":"+441412218886","twitter":"sloansglasgow","address":"62 Argyll Arcade","lat":55.858363000000004,"lng":-4.253814,"neighborhood":"Merchant City","city_fetched":"Glasgow,UK","state":"Glasgow City","country":"United Kingdom","canonicalUrl":"https://foursquare.com/v/sloans/4b64b2d3f964a52043c92ae3","categoryId":"4bf58dd8d48988d11b941735","category":"Pub","checkinsCount":1243,"usersCount":934,"tipCount":16,"visitsCount":1588,"url":"http://www.sloansglasgow.com","tier":2,"message":"Moderate","currency":"£","rating":7.4},{"name":"Munro's","phone":"+441413320972","twitter":"munrosglasgow","address":"185 Great Western Road","lat":55.872353544190986,"lng":-4.272558344558916,"neighborhood":"Woodlands","city_fetched":"Glasgow,UK","state":"Glasgow City","country":"United Kingdom","canonicalUrl":"https://foursquare.com/v/munros/511bc40de88988fd023e2e2a","categoryId":"4bf58dd8d48988d11b941735","category":"Pub","checkinsCount":420,"usersCount":217,"tipCount":11,"visitsCount":449,"url":"http://munrosglasgow.co.uk","tier":"","message":"","currency":"","rating":7.4},{"name":"The Grosvenor Cafe","phone":"+448451666028","twitter":"the_grosvenor","address":"31 Ashton Ln.","lat":55.874805250556214,"lng":-4.292950630187988,"neighborhood":"Hillhead","city_fetched":"Glasgow,UK","state":"Glasgow City","country":"United Kingdom","canonicalUrl":"https://foursquare.com/v/the-grosvenor-cafe/4b7f2bb5f964a5203d1c30e3","categoryId":"4bf58dd8d48988d116941735","category":"Bar","checkinsCount":1116,"usersCount":758,"tipCount":20,"visitsCount":1145,"tier":"","message":"","currency":"","rating":7.4},{"name":"Todd's Bar","phone":"+441415482435","address":"Weaver street","lat":55.86203455924988,"lng":-4.238770008087158,"neighborhood":"Townhead","city_fetched":"Glasgow,UK","state":"Glasgow City","country":"United Kingdom","canonicalUrl":"https://foursquare.com/v/todds-bar/4c52bdff94790f476dc90ea3","categoryId":"4bf58dd8d48988d116941735","category":"Bar","checkinsCount":250,"usersCount":109,"tipCount":2,"visitsCount":260,"tier":"","message":"","currency":"","rating":7.4},{"name":"One Up","phone":"+441412255612","address":"23 Royal Exchange Sq","lat":55.86012,"lng":-4.2531517999999995,"neighborhood":"Merchant City","city_fetched":"Glasgow,UK","state":"Glasgow City","country":"United Kingdom","canonicalUrl":"https://foursquare.com/v/one-up/4bf4115e706e20a178e2a898","categoryId":"4bf58dd8d48988d116941735","category":"Bar","checkinsCount":229,"usersCount":178,"tipCount":4,"visitsCount":230,"url":"http://www.oneupglasgow.co.uk","tier":"","message":"","currency":"","rating":7.3},{"name":"Citation Taverne & Restaurant","phone":"+441415596799","address":"40 Wilson St.","lat":55.85869530680904,"lng":-4.2473530769348145,"neighborhood":"Merchant City","city_fetched":"Glasgow,UK","state":"Glasgow City","country":"United Kingdom","canonicalUrl":"https://foursquare.com/v/citation-taverne--restaurant/4b88517bf964a520bfee31e3","categoryId":"4bf58dd8d48988d116941735","category":"Bar","checkinsCount":553,"usersCount":391,"tipCount":5,"visitsCount":618,"url":"http://citation-glasgow.com","tier":"","message":"","currency":"","rating":7.3},{"name":"The Lee","lat":55.864071,"lng":-4.239367,"neighborhood":"Townhead","city_fetched":"Glasgow,UK","country":"United Kingdom","canonicalUrl":"https://foursquare.com/v/the-lee/4c092698340720a16e3d8493","categoryId":"4bf58dd8d48988d117941735","category":"Beer Garden","checkinsCount":114,"usersCount":77,"tipCount":1,"visitsCount":115,"tier":"","message":"","currency":"","rating":7.3},{"name":"The Laurieston Bar","twitter":"lauriestonbar","address":"58 Bridge Street","lat":55.85281934919535,"lng":-4.258953231001806,"neighborhood":"Gorbals","city_fetched":"Glasgow,UK","state":"Glasgow City","country":"United Kingdom","canonicalUrl":"https://foursquare.com/v/the-laurieston-bar/4b4b2cc4f964a520b69326e3","categoryId":"4bf58dd8d48988d116941735","category":"Bar","checkinsCount":458,"usersCount":157,"tipCount":3,"visitsCount":489,"url":"http://thelauriestonbar.com","tier":"","message":"","currency":"","rating":7.3},{"name":"The Islay Inn","phone":"+441413347774","address":"1256 Argyle Street","lat":55.866351,"lng":-4.288956,"neighborhood":"Kelvingrove Park","city_fetched":"Glasgow,UK","state":"Glasgow City","country":"United Kingdom","canonicalUrl":"https://foursquare.com/v/the-islay-inn/4c125afbb7b9c9284698a737","categoryId":"4bf58dd8d48988d11b941735","category":"Pub","checkinsCount":250,"usersCount":158,"tipCount":3,"visitsCount":318,"url":"http://www.islayinn.com","tier":"","message":"","currency":"","rating":7.3},{"name":"The Brass Monkey","phone":"+441412432170","address":"1004 Argyle St.","lat":55.863825,"lng":-4.281211,"neighborhood":"Finnieston","city_fetched":"Glasgow,UK","state":"Glasgow City","country":"United Kingdom","canonicalUrl":"https://foursquare.com/v/the-brass-monkey/4c894ce9da5da1cdec563be9","categoryId":"4bf58dd8d48988d116941735","category":"Bar","checkinsCount":523,"usersCount":212,"tipCount":6,"visitsCount":572,"tier":"","message":"","currency":"","rating":7.3},{"name":"Maggie May's","phone":"+441415481350","twitter":"maggiemayslive","address":"60 Trongate","lat":55.85697157284232,"lng":-4.245160700523957,"neighborhood":"Merchant City","city_fetched":"Glasgow,UK","state":"Glasgow City","country":"United Kingdom","canonicalUrl":"https://foursquare.com/v/maggie-mays/4b5b9194f964a520c30729e3","categoryId":"4bf58dd8d48988d11b941735","category":"Pub","checkinsCount":1380,"usersCount":844,"tipCount":27,"visitsCount":1473,"url":"http://www.maggiemays.info","tier":"","message":"","currency":"","rating":7.3},{"name":"Bavaria Brauhaus","address":"30 Bothwell Street","lat":55.86109379480067,"lng":-4.260265644431576,"neighborhood":"City Centre","city_fetched":"Glasgow,UK","state":"Glasgow City","country":"United Kingdom","canonicalUrl":"https://foursquare.com/v/bavaria-brauhaus/5644eccf498e44610759212b","categoryId":"4bf58dd8d48988d11b941735","category":"Pub","checkinsCount":82,"usersCount":64,"tipCount":4,"visitsCount":82,"tier":"","message":"","currency":"","rating":7.2},{"name":"Boteco do Brasil","phone":"+441415481330","address":"62 Trongate","lat":55.85708153624948,"lng":-4.245657920837402,"neighborhood":"Merchant City","city_fetched":"Glasgow,UK","state":"Glasgow City","country":"United Kingdom","canonicalUrl":"https://foursquare.com/v/boteco-do-brasil/4b804194f964a520716130e3","categoryId":"4bf58dd8d48988d116941735","category":"Bar","checkinsCount":1063,"usersCount":623,"tipCount":28,"visitsCount":1192,"url":"http://www.botecodobrasil.com","tier":"","message":"","currency":"","rating":7.2},{"name":"Boudoir Wine Bar","phone":"+441415524774","address":"Merchant Sq.","lat":55.858371,"lng":-4.245736675,"neighborhood":"Merchant City","city_fetched":"Glasgow,UK","state":"Glasgow City","country":"United Kingdom","canonicalUrl":"https://foursquare.com/v/boudoir-wine-bar/4d18c864401db60c8370f5a4","categoryId":"4bf58dd8d48988d123941735","category":"Wine Bar","checkinsCount":151,"usersCount":101,"tipCount":4,"visitsCount":152,"url":"http://www.boudoirwinebar.com","tier":"","message":"","currency":"","rating":7.2},{"name":"The Drake","phone":"+441413327363","address":"1 Lynedoch St","lat":55.8685781890005,"lng":-4.2731451988220215,"neighborhood":"Kelvingrove Park","city_fetched":"Glasgow,UK","state":"Glasgow City","country":"United Kingdom","canonicalUrl":"https://foursquare.com/v/the-drake/4c2f3cf866e40f47117fc18b","categoryId":"4bf58dd8d48988d116941735","category":"Bar","checkinsCount":361,"usersCount":184,"tipCount":3,"visitsCount":386,"url":"http://www.thedrakebar.co.uk","tier":"","message":"","currency":"","rating":7.2},{"name":"Rab Ha's","phone":"+441415720400","twitter":"rab_has","address":"81 Hutcheson Street","lat":55.85915293103745,"lng":-4.248168468475342,"neighborhood":"Merchant City","city_fetched":"Glasgow,UK","state":"Glasgow City","country":"United Kingdom","canonicalUrl":"https://foursquare.com/v/rab-has/4b6d7b4cf964a5205f772ce3","categoryId":"4bf58dd8d48988d116941735","category":"Bar","checkinsCount":357,"usersCount":194,"tipCount":5,"visitsCount":359,"url":"http://www.rabhas.com","tier":"","message":"","currency":"","rating":7.2},{"name":"Bar Soba","address":"Merchant Sq","lat":55.858529674410505,"lng":-4.244646367984878,"neighborhood":"Merchant City","city_fetched":"Glasgow,UK","country":"United Kingdom","canonicalUrl":"https://foursquare.com/v/bar-soba/55bbeb6f498e8d6451f9c928","categoryId":"4bf58dd8d48988d116941735","category":"Bar","checkinsCount":70,"usersCount":46,"tipCount":3,"visitsCount":72,"tier":"","message":"","currency":"","rating":7.2},{"name":"Shilling Brewing Co","phone":"+441413531654","twitter":"shillingbrewco","address":"92 West George St","lat":55.86230798296755,"lng":-4.2551422119140625,"neighborhood":"Merchant City","city_fetched":"Glasgow,UK","state":"Glasgow City","country":"United Kingdom","canonicalUrl":"https://foursquare.com/v/shilling-brewing-co/5758817d498eee35ef6c2d0d","categoryId":"50327c8591d4c4b30a586d5d","category":"Brewery","checkinsCount":80,"usersCount":55,"tipCount":2,"visitsCount":81,"url":"http://www.shillingbrewingcompany.co.uk","tier":"","message":"","currency":"","rating":7.2},{"name":"Broadcast","phone":"+441413327304","address":"427 Sauchiehall St","lat":55.866038598436795,"lng":-4.269099739199913,"neighborhood":"City Centre","city_fetched":"Glasgow,UK","state":"Glasgow City","country":"United Kingdom","canonicalUrl":"https://foursquare.com/v/broadcast/5089f020245f565b05bee5d6","categoryId":"4bf58dd8d48988d116941735","category":"Bar","checkinsCount":237,"usersCount":166,"tipCount":3,"visitsCount":237,"url":"http://broadcastglasgow.com","tier":"","message":"","currency":"","rating":7.1},{"name":"Yesbar","phone":"+441412040060","twitter":"yesbarglasgow","address":"14 Drury Street,","lat":55.86097627329271,"lng":-4.256039318277645,"neighborhood":"Merchant City","city_fetched":"Glasgow,UK","state":"South Lanarkshire","country":"United Kingdom","canonicalUrl":"https://foursquare.com/v/yesbar/549815ea498e778f19c4f04e","categoryId":"4bf58dd8d48988d1d4941735","category":"Speakeasy","checkinsCount":128,"usersCount":67,"tipCount":4,"visitsCount":134,"url":"http://www.yesbar.scot","tier":"","message":"","currency":"","rating":7.1},{"name":"Big Slope","phone":"+441413330869","address":"36a Kelvingrove St","lat":55.865599,"lng":-4.283954501152039,"neighborhood":"Kelvingrove Park","city_fetched":"Glasgow,UK","state":"Glasgow City","country":"United Kingdom","canonicalUrl":"https://foursquare.com/v/big-slope/4b658635f964a52041f32ae3","categoryId":"4bf58dd8d48988d11b941735","category":"Pub","checkinsCount":375,"usersCount":202,"tipCount":6,"visitsCount":383,"tier":"","message":"","currency":"","rating":7.1},{"name":"Bar 91","phone":"+441415525211","twitter":"bar91glasgow","address":"91 Candleriggs","lat":55.858705650000005,"lng":-4.2453688,"neighborhood":"Merchant City","city_fetched":"Glasgow,UK","state":"Glasgow City","country":"United Kingdom","canonicalUrl":"https://foursquare.com/v/bar-91/4b5216fcf964a520f66627e3","categoryId":"4bf58dd8d48988d116941735","category":"Bar","checkinsCount":794,"usersCount":360,"tipCount":16,"visitsCount":872,"url":"http://www.bar91.co.uk","tier":"","message":"","currency":"","rating":7.1},{"name":"MacSorley's","phone":"+441412488581","twitter":"macsorleys","address":"42 Jamaica St.","lat":55.85739768869219,"lng":-4.257189703976044,"neighborhood":"Merchant City","city_fetched":"Glasgow,UK","state":"Glasgow City","country":"United Kingdom","canonicalUrl":"https://foursquare.com/v/macsorleys/4b5230b1f964a520836e27e3","categoryId":"4bf58dd8d48988d11b941735","category":"Pub","checkinsCount":463,"usersCount":293,"tipCount":3,"visitsCount":463,"url":"http://www.macsorleys.com","tier":"","message":"","currency":"","rating":7.1},{"name":"Waxy O Connor's","phone":"+441413545154","twitter":"waxysglasgow","address":"44 West George St","lat":55.86195576182254,"lng":-4.253130555152893,"neighborhood":"Merchant City","city_fetched":"Glasgow,UK","state":"Glasgow City","country":"United Kingdom","canonicalUrl":"https://foursquare.com/v/waxy-o-connors/4b1d5f51f964a5208b0f24e3","categoryId":"4bf58dd8d48988d11b941735","category":"Pub","checkinsCount":1450,"usersCount":985,"tipCount":30,"visitsCount":1493,"url":"http://www.waxyoconnors.co.uk/index.php/glasgow1","tier":"","message":"","currency":"","rating":7.1},{"name":"Jinty McGuinty's Irish Bar","phone":"+441413390747","twitter":"jintymcguintys1","address":"21 Ashton Ln","lat":55.874828,"lng":-4.292830666666667,"neighborhood":"Hillhead","city_fetched":"Glasgow,UK","state":"Glasgow City","country":"United Kingdom","canonicalUrl":"https://foursquare.com/v/jinty-mcguintys-irish-bar/4b4a3ca9f964a520238026e3","categoryId":"4bf58dd8d48988d116941735","category":"Bar","checkinsCount":537,"usersCount":354,"tipCount":12,"visitsCount":540,"tier":"","message":"","currency":"","rating":7.1},{"name":"The Lab","phone":"+441412222116","address":"26 Springfield Court","lat":55.859541305266,"lng":-4.253929853439331,"neighborhood":"Merchant City","city_fetched":"Glasgow,UK","state":"Glasgow City","country":"United Kingdom","canonicalUrl":"https://foursquare.com/v/the-lab/4b8ffaa5f964a520b96d33e3","categoryId":"4bf58dd8d48988d116941735","category":"Bar","checkinsCount":469,"usersCount":215,"tipCount":5,"visitsCount":471,"tier":"","message":"","currency":"","rating":7.1},{"name":"The Griffin","phone":"+441413315170","address":"266 Bath Street","lat":55.86522203333334,"lng":-4.26809522,"neighborhood":"City Centre","city_fetched":"Glasgow,UK","state":"Glasgow City","country":"United Kingdom","canonicalUrl":"https://foursquare.com/v/the-griffin/4b7e95f1f964a520fff32fe3","categoryId":"4bf58dd8d48988d11b941735","category":"Pub","checkinsCount":555,"usersCount":344,"tipCount":5,"visitsCount":568,"tier":"","message":"","currency":"","rating":7.1},{"name":"Hummingbird","phone":"+441413328513","twitter":"hummingbirdglas","address":"186 Bath St","lat":55.8645837964592,"lng":-4.262223243713379,"neighborhood":"City Centre","city_fetched":"Glasgow,UK","state":"Glasgow City","country":"United Kingdom","canonicalUrl":"https://foursquare.com/v/hummingbird/4b684c3af964a52047702be3","categoryId":"4bf58dd8d48988d116941735","category":"Bar","checkinsCount":556,"usersCount":435,"tipCount":5,"visitsCount":615,"tier":"","message":"","currency":"","rating":7},{"name":"Two Figs","phone":"+441413347277","address":"5-9 Byres Rd.","lat":55.87063994150672,"lng":-4.299345016479492,"neighborhood":"Partick","city_fetched":"Glasgow,UK","state":"Glasgow City","country":"United Kingdom","canonicalUrl":"https://foursquare.com/v/two-figs/4b7c26b0f964a52050802fe3","categoryId":"4bf58dd8d48988d116941735","category":"Bar","checkinsCount":304,"usersCount":135,"tipCount":8,"visitsCount":306,"url":"http://www.thetwofigs.co.uk","tier":"","message":"","currency":"","rating":7},{"name":"Bread + Butter","phone":"+441412214383","address":"74 Buchanan Street","lat":55.85967979436194,"lng":-4.253473877906799,"neighborhood":"Merchant City","city_fetched":"Glasgow,UK","state":"Glasgow City","country":"United Kingdom","canonicalUrl":"https://foursquare.com/v/bread--butter/4bfeae8368c7a59346813f44","categoryId":"4bf58dd8d48988d11b941735","category":"Pub","checkinsCount":469,"usersCount":248,"tipCount":8,"visitsCount":469,"tier":"","message":"","currency":"","rating":7},{"name":"Speakeasy","phone":"+448451666036","address":"10 John St.","lat":55.86016450231024,"lng":-4.247728586196899,"neighborhood":"Merchant City","city_fetched":"Glasgow,UK","state":"Glasgow City","country":"United Kingdom","canonicalUrl":"https://foursquare.com/v/speakeasy/4b5cbbd3f964a5202c4129e3","categoryId":"4bf58dd8d48988d1d8941735","category":"Gay Bar","checkinsCount":1961,"usersCount":289,"tipCount":2,"visitsCount":1975,"tier":"","message":"","currency":"","rating":7},{"name":"Moskito","phone":"+441413311777","address":"198-200 Bath St","lat":55.864647011597384,"lng":-4.263269305229187,"neighborhood":"City Centre","city_fetched":"Glasgow,UK","state":"Glasgow City","country":"United Kingdom","canonicalUrl":"https://foursquare.com/v/moskito/4b7456e8f964a52041d62de3","categoryId":"4bf58dd8d48988d116941735","category":"Bar","checkinsCount":667,"usersCount":422,"tipCount":11,"visitsCount":687,"tier":"","message":"","currency":"","rating":7},{"name":"The Roxy","lat":55.87230788439665,"lng":-4.27230499489915,"neighborhood":"Woodlands","city_fetched":"Glasgow,UK","state":"Glasgow City","country":"United Kingdom","canonicalUrl":"https://foursquare.com/v/the-roxy/4ec419a093adf4e73e64d694","categoryId":"4bf58dd8d48988d11b941735","category":"Pub","checkinsCount":119,"usersCount":80,"tipCount":6,"visitsCount":119,"tier":"","message":"","currency":"","rating":6.9},{"name":"The Old Schoolhouse","phone":"+441413371790","address":"311 Woodlands Road","lat":55.871954,"lng":-4.278494,"neighborhood":"Woodlands","city_fetched":"Glasgow,UK","state":"Glasgow City","country":"United Kingdom","canonicalUrl":"https://foursquare.com/v/the-old-schoolhouse/4c0164bef7ab0f471d0816b6","categoryId":"4bf58dd8d48988d11b941735","category":"Pub","checkinsCount":596,"usersCount":472,"tipCount":10,"visitsCount":768,"tier":"","message":"","currency":"","rating":6.9},{"name":"Drum & Monkey","phone":"+441412216636","twitter":"drum_glasgow","address":"91 St. Vincent St","lat":55.86141511591413,"lng":-4.25657916069063,"neighborhood":"Merchant City","city_fetched":"Glasgow,UK","state":"Glasgow City","country":"United Kingdom","canonicalUrl":"https://foursquare.com/v/drum--monkey/4b856efdf964a5209b5d31e3","categoryId":"4bf58dd8d48988d11b941735","category":"Pub","checkinsCount":1056,"usersCount":571,"tipCount":16,"visitsCount":1076,"url":"http://www.nicholsonspubs.co.uk/thedrumandmonkeystvincentstreetglasgow/","tier":"","message":"","currency":"","rating":6.9},{"name":"RockUs","phone":"+441412214449","address":"1038-1042 Argyle St","lat":55.864105250467205,"lng":-4.282760274673263,"neighborhood":"Finnieston","city_fetched":"Glasgow,UK","country":"United Kingdom","canonicalUrl":"https://foursquare.com/v/rockus/5221351911d2ebf3beb4339b","categoryId":"4bf58dd8d48988d116941735","category":"Bar","checkinsCount":85,"usersCount":60,"tipCount":6,"visitsCount":85,"tier":"","message":"","currency":"","rating":6.9},{"name":"Cathouse","phone":"+441412486606","address":"15 Union St.","lat":55.85845444978695,"lng":-4.2568910121917725,"neighborhood":"Merchant City","city_fetched":"Glasgow,UK","state":"Glasgow City","country":"United Kingdom","canonicalUrl":"https://foursquare.com/v/cathouse/4b2e9f96f964a520cde324e3","categoryId":"4bf58dd8d48988d11f941735","category":"Nightclub","checkinsCount":1478,"usersCount":548,"tipCount":10,"visitsCount":1512,"tier":"","message":"","currency":"","rating":6.9},{"name":"The Libertine","lat":55.85794427570589,"lng":-4.244282337028977,"neighborhood":"Merchant City","city_fetched":"Glasgow,UK","state":"Glasgow City","country":"United Kingdom","canonicalUrl":"https://foursquare.com/v/the-libertine/4ece8a246c2510acdecbae5e","categoryId":"4bf58dd8d48988d116941735","category":"Bar","checkinsCount":258,"usersCount":151,"tipCount":4,"visitsCount":261,"tier":"","message":"","currency":"","rating":6.9},{"name":"Mulberry St Bar and Bistro","address":"778 Pollokshaws Rd","lat":55.835839,"lng":-4.271498,"neighborhood":"South Side","city_fetched":"Glasgow,UK","state":"Glasgow City","country":"United Kingdom","canonicalUrl":"https://foursquare.com/v/mulberry-st-bar-and-bistro/4b6d6348f964a52045742ce3","categoryId":"4bf58dd8d48988d116941735","category":"Bar","checkinsCount":294,"usersCount":124,"tipCount":10,"visitsCount":300,"tier":"","message":"","currency":"","rating":6.9},{"name":"Tingle Shooter Bar & Cafe","phone":"+441412222000","address":"33 Mitchell St.","lat":55.85900174447208,"lng":-4.255996762514877,"neighborhood":"Merchant City","city_fetched":"Glasgow,UK","state":"Glasgow City","country":"United Kingdom","canonicalUrl":"https://foursquare.com/v/tingle-shooter-bar--cafe/4c5d65876147be9a79d19109","categoryId":"4bf58dd8d48988d11e941735","category":"Cocktail Bar","checkinsCount":463,"usersCount":227,"tipCount":5,"visitsCount":473,"url":"http://www.tinglebar.co.uk","tier":"","message":"","currency":"","rating":6.9},{"name":"Sherbrooke Castle Hotel","phone":"+441414274227","address":"11 Sherbrooke Ave","lat":55.84328796387794,"lng":-4.296932898872084,"neighborhood":"South Side","city_fetched":"Glasgow,UK","state":"Glasgow City","country":"United Kingdom","canonicalUrl":"https://foursquare.com/v/sherbrooke-castle-hotel/4bd1d3fd5e0cce72480ea284","categoryId":"4bf58dd8d48988d1d5941735","category":"Hotel Bar","checkinsCount":140,"usersCount":109,"tipCount":1,"visitsCount":163,"tier":"","message":"","currency":"","rating":6.8},{"name":"Strata","phone":"+441412211888","address":"45 Queen Street","lat":55.85872084552119,"lng":-4.252294495326287,"neighborhood":"Merchant City","city_fetched":"Glasgow,UK","state":"Glasgow City","country":"United Kingdom","canonicalUrl":"https://foursquare.com/v/strata/4b8991e4f964a5208a4232e3","categoryId":"4bf58dd8d48988d116941735","category":"Bar","checkinsCount":266,"usersCount":151,"tipCount":3,"visitsCount":267,"tier":"","message":"","currency":"","rating":6.8},{"name":"The Bank","phone":"+441416378461","address":"443 Clarkston Rd.","lat":55.810074,"lng":-4.270844,"neighborhood":"South Side","city_fetched":"Glasgow,UK","state":"Glasgow City","country":"United Kingdom","canonicalUrl":"https://foursquare.com/v/the-bank/4bae53f1f964a52045a33be3","categoryId":"4bf58dd8d48988d116941735","category":"Bar","checkinsCount":173,"usersCount":84,"tipCount":5,"visitsCount":193,"url":"http://www.thebankglasgow.co.uk","tier":"","message":"","currency":"","rating":6.8},{"name":"Arlington Pub","address":"130 Woodlands Rd","lat":55.869364412022094,"lng":-4.274323975786684,"neighborhood":"Kelvingrove Park","city_fetched":"Glasgow,UK","country":"United Kingdom","canonicalUrl":"https://foursquare.com/v/arlington-pub/4c8fefa804a1b60c4332a33e","categoryId":"4bf58dd8d48988d11b941735","category":"Pub","checkinsCount":93,"usersCount":67,"tipCount":5,"visitsCount":102,"tier":"","message":"","currency":"","rating":6.8},{"name":"Hootenanny","phone":"+441412264687","address":"40 Howard St","lat":55.85684926585168,"lng":-4.255435970693667,"neighborhood":"Merchant City","city_fetched":"Glasgow,UK","country":"United Kingdom","canonicalUrl":"https://foursquare.com/v/hootenanny/4c1f634c920076b0f4a3c4e9","categoryId":"4bf58dd8d48988d11b941735","category":"Pub","checkinsCount":268,"usersCount":231,"tipCount":5,"visitsCount":278,"tier":"","message":"","currency":"","rating":6.8},{"name":"The Counting House (Wetherspoon)","phone":"+441412250160","address":"2 St Vincents Pl.","lat":55.86095834786679,"lng":-4.251627611994926,"neighborhood":"Merchant City","city_fetched":"Glasgow,UK","state":"Glasgow City","country":"United Kingdom","canonicalUrl":"https://foursquare.com/v/the-counting-house-wetherspoon/4bd99cb4e914a5934e1a57fa","categoryId":"4bf58dd8d48988d11b941735","category":"Pub","checkinsCount":4206,"usersCount":2079,"tipCount":38,"visitsCount":4467,"url":"http://www.jdwetherspoon.co.uk","tier":1,"message":"Cheap","currency":"£","rating":6.8},{"name":"Committee Room No9","phone":"+448451666035","address":"18 John Street, Merchant City","lat":55.86021470599815,"lng":-4.247809596930118,"neighborhood":"Merchant City","city_fetched":"Glasgow,UK","country":"United Kingdom","canonicalUrl":"https://foursquare.com/v/committee-room-no9/4de95474c65b72347a275f9e","categoryId":"4bf58dd8d48988d116941735","category":"Bar","checkinsCount":727,"usersCount":281,"tipCount":6,"visitsCount":798,"url":"http://www.committeeroom9.co.uk","tier":"","message":"","currency":"","rating":6.8},{"name":"The Beer House","phone":"+441413323143","twitter":"_thebeerhouse","address":"Glasgow Central Station","lat":55.85977648816247,"lng":-4.257992743046732,"neighborhood":"Merchant City","city_fetched":"Glasgow,UK","state":"Glasgow City","country":"United Kingdom","canonicalUrl":"https://foursquare.com/v/the-beer-house/537cdfe1498e688f37c9d148","categoryId":"4bf58dd8d48988d11b941735","category":"Pub","checkinsCount":121,"usersCount":100,"tipCount":4,"visitsCount":122,"url":"http://thebeerhouseuk.com","tier":"","message":"","currency":"","rating":6.8},{"name":"Tennents Bar","phone":"+441413397203","address":"191 Byres Rd.","lat":55.874191316892194,"lng":-4.295139312744141,"neighborhood":"Hillhead","city_fetched":"Glasgow,UK","country":"United Kingdom","canonicalUrl":"https://foursquare.com/v/tennents-bar/4c2deb7476a7ef3bf5e1deb8","categoryId":"4bf58dd8d48988d11b941735","category":"Pub","checkinsCount":594,"usersCount":392,"tipCount":7,"visitsCount":620,"url":"http://www.thetennentsbarglasgow.co.uk","tier":"","message":"","currency":"","rating":6.8},{"name":"Tron Theatre Bar","address":"63 Trongate","lat":55.85655162682085,"lng":-4.245400428771973,"neighborhood":"Merchant City","city_fetched":"Glasgow,UK","state":"Glasgow City","country":"United Kingdom","canonicalUrl":"https://foursquare.com/v/tron-theatre-bar/4bb639e0f562ef3bfdd12f97","categoryId":"4bf58dd8d48988d116941735","category":"Bar","checkinsCount":361,"usersCount":163,"tipCount":6,"visitsCount":363,"tier":"","message":"","currency":"","rating":6.7},{"name":"Arta","address":"62 Albion St","lat":55.85828978147607,"lng":-4.244276502676707,"neighborhood":"Merchant City","city_fetched":"Glasgow,UK","state":"Glasgow City","country":"United Kingdom","canonicalUrl":"https://foursquare.com/v/arta/4bc0d75074a9a59394c6d0f6","categoryId":"4bf58dd8d48988d11e941735","category":"Cocktail Bar","checkinsCount":258,"usersCount":210,"tipCount":8,"visitsCount":261,"tier":"","message":"","currency":"","rating":6.7},{"name":"The Garage","phone":"+441413321120","twitter":"garageglasgow","address":"490 Sauchiehall St","lat":55.8662840970557,"lng":-4.2687479345923895,"neighborhood":"Garnethill","city_fetched":"Glasgow,UK","state":"Glasgow City","country":"United Kingdom","canonicalUrl":"https://foursquare.com/v/the-garage/4bf032f4a09076b0adab29d4","categoryId":"4bf58dd8d48988d11f941735","category":"Nightclub","checkinsCount":1611,"usersCount":835,"tipCount":16,"visitsCount":1664,"url":"http://www.garageglasgow.co.uk","tier":"","message":"","currency":"","rating":6.7},{"name":"Bath Street Palomino","phone":"+441412219444","twitter":"bathstpalomino","address":"207 Bath St.","lat":55.864776451797425,"lng":-4.264497756958008,"neighborhood":"City Centre","city_fetched":"Glasgow,UK","state":"Glasgow City","country":"United Kingdom","canonicalUrl":"https://foursquare.com/v/bath-street-palomino/5129e18f526231ed8a321be1","categoryId":"4bf58dd8d48988d11e941735","category":"Cocktail Bar","checkinsCount":83,"usersCount":62,"tipCount":6,"visitsCount":84,"url":"http://www.bathstreetpalomino.co.uk","tier":"","message":"","currency":"","rating":6.7},{"name":"Drury Street Bar and Kitchen","phone":"+441412042929","twitter":"drurystreet","address":"Drury St","lat":55.86126467507055,"lng":-4.256869574222909,"neighborhood":"Merchant City","city_fetched":"Glasgow,UK","state":"Glasgow City","country":"United Kingdom","canonicalUrl":"https://foursquare.com/v/drury-street-bar-and-kitchen/54283a7c498eefacefa77791","categoryId":"4bf58dd8d48988d116941735","category":"Bar","checkinsCount":96,"usersCount":40,"tipCount":2,"visitsCount":98,"url":"http://www.drurystreet.co.uk","tier":"","message":"","currency":"","rating":6.7},{"name":"Rhoderick Dhu","phone":"+441412215479","address":"21-23 Waterloo St","lat":55.86042147258074,"lng":-4.259916395637598,"neighborhood":"City Centre","city_fetched":"Glasgow,UK","country":"United Kingdom","canonicalUrl":"https://foursquare.com/v/rhoderick-dhu/4bbb682c935e95213f252990","categoryId":"4bf58dd8d48988d116941735","category":"Bar","checkinsCount":298,"usersCount":149,"tipCount":2,"visitsCount":300,"url":"http://www.rhoderickdhu-glasgow.co.uk","tier":"","message":"","currency":"","rating":6.7},{"name":"Driftwood","address":"Sauchiehall street","lat":55.866389902743535,"lng":-4.270720481872559,"neighborhood":"Garnethill","city_fetched":"Glasgow,UK","state":"Glasgow City","country":"United Kingdom","canonicalUrl":"https://foursquare.com/v/driftwood/4be1f0fbae55a593d3135c62","categoryId":"4bf58dd8d48988d116941735","category":"Bar","checkinsCount":336,"usersCount":232,"tipCount":7,"visitsCount":336,"tier":"","message":"","currency":"","rating":6.6},{"name":"Clockwork Beer Co","phone":"+441416490184","twitter":"clockworkbeerco","address":"1153-1155 Cathcart Rd","lat":55.82334562181112,"lng":-4.258747100830078,"neighborhood":"Cathcart","city_fetched":"Glasgow,UK","country":"United Kingdom","canonicalUrl":"https://foursquare.com/v/clockwork-beer-co/4bae5929f964a5201ea63be3","categoryId":"4bf58dd8d48988d116941735","category":"Bar","checkinsCount":794,"usersCount":330,"tipCount":6,"visitsCount":1010,"url":"http://www.clockworkbeercompany.co.uk","tier":"","message":"","currency":"","rating":6.6},{"name":"Bank Street Bar Kitchen Cafe","lat":55.873023416399846,"lng":-4.284124146400432,"neighborhood":"Hillhead","city_fetched":"Glasgow,UK","country":"United Kingdom","canonicalUrl":"https://foursquare.com/v/bank-street-bar-kitchen-cafe/52409f4d11d224590bfca521","categoryId":"4bf58dd8d48988d116941735","category":"Bar","checkinsCount":80,"usersCount":72,"tipCount":1,"visitsCount":102,"tier":"","message":"","currency":"","rating":6.6},{"name":"Molly Malone's","phone":"+441413322757","address":"224 Hope St","lat":55.86509553509948,"lng":-4.25695538520813,"neighborhood":"City Centre","city_fetched":"Glasgow,UK","state":"Glasgow City","country":"United Kingdom","canonicalUrl":"https://foursquare.com/v/molly-malones/4baa0c6df964a5208b463ae3","categoryId":"4bf58dd8d48988d116941735","category":"Bar","checkinsCount":484,"usersCount":327,"tipCount":7,"visitsCount":511,"url":"http://www.mollymalones-glasgow.co.uk","tier":"","message":"","currency":"","rating":6.6},{"name":"Tempus Bar and Restaurant | Grand Central Hotel","phone":"+441412403700","address":"Grand Central Hotel","lat":55.85981258333334,"lng":-4.259107566666667,"neighborhood":"City Centre","city_fetched":"Glasgow,UK","state":"Glasgow City","country":"United Kingdom","canonicalUrl":"https://foursquare.com/v/tempus-bar-and-restaurant--grand-central-hotel/4d98ed6de07ea35d311bfe02","categoryId":"4bf58dd8d48988d116941735","category":"Bar","checkinsCount":139,"usersCount":87,"tipCount":4,"visitsCount":139,"tier":"","message":"","currency":"","rating":6.6},{"name":"The Flying Duck","phone":"+441415641450","twitter":"flyduckglasgow","address":"142 Renfield St.","lat":55.865390534311025,"lng":-4.2565155029296875,"neighborhood":"City Centre","city_fetched":"Glasgow,UK","country":"United Kingdom","canonicalUrl":"https://foursquare.com/v/the-flying-duck/4b532008f964a5209c8f27e3","categoryId":"4bf58dd8d48988d11b941735","category":"Pub","checkinsCount":927,"usersCount":312,"tipCount":15,"visitsCount":933,"url":"http://www.flyingduckclub.com","tier":"","message":"","currency":"","rating":6.6},{"name":"The Horse Shoe Bar","phone":"+441412486368","address":"17-19 Drury St","lat":55.86095928983315,"lng":-4.25620436668396,"neighborhood":"Merchant City","city_fetched":"Glasgow,UK","state":"Glasgow City","country":"United Kingdom","canonicalUrl":"https://foursquare.com/v/the-horse-shoe-bar/4b6dbfe8f964a5203f8c2ce3","categoryId":"4bf58dd8d48988d11b941735","category":"Pub","checkinsCount":992,"usersCount":712,"tipCount":19,"visitsCount":1081,"url":"http://www.horseshoebar.co.uk","tier":"","message":"","currency":"","rating":6.5},{"name":"Walkabout","phone":"+441413328209","twitter":"walkabout_glas","address":"128 Renfield St.","lat":55.86508951468408,"lng":-4.2551422119140625,"neighborhood":"City Centre","city_fetched":"Glasgow,UK","state":"Glasgow City","country":"United Kingdom","canonicalUrl":"https://foursquare.com/v/walkabout/4b1144caf964a520837923e3","categoryId":"4bf58dd8d48988d11d941735","category":"Sports Bar","checkinsCount":1371,"usersCount":755,"tipCount":18,"visitsCount":1375,"url":"http://walkabout.eu.com/home/venues/scotland/glasgow","tier":"","message":"","currency":"","rating":6.5},{"name":"The Riding Room","address":"58 Virginia Street","lat":55.858842,"lng":-4.249865,"neighborhood":"Merchant City","city_fetched":"Glasgow,UK","state":"Glasgow City","country":"United Kingdom","canonicalUrl":"https://foursquare.com/v/the-riding-room/4f8f0f86e4b040530b8a4584","categoryId":"4bf58dd8d48988d1d8941735","category":"Gay Bar","checkinsCount":401,"usersCount":117,"tipCount":5,"visitsCount":402,"tier":"","message":"","currency":"","rating":6.5},{"name":"Black Bear Beefeater","phone":"+441417731133","twitter":"beefeatergrill","address":"601 Hamilton Rd.","lat":55.83706175349525,"lng":-4.110604189236629,"neighborhood":"Baillieston","city_fetched":"Glasgow,UK","state":"Glasgow City","country":"United Kingdom","canonicalUrl":"https://foursquare.com/v/black-bear-beefeater/4c442e1cfb6eb71368624e4a","categoryId":"4bf58dd8d48988d11b941735","category":"Pub","checkinsCount":121,"usersCount":91,"tipCount":2,"visitsCount":149,"url":"http://www.beefeater.co.uk","tier":"","message":"","currency":"","rating":6.5},{"name":"The Loft","lat":55.874609,"lng":-4.292966,"neighborhood":"Hillhead","city_fetched":"Glasgow,UK","country":"United Kingdom","canonicalUrl":"https://foursquare.com/v/the-loft/4c8bd861c37a6dcb21abf17a","categoryId":"4bf58dd8d48988d116941735","category":"Bar","checkinsCount":110,"usersCount":84,"tipCount":4,"visitsCount":110,"tier":"","message":"","currency":"","rating":6.5},{"name":"The Admiral","phone":"+441412217705","twitter":"theadmiralbar","address":"72a Waterloo St.","lat":55.86060100447776,"lng":-4.262975629843729,"neighborhood":"City Centre","city_fetched":"Glasgow,UK","country":"United Kingdom","canonicalUrl":"https://foursquare.com/v/the-admiral/4b4b7704f964a520c79c26e3","categoryId":"4bf58dd8d48988d11b941735","category":"Pub","checkinsCount":406,"usersCount":245,"tipCount":3,"visitsCount":409,"url":"http://www.theadmiralbar.com","tier":"","message":"","currency":"","rating":6.5},{"name":"The Lane","phone":"+448451666028","address":"Ashton Ln.","lat":55.874674173340274,"lng":-4.293017455841872,"neighborhood":"Hillhead","city_fetched":"Glasgow,UK","state":"Glasgow City","country":"United Kingdom","canonicalUrl":"https://foursquare.com/v/the-lane/4c23d6cb136d20a18bdce061","categoryId":"4bf58dd8d48988d121941735","category":"Lounge","checkinsCount":514,"usersCount":293,"tipCount":5,"visitsCount":519,"tier":"","message":"","currency":"","rating":6.5},{"name":"The Doublet","address":"Park Road","lat":55.873064,"lng":-4.279273,"neighborhood":"Woodlands","city_fetched":"Glasgow,UK","state":"Glasgow City","country":"United Kingdom","canonicalUrl":"https://foursquare.com/v/the-doublet/4bb4be3486a8d13a67c8de7f","categoryId":"4bf58dd8d48988d11b941735","category":"Pub","checkinsCount":201,"usersCount":127,"tipCount":5,"visitsCount":210,"tier":"","message":"","currency":"","rating":6.5},{"name":"The Esquire House (Wetherspoon)","phone":"+441413411130","address":"1487 Great Western Rd.","lat":55.8886249244451,"lng":-4.321533835898427,"neighborhood":"Jordanhill","city_fetched":"Glasgow,UK","state":"Glasgow City","country":"United Kingdom","canonicalUrl":"https://foursquare.com/v/the-esquire-house-wetherspoon/4c0d69a1d64c0f47baab265d","categoryId":"4bf58dd8d48988d11b941735","category":"Pub","checkinsCount":1362,"usersCount":267,"tipCount":8,"visitsCount":1507,"url":"http://www.jdwetherspoon.co.uk","tier":"","message":"","currency":"","rating":6.5},{"name":"Record Factory","twitter":"recordfactory17","address":"17 Byres Rd","lat":55.87093529560433,"lng":-4.299074182507963,"neighborhood":"West End","city_fetched":"Glasgow,UK","state":"Glasgow City","country":"United Kingdom","canonicalUrl":"https://foursquare.com/v/record-factory/51699468e4b02c13d46e0511","categoryId":"4bf58dd8d48988d116941735","category":"Bar","checkinsCount":86,"usersCount":65,"tipCount":0,"visitsCount":86,"url":"http://www.recordfactory.co.uk","tier":"","message":"","currency":"","rating":6.5},{"name":"Black Sparrow","phone":"+441412215530","address":"241 North St.","lat":55.865895,"lng":-4.271743,"neighborhood":"Kelvingrove Park","city_fetched":"Glasgow,UK","state":"Glasgow City","country":"United Kingdom","canonicalUrl":"https://foursquare.com/v/black-sparrow/4b5dde11f964a520e57029e3","categoryId":"4bf58dd8d48988d116941735","category":"Bar","checkinsCount":591,"usersCount":351,"tipCount":19,"visitsCount":600,"tier":"","message":"","currency":"","rating":6.5},{"name":"Jackson's Bar","phone":"+441413325298","address":"95–97 Cambridge St","lat":55.86683970009892,"lng":-4.2594985572475785,"neighborhood":"City Centre","city_fetched":"Glasgow,UK","state":"Glasgow City","country":"United Kingdom","canonicalUrl":"https://foursquare.com/v/jacksons-bar/4f734a1be4b03c97467c7995","categoryId":"4bf58dd8d48988d116941735","category":"Bar","checkinsCount":429,"usersCount":177,"tipCount":4,"visitsCount":444,"tier":"","message":"","currency":"","rating":6.4},{"name":"Collage Corner Bar","phone":"+441412252407","address":"91 Oswald St.","lat":55.85860585373856,"lng":-4.259437691958936,"neighborhood":"City Centre","city_fetched":"Glasgow,UK","country":"United Kingdom","canonicalUrl":"https://foursquare.com/v/collage-corner-bar/4bd1e4d8b221c9b6ae71d6d0","categoryId":"4bf58dd8d48988d11e941735","category":"Cocktail Bar","checkinsCount":319,"usersCount":141,"tipCount":4,"visitsCount":319,"url":"http://www.carlsonrezidor.com","tier":"","message":"","currency":"","rating":6.4},{"name":"The Hengler's Circus (Wetherspoon)","phone":"+441413319810","address":"351-363 Sauchiehall St","lat":55.86564079523967,"lng":-4.266397258232974,"neighborhood":"City Centre","city_fetched":"Glasgow,UK","state":"Glasgow City","country":"United Kingdom","canonicalUrl":"https://foursquare.com/v/the-henglers-circus-wetherspoon/4bba231b1261d13a1f46ea98","categoryId":"4bf58dd8d48988d11b941735","category":"Pub","checkinsCount":1865,"usersCount":885,"tipCount":16,"visitsCount":1915,"url":"http://www.jdwetherspoon.co.uk","tier":"","message":"","currency":"","rating":6.4},{"name":"Kushion","phone":"+448451666031","twitter":"kushionclub","address":"158-166 Bath St.","lat":55.86425868840923,"lng":-4.261128902435303,"neighborhood":"City Centre","city_fetched":"Glasgow,UK","state":"Glasgow City","country":"United Kingdom","canonicalUrl":"https://foursquare.com/v/kushion/4bda19e3c79cc928cc807de9","categoryId":"4bf58dd8d48988d11f941735","category":"Nightclub","checkinsCount":266,"usersCount":192,"tipCount":2,"visitsCount":266,"url":"http://www.kushionglasgow.co.uk","tier":"","message":"","currency":"","rating":6.4},{"name":"Delmonicas","phone":"+441415524803","address":"68 Virginia St","lat":55.85912884568613,"lng":-4.249606132507324,"neighborhood":"Merchant City","city_fetched":"Glasgow,UK","state":"Glasgow City","country":"United Kingdom","canonicalUrl":"https://foursquare.com/v/delmonicas/4b37d796f964a520464725e3","categoryId":"4bf58dd8d48988d1d8941735","category":"Gay Bar","checkinsCount":1334,"usersCount":543,"tipCount":12,"visitsCount":1424,"url":"http://www.delmonicas.co.uk","tier":"","message":"","currency":"","rating":6.4},{"name":"Linen","phone":"+441416493815","address":"1110 Pollokshaws Road","lat":55.83059,"lng":-4.280863,"neighborhood":"Shawlands","city_fetched":"Glasgow,UK","state":"Glasgow City","country":"United Kingdom","canonicalUrl":"https://foursquare.com/v/linen/4c066f06761ac9b6fce92074","categoryId":"4bf58dd8d48988d11b941735","category":"Pub","checkinsCount":108,"usersCount":62,"tipCount":3,"visitsCount":110,"tier":"","message":"","currency":"","rating":6.4},{"name":"Polo Lounge","phone":"+448456595905","twitter":"pologlasgow","address":"84 Wilson St","lat":55.85885788445488,"lng":-4.249477386474609,"neighborhood":"Merchant City","city_fetched":"Glasgow,UK","state":"Glasgow City","country":"United Kingdom","canonicalUrl":"https://foursquare.com/v/polo-lounge/4b5dfbabf964a5206d7729e3","categoryId":"4bf58dd8d48988d1d8941735","category":"Gay Bar","checkinsCount":1633,"usersCount":608,"tipCount":14,"visitsCount":1751,"tier":1,"message":"Cheap","currency":"£","rating":6.4},{"name":"The Gallery","address":"101 Brunswick St","lat":55.85908781608834,"lng":-4.247351992719872,"neighborhood":"Merchant City","city_fetched":"Glasgow,UK","state":"Glasgow City","country":"United Kingdom","canonicalUrl":"https://foursquare.com/v/the-gallery/50d636e8e4b0fb6ffc2a38c5","categoryId":"4bf58dd8d48988d116941735","category":"Bar","checkinsCount":184,"usersCount":55,"tipCount":1,"visitsCount":186,"tier":"","message":"","currency":"","rating":6.3},{"name":"The Sir John Moore (Wetherspoon)","phone":"+441412221780","address":"260-292 Argyle St.","lat":55.85868767692137,"lng":-4.260237874159214,"neighborhood":"City Centre","city_fetched":"Glasgow,UK","country":"United Kingdom","canonicalUrl":"https://foursquare.com/v/the-sir-john-moore-wetherspoon/4b894198f964a520602632e3","categoryId":"4bf58dd8d48988d11b941735","category":"Pub","checkinsCount":2448,"usersCount":1033,"tipCount":12,"visitsCount":2540,"url":"http://www.jdwetherspoon.co.uk","tier":"","message":"","currency":"","rating":6.3},{"name":"The Merchant","phone":"+441413533926","twitter":"stonegatepubs","address":"134-136 West George Street","lat":55.86243438720703,"lng":-4.256461143493652,"neighborhood":"Merchant City","city_fetched":"Glasgow,UK","state":"Glasgow City","country":"United Kingdom","canonicalUrl":"https://foursquare.com/v/the-merchant/512e5e4ee4b02c71f957e6e6","categoryId":"4bf58dd8d48988d116941735","category":"Bar","checkinsCount":258,"usersCount":168,"tipCount":12,"visitsCount":271,"tier":"","message":"","currency":"","rating":6.3},{"name":"Rufus T Firefly","phone":"+441413321469","address":"207 Hope St.","lat":55.86350912336979,"lng":-4.257797598838806,"neighborhood":"City Centre","city_fetched":"Glasgow,UK","state":"Glasgow City","country":"United Kingdom","canonicalUrl":"https://foursquare.com/v/rufus-t-firefly/4b8453f6f964a520fa2e31e3","categoryId":"4bf58dd8d48988d11b941735","category":"Pub","checkinsCount":1163,"usersCount":493,"tipCount":23,"visitsCount":1235,"tier":"","message":"","currency":"","rating":6.3},{"name":"The Butterfly and the Pig South","address":"Pollokshaws Road","lat":55.83143193541777,"lng":-4.278890150725143,"neighborhood":"Langside","city_fetched":"Glasgow,UK","state":"Glasgow City","country":"United Kingdom","canonicalUrl":"https://foursquare.com/v/the-butterfly-and-the-pig-south/54d527ff498e653d2acab5a7","categoryId":"4bf58dd8d48988d11b941735","category":"Pub","checkinsCount":121,"usersCount":81,"tipCount":3,"visitsCount":156,"tier":"","message":"","currency":"","rating":6.3},{"name":"McPhabbs","phone":"+441412218176","twitter":"mcphabbs","address":"23 Sandyford Pl","lat":55.86584205937743,"lng":-4.276975393295288,"neighborhood":"Kelvingrove Park","city_fetched":"Glasgow,UK","state":"Glasgow City","country":"United Kingdom","canonicalUrl":"https://foursquare.com/v/mcphabbs/4b6ac956f964a52045e02be3","categoryId":"4bf58dd8d48988d116941735","category":"Bar","checkinsCount":623,"usersCount":251,"tipCount":10,"visitsCount":693,"url":"http://www.mcphabbs.com","tier":"","message":"","currency":"","rating":6.3},{"name":"Dukes Bar","phone":"+441413397821","twitter":"dukesbarglasgow","address":"41 Old Dumbarton Rd","lat":55.867064497402275,"lng":-4.292492421423915,"neighborhood":"Yorkhill","city_fetched":"Glasgow,UK","state":"Glasgow City","country":"United Kingdom","canonicalUrl":"https://foursquare.com/v/dukes-bar/4ee28df99a521fcbefc9cf9a","categoryId":"4bf58dd8d48988d116941735","category":"Bar","checkinsCount":206,"usersCount":90,"tipCount":5,"visitsCount":207,"tier":"","message":"","currency":"","rating":6.2},{"name":"Bamboo","phone":"+441413321067","twitter":"bambooglasgow","address":"51a West Regent St.","lat":55.86306964686276,"lng":-4.256575072452379,"neighborhood":"Merchant City","city_fetched":"Glasgow,UK","state":"Glasgow City","country":"United Kingdom","canonicalUrl":"https://foursquare.com/v/bamboo/4b76147cf964a520473b2ee3","categoryId":"4bf58dd8d48988d11f941735","category":"Nightclub","checkinsCount":277,"usersCount":178,"tipCount":3,"visitsCount":279,"url":"http://www.bamboo51.com","tier":"","message":"","currency":"","rating":6.2},{"name":"Bar Gumbo","phone":"+441413347132","address":"71-77 Byres Road","lat":55.87183467926466,"lng":-4.297638176949437,"neighborhood":"Partick","city_fetched":"Glasgow,UK","state":"Glasgow City","country":"United Kingdom","canonicalUrl":"https://foursquare.com/v/bar-gumbo/5132030ae4b038fff6d6dda1","categoryId":"4bf58dd8d48988d116941735","category":"Bar","checkinsCount":217,"usersCount":147,"tipCount":9,"visitsCount":270,"url":"http://www.bargumbo.com","tier":"","message":"","currency":"","rating":6.2},{"name":"The Granary","address":"10 Kilmarnock Rd","lat":55.830242,"lng":-4.281753,"neighborhood":"Pollokshaws","city_fetched":"Glasgow,UK","state":"Glasgow City","country":"United Kingdom","canonicalUrl":"https://foursquare.com/v/the-granary/4be07bb4cb81c9b66903668b","categoryId":"4bf58dd8d48988d11b941735","category":"Pub","checkinsCount":485,"usersCount":205,"tipCount":10,"visitsCount":568,"tier":"","message":"","currency":"","rating":6.1},{"name":"Bunker Bar","phone":"+441412291427","twitter":"bunkerbar","address":"193-199 Bath St","lat":55.8645837964592,"lng":-4.263145923614502,"neighborhood":"City Centre","city_fetched":"Glasgow,UK","state":"Glasgow City","country":"United Kingdom","canonicalUrl":"https://foursquare.com/v/bunker-bar/4b597c69f964a520d18928e3","categoryId":"4bf58dd8d48988d116941735","category":"Bar","checkinsCount":695,"usersCount":443,"tipCount":12,"visitsCount":705,"url":"http://www.thebunkerbar.com","tier":"","message":"","currency":"","rating":6.1},{"name":"Booly Mardys","address":"28 Vinicombe St.","lat":55.87714144970835,"lng":-4.290785927292571,"neighborhood":"Hillhead","city_fetched":"Glasgow,UK","state":"Glasgow City","country":"United Kingdom","canonicalUrl":"https://foursquare.com/v/booly-mardys/4b48ecf2f964a520b15d26e3","categoryId":"4bf58dd8d48988d11e941735","category":"Cocktail Bar","checkinsCount":278,"usersCount":159,"tipCount":5,"visitsCount":279,"tier":"","message":"","currency":"","rating":6.1},{"name":"All Bar One","phone":"+441412296060","address":"56-72 St Vincent St","lat":55.86138076146743,"lng":-4.255228042602539,"neighborhood":"Merchant City","city_fetched":"Glasgow,UK","state":"Glasgow City","country":"United Kingdom","canonicalUrl":"https://foursquare.com/v/all-bar-one/4b754f77f964a520a7052ee3","categoryId":"4bf58dd8d48988d116941735","category":"Bar","checkinsCount":771,"usersCount":520,"tipCount":14,"visitsCount":782,"url":"http://www.allbarone.co.uk","tier":"","message":"","currency":"","rating":6.1},{"name":"The Lord of the Isles (Wetherspoon)","phone":"+441418868930","address":"Unit 21 Xscape","lat":55.87818773058549,"lng":-4.371592998504639,"city_fetched":"Glasgow,UK","state":"Glasgow City","country":"United Kingdom","canonicalUrl":"https://foursquare.com/v/the-lord-of-the-isles-wetherspoon/4c87ab08821e9eb0facc8d89","categoryId":"4bf58dd8d48988d11b941735","category":"Pub","checkinsCount":806,"usersCount":244,"tipCount":8,"visitsCount":819,"url":"http://www.jdwetherspoon.co.uk","tier":"","message":"","currency":"","rating":6.1},{"name":"Champagne Central | Grand Central Hotel","phone":"+441412403700","address":"99 Gordon Street","lat":55.85997186929586,"lng":-4.258019017155565,"neighborhood":"Merchant City","city_fetched":"Glasgow,UK","state":"Glasgow City","country":"United Kingdom","canonicalUrl":"https://foursquare.com/v/champagne-central--grand-central-hotel/4ca62209f47ea143d08f5d21","categoryId":"4bf58dd8d48988d1d5941735","category":"Hotel Bar","checkinsCount":409,"usersCount":292,"tipCount":6,"visitsCount":409,"tier":"","message":"","currency":"","rating":6.1},{"name":"Piper On The Square","phone":"+441415521740","address":"57 Cochrane St","lat":55.86062263389696,"lng":-4.24936368123138,"neighborhood":"Merchant City","city_fetched":"Glasgow,UK","country":"United Kingdom","canonicalUrl":"https://foursquare.com/v/piper-on-the-square/4beead88b0b376b01cc2dab3","categoryId":"4bf58dd8d48988d11b941735","category":"Pub","checkinsCount":377,"usersCount":231,"tipCount":6,"visitsCount":381,"tier":"","message":"","currency":"","rating":6},{"name":"Sugar Cube","address":"Queen Street","lat":55.859008998546386,"lng":-4.25232172065339,"neighborhood":"Merchant City","city_fetched":"Glasgow,UK","state":"Glasgow City","country":"United Kingdom","canonicalUrl":"https://foursquare.com/v/sugar-cube/4e597db1b61c4aaa3dfef53a","categoryId":"4bf58dd8d48988d11f941735","category":"Nightclub","checkinsCount":128,"usersCount":99,"tipCount":2,"visitsCount":128,"tier":"","message":"","currency":"","rating":6},{"name":"The Beer Cafe","phone":"+441415529815","twitter":"beercafeglasgow","address":"78 Candleriggs","lat":55.858583,"lng":-4.245402,"neighborhood":"Merchant City","city_fetched":"Glasgow,UK","state":"Glasgow City","country":"United Kingdom","canonicalUrl":"https://foursquare.com/v/the-beer-cafe/4b58b099f964a520d46528e3","categoryId":"4bf58dd8d48988d116941735","category":"Bar","checkinsCount":555,"usersCount":311,"tipCount":10,"visitsCount":567,"url":"http://www.beercafe.co.uk","tier":"","message":"","currency":"","rating":6},{"name":"The Crystal Palace (Wetherspoon)","phone":"+441412212624","address":"36 Jamaica St","lat":55.85722148204384,"lng":-4.25729499611521,"neighborhood":"Merchant City","city_fetched":"Glasgow,UK","state":"Glasgow City","country":"United Kingdom","canonicalUrl":"https://foursquare.com/v/the-crystal-palace-wetherspoon/4c87ab04821e9eb0f6cc8d89","categoryId":"4bf58dd8d48988d11b941735","category":"Pub","checkinsCount":2384,"usersCount":1309,"tipCount":16,"visitsCount":2749,"url":"http://www.jdwetherspoon.co.uk","tier":1,"message":"Cheap","currency":"£","rating":6},{"name":"The Hill","address":"94 Byres Road","lat":55.87287915161602,"lng":-4.2960190773010245,"neighborhood":"Hillhead","city_fetched":"Glasgow,UK","state":"Glasgow City","country":"United Kingdom","canonicalUrl":"https://foursquare.com/v/the-hill/524f835e049300aa2bb04221","categoryId":"4bf58dd8d48988d11b941735","category":"Pub","checkinsCount":113,"usersCount":93,"tipCount":3,"visitsCount":130,"tier":"","message":"","currency":"","rating":6},{"name":"bobar","address":"383 Byres Rd","lat":55.877601405183164,"lng":-4.2909303583573175,"neighborhood":"West End","city_fetched":"Glasgow,UK","state":"Glasgow City","country":"United Kingdom","canonicalUrl":"https://foursquare.com/v/bobar/4b80106bf964a520e64e30e3","categoryId":"4bf58dd8d48988d11e941735","category":"Cocktail Bar","checkinsCount":178,"usersCount":96,"tipCount":6,"visitsCount":179,"tier":"","message":"","currency":"","rating":6},{"name":"The Iron Horse","phone":"+441413322215","address":"115 West Nile St","lat":55.86390949525065,"lng":-4.2542195320129395,"neighborhood":"City Centre","city_fetched":"Glasgow,UK","state":"Glasgow City","country":"United Kingdom","canonicalUrl":"https://foursquare.com/v/the-iron-horse/4b8edf49f964a520f53b33e3","categoryId":"4bf58dd8d48988d11b941735","category":"Pub","checkinsCount":243,"usersCount":168,"tipCount":1,"visitsCount":243,"tier":"","message":"","currency":"","rating":5.9},{"name":"Revolution","phone":"+441413312614","twitter":"revolutionbars","address":"69 Renfield St","lat":55.86305456081871,"lng":-4.256129264831543,"neighborhood":"Merchant City","city_fetched":"Glasgow,UK","state":"Glasgow City","country":"United Kingdom","canonicalUrl":"https://foursquare.com/v/revolution/4b5e24cff964a520158029e3","categoryId":"4bf58dd8d48988d116941735","category":"Bar","checkinsCount":385,"usersCount":246,"tipCount":3,"visitsCount":385,"tier":"","message":"","currency":"","rating":5.9},{"name":"The Underground Bar","phone":"+441415532456","address":"6A John St.","lat":55.85997182409843,"lng":-4.247889518737793,"neighborhood":"Merchant City","city_fetched":"Glasgow,UK","state":"Glasgow City","country":"United Kingdom","canonicalUrl":"https://foursquare.com/v/the-underground-bar/4bf6f5db5ec320a1771b86d3","categoryId":"4bf58dd8d48988d1d8941735","category":"Gay Bar","checkinsCount":632,"usersCount":202,"tipCount":11,"visitsCount":668,"tier":"","message":"","currency":"","rating":5.9},{"name":"West Highland Gate (Beefeater)","phone":"+441419567835","twitter":"beefeatergrill","address":"103 Main St","lat":55.934857360369136,"lng":-4.316147972012484,"city_fetched":"Glasgow,UK","state":"Glasgow City","country":"United Kingdom","canonicalUrl":"https://foursquare.com/v/west-highland-gate-beefeater/4c4db89bfa9d9521fab31d0a","categoryId":"4bf58dd8d48988d11b941735","category":"Pub","checkinsCount":117,"usersCount":75,"tipCount":2,"visitsCount":119,"url":"http://www.beefeater.co.uk","tier":"","message":"","currency":"","rating":5.9},{"name":"The Lansdowne Bar & Kitchen","phone":"+441413344653","twitter":"lansdownespy","address":"7a Lansdowne Crescent","lat":55.874277785719684,"lng":-4.276254256849552,"neighborhood":"Firhill","city_fetched":"Glasgow,UK","state":"Glasgow City","country":"United Kingdom","canonicalUrl":"https://foursquare.com/v/the-lansdowne-bar--kitchen/4b994c8bf964a520317135e3","categoryId":"4bf58dd8d48988d116941735","category":"Bar","checkinsCount":446,"usersCount":242,"tipCount":7,"visitsCount":476,"url":"http://www.lansdownebar.co.uk","tier":"","message":"","currency":"","rating":5.9},{"name":"Hilton Glasgow - Executive Lounge","address":"1 William Street","lat":55.86151322303669,"lng":-4.268403053283691,"neighborhood":"City Centre","city_fetched":"Glasgow,UK","state":"Glasgow City","country":"United Kingdom","canonicalUrl":"https://foursquare.com/v/hilton-glasgow--executive-lounge/4e27e9bc091a1ba18da85029","categoryId":"4bf58dd8d48988d1d5941735","category":"Hotel Bar","checkinsCount":383,"usersCount":142,"tipCount":9,"visitsCount":383,"tier":"","message":"","currency":"","rating":5.9},{"name":"Connich Bar","phone":"+441412045555","twitter":"hiltonhotels","address":"1 William St","lat":55.861629107879395,"lng":-4.269209981779361,"neighborhood":"City Centre","city_fetched":"Glasgow,UK","country":"United Kingdom","canonicalUrl":"https://foursquare.com/v/connich-bar/50ca02c7245f2d4aa8c2ca58","categoryId":"4bf58dd8d48988d1d5941735","category":"Hotel Bar","checkinsCount":82,"usersCount":51,"tipCount":1,"visitsCount":84,"url":"http://www.hilton.com","tier":"","message":"","currency":"","rating":5.9},{"name":"Buff Club","phone":"+441412481777","address":"142 Bath Lane","lat":55.864029907039246,"lng":-4.26120400428772,"neighborhood":"City Centre","city_fetched":"Glasgow,UK","state":"Glasgow City","country":"United Kingdom","canonicalUrl":"https://foursquare.com/v/buff-club/4b6e0f0cf964a5204ca72ce3","categoryId":"4bf58dd8d48988d11f941735","category":"Nightclub","checkinsCount":378,"usersCount":240,"tipCount":5,"visitsCount":380,"tier":"","message":"","currency":"","rating":5.9},{"name":"Lock 27","phone":"+441419580853","address":"1100 Crow Rd.","lat":55.89499890804291,"lng":-4.319993,"neighborhood":"Anniesland","city_fetched":"Glasgow,UK","state":"Glasgow City","country":"United Kingdom","canonicalUrl":"https://foursquare.com/v/lock-27/4c02bc10187ec928e7a7b47b","categoryId":"4bf58dd8d48988d11b941735","category":"Pub","checkinsCount":432,"usersCount":173,"tipCount":8,"visitsCount":513,"url":"http://www.lock27.com","tier":"","message":"","currency":"","rating":5.9},{"name":"Church On The Hill","phone":"+441416369171","address":"29 Algie St","lat":55.82754509720813,"lng":-4.271500291859005,"neighborhood":"Langside","city_fetched":"Glasgow,UK","state":"Glasgow City","country":"United Kingdom","canonicalUrl":"https://foursquare.com/v/church-on-the-hill/4ba55019f964a5207af938e3","categoryId":"4bf58dd8d48988d11b941735","category":"Pub","checkinsCount":363,"usersCount":233,"tipCount":10,"visitsCount":407,"tier":"","message":"","currency":"","rating":5.9},{"name":"The Edward Wylie (Wetherspoon)","phone":"+441412295480","address":"107-109 Bothwell St.","lat":55.86145427361094,"lng":-4.262801937741648,"neighborhood":"City Centre","city_fetched":"Glasgow,UK","state":"Glasgow City","country":"United Kingdom","canonicalUrl":"https://foursquare.com/v/the-edward-wylie-wetherspoon/4b576d9bf964a520243728e3","categoryId":"4bf58dd8d48988d11b941735","category":"Pub","checkinsCount":1319,"usersCount":635,"tipCount":11,"visitsCount":1494,"url":"http://www.jdwetherspoon.co.uk","tier":"","message":"","currency":"","rating":5.9},{"name":"axm","address":"80 Glassford St.","lat":55.85930722499117,"lng":-4.248646169596371,"neighborhood":"Merchant City","city_fetched":"Glasgow,UK","state":"Glasgow City","country":"United Kingdom","canonicalUrl":"https://foursquare.com/v/axm/4f7e1dbbe4b00502a84fdfe1","categoryId":"4bf58dd8d48988d1d8941735","category":"Gay Bar","checkinsCount":186,"usersCount":93,"tipCount":0,"visitsCount":187,"tier":"","message":"","currency":"","rating":5.8},{"name":"The Royal Scot","phone":"+441412296011","address":"40-48 Union St","lat":55.85896024780877,"lng":-4.256880283355713,"neighborhood":"Merchant City","city_fetched":"Glasgow,UK","state":"Glasgow City","country":"United Kingdom","canonicalUrl":"https://foursquare.com/v/the-royal-scot/4beea769d355a593691b0b60","categoryId":"4bf58dd8d48988d11b941735","category":"Pub","checkinsCount":400,"usersCount":264,"tipCount":11,"visitsCount":400,"url":"http://www.thegooseglasgow.co.uk","tier":"","message":"","currency":"","rating":5.8},{"name":"Sugar rush","lat":55.844472637957395,"lng":-4.268653747840145,"neighborhood":"South Side","city_fetched":"Glasgow,UK","country":"United Kingdom","canonicalUrl":"https://foursquare.com/v/sugar-rush/4f08808be4b07c8f8c299637","categoryId":"4bf58dd8d48988d119941735","category":"Hookah Bar","checkinsCount":100,"usersCount":75,"tipCount":1,"visitsCount":202,"tier":"","message":"","currency":"","rating":5.8},{"name":"The Hope","phone":"+441412262482","twitter":"thehopeglasgow","address":"6/8 Waterloo Street","lat":55.8603812641563,"lng":-4.259455204010009,"neighborhood":"City Centre","city_fetched":"Glasgow,UK","state":"Glasgow City","country":"United Kingdom","canonicalUrl":"https://foursquare.com/v/the-hope/5217688993cd641c650c50bb","categoryId":"4bf58dd8d48988d116941735","category":"Bar","checkinsCount":221,"usersCount":149,"tipCount":3,"visitsCount":227,"url":"http://www.thehopeglasgow.co.uk","tier":"","message":"","currency":"","rating":5.8},{"name":"Central Bar","phone":"+441412042887","address":"Unit 12, Central Station","lat":55.85994773925475,"lng":-4.258403778076172,"neighborhood":"Merchant City","city_fetched":"Glasgow,UK","state":"Glasgow City","country":"United Kingdom","canonicalUrl":"https://foursquare.com/v/central-bar/4bc2ef91abf495212410c393","categoryId":"4bf58dd8d48988d116941735","category":"Bar","checkinsCount":478,"usersCount":209,"tipCount":3,"visitsCount":478,"tier":"","message":"","currency":"","rating":5.8},{"name":"Vespbar","phone":"+441412040060","twitter":"vespbar","address":"14 Drury St","lat":55.86100011226912,"lng":-4.255804329306039,"neighborhood":"Merchant City","city_fetched":"Glasgow,UK","state":"Glasgow City","country":"United Kingdom","canonicalUrl":"https://foursquare.com/vespbar","categoryId":"4bf58dd8d48988d116941735","category":"Bar","checkinsCount":387,"usersCount":212,"tipCount":8,"visitsCount":391,"url":"http://www.vespbar.com","tier":"","message":"","currency":"","rating":5.7},{"name":"NYC BAR","phone":"+441413532913","address":"185 Hope St.","lat":55.863010873336584,"lng":-4.257651395530781,"neighborhood":"Merchant City","city_fetched":"Glasgow,UK","state":"Glasgow City","country":"United Kingdom","canonicalUrl":"https://foursquare.com/v/nyc-bar/5050a9dae4b0bb1caff8a0bd","categoryId":"4bf58dd8d48988d116941735","category":"Bar","checkinsCount":127,"usersCount":92,"tipCount":4,"visitsCount":127,"url":"http://www.nycbar.co.uk","tier":"","message":"","currency":"","rating":5.7},{"name":"The Auctioneers","phone":"+441412222989","address":"North Court","lat":55.860788,"lng":-4.252517,"neighborhood":"Merchant City","city_fetched":"Glasgow,UK","state":"Glasgow City","country":"United Kingdom","canonicalUrl":"https://foursquare.com/v/the-auctioneers/4c13853ea9c220a1fdd4559d","categoryId":"4bf58dd8d48988d116941735","category":"Bar","checkinsCount":540,"usersCount":258,"tipCount":4,"visitsCount":559,"tier":"","message":"","currency":"","rating":5.7},{"name":"Drouthy's","phone":"+441412432964","address":"157 Queen St","lat":55.86065221476316,"lng":-4.251633882522583,"neighborhood":"Merchant City","city_fetched":"Glasgow,UK","state":"Glasgow City","country":"United Kingdom","canonicalUrl":"https://foursquare.com/v/drouthys/4c07ee4d7e3fc9280b7def82","categoryId":"4bf58dd8d48988d11b941735","category":"Pub","checkinsCount":322,"usersCount":173,"tipCount":7,"visitsCount":322,"tier":"","message":"","currency":"","rating":5.7},{"name":"Nude/Radio","address":"Ashton Lane","lat":55.874491,"lng":-4.293145,"neighborhood":"Hillhead","city_fetched":"Glasgow,UK","state":"Glasgow City","country":"United Kingdom","canonicalUrl":"https://foursquare.com/v/nuderadio/4bcf4d01caff95216de6ccf0","categoryId":"4bf58dd8d48988d11e941735","category":"Cocktail Bar","checkinsCount":160,"usersCount":117,"tipCount":3,"visitsCount":160,"tier":"","message":"","currency":"","rating":5.7},{"name":"Firewater","phone":"+441413540350","address":"341 Sauchiehall St","lat":55.86570359224838,"lng":-4.26593542098999,"neighborhood":"City Centre","city_fetched":"Glasgow,UK","state":"Glasgow City","country":"United Kingdom","canonicalUrl":"https://foursquare.com/v/firewater/4b7dd0a2f964a52074d62fe3","categoryId":"4bf58dd8d48988d116941735","category":"Bar","checkinsCount":399,"usersCount":301,"tipCount":7,"visitsCount":399,"url":"http://www.firewater-livemusic.com","tier":"","message":"","currency":"","rating":5.7},{"name":"Budda","phone":"+441413322010","address":"408 Sauchiehall St","lat":55.86564341468533,"lng":-4.266065786843125,"neighborhood":"City Centre","city_fetched":"Glasgow,UK","state":"Glasgow City","country":"United Kingdom","canonicalUrl":"https://foursquare.com/v/budda/4c2ca3562219c9283462a648","categoryId":"4bf58dd8d48988d116941735","category":"Bar","checkinsCount":456,"usersCount":195,"tipCount":2,"visitsCount":469,"url":"http://www.barbudda.co.uk","tier":"","message":"","currency":"","rating":5.7},{"name":"The Burnbrae","phone":"+441419425951","address":"Milngavie Road","lat":55.93122559,"lng":-4.316923439999999,"city_fetched":"Glasgow,UK","state":"Glasgow City","country":"United Kingdom","canonicalUrl":"https://foursquare.com/v/the-burnbrae/4c869710e602b1f74d81c17a","categoryId":"4bf58dd8d48988d116941735","category":"Bar","checkinsCount":379,"usersCount":126,"tipCount":12,"visitsCount":404,"url":"http://www.theburnbrae.co.uk","tier":"","message":"","currency":"","rating":5.7},{"name":"Cosmopol","phone":"+441412219130","address":"165 Hope St.","lat":55.862313298584745,"lng":-4.257806081820066,"neighborhood":"Merchant City","city_fetched":"Glasgow,UK","state":"Glasgow City","country":"United Kingdom","canonicalUrl":"https://foursquare.com/v/cosmopol/4baa6c6df964a520c7683ae3","categoryId":"4bf58dd8d48988d116941735","category":"Bar","checkinsCount":168,"usersCount":108,"tipCount":2,"visitsCount":169,"tier":"","message":"","currency":"","rating":5.6},{"name":"Sir John Stirling Maxwell (Wetherspoon)","phone":"+441416369024","address":"140 Kilmarnock Rd.","lat":55.82749189723355,"lng":-4.284367561340332,"neighborhood":"Langside","city_fetched":"Glasgow,UK","country":"United Kingdom","canonicalUrl":"https://foursquare.com/v/sir-john-stirling-maxwell-wetherspoon/4bf7fa684a67c928cd7624cf","categoryId":"4bf58dd8d48988d11b941735","category":"Pub","checkinsCount":683,"usersCount":192,"tipCount":8,"visitsCount":790,"url":"http://www.jdwetherspoon.co.uk","tier":"","message":"","currency":"","rating":5.6},{"name":"The Lauder's","phone":"+441413329690","address":"76 Sauchiehall St","lat":55.86457175546882,"lng":-4.255549907684326,"neighborhood":"City Centre","city_fetched":"Glasgow,UK","state":"Glasgow City","country":"United Kingdom","canonicalUrl":"https://foursquare.com/v/the-lauders/4bc22299abf49521fe06c293","categoryId":"4bf58dd8d48988d11b941735","category":"Pub","checkinsCount":613,"usersCount":446,"tipCount":17,"visitsCount":624,"url":"http://www.thelaudersglasgow.co.uk","tier":"","message":"","currency":"","rating":5.6},{"name":"Neighbourhood","phone":"+441412377931","address":"1046 Argyle St","lat":55.86429497215726,"lng":-4.282819576858259,"neighborhood":"Kelvingrove Park","city_fetched":"Glasgow,UK","state":"Glasgow City","country":"United Kingdom","canonicalUrl":"https://foursquare.com/v/neighbourhood/4b27e705f964a520fe8b24e3","categoryId":"4bf58dd8d48988d116941735","category":"Bar","checkinsCount":291,"usersCount":159,"tipCount":5,"visitsCount":297,"url":"http://www.neighbourhoodbar.co.uk","tier":"","message":"","currency":"","rating":5.5},{"name":"Caledonia Cafe-Bar","address":"St Andrews Drive","lat":55.86474413158166,"lng":-4.43376155702781,"city_fetched":"Glasgow,UK","state":"Glasgow City","country":"United Kingdom","canonicalUrl":"https://foursquare.com/v/caledonia-cafebar/4f892ce9e4b0e5ed74357221","categoryId":"4bf58dd8d48988d11e941735","category":"Cocktail Bar","checkinsCount":180,"usersCount":126,"tipCount":3,"visitsCount":180,"tier":"","message":"","currency":"","rating":5.5},{"name":"Failte","phone":"+441412484989","address":"79 St. Vincent St","lat":55.86126870501087,"lng":-4.255765684336793,"neighborhood":"Merchant City","city_fetched":"Glasgow,UK","state":"Glasgow City","country":"United Kingdom","canonicalUrl":"https://foursquare.com/v/failte/4c00266bdaf9c9b6555cfbef","categoryId":"4bf58dd8d48988d116941735","category":"Bar","checkinsCount":353,"usersCount":90,"tipCount":3,"visitsCount":353,"tier":"","message":"","currency":"","rating":5.5},{"name":"Missoula","address":"110-114 West George St.","lat":55.86242237889169,"lng":-4.256182909011841,"neighborhood":"Merchant City","city_fetched":"Glasgow,UK","state":"Glasgow City","country":"United Kingdom","canonicalUrl":"https://foursquare.com/v/missoula/4cae10592a55224b8abf7369","categoryId":"4bf58dd8d48988d116941735","category":"Bar","checkinsCount":348,"usersCount":195,"tipCount":6,"visitsCount":348,"tier":"","message":"","currency":"","rating":5.5},{"name":"Drop","address":"42 waterloo street","lat":55.860318042076116,"lng":-4.259782433509827,"neighborhood":"City Centre","city_fetched":"Glasgow,UK","state":"Glasgow City","country":"United Kingdom","canonicalUrl":"https://foursquare.com/v/drop/4c13c2e877cea5939a5ccf60","categoryId":"4bf58dd8d48988d116941735","category":"Bar","checkinsCount":164,"usersCount":104,"tipCount":4,"visitsCount":164,"tier":"","message":"","currency":"","rating":5.5},{"name":"Central Sports Bar & Grill","address":"Glasgow Airport","lat":55.86427304259681,"lng":-4.432222469372557,"city_fetched":"Glasgow,UK","state":"Glasgow City","country":"United Kingdom","canonicalUrl":"https://foursquare.com/v/central-sports-bar--grill/517e4b62e4b0ea4227ea51bd","categoryId":"4bf58dd8d48988d11d941735","category":"Sports Bar","checkinsCount":50,"usersCount":48,"tipCount":3,"visitsCount":50,"tier":"","message":"","currency":"","rating":5.5},{"name":"The Hall","phone":"+441413527971","address":"457 Sauchiehall Street","lat":55.866064809810105,"lng":-4.270162582397461,"neighborhood":"City Centre","city_fetched":"Glasgow,UK","country":"United Kingdom","canonicalUrl":"https://foursquare.com/v/the-hall/4b88e121f964a520ac1132e3","categoryId":"4bf58dd8d48988d116941735","category":"Bar","checkinsCount":361,"usersCount":169,"tipCount":3,"visitsCount":363,"tier":"","message":"","currency":"","rating":5.5},{"name":"Mansion House","address":"20 Glassford St","lat":55.858206,"lng":-4.249043,"neighborhood":"Merchant City","city_fetched":"Glasgow,UK","state":"Glasgow City","country":"United Kingdom","canonicalUrl":"https://foursquare.com/v/mansion-house/4d6fe20c0d996dcb61b9bd8e","categoryId":"4bf58dd8d48988d116941735","category":"Bar","checkinsCount":297,"usersCount":182,"tipCount":1,"visitsCount":297,"url":"http://www.mansionhouseglasgow.com","tier":"","message":"","currency":"","rating":5.4},{"name":"Jayz Bar and Restaurant","phone":"+441413879046","twitter":"jayz1jayz","address":"87 Kilmarnock Road","lat":55.8282168019681,"lng":-4.2834001593701965,"neighborhood":"Langside","city_fetched":"Glasgow,UK","state":"Glasgow City","country":"United Kingdom","canonicalUrl":"https://foursquare.com/v/jayz-bar-and-restaurant/525ecaf211d2fad7a6711015","categoryId":"4bf58dd8d48988d116941735","category":"Bar","checkinsCount":159,"usersCount":38,"tipCount":3,"visitsCount":181,"url":"http://www.twitter.com/Jayzbar1Jayzbar","tier":"","message":"","currency":"","rating":5.4},{"name":"Camperdown Place (Wetherspoon)","phone":"+441413316600","twitter":"jdwtweet","address":"4-5 West George St.","lat":55.86158405,"lng":-4.25140469,"neighborhood":"Merchant City","city_fetched":"Glasgow,UK","state":"Glasgow City","country":"United Kingdom","canonicalUrl":"https://foursquare.com/v/camperdown-place-wetherspoon/4d6e7a59134ea1438f03911a","categoryId":"4bf58dd8d48988d11b941735","category":"Pub","checkinsCount":1360,"usersCount":645,"tipCount":8,"visitsCount":1377,"url":"http://www.jdwetherspoon.co.uk","tier":"","message":"","currency":"","rating":5.4},{"name":"Metropolitan","phone":"+441415531488","twitter":"metglasgow","address":"60 Candleriggs","lat":55.85847317265311,"lng":-4.24510694695311,"neighborhood":"Merchant City","city_fetched":"Glasgow,UK","state":"Glasgow City","country":"United Kingdom","canonicalUrl":"https://foursquare.com/v/metropolitan/4b900c21f964a5205a7233e3","categoryId":"4bf58dd8d48988d116941735","category":"Bar","checkinsCount":611,"usersCount":436,"tipCount":7,"visitsCount":615,"url":"http://www.metropolitan-bar.com","tier":"","message":"","currency":"","rating":5.4},{"name":"The Rock","address":"205 Hyndland Road","lat":55.874921166689084,"lng":-4.303462863325436,"neighborhood":"Partick","city_fetched":"Glasgow,UK","state":"Glasgow City","country":"United Kingdom","canonicalUrl":"https://foursquare.com/v/the-rock/4bbf3f3e85fbb71366d27167","categoryId":"4bf58dd8d48988d11b941735","category":"Pub","checkinsCount":285,"usersCount":112,"tipCount":2,"visitsCount":295,"tier":"","message":"","currency":"","rating":5.4},{"name":"October","phone":"0141221030","address":"Princes Square","lat":55.85932152807864,"lng":-4.253683090209961,"neighborhood":"Merchant City","city_fetched":"Glasgow,UK","state":"Glasgow City","country":"United Kingdom","canonicalUrl":"https://foursquare.com/v/october/4bc5a80b0a30d13a3b3f5a9c","categoryId":"4bf58dd8d48988d116941735","category":"Bar","checkinsCount":347,"usersCount":240,"tipCount":6,"visitsCount":347,"tier":"","message":"","currency":"","rating":5.3},{"name":"Waterloo","phone":"+441412487216","address":"306 Argyle St.","lat":55.858765,"lng":-4.260897,"neighborhood":"City Centre","city_fetched":"Glasgow,UK","state":"Glasgow City","country":"United Kingdom","canonicalUrl":"https://foursquare.com/v/waterloo/4c24e59b905a0f4737886060","categoryId":"4bf58dd8d48988d1d8941735","category":"Gay Bar","checkinsCount":226,"usersCount":112,"tipCount":2,"visitsCount":228,"url":"http://www.waterloobar.co.uk","tier":"","message":"","currency":"","rating":5.3},{"name":"Kitty O'Sheas","phone":"+441415648100","twitter":"kittysglasgow","address":"15 Waterloo St","lat":55.860359,"lng":-4.2596414,"neighborhood":"City Centre","city_fetched":"Glasgow,UK","state":"Glasgow City","country":"United Kingdom","canonicalUrl":"https://foursquare.com/v/kitty-osheas/4c0d2703c700c9b685f6a1dd","categoryId":"4bf58dd8d48988d116941735","category":"Bar","checkinsCount":191,"usersCount":123,"tipCount":3,"visitsCount":191,"tier":"","message":"","currency":"","rating":5.3},{"name":"Bar Square","phone":"+441415523232","twitter":"bar_square","address":"5 Bell Street","lat":55.85835810656004,"lng":-4.245615005493164,"neighborhood":"Merchant City","city_fetched":"Glasgow,UK","state":"Glasgow City","country":"United Kingdom","canonicalUrl":"https://foursquare.com/v/bar-square/4bb7b1f8cf2fc9b61ca59e02","categoryId":"4bf58dd8d48988d116941735","category":"Bar","checkinsCount":306,"usersCount":203,"tipCount":6,"visitsCount":306,"url":"http://www.barsquare.co.uk","tier":"","message":"","currency":"","rating":5.1},{"name":"Katie's Bar","address":"17 John Street","lat":55.86009023319731,"lng":-4.247977498021423,"neighborhood":"Merchant City","city_fetched":"Glasgow,UK","state":"Glasgow City","country":"United Kingdom","canonicalUrl":"https://foursquare.com/v/katies-bar/51f44394498e3a45a84a045e","categoryId":"4bf58dd8d48988d1d8941735","category":"Gay Bar","checkinsCount":144,"usersCount":86,"tipCount":1,"visitsCount":145,"tier":"","message":"","currency":"","rating":4.9},{"name":"The Society Room (Lloyd's No. 1 Bar)","phone":"+441412297560","twitter":"jdwtweet","address":"151 West George St.","lat":55.862440441375234,"lng":-4.257159233093262,"neighborhood":"Merchant City","city_fetched":"Glasgow,UK","state":"Glasgow City","country":"United Kingdom","canonicalUrl":"https://foursquare.com/v/the-society-room-lloyds-no-1-bar/4bf6d6a613aed13aeb4aeaf7","categoryId":"4bf58dd8d48988d11b941735","category":"Pub","checkinsCount":927,"usersCount":394,"tipCount":14,"visitsCount":979,"url":"http://www.jdwetherspoon.co.uk","tier":"","message":"","currency":"","rating":4.9}]