[{"name":"The Magnet","phone":"+441614296287","address":"51 Wellington Road North","lat":53.41223406986875,"lng":-2.1666536338950015,"city_fetched":"Glossop,UK","state":"Stockport","country":"United Kingdom","canonicalUrl":"https://foursquare.com/v/the-magnet/4b91756bf964a52017be33e3","categoryId":"4bf58dd8d48988d11b941735","category":"Pub","checkinsCount":679,"usersCount":232,"tipCount":11,"visitsCount":950,"tier":"","message":"","currency":"","rating":8.8},{"name":"The Old Hall Inn","phone":"+441663750529","twitter":"oldhallinn","address":"Whitehough Place","lat":53.335091265814775,"lng":-1.9429707527160645,"city_fetched":"Glossop,UK","country":"United Kingdom","canonicalUrl":"https://foursquare.com/v/the-old-hall-inn/4c1a18caf551ef3bb1504768","categoryId":"4bf58dd8d48988d11b941735","category":"Pub","checkinsCount":153,"usersCount":106,"tipCount":9,"visitsCount":175,"tier":"","message":"","currency":"","rating":8.6},{"name":"Mary & Archie","phone":"0161453130","twitter":"maryandarchie","address":"200 Burton Rd","lat":53.426831,"lng":-2.242709,"city_fetched":"Glossop,UK","state":"Greater Manchester","country":"United Kingdom","canonicalUrl":"https://foursquare.com/v/mary--archie/4dfa539f18a8ab1870bdcaf5","categoryId":"4bf58dd8d48988d116941735","category":"Bar","checkinsCount":708,"usersCount":298,"tipCount":14,"visitsCount":829,"tier":"","message":"","currency":"","rating":8.6},{"name":"Stalybridge Buffet Bar","phone":"+441613030007","address":"Rassbottom St","lat":53.48431314273991,"lng":-2.0637880354903584,"city_fetched":"Glossop,UK","country":"United Kingdom","canonicalUrl":"https://foursquare.com/v/stalybridge-buffet-bar/4c94adf3f7cfa1cdbac5b515","categoryId":"4bf58dd8d48988d11b941735","category":"Pub","checkinsCount":814,"usersCount":337,"tipCount":12,"visitsCount":821,"url":"http://www.stalybridgebuffetbar.co.uk","tier":"","message":"","currency":"","rating":8.5},{"name":"The Arden Arms","phone":"+441614802185","address":"23 Millgate","lat":53.412000302985895,"lng":-2.1549239619844878,"city_fetched":"Glossop,UK","state":"Stockport","country":"United Kingdom","canonicalUrl":"https://foursquare.com/v/the-arden-arms/4b8672e5f964a520948a31e3","categoryId":"4bf58dd8d48988d11b941735","category":"Pub","checkinsCount":385,"usersCount":127,"tipCount":8,"visitsCount":412,"tier":"","message":"","currency":"","rating":8.4},{"name":"Baker's Vaults","address":"28 Market Place","lat":53.411851475436585,"lng":-2.157128690320629,"city_fetched":"Glossop,UK","state":"Stockport","country":"United Kingdom","canonicalUrl":"https://foursquare.com/v/bakers-vaults/4be1d057f01520a122516987","categoryId":"4bf58dd8d48988d11b941735","category":"Pub","checkinsCount":229,"usersCount":120,"tipCount":8,"visitsCount":260,"tier":"","message":"","currency":"","rating":8.4},{"name":"Heaton Hops","lat":53.428228110041715,"lng":-2.1754275094453717,"city_fetched":"Glossop,UK","country":"United Kingdom","canonicalUrl":"https://foursquare.com/v/heaton-hops/551aff11498e38825c8c9426","categoryId":"4bf58dd8d48988d116941735","category":"Bar","checkinsCount":180,"usersCount":65,"tipCount":3,"visitsCount":267,"tier":"","message":"","currency":"","rating":8.3},{"name":"The Fletcher's Arms","phone":"+441613365555","twitter":"fletchersarms","address":"445 Stockport Rd","lat":53.444366,"lng":-2.115369,"city_fetched":"Glossop,UK","state":"Tameside","country":"United Kingdom","canonicalUrl":"https://foursquare.com/v/the-fletchers-arms/4c191bd7838020a11d37e561","categoryId":"4bf58dd8d48988d11b941735","category":"Pub","checkinsCount":173,"usersCount":97,"tipCount":3,"visitsCount":213,"url":"http://almond-pubs.co.uk/fletchers-arms","tier":"","message":"","currency":"","rating":8.3},{"name":"The Plough on the Moor","phone":"+441614325563","twitter":"ploughonthemoor","address":"Heaton Moor Rd","lat":53.42319016129858,"lng":-2.1837902069091797,"city_fetched":"Glossop,UK","state":"Stockport","country":"United Kingdom","canonicalUrl":"https://foursquare.com/v/the-plough-on-the-moor/4b0e6cf3f964a520875723e3","categoryId":"4bf58dd8d48988d11b941735","category":"Pub","checkinsCount":455,"usersCount":153,"tipCount":2,"visitsCount":594,"url":"http://www.theploughonthemoor.co.uk","tier":"","message":"","currency":"","rating":8.3},{"name":"360 Threesixty","phone":"+441612255626","address":"108 Wilmslow Road, Manchester M14 5AJ","lat":53.455148479257176,"lng":-2.2251763385765195,"neighborhood":"Rusholme","city_fetched":"Glossop,UK","country":"United Kingdom","canonicalUrl":"https://foursquare.com/v/360-threesixty/538519dc498eafe68b0d0292","categoryId":"4bf58dd8d48988d119941735","category":"Hookah Bar","checkinsCount":1463,"usersCount":899,"tipCount":13,"visitsCount":2425,"tier":"","message":"","currency":"","rating":8.2},{"name":"The Crown Inn","twitter":"thecrowninn154","address":"154 Heaton Ln","lat":53.40992516627227,"lng":-2.166506052017212,"city_fetched":"Glossop,UK","country":"United Kingdom","canonicalUrl":"https://foursquare.com/v/the-crown-inn/4ade0de7f964a520b46d21e3","categoryId":"4bf58dd8d48988d11b941735","category":"Pub","checkinsCount":310,"usersCount":139,"tipCount":10,"visitsCount":336,"url":"http://thecrowninn.uk.com","tier":"","message":"","currency":"","rating":8.2},{"name":"Hare and Hounds","address":"Werneth Low Road","lat":53.43067930543718,"lng":-2.064551355095997,"city_fetched":"Glossop,UK","state":"Tameside","country":"United Kingdom","canonicalUrl":"https://foursquare.com/v/hare-and-hounds/4bc1e228abf49521f58dc193","categoryId":"4bf58dd8d48988d11b941735","category":"Pub","checkinsCount":286,"usersCount":204,"tipCount":5,"visitsCount":372,"tier":"","message":"","currency":"","rating":8.2},{"name":"Wine and Wallop","lat":53.425064,"lng":-2.235998,"city_fetched":"Glossop,UK","country":"United Kingdom","canonicalUrl":"https://foursquare.com/v/wine-and-wallop/542727f5498ef72d774ce39a","categoryId":"4bf58dd8d48988d123941735","category":"Wine Bar","checkinsCount":207,"usersCount":78,"tipCount":3,"visitsCount":284,"tier":"","message":"","currency":"","rating":8.1},{"name":"The George Charles","lat":53.42610468141027,"lng":-2.243841717618909,"city_fetched":"Glossop,UK","country":"United Kingdom","canonicalUrl":"https://foursquare.com/v/the-george-charles/55e9fa13498ee0667e77ab4b","categoryId":"4bf58dd8d48988d116941735","category":"Bar","checkinsCount":59,"usersCount":86,"tipCount":1,"visitsCount":114,"tier":"","message":"","currency":"","rating":8},{"name":"Expo Lounge Cafe Bar","phone":"+441614482141","twitter":"expo_lounge","address":"766 Wilmslow Rd","lat":53.415964,"lng":-2.232017,"city_fetched":"Glossop,UK","state":"Greater Manchester","country":"United Kingdom","canonicalUrl":"https://foursquare.com/v/expo-lounge-cafe-bar/51eab61e498e20ce6b25e251","categoryId":"4bf58dd8d48988d116941735","category":"Bar","checkinsCount":281,"usersCount":140,"tipCount":11,"visitsCount":299,"url":"http://www.thelounges.co.uk","tier":"","message":"","currency":"","rating":7.9},{"name":"The Blue Bell Inn","address":"170 Barlow Road","lat":53.44514450527958,"lng":-2.1842835992260983,"city_fetched":"Glossop,UK","state":"Greater Manchester","country":"United Kingdom","canonicalUrl":"https://foursquare.com/v/the-blue-bell-inn/4c232f9d502b9521e5246e21","categoryId":"4bf58dd8d48988d11b941735","category":"Pub","checkinsCount":231,"usersCount":76,"tipCount":6,"visitsCount":278,"tier":"","message":"","currency":"","rating":7.8},{"name":"The Millgate Pub","address":"Ashton road West","lat":53.50747233670769,"lng":-2.158663975578839,"neighborhood":"Failsworth West","city_fetched":"Glossop,UK","state":"Lancashire","country":"United Kingdom","canonicalUrl":"https://foursquare.com/v/the-millgate-pub/4c8aa2af2e333704696fc541","categoryId":"4bf58dd8d48988d11b941735","category":"Pub","checkinsCount":272,"usersCount":99,"tipCount":3,"visitsCount":419,"tier":"","message":"","currency":"","rating":7.8},{"name":"Pico Lounge","twitter":"picolounge","address":"Unit 3 & 4, Howard Town Shopping Park","lat":53.44240462933194,"lng":-1.9475054471028426,"city_fetched":"Glossop,UK","state":"Derbyshire","country":"United Kingdom","canonicalUrl":"https://foursquare.com/v/pico-lounge/52e3c2b811d2924c3e0edb8c","categoryId":"4bf58dd8d48988d116941735","category":"Bar","checkinsCount":103,"usersCount":73,"tipCount":1,"visitsCount":156,"tier":"","message":"","currency":"","rating":7.8},{"name":"Fletcher Moss","phone":"+441614341877","twitter":"thefletchermoss","address":"1 William St.","lat":53.41679636836053,"lng":-2.2295916080474854,"neighborhood":"Didsbury East","city_fetched":"Glossop,UK","country":"United Kingdom","canonicalUrl":"https://foursquare.com/v/fletcher-moss/4ade0df3f964a520f96d21e3","categoryId":"4bf58dd8d48988d11b941735","category":"Pub","checkinsCount":517,"usersCount":287,"tipCount":4,"visitsCount":636,"url":"http://www.hydesbrewery.co.uk","tier":"","message":"","currency":"","rating":7.8},{"name":"The Cheshire Cheese Inn","phone":"+441433620381","address":"Edale Rd.","lat":53.35339630272248,"lng":-1.7454421520233154,"neighborhood":"Hope Valley","city_fetched":"Glossop,UK","state":"Derbyshire","country":"United Kingdom","canonicalUrl":"https://foursquare.com/v/the-cheshire-cheese-inn/4c4f011e1b8e1b8dedcf1828","categoryId":"4bf58dd8d48988d11b941735","category":"Pub","checkinsCount":100,"usersCount":94,"tipCount":3,"visitsCount":136,"url":"http://www.thecheshirecheeseinn.co.uk","tier":"","message":"","currency":"","rating":7.6},{"name":"The Stokers Arms","phone":"+441614487941","twitter":"stokersarms","address":"655-657 Wilmslow Road","lat":53.418138931558005,"lng":-2.231562979587694,"neighborhood":"Didsbury East","city_fetched":"Glossop,UK","state":"Greater Manchester","country":"United Kingdom","canonicalUrl":"https://foursquare.com/v/the-stokers-arms/53515322498e0fce0662770e","categoryId":"4bf58dd8d48988d11b941735","category":"Pub","checkinsCount":377,"usersCount":128,"tipCount":6,"visitsCount":471,"url":"http://www.thestokersarmsdidsbury.co.uk","tier":"","message":"","currency":"","rating":7.6},{"name":"The Swan Inn","phone":"+441457873451","twitter":"theswandobcross","address":"The Square, Dobcross","lat":53.55637672536685,"lng":-2.0132136293421174,"city_fetched":"Glossop,UK","state":"Lancashire","country":"United Kingdom","canonicalUrl":"https://foursquare.com/v/the-swan-inn/4b6c6e1ff964a52088392ce3","categoryId":"4bf58dd8d48988d11b941735","category":"Pub","checkinsCount":373,"usersCount":69,"tipCount":3,"visitsCount":440,"url":"http://www.theswsndobcross.com","tier":"","message":"","currency":"","rating":7.5},{"name":"The Globe","phone":"+441457852417","address":"144 High St. W","lat":53.44355437502683,"lng":-1.956591010093689,"city_fetched":"Glossop,UK","state":"Derbyshire","country":"United Kingdom","canonicalUrl":"https://foursquare.com/v/the-globe/4bb759ff1344b713329b9e04","categoryId":"4bf58dd8d48988d11b941735","category":"Pub","checkinsCount":238,"usersCount":122,"tipCount":6,"visitsCount":306,"url":"http://www.globemusic.org","tier":"","message":"","currency":"","rating":7.5},{"name":"The Joshua Bradley","phone":"+441614066776","address":"Stockport Rd.","lat":53.43344729158494,"lng":-2.084149097948286,"city_fetched":"Glossop,UK","country":"United Kingdom","canonicalUrl":"https://foursquare.com/v/the-joshua-bradley/4bbb3340cf2fc9b6ec45a202","categoryId":"4bf58dd8d48988d116941735","category":"Bar","checkinsCount":244,"usersCount":161,"tipCount":4,"visitsCount":337,"tier":"","message":"","currency":"","rating":7.5},{"name":"Hesketh Tavern","phone":"+441614853216","twitter":"heskethtavern","address":"63 Hulme Hall Rd","lat":53.372247,"lng":-2.191823,"neighborhood":"Cheadle Hulme South","city_fetched":"Glossop,UK","state":"Cheshire","country":"United Kingdom","canonicalUrl":"https://foursquare.com/v/hesketh-tavern/4b5f3c56f964a52036af29e3","categoryId":"4bf58dd8d48988d11b941735","category":"Pub","checkinsCount":454,"usersCount":157,"tipCount":18,"visitsCount":626,"url":"http://almond-pubs.co.uk/hesketh-tavern","tier":"","message":"","currency":"","rating":7.4},{"name":"Cat & Fiddle Inn","address":"Cat and Fiddle Rd.","lat":53.24403144281008,"lng":-1.9996404647827148,"city_fetched":"Glossop,UK","state":"Derbyshire","country":"United Kingdom","canonicalUrl":"https://foursquare.com/v/cat--fiddle-inn/4bc73e6f0050b713c746b83b","categoryId":"4bf58dd8d48988d11b941735","category":"Pub","checkinsCount":379,"usersCount":235,"tipCount":6,"visitsCount":404,"tier":"","message":"","currency":"","rating":7.4},{"name":"The Old Nags Head Inn","phone":"+441433670291","address":"Grindsbrook Booth","lat":53.370604648714924,"lng":-1.8168747425079346,"city_fetched":"Glossop,UK","country":"United Kingdom","canonicalUrl":"https://foursquare.com/v/the-old-nags-head-inn/4bd9e1210ef39c745a9f1d2d","categoryId":"4bf58dd8d48988d11b941735","category":"Pub","checkinsCount":103,"usersCount":128,"tipCount":2,"visitsCount":137,"tier":"","message":"","currency":"","rating":7.4},{"name":"The Windmill","twitter":"windmilltweet","address":"Holehouse Lane","lat":53.30669403076172,"lng":-2.114666,"city_fetched":"Glossop,UK","state":"Cheshire","country":"United Kingdom","canonicalUrl":"https://foursquare.com/v/the-windmill/4c6c0b18a437224bda3529b1","categoryId":"4bf58dd8d48988d11b941735","category":"Pub","checkinsCount":153,"usersCount":116,"tipCount":6,"visitsCount":197,"tier":"","message":"","currency":"","rating":7.3},{"name":"Puss In Boots","phone":"+441614565200","twitter":"pussinbootspub","address":"147 Nangreave Rd","lat":53.396905,"lng":-2.138642,"city_fetched":"Glossop,UK","state":"Cheshire","country":"United Kingdom","canonicalUrl":"https://foursquare.com/v/puss-in-boots/4d665331838654811bf8f653","categoryId":"4bf58dd8d48988d11b941735","category":"Pub","checkinsCount":219,"usersCount":143,"tipCount":4,"visitsCount":315,"url":"http://almond-pubs.co.uk/puss-in-boots","tier":"","message":"","currency":"","rating":7.3},{"name":"Folk","phone":"+441614452912","twitter":"folkdidsbury","address":"169-171 Burton Rd","lat":53.42636432232302,"lng":-2.2428376972675323,"city_fetched":"Glossop,UK","country":"United Kingdom","canonicalUrl":"https://foursquare.com/v/folk/4ade0df6f964a520086e21e3","categoryId":"4bf58dd8d48988d116941735","category":"Bar","checkinsCount":748,"usersCount":357,"tipCount":10,"visitsCount":771,"url":"http://www.folkcafebar.co.uk","tier":"","message":"","currency":"","rating":7.3},{"name":"The Ring O'Bells","phone":"+441614272300","address":"130 Church Lane","lat":53.39157549876503,"lng":-2.061141634846495,"neighborhood":"Marple South","city_fetched":"Glossop,UK","state":"Cheshire","country":"United Kingdom","canonicalUrl":"https://foursquare.com/v/the-ring-obells/4bc9b712511f9521b115aec7","categoryId":"4bf58dd8d48988d11b941735","category":"Pub","checkinsCount":102,"usersCount":57,"tipCount":2,"visitsCount":107,"tier":"","message":"","currency":"","rating":7.3},{"name":"The Church Inn","phone":"+441457820902","address":"Running Hill Gate","lat":53.553716,"lng":-1.9900327920913696,"city_fetched":"Glossop,UK","state":"Lancashire","country":"United Kingdom","canonicalUrl":"https://foursquare.com/v/the-church-inn/4bb5d1e3f562ef3b61462f97","categoryId":"50327c8591d4c4b30a586d5d","category":"Brewery","checkinsCount":138,"usersCount":97,"tipCount":8,"visitsCount":151,"url":"http://ww.churchinnsaddleworth.co.uk","tier":"","message":"","currency":"","rating":7.3},{"name":"The Carousel","phone":"+441614297453","address":"Reddish Rd.","lat":53.426996,"lng":-2.15432345867157,"city_fetched":"Glossop,UK","state":"Cheshire","country":"United Kingdom","canonicalUrl":"https://foursquare.com/v/the-carousel/4b48bb35f964a520825426e3","categoryId":"4bf58dd8d48988d11b941735","category":"Pub","checkinsCount":182,"usersCount":91,"tipCount":5,"visitsCount":230,"tier":"","message":"","currency":"","rating":7.2},{"name":"The Crown","address":"6 Vale Close","lat":53.412531678743235,"lng":-2.203107253549524,"city_fetched":"Glossop,UK","country":"United Kingdom","canonicalUrl":"https://foursquare.com/v/the-crown/4c17b761834e2d7fbec62780","categoryId":"4bf58dd8d48988d11b941735","category":"Pub","checkinsCount":185,"usersCount":87,"tipCount":5,"visitsCount":268,"tier":"","message":"","currency":"","rating":7.2},{"name":"Thom's Wine Bar","address":"Heaton Moor Road","lat":53.42367924687087,"lng":-2.1823766827583313,"city_fetched":"Glossop,UK","state":"Stockport","country":"United Kingdom","canonicalUrl":"https://foursquare.com/v/thoms-wine-bar/4b646b56f964a520a5b12ae3","categoryId":"4bf58dd8d48988d123941735","category":"Wine Bar","checkinsCount":266,"usersCount":102,"tipCount":5,"visitsCount":272,"tier":"","message":"","currency":"","rating":7.2},{"name":"Wrens Nest Carvery","phone":"+441457890910","address":"Wrens Nest Retail Park","lat":53.4448137980373,"lng":-1.959473876951401,"city_fetched":"Glossop,UK","state":"Derbyshire","country":"United Kingdom","canonicalUrl":"https://foursquare.com/v/wrens-nest-carvery/4cdaf2973f6a8cfaf5e1e7ea","categoryId":"4bf58dd8d48988d11b941735","category":"Pub","checkinsCount":206,"usersCount":100,"tipCount":4,"visitsCount":226,"tier":"","message":"","currency":"","rating":7.2},{"name":"Robinson's Brewery Visitor Centre","phone":"+441616124100","address":"Apsley St","lat":53.409890909154505,"lng":-2.154771288803957,"city_fetched":"Glossop,UK","state":"Stockport","country":"United Kingdom","canonicalUrl":"https://foursquare.com/v/robinsons-brewery-visitor-centre/51a20f97498e25e79f8e09cc","categoryId":"50327c8591d4c4b30a586d5d","category":"Brewery","checkinsCount":105,"usersCount":103,"tipCount":2,"visitsCount":137,"url":"http://www.robinsonsvisitorscentre.co.uk","tier":"","message":"","currency":"","rating":7.1},{"name":"Red Lion","phone":"+441614285507","address":"83 Stockport Rd","lat":53.395283,"lng":-2.207981,"neighborhood":"Cheadle and Gatley","city_fetched":"Glossop,UK","state":"Stockport","country":"United Kingdom","canonicalUrl":"https://foursquare.com/v/red-lion/4c1a8295b4e62d7f0aecd793","categoryId":"4bf58dd8d48988d11b941735","category":"Pub","checkinsCount":138,"usersCount":70,"tipCount":2,"visitsCount":181,"url":"http://www.redlioncheadle.robinsonsbrewery.com","tier":"","message":"","currency":"","rating":6.9},{"name":"Boat & Horses","phone":"+441616812363","address":"Broadway","lat":53.52791068377984,"lng":-2.1595662270147606,"city_fetched":"Glossop,UK","state":"Lancashire","country":"United Kingdom","canonicalUrl":"https://foursquare.com/v/boat--horses/4cf954602d80a143d7173dd8","categoryId":"4bf58dd8d48988d11b941735","category":"Pub","checkinsCount":535,"usersCount":200,"tipCount":11,"visitsCount":593,"url":"http://www.boatandhorsespub.co.uk","tier":"","message":"","currency":"","rating":6.9},{"name":"Fairfield Arms","phone":"+441613711331","twitter":"fairfieldarms1","address":"92 Manchester Rd","lat":53.47366319944533,"lng":-2.143823588000695,"city_fetched":"Glossop,UK","state":"Greater Manchester","country":"United Kingdom","canonicalUrl":"https://foursquare.com/v/fairfield-arms/4b769da9f964a5209f542ee3","categoryId":"4bf58dd8d48988d11b941735","category":"Pub","checkinsCount":460,"usersCount":132,"tipCount":12,"visitsCount":529,"url":"http://fairfieldarmsaudenshaw.co.uk","tier":"","message":"","currency":"","rating":6.9},{"name":"The Drawing Room","phone":"+441612836244","address":"148 Burton Rd.","lat":53.428080763840946,"lng":-2.241307497024536,"city_fetched":"Glossop,UK","country":"United Kingdom","canonicalUrl":"https://foursquare.com/v/the-drawing-room/4bf6ce9d508c0f47d2e73c31","categoryId":"4bf58dd8d48988d116941735","category":"Bar","checkinsCount":208,"usersCount":121,"tipCount":3,"visitsCount":211,"tier":"","message":"","currency":"","rating":6.9},{"name":"The Shay Wake (Wetherspoon)","phone":"+441706889120","twitter":"jdw_tweet","address":"2-10 Milnrow Rd.","lat":53.57786477916844,"lng":-2.0930111556080324,"neighborhood":"Shaw","city_fetched":"Glossop,UK","state":"Lancashire","country":"United Kingdom","canonicalUrl":"https://foursquare.com/v/the-shay-wake-wetherspoon/4efbad224690a04b13454275","categoryId":"4bf58dd8d48988d11b941735","category":"Pub","checkinsCount":696,"usersCount":142,"tipCount":4,"visitsCount":812,"url":"http://www.jdwetherspoon.co.uk","tier":"","message":"","currency":"","rating":6.9},{"name":"Habibi Cafe","lat":53.45484161376953,"lng":-2.224924,"neighborhood":"Rusholme","city_fetched":"Glossop,UK","country":"United Kingdom","canonicalUrl":"https://foursquare.com/v/habibi-cafe/4d7694430dbb6dcb5852ed6f","categoryId":"4bf58dd8d48988d119941735","category":"Hookah Bar","checkinsCount":257,"usersCount":129,"tipCount":11,"visitsCount":258,"tier":"","message":"","currency":"","rating":6.9},{"name":"The Castle","phone":"+441433620578","address":"Castle St","lat":53.34311856136093,"lng":-1.7765182256698608,"city_fetched":"Glossop,UK","state":"Derbyshire","country":"United Kingdom","canonicalUrl":"https://foursquare.com/v/the-castle/4c4ef007fb742d7f224d1c2f","categoryId":"4bf58dd8d48988d11b941735","category":"Pub","checkinsCount":215,"usersCount":188,"tipCount":11,"visitsCount":223,"url":"http://www.vintageinn.co.uk/content/vintage-inn/en/restaurants/midlands/thecastlecastleton","tier":"","message":"","currency":"","rating":6.8},{"name":"The Kingfisher (Wetherspoon)","phone":"+441625870990","twitter":"jdwtweet","address":"London Rd. S.","lat":53.346494329726575,"lng":-2.1240944965724102,"city_fetched":"Glossop,UK","state":"Cheshire","country":"United Kingdom","canonicalUrl":"https://foursquare.com/v/the-kingfisher-wetherspoon/50d5c1b9e4b0487c3109d269","categoryId":"4bf58dd8d48988d11b941735","category":"Pub","checkinsCount":258,"usersCount":91,"tipCount":3,"visitsCount":278,"url":"http://www.jdwetherspoon.co.uk","tier":"","message":"","currency":"","rating":6.8},{"name":"The Woodstock","phone":"+441614487951","twitter":"woodstock_arm","address":"139 Barlow Moor Rd","lat":53.42175803523977,"lng":-2.245352268218994,"city_fetched":"Glossop,UK","country":"United Kingdom","canonicalUrl":"https://foursquare.com/v/the-woodstock/4ade0debf964a520c86d21e3","categoryId":"4bf58dd8d48988d11b941735","category":"Pub","checkinsCount":1239,"usersCount":627,"tipCount":28,"visitsCount":1671,"url":"http://www.thewoodstockarmsdidsbury.co.uk","tier":"","message":"","currency":"","rating":6.7},{"name":"Wagon And Horses","address":"Mottram Road","lat":53.4665596834211,"lng":-2.0252964464542145,"city_fetched":"Glossop,UK","state":"Tameside","country":"United Kingdom","canonicalUrl":"https://foursquare.com/v/wagon-and-horses/4c704514d274b60c3a34d90d","categoryId":"4bf58dd8d48988d11b941735","category":"Pub","checkinsCount":93,"usersCount":73,"tipCount":3,"visitsCount":123,"tier":"","message":"","currency":"","rating":6.7},{"name":"Friendship Inn","phone":"+441612245758","twitter":"friendship_inn","address":"351-353 Wilmslow Rd","lat":53.440543,"lng":-2.219267,"neighborhood":"Withington","city_fetched":"Glossop,UK","country":"United Kingdom","canonicalUrl":"https://foursquare.com/v/friendship-inn/4bcf8b759854d13a2c4ff64d","categoryId":"4bf58dd8d48988d11b941735","category":"Pub","checkinsCount":1148,"usersCount":365,"tipCount":16,"visitsCount":1164,"tier":"","message":"","currency":"","rating":6.7},{"name":"Didsbury Lounge","twitter":"didsburylounge","address":"Barlow Moor Rd","lat":53.41821873930197,"lng":-2.2336453582390106,"city_fetched":"Glossop,UK","state":"Greater Manchester","country":"United Kingdom","canonicalUrl":"https://foursquare.com/v/didsbury-lounge/514caf61e4b0e880df17982f","categoryId":"4bf58dd8d48988d121941735","category":"Lounge","checkinsCount":147,"usersCount":81,"tipCount":4,"visitsCount":150,"url":"http://www.didsburylounge.co.uk","tier":"","message":"","currency":"","rating":6.6},{"name":"The Beer Studio","phone":"+441612490271","address":"256 Wilmslow Road","lat":53.44294090664139,"lng":-2.2187232971191406,"neighborhood":"Fallowfield","city_fetched":"Glossop,UK","country":"United Kingdom","canonicalUrl":"https://foursquare.com/v/the-beer-studio/4e4a8d95aeb7de71b397c607","categoryId":"4bf58dd8d48988d11b941735","category":"Pub","checkinsCount":497,"usersCount":155,"tipCount":0,"visitsCount":523,"tier":"","message":"","currency":"","rating":6.6},{"name":"The Old Hall","phone":"+441433620160","address":"Market Place","lat":53.348227,"lng":-1.741915,"city_fetched":"Glossop,UK","state":"Derbyshire","country":"United Kingdom","canonicalUrl":"https://foursquare.com/v/the-old-hall/4c4db5ef9efabe9aecb8f368","categoryId":"4bf58dd8d48988d11b941735","category":"Pub","checkinsCount":258,"usersCount":142,"tipCount":12,"visitsCount":283,"url":"http://www.oldhallhotelhope.com","tier":"","message":"","currency":"","rating":6.6},{"name":"Nursery Inn","address":"258 Green Lane","lat":53.41487804299683,"lng":-2.177138328552246,"city_fetched":"Glossop,UK","state":"Stockport","country":"United Kingdom","canonicalUrl":"https://foursquare.com/v/nursery-inn/4be33e4d1dd22d7fc11c96bd","categoryId":"4bf58dd8d48988d11b941735","category":"Pub","checkinsCount":389,"usersCount":105,"tipCount":7,"visitsCount":514,"tier":"","message":"","currency":"","rating":6.6},{"name":"The Griffin","address":"Finney lane","lat":53.37250321931408,"lng":-2.216867665011285,"neighborhood":"Heald Green","city_fetched":"Glossop,UK","state":"Stockport","country":"United Kingdom","canonicalUrl":"https://foursquare.com/v/the-griffin/4c476841972c0f47a4b42321","categoryId":"4bf58dd8d48988d11b941735","category":"Pub","checkinsCount":147,"usersCount":150,"tipCount":5,"visitsCount":228,"tier":"","message":"","currency":"","rating":6.6},{"name":"The Peaks Inn","address":"Castleton","lat":53.343803,"lng":-1.773829,"city_fetched":"Glossop,UK","state":"Derbyshire","country":"United Kingdom","canonicalUrl":"https://foursquare.com/v/the-peaks-inn/4c71501cd97fa143106ef8ca","categoryId":"4bf58dd8d48988d11b941735","category":"Pub","checkinsCount":131,"usersCount":61,"tipCount":4,"visitsCount":131,"tier":"","message":"","currency":"","rating":6.6},{"name":"Volta","address":"167 Burton Rd","lat":53.426466,"lng":-2.242797,"city_fetched":"Glossop,UK","state":"Greater Manchester","country":"United Kingdom","canonicalUrl":"https://foursquare.com/v/volta/52c71410498e1b950c019c53","categoryId":"4bf58dd8d48988d11b941735","category":"Pub","checkinsCount":197,"usersCount":112,"tipCount":8,"visitsCount":207,"tier":"","message":"","currency":"","rating":6.5},{"name":"Solomons","phone":"+441614456722","address":"447-449 Wilmlsow Rd","lat":53.43442492281242,"lng":-2.227778434753418,"neighborhood":"Withington","city_fetched":"Glossop,UK","country":"United Kingdom","canonicalUrl":"https://foursquare.com/v/solomons/4ade0de7f964a520b16d21e3","categoryId":"4bf58dd8d48988d116941735","category":"Bar","checkinsCount":345,"usersCount":170,"tipCount":5,"visitsCount":365,"tier":"","message":"","currency":"","rating":6.4},{"name":"The Slug and Lettuce","phone":"+441614341011","twitter":"sluglettuce","address":"651 Wilmslow Rd.","lat":53.41891,"lng":-2.23183482,"neighborhood":"Didsbury East","city_fetched":"Glossop,UK","country":"United Kingdom","canonicalUrl":"https://foursquare.com/v/the-slug-and-lettuce/4c9d19070313370432895bd5","categoryId":"4bf58dd8d48988d116941735","category":"Bar","checkinsCount":383,"usersCount":251,"tipCount":4,"visitsCount":390,"url":"http://www.slugandlettuce.co.uk","tier":"","message":"","currency":"","rating":6.4},{"name":"The March Hare","phone":"+441614828638","address":"Mill Lane","lat":53.38302328780308,"lng":-2.185299162462335,"city_fetched":"Glossop,UK","state":"Stockport","country":"United Kingdom","canonicalUrl":"https://foursquare.com/v/the-march-hare/4b5f4faaf964a5205fb329e3","categoryId":"4bf58dd8d48988d11b941735","category":"Pub","checkinsCount":343,"usersCount":115,"tipCount":6,"visitsCount":373,"tier":"","message":"","currency":"","rating":6.4},{"name":"Butley Ash","phone":"+441625824930","address":"London Rd","lat":53.29720337729953,"lng":-2.1376428306774597,"city_fetched":"Glossop,UK","state":"Cheshire","country":"United Kingdom","canonicalUrl":"https://foursquare.com/v/butley-ash/4ceeae9e8604a1cdc45df9c0","categoryId":"4bf58dd8d48988d11b941735","category":"Pub","checkinsCount":88,"usersCount":65,"tipCount":1,"visitsCount":112,"tier":"","message":"","currency":"","rating":6.4},{"name":"The Rambler Inn","phone":"+441433670268","address":"Edale","lat":53.36546416123856,"lng":-1.8169069290161133,"city_fetched":"Glossop,UK","state":"Derbyshire","country":"United Kingdom","canonicalUrl":"https://foursquare.com/v/the-rambler-inn/4d22344e9822a0900fbbfeaf","categoryId":"4bf58dd8d48988d11b941735","category":"Pub","checkinsCount":214,"usersCount":163,"tipCount":8,"visitsCount":246,"url":"http://theramblerinn.com","tier":"","message":"","currency":"","rating":6.3},{"name":"The Smithy Fold (Wetherspoon)","phone":"+441457890070","twitter":"jdwtweet","address":"Howard Town Shopping Park","lat":53.44252954828391,"lng":-1.9489667837969624,"city_fetched":"Glossop,UK","state":"Derbyshire","country":"United Kingdom","canonicalUrl":"https://foursquare.com/v/the-smithy-fold-wetherspoon/51a32f8f498e45f58980198a","categoryId":"4bf58dd8d48988d11b941735","category":"Pub","checkinsCount":193,"usersCount":76,"tipCount":1,"visitsCount":210,"url":"http://www.jdwetherspoon.co.uk","tier":1,"message":"Cheap","currency":"£","rating":6.3},{"name":"The Old Bell Inn","address":"5 Huddersfield Road, Delph","lat":53.56434852253987,"lng":-2.0195442626389437,"city_fetched":"Glossop,UK","state":"Lancashire","country":"United Kingdom","canonicalUrl":"https://foursquare.com/v/the-old-bell-inn/4c012875de3376b0b356f9a4","categoryId":"4bf58dd8d48988d116941735","category":"Bar","checkinsCount":112,"usersCount":99,"tipCount":5,"visitsCount":162,"tier":"","message":"","currency":"","rating":6.3},{"name":"The Gateway (Wetherspoon)","phone":"+441614381700","twitter":"jdwtweet","address":"882 Wilmslow Rd.","lat":53.408025717748025,"lng":-2.2204184532165527,"neighborhood":"Didsbury East","city_fetched":"Glossop,UK","country":"United Kingdom","canonicalUrl":"https://foursquare.com/v/the-gateway-wetherspoon/4c49fe71959220a115c5850d","categoryId":"4bf58dd8d48988d11b941735","category":"Pub","checkinsCount":962,"usersCount":313,"tipCount":10,"visitsCount":1088,"url":"http://www.jdwetherspoon.co.uk","tier":"","message":"","currency":"","rating":6.3},{"name":"The Elizabethan","address":"Heaton Moor Rd","lat":53.42371548615222,"lng":-2.1818375713992504,"city_fetched":"Glossop,UK","state":"Stockport","country":"United Kingdom","canonicalUrl":"https://foursquare.com/v/the-elizabethan/4b0e6c90f964a520825723e3","categoryId":"4bf58dd8d48988d11b941735","category":"Pub","checkinsCount":1253,"usersCount":341,"tipCount":9,"visitsCount":1520,"tier":"","message":"","currency":"","rating":6.3},{"name":"The Font Fallowfield","phone":"+441612484820","twitter":"fontfallowfield","address":"236-238 Wilmslow Road","lat":53.443798183291115,"lng":-2.218819882884409,"city_fetched":"Glossop,UK","state":"Greater Manchester","country":"United Kingdom","canonicalUrl":"https://foursquare.com/fontfallowfield","categoryId":"4bf58dd8d48988d116941735","category":"Bar","checkinsCount":750,"usersCount":427,"tipCount":11,"visitsCount":778,"url":"http://thefontbar.wordpress.com/fallowfield/","tier":"","message":"","currency":"","rating":6.3},{"name":"Beefeater","phone":"+441614991944","twitter":"beefeatergrill","address":"Finney Ln","lat":53.370233376504515,"lng":-2.2379708290100098,"city_fetched":"Glossop,UK","state":"Greater Manchester","country":"United Kingdom","canonicalUrl":"https://foursquare.com/v/beefeater/4bc21377b492d13a42e7a660","categoryId":"4bf58dd8d48988d11b941735","category":"Pub","checkinsCount":156,"usersCount":122,"tipCount":5,"visitsCount":169,"url":"http://www.beefeater.co.uk","tier":"","message":"","currency":"","rating":6.2},{"name":"One Lounge Bar","phone":"+441614480101","twitter":"oneloungebar","address":"1 Lapwing Ln.","lat":53.42816067097555,"lng":-2.2409695386886597,"city_fetched":"Glossop,UK","country":"United Kingdom","canonicalUrl":"https://foursquare.com/v/one-lounge-bar/4ade0df6f964a520096e21e3","categoryId":"4bf58dd8d48988d11e941735","category":"Cocktail Bar","checkinsCount":220,"usersCount":125,"tipCount":7,"visitsCount":225,"url":"http://www.oneloungebar.co.uk","tier":"","message":"","currency":"","rating":6.2},{"name":"Hardy's Well","phone":"+441612570450","address":"257 Wilmslow Rd","lat":53.451688192263184,"lng":-2.2219539078147132,"neighborhood":"Rusholme","city_fetched":"Glossop,UK","country":"United Kingdom","canonicalUrl":"https://foursquare.com/v/hardys-well/4c095493bbc676b09b0448d5","categoryId":"4bf58dd8d48988d11b941735","category":"Pub","checkinsCount":533,"usersCount":216,"tipCount":10,"visitsCount":578,"tier":"","message":"","currency":"","rating":6.1},{"name":"The Queens Arms","lat":53.39610278606415,"lng":-2.203831,"city_fetched":"Glossop,UK","country":"United Kingdom","canonicalUrl":"https://foursquare.com/v/the-queens-arms/4b6de382f964a52001992ce3","categoryId":"4bf58dd8d48988d11b941735","category":"Pub","checkinsCount":95,"usersCount":51,"tipCount":3,"visitsCount":95,"tier":"","message":"","currency":"","rating":6},{"name":"256 Wilmslow Road","phone":"+441612490271","twitter":"256fallowfield","address":"256 Wilmslow Rd","lat":53.4428938942196,"lng":-2.21897626523593,"city_fetched":"Glossop,UK","state":"Greater Manchester","country":"United Kingdom","canonicalUrl":"https://foursquare.com/v/256-wilmslow-road/4e6cdae0a80957ae44e96c1f","categoryId":"4bf58dd8d48988d116941735","category":"Bar","checkinsCount":1007,"usersCount":412,"tipCount":11,"visitsCount":1105,"url":"http://www.256fallowfield.co.uk","tier":1,"message":"Cheap","currency":"£","rating":6},{"name":"Wählbar","phone":"+441616373736","address":"310 Wilmslow Rd","lat":53.44081728214865,"lng":-2.219380623096552,"city_fetched":"Glossop,UK","country":"United Kingdom","canonicalUrl":"https://foursquare.com/v/w%C3%A4hlbar/4fa43f90e4b0e7038a6afcb0","categoryId":"4bf58dd8d48988d116941735","category":"Bar","checkinsCount":200,"usersCount":96,"tipCount":3,"visitsCount":200,"tier":"","message":"","currency":"","rating":6},{"name":"The Ashlea","phone":"+441614280413","address":"14 Manchester Rd.","lat":53.39667330374513,"lng":-2.213253019643851,"city_fetched":"Glossop,UK","country":"United Kingdom","canonicalUrl":"https://foursquare.com/v/the-ashlea/4ade0df6f964a520066e21e3","categoryId":"4bf58dd8d48988d11b941735","category":"Pub","checkinsCount":336,"usersCount":131,"tipCount":6,"visitsCount":367,"url":"http://www.chefandbrewer.com/pub-food/ashlea-cheadle/pid-p1578","tier":"","message":"","currency":"","rating":5.9},{"name":"The Ash Tree (Wetherspoon)","phone":"+441613399670","address":"9-11 Wellington Rd.","lat":53.48980736077378,"lng":-2.092294692993164,"city_fetched":"Glossop,UK","state":"Lancashire","country":"United Kingdom","canonicalUrl":"https://foursquare.com/v/the-ash-tree-wetherspoon/4bed427391380f47b4999f18","categoryId":"4bf58dd8d48988d11b941735","category":"Pub","checkinsCount":504,"usersCount":162,"tipCount":6,"visitsCount":550,"url":"http://www.jdwetherspoon.co.uk","tier":"","message":"","currency":"","rating":5.9},{"name":"The Sheldon Arms","phone":"+441613712090","address":"Lord Sheldon Way","lat":53.481123347173856,"lng":-2.123929017716676,"neighborhood":"Audenshaw","city_fetched":"Glossop,UK","state":"Tameside","country":"United Kingdom","canonicalUrl":"https://foursquare.com/v/the-sheldon-arms/4bb9cb18cf2fc9b611c1a002","categoryId":"4bf58dd8d48988d11b941735","category":"Pub","checkinsCount":308,"usersCount":167,"tipCount":9,"visitsCount":393,"url":"http://www.sheldonarms.co.uk","tier":"","message":"","currency":"","rating":5.9},{"name":"Revolution","phone":"+441612564754","twitter":"revolutionbars","address":"311-313 Wilmslow Rd","lat":53.44207181126485,"lng":-2.218444347381592,"neighborhood":"Fallowfield","city_fetched":"Glossop,UK","country":"United Kingdom","canonicalUrl":"https://foursquare.com/v/revolution/4bbfb1deabf49521d31bbe93","categoryId":"4bf58dd8d48988d11e941735","category":"Cocktail Bar","checkinsCount":674,"usersCount":368,"tipCount":9,"visitsCount":695,"tier":"","message":"","currency":"","rating":5.8},{"name":"The Milson Rhodes (Wetherspoon)","phone":"+441614464100","address":"School Ln.","lat":53.4175892509025,"lng":-2.2301602363586426,"neighborhood":"Didsbury East","city_fetched":"Glossop,UK","country":"United Kingdom","canonicalUrl":"https://foursquare.com/v/the-milson-rhodes-wetherspoon/4bf5083dff90c9b6b4dd5528","categoryId":"4bf58dd8d48988d11b941735","category":"Pub","checkinsCount":911,"usersCount":332,"tipCount":10,"visitsCount":953,"url":"http://www.jdwetherspoon.co.uk","tier":"","message":"","currency":"","rating":5.8},{"name":"The Hinds Head","address":"Manchester Road","lat":53.42771948119755,"lng":-2.175980604189972,"city_fetched":"Glossop,UK","state":"Stockport","country":"United Kingdom","canonicalUrl":"https://foursquare.com/v/the-hinds-head/4be8470baecb76b0aaab5a80","categoryId":"4bf58dd8d48988d11b941735","category":"Pub","checkinsCount":531,"usersCount":119,"tipCount":3,"visitsCount":612,"tier":"","message":"","currency":"","rating":5.8},{"name":"Horse & Farrier","phone":"+441614282080","address":"144 Gatley Rd","lat":53.39293922,"lng":-2.23509395,"neighborhood":"Cheadle and Gatley","city_fetched":"Glossop,UK","state":"Cheshire","country":"United Kingdom","canonicalUrl":"https://foursquare.com/v/horse--farrier/4aef5162f964a52082d721e3","categoryId":"4bf58dd8d48988d11b941735","category":"Pub","checkinsCount":230,"usersCount":129,"tipCount":4,"visitsCount":320,"tier":"","message":"","currency":"","rating":5.7},{"name":"The Red Lion","phone":"+441614342441","address":"Wilmslow Rd","lat":53.431378122077476,"lng":-2.229152397604195,"city_fetched":"Glossop,UK","state":"Greater Manchester","country":"United Kingdom","canonicalUrl":"https://foursquare.com/v/the-red-lion/4b8052c2f964a520f56730e3","categoryId":"4bf58dd8d48988d11b941735","category":"Pub","checkinsCount":527,"usersCount":347,"tipCount":10,"visitsCount":664,"url":"http://www.redlionpubmanchester.co.uk","tier":"","message":"","currency":"","rating":5.7},{"name":"The Calverts Court (Wetherspoon)","phone":"+441614746750","address":"13 St Petersgate","lat":53.41032487106855,"lng":-2.1572256088256836,"city_fetched":"Glossop,UK","state":"Cheshire","country":"United Kingdom","canonicalUrl":"https://foursquare.com/v/the-calverts-court-wetherspoon/4c5afe0e04f9be9aaf27f360","categoryId":"4bf58dd8d48988d11b941735","category":"Pub","checkinsCount":780,"usersCount":325,"tipCount":9,"visitsCount":944,"url":"http://www.jdwetherspoon.co.uk","tier":"","message":"","currency":"","rating":5.6},{"name":"Town Cafe Bar","address":"Heaton Moor Road","lat":53.423637,"lng":-2.182344,"city_fetched":"Glossop,UK","state":"Greater Manchester","country":"United Kingdom","canonicalUrl":"https://foursquare.com/v/town-cafe-bar/4af2df3cf964a520e4e821e3","categoryId":"4bf58dd8d48988d116941735","category":"Bar","checkinsCount":187,"usersCount":83,"tipCount":12,"visitsCount":195,"tier":"","message":"","currency":"","rating":5.6},{"name":"Tiki M","phone":"+441614456800","address":"158 Burton Rd.","lat":53.42776752642471,"lng":-2.2415971755981445,"city_fetched":"Glossop,UK","country":"United Kingdom","canonicalUrl":"https://foursquare.com/v/tiki-m/4ade0df7f964a5200b6e21e3","categoryId":"4bf58dd8d48988d11e941735","category":"Cocktail Bar","checkinsCount":133,"usersCount":99,"tipCount":7,"visitsCount":133,"tier":"","message":"","currency":"","rating":5.5},{"name":"Bamford Arms (Beefeater)","phone":"+441614802968","twitter":"beefeater","address":"Buxton Rd","lat":53.396346049884464,"lng":-2.1496344367151172,"city_fetched":"Glossop,UK","state":"Cheshire","country":"United Kingdom","canonicalUrl":"https://foursquare.com/v/bamford-arms-beefeater/4c36063618e72d7f991714f5","categoryId":"4bf58dd8d48988d11b941735","category":"Pub","checkinsCount":370,"usersCount":193,"tipCount":9,"visitsCount":489,"url":"http://www.beefeater.co.uk/steak-restaurant/Cheshire/Bamford-Arms-Heavily.html","tier":"","message":"","currency":"","rating":5.4},{"name":"Holin Hall Hotel","address":"Jackson La","lat":53.29192053781801,"lng":-2.100344665584114,"city_fetched":"Glossop,UK","state":"Cheshire","country":"United Kingdom","canonicalUrl":"https://foursquare.com/v/holin-hall-hotel/4bd72de4304fce72792e33ab","categoryId":"4bf58dd8d48988d1d5941735","category":"Hotel Bar","checkinsCount":204,"usersCount":119,"tipCount":2,"visitsCount":235,"tier":"","message":"","currency":"","rating":5.4},{"name":"Brewers Fayre","phone":"+448701977173","address":"Alphagate Drive","lat":53.45565578372822,"lng":-2.1346092224121094,"city_fetched":"Glossop,UK","state":"Tameside","country":"United Kingdom","canonicalUrl":"https://foursquare.com/v/brewers-fayre/4c447536429a0f47bdbb481e","categoryId":"4bf58dd8d48988d11b941735","category":"Pub","checkinsCount":249,"usersCount":167,"tipCount":7,"visitsCount":313,"tier":"","message":"","currency":"","rating":5.3},{"name":"Mottram Wood","phone":"+441613687164","lat":53.45374604900759,"lng":-2.025309879892431,"city_fetched":"Glossop,UK","country":"United Kingdom","canonicalUrl":"https://foursquare.com/v/mottram-wood/4c6fd2b9d97fa143bb01f4ca","categoryId":"4bf58dd8d48988d116941735","category":"Bar","checkinsCount":183,"usersCount":95,"tipCount":5,"visitsCount":198,"tier":"","message":"","currency":"","rating":5.1},{"name":"The Greenfinch","phone":"+441614489397","address":"108 Palatine Rd.","lat":53.42517204189445,"lng":-2.2369837760925293,"city_fetched":"Glossop,UK","country":"United Kingdom","canonicalUrl":"https://foursquare.com/v/the-greenfinch/4ade0deaf964a520c76d21e3","categoryId":"4bf58dd8d48988d11b941735","category":"Pub","checkinsCount":512,"usersCount":252,"tipCount":9,"visitsCount":538,"tier":"","message":"","currency":"","rating":4.9}]