[{"name":"The Pelican","phone":"+441452307770","twitter":"pelicaninnglos","address":"4 St Marys St","lat":51.86911392211914,"lng":-2.246980667114258,"city_fetched":"Gloucester","state":"Gloucestershire","country":"United Kingdom","canonicalUrl":"https://foursquare.com/v/the-pelican/500029c8e4b0d0c03f87b1a6","category":"Pub","checkinsCount":137,"usersCount":52,"tipCount":7,"visitsCount":169,"url":"http://www.wyevalleybrewery.co.uk/pubs/the-pelican-gloucester.html","tier":"","message":"","currency":"","rating":8.6},{"name":"TANK","phone":"+441452690541","twitter":"tankgloucester","address":"12-14 Llanthony Rd","lat":51.8613360624105,"lng":-2.252994461198895,"city_fetched":"Gloucester","state":"Gloucestershire","country":"United Kingdom","canonicalUrl":"https://foursquare.com/v/tank/5516976a498e69a8231fe318","category":"Pub","checkinsCount":138,"usersCount":62,"tipCount":7,"visitsCount":146,"url":"http://tankgloucester.com","tier":"","message":"","currency":"","rating":8.4},{"name":"Brewhouse & Kitchen","phone":"+441452222965","twitter":"bkgloucester","address":"Unit R1","lat":51.86106137265412,"lng":-2.2538706586173562,"city_fetched":"Gloucester","state":"Gloucestershire","country":"United Kingdom","canonicalUrl":"https://foursquare.com/v/brewhouse--kitchen/55d77ca6498ef1af7f95ee32","category":"Gastropub","checkinsCount":75,"usersCount":55,"tipCount":2,"visitsCount":87,"url":"http://www.brewhouseandkitchen.com/gloucester","tier":2,"message":"Moderate","currency":"£","rating":8.1},{"name":"The Old Bell","phone":"+441452332993","address":"9a Southgate St","lat":51.864938032294326,"lng":-2.2462642192840576,"city_fetched":"Gloucester","country":"United Kingdom","canonicalUrl":"https://foursquare.com/v/the-old-bell/4bfeb51a261eb71323394ad7","category":"Cocktail Bar","checkinsCount":766,"usersCount":126,"tipCount":6,"visitsCount":783,"tier":"","message":"","currency":"","rating":8},{"name":"Gloucester Brewery","phone":"+441452690541","twitter":"gbrewery","address":"Foxes Kiln, West Quay","lat":51.86147418586334,"lng":-2.2524591970820786,"city_fetched":"Gloucester","state":"Gloucestershire","country":"United Kingdom","canonicalUrl":"https://foursquare.com/v/gloucester-brewery/5012dadbe4b0c3be96f1daf5","category":"Brewery","checkinsCount":70,"usersCount":34,"tipCount":2,"visitsCount":70,"url":"http://gloucesterbrewery.co.uk","tier":"","message":"","currency":"","rating":7.9},{"name":"Café René","phone":"+441452309340","twitter":"caferene","address":"31 Southgate St.","lat":51.86430200455516,"lng":-2.246553897857666,"city_fetched":"Gloucester","state":"Gloucestershire","country":"United Kingdom","canonicalUrl":"https://foursquare.com/v/caf%C3%A9-ren%C3%A9/4b9a39b2f964a520b0a535e3","category":"Pub","checkinsCount":956,"usersCount":329,"tipCount":12,"visitsCount":1058,"url":"http://www.caferene.co.uk","tier":"","message":"","currency":"","rating":7.8},{"name":"Robert Raikes's House","phone":"+441452526685","address":"36-38 Southgate St","lat":51.86440668473882,"lng":-2.247304916381836,"city_fetched":"Gloucester","country":"United Kingdom","canonicalUrl":"https://foursquare.com/v/robert-raikess-house/4c0ab9c8a1b32d7f22df99f0","category":"Pub","checkinsCount":195,"usersCount":129,"tipCount":6,"visitsCount":196,"tier":"","message":"","currency":"","rating":7.7},{"name":"The Dick Whittington / Black Cat","phone":"+441452502039","address":"100 Westgate St","lat":51.86712430905878,"lng":-2.2491931915283203,"city_fetched":"Gloucester","country":"United Kingdom","canonicalUrl":"https://foursquare.com/v/the-dick-whittington--black-cat/4dbaa0621e7251d53c7fe70c","category":"Pub","checkinsCount":181,"usersCount":86,"tipCount":5,"visitsCount":199,"url":"http://thedickwhittington.co.uk","tier":"","message":"","currency":"","rating":7.7},{"name":"The Brunswick | Snobs","phone":"+441452526261","address":"7 Park Rd","lat":51.86118185520172,"lng":-2.245427370071411,"city_fetched":"Gloucester","state":"Gloucestershire","country":"United Kingdom","canonicalUrl":"https://foursquare.com/v/the-brunswick--snobs/4c1a73fcb9f876b0bfaf7846","category":"Rock Club","checkinsCount":61,"usersCount":37,"tipCount":2,"visitsCount":62,"tier":"","message":"","currency":"","rating":7.7},{"name":"The Lord High Constable of England (Wetherspoon)","phone":"+441452302890","twitter":"jdwtweet","address":"Llanthony Warehouse","lat":51.861489239986405,"lng":-2.252930119260296,"city_fetched":"Gloucester","state":"Gloucestershire","country":"United Kingdom","canonicalUrl":"https://foursquare.com/v/the-lord-high-constable-of-england-wetherspoon/553b448f498ee3ac128ec9dc","category":"Pub","checkinsCount":231,"usersCount":104,"tipCount":6,"visitsCount":262,"url":"http://www.jdwetherspoon.co.uk/home/pubs/the-lord-high-constable-of-england","tier":"","message":"","currency":"","rating":7.3},{"name":"The New Inn","phone":"+441452522177","address":"16 Northgate St","lat":51.86556742589155,"lng":-2.2450947761535645,"city_fetched":"Gloucester","state":"Gloucestershire","country":"United Kingdom","canonicalUrl":"https://foursquare.com/v/the-new-inn/4bc783ca93bdeee1647837ae","category":"Pub","checkinsCount":467,"usersCount":215,"tipCount":12,"visitsCount":487,"tier":"","message":"","currency":"","rating":7.2},{"name":"T.G.I. Friday's","phone":"+443448804366","twitter":"tgifridaysuk","address":"Unit R7 Gloucester Quays","lat":51.8611543640844,"lng":-2.2522204243673074,"city_fetched":"Gloucester","state":"Gloucestershire","country":"United Kingdom","canonicalUrl":"https://foursquare.com/v/tgi-fridays/530dbc4a498e5456a8ecc311","category":"American Restaurant","checkinsCount":134,"usersCount":89,"tipCount":3,"visitsCount":141,"url":"http://www.tgifridays.co.uk","tier":"","message":"","currency":"","rating":7.2},{"name":"Teague's Bar (The White Hart)","phone":"+441452421733","twitter":"teaguesbar","address":"48 Kingsholm Rd.","lat":51.87191154647421,"lng":-2.241430080823706,"city_fetched":"Gloucester","state":"Gloucestershire","country":"United Kingdom","canonicalUrl":"https://foursquare.com/v/teagues-bar-the-white-hart/4badfdc4f964a520a8783be3","category":"Bar","checkinsCount":194,"usersCount":64,"tipCount":3,"visitsCount":196,"tier":"","message":"","currency":"","rating":7},{"name":"Portivo Lounge","phone":"+441452300881","twitter":"portivolounge","address":"Unit 106-107 Gloucester Quays","lat":51.8612012405426,"lng":-2.2525620460510254,"city_fetched":"Gloucester","country":"United Kingdom","canonicalUrl":"https://foursquare.com/v/portivo-lounge/51dda667498e5a06c08ac538","category":"Lounge","checkinsCount":331,"usersCount":155,"tipCount":13,"visitsCount":357,"url":"http://www.thelounges.co.uk/portivo-lounge/","tier":"","message":"","currency":"","rating":6.9},{"name":"Foster's On The Docks","phone":"+441452382157","twitter":"drfosterspub","address":"Kimberley Warehouse","lat":51.86362621522861,"lng":-2.2514891624450684,"city_fetched":"Gloucester","country":"United Kingdom","canonicalUrl":"https://foursquare.com/v/fosters-on-the-docks/4c4c62079c8d2d7f6903586c","category":"English Restaurant","checkinsCount":360,"usersCount":174,"tipCount":6,"visitsCount":389,"url":"http://www.drfosterspub.com","tier":"","message":"","currency":"","rating":6.9},{"name":"The Fountain Inn","phone":"+441452522562","address":"53 Westgate Street","lat":51.86613056006634,"lng":-2.2480344772338867,"city_fetched":"Gloucester","state":"Gloucestershire","country":"United Kingdom","canonicalUrl":"https://foursquare.com/v/the-fountain-inn/4bd1ecd9462cb7133732db07","category":"Pub","checkinsCount":192,"usersCount":126,"tipCount":3,"visitsCount":199,"tier":"","message":"","currency":"","rating":6.8},{"name":"Longlevens RFC","phone":"+441452306880","address":"Longford Ln","lat":51.87903433818993,"lng":-2.221190929412842,"city_fetched":"Gloucester","country":"United Kingdom","canonicalUrl":"https://foursquare.com/v/longlevens-rfc/4d5c50176ab42c0f08000245","category":"Sports Bar","checkinsCount":524,"usersCount":41,"tipCount":3,"visitsCount":583,"tier":"","message":"","currency":"","rating":6.5},{"name":"The Turmut Hoer","phone":"+441452627918","address":"Mead Rd","lat":51.84633050520709,"lng":-2.199089527130127,"city_fetched":"Gloucester","state":"Gloucestershire","country":"United Kingdom","canonicalUrl":"https://foursquare.com/v/the-turmut-hoer/4bfc1c922fcf95215eba35b4","category":"Pub","checkinsCount":308,"usersCount":102,"tipCount":3,"visitsCount":336,"tier":"","message":"","currency":"","rating":6.4},{"name":"The High Orchard (Marstons)","phone":"+441452306357","twitter":"marstonspubs","address":"St Ann Way","lat":51.85953150985473,"lng":-2.258913516998291,"city_fetched":"Gloucester","country":"United Kingdom","canonicalUrl":"https://foursquare.com/v/the-high-orchard-marstons/4fe33061e4b0179c630ceb63","category":"Bar","checkinsCount":181,"usersCount":101,"tipCount":7,"visitsCount":189,"url":"http://www.highorchardpubgloucesterquays.co.uk","tier":"","message":"","currency":"","rating":6.2},{"name":"The Aviator","address":"Gloucestershire Airport","lat":51.893804,"lng":-2.156875,"city_fetched":"Gloucester","country":"United Kingdom","canonicalUrl":"https://foursquare.com/v/the-aviator/4c0932cd6071a5935678dd32","category":"Pub","checkinsCount":138,"usersCount":89,"tipCount":3,"visitsCount":141,"tier":"","message":"","currency":"","rating":6.2},{"name":"King Edward VII","phone":"+441452381273","twitter":"emberpubdining","address":"47 Old Cheltenham Rd, Longlevens","lat":51.87555792986058,"lng":-2.2092508947505496,"city_fetched":"Gloucester","state":"Gloucestershire","country":"United Kingdom","canonicalUrl":"https://foursquare.com/v/king-edward-vii/4b818db1f964a52093ae30e3","category":"Pub","checkinsCount":194,"usersCount":80,"tipCount":4,"visitsCount":232,"url":"http://www.emberpubanddining.co.uk/thekingedwardviigloucester/","tier":"","message":"","currency":"","rating":6.1},{"name":"Kings Head (Greene King)","phone":"+441452616042","address":"B4073 Upton Hill","lat":51.830087,"lng":-2.205363,"city_fetched":"Gloucester","country":"United Kingdom","canonicalUrl":"https://foursquare.com/v/kings-head-greene-king/4c61aab2de1b2d7ff96ee070","category":"Pub","checkinsCount":381,"usersCount":77,"tipCount":5,"visitsCount":413,"url":"http://gkpubs.co.uk/pubs-in-upton-st-leonards/kings-head-pub","tier":"","message":"","currency":"","rating":6},{"name":"The Abbey","phone":"+441452304357","address":"53 Northgate St","lat":51.866706937156096,"lng":-2.2442686557769775,"city_fetched":"Gloucester","country":"United Kingdom","canonicalUrl":"https://foursquare.com/v/the-abbey/506d91e4c84c0746cd0c1e32","category":"Pub","checkinsCount":204,"usersCount":89,"tipCount":4,"visitsCount":234,"tier":"","message":"","currency":"","rating":5.9},{"name":"Wheatstone Inn","phone":"+441452634360","address":"Centre Seven","lat":51.868616,"lng":-2.19718,"city_fetched":"Gloucester","country":"United Kingdom","canonicalUrl":"https://foursquare.com/v/wheatstone-inn/4ca39a9a1ee76dcbb0aefadd","category":"Gastropub","checkinsCount":294,"usersCount":142,"tipCount":7,"visitsCount":316,"tier":"","message":"","currency":"","rating":5.9},{"name":"The Water Poet (Wetherspoon)","phone":"+441452783530","address":"61-63 Eastgate St.","lat":51.86397073654599,"lng":-2.2426486015319824,"city_fetched":"Gloucester","state":"Gloucestershire","country":"United Kingdom","canonicalUrl":"https://foursquare.com/v/the-water-poet-wetherspoon/4c87ab0c821e9eb0fecc8d89","category":"Pub","checkinsCount":889,"usersCount":267,"tipCount":8,"visitsCount":962,"url":"http://www.jdwetherspoon.co.uk","tier":1,"message":"Cheap","currency":"£","rating":5.8},{"name":"The Barn Owl (Marston's)","address":"Thatcham Ave","lat":51.82078793311891,"lng":-2.2684970259452926,"city_fetched":"Gloucester","country":"United Kingdom","canonicalUrl":"https://foursquare.com/v/the-barn-owl-marstons/4f218862e4b028522e6b624e","category":"Pub","checkinsCount":181,"usersCount":95,"tipCount":4,"visitsCount":209,"tier":"","message":"","currency":"","rating":5.8},{"name":"The Westgate Bar & Lounge","phone":"+441452529539","address":"56 Westgate St","lat":51.866492,"lng":-2.247805,"city_fetched":"Gloucester","country":"United Kingdom","canonicalUrl":"https://foursquare.com/v/the-westgate-bar--lounge/4c14063d77cea593fbf1cf60","category":"Gay Bar","checkinsCount":276,"usersCount":92,"tipCount":7,"visitsCount":276,"tier":"","message":"","currency":"","rating":5.7},{"name":"The Regal (Wetherspoon)","phone":"+441452332344","address":"33 St Aldate St.","lat":51.86581255575179,"lng":-2.242412567138672,"city_fetched":"Gloucester","state":"Gloucestershire","country":"United Kingdom","canonicalUrl":"https://foursquare.com/v/the-regal-wetherspoon/4c87ab0b821e9eb0fdcc8d89","category":"Pub","checkinsCount":1210,"usersCount":465,"tipCount":13,"visitsCount":1318,"url":"http://www.jdwetherspoon.co.uk","tier":1,"message":"Cheap","currency":"£","rating":5.6},{"name":"The Oakwood (Table Table)","phone":"+441452730266","address":"Tewkesbury Rd","lat":51.89441469,"lng":-2.230347990989685,"city_fetched":"Gloucester","state":"Gloucestershire","country":"United Kingdom","canonicalUrl":"https://foursquare.com/v/the-oakwood-table-table/4b927f60f964a52064fe33e3","category":"Gastropub","checkinsCount":98,"usersCount":76,"tipCount":5,"visitsCount":127,"tier":"","message":"","currency":"","rating":5.4},{"name":"Fever","phone":"+441452500370","address":"83 Eastgate St","lat":51.86338769892472,"lng":-2.241940498352051,"city_fetched":"Gloucester","state":"Gloucestershire","country":"United Kingdom","canonicalUrl":"https://foursquare.com/v/fever/4c2e4f047cc0c9b691d0e99a","category":"Nightclub","checkinsCount":251,"usersCount":101,"tipCount":6,"visitsCount":252,"tier":"","message":"","currency":"","rating":5.4},{"name":"Whittle Inn (Brewers Fayre)","phone":"+441452623805","twitter":"brewersfayre","address":"Gloucester Business Park","lat":51.84739096989607,"lng":-2.171602249145508,"city_fetched":"Gloucester","state":"Gloucestershire","country":"United Kingdom","canonicalUrl":"https://foursquare.com/v/whittle-inn-brewers-fayre/4bae60eaf964a52086aa3be3","category":"Pub","checkinsCount":313,"usersCount":137,"tipCount":9,"visitsCount":332,"url":"http://www.brewersfayre.co.uk/pub-restaurant/Gloucestershire/Whittle-Inn-Brockworth.html","tier":"","message":"","currency":"","rating":5.3},{"name":"Longford Inn (Beefeater)","phone":"+441452523519","twitter":"beefeatergrill","address":"55 Tewkesbury Rd","lat":51.8810609812231,"lng":-2.2398805618286133,"city_fetched":"Gloucester","state":"Gloucestershire","country":"United Kingdom","canonicalUrl":"https://foursquare.com/v/longford-inn-beefeater/4c0019b3369476b075dc8e1f","category":"Pub","checkinsCount":277,"usersCount":156,"tipCount":9,"visitsCount":320,"url":"http://www.beefeater.co.uk","tier":"","message":"","currency":"","rating":5.3},{"name":"Tenpin","phone":"+448715501010","address":"Centre Severn","lat":51.866846061553986,"lng":-2.197909355163574,"city_fetched":"Gloucester","country":"United Kingdom","canonicalUrl":"https://foursquare.com/v/tenpin/4b6c7bd7f964a520ce3d2ce3","category":"Bowling Alley","checkinsCount":436,"usersCount":289,"tipCount":8,"visitsCount":450,"tier":"","message":"","currency":"","rating":5.2}]