[{"name":"The Falcon","phone":"+441480457416","address":"10 Market Hill","lat":52.33033494472553,"lng":-0.18471122108503676,"neighborhood":"Cambridgeshire","city_fetched":"Godmanchester","state":"Cambridgeshire","country":"United Kingdom","canonicalUrl":"https://foursquare.com/v/the-falcon/54ee24ab498e00ad2f090565","category":"Pub","checkinsCount":92,"usersCount":37,"tipCount":4,"visitsCount":119,"url":"http://falconhuntingdon.co.uk","tier":"","message":"","currency":"","rating":7.9},{"name":"The Old Bridge Hotel","phone":"+441480424300","address":"1 High St.","lat":52.3276872,"lng":-0.178531,"city_fetched":"Godmanchester","state":"Cambridgeshire","country":"United Kingdom","canonicalUrl":"https://foursquare.com/v/the-old-bridge-hotel/4b918345f964a5200dc233e3","category":"Hotel","checkinsCount":569,"usersCount":315,"tipCount":16,"visitsCount":756,"url":"http://www.huntsbridge.com/index.php?pageid=1","tier":"","message":"","currency":"","rating":7.2},{"name":"The Exhibition Pub & Restaurant","phone":"+441480459134","twitter":"exhibitionpub","address":"London Rd","lat":52.315926555819566,"lng":-0.17089426517486572,"city_fetched":"Godmanchester","state":"Cambridgeshire","country":"United Kingdom","canonicalUrl":"https://foursquare.com/v/the-exhibition-pub--restaurant/4bd84e3b0b779c74d6c906a0","category":"Restaurant","checkinsCount":192,"usersCount":114,"tipCount":9,"visitsCount":291,"url":"http://www.theexhibitiongodmanchester.com","tier":2,"message":"Moderate","currency":"Â£","rating":7.2},{"name":"The White Hart","address":"Cambridge Road","lat":52.318945085000614,"lng":-0.16939942743386405,"city_fetched":"Godmanchester","state":"Cambridgeshire","country":"United Kingdom","canonicalUrl":"https://foursquare.com/v/the-white-hart/4bec611f75b2c9b67467438d","category":"Pub","checkinsCount":142,"usersCount":115,"tipCount":6,"visitsCount":233,"tier":"","message":"","currency":"","rating":6.9},{"name":"George Hotel","phone":"+441480432444","address":"George St","lat":52.33093995406862,"lng":-0.1853621006011963,"city_fetched":"Godmanchester","state":"Cambridgeshire","country":"United Kingdom","canonicalUrl":"https://foursquare.com/v/george-hotel/4be84903c5220f477f8ca9ca","category":"Hotel Bar","checkinsCount":286,"usersCount":157,"tipCount":12,"visitsCount":314,"tier":"","message":"","currency":"","rating":5.3}]