[{"name":"Leopold Tavern","phone":"+442392829748","twitter":"leopoldtavern","address":"154 Albert Rd","lat":50.786728,"lng":-1.074345,"city_fetched":"Gosport,UK","state":"Hampshire","country":"United Kingdom","canonicalUrl":"https://foursquare.com/v/leopold-tavern/4c54674f72cf0f4781c081d4","categoryId":"4bf58dd8d48988d11b941735","category":"Pub","checkinsCount":843,"usersCount":224,"tipCount":9,"visitsCount":1067,"url":"http://www.leopoldtavern.co.uk","tier":"","message":"","currency":"","rating":9},{"name":"Hole In The Wall","phone":"+442392298085","twitter":"hitwpompey","address":"36 Great Southsea St","lat":50.789918,"lng":-1.093033,"city_fetched":"Gosport,UK","state":"Hampshire","country":"United Kingdom","canonicalUrl":"https://foursquare.com/v/hole-in-the-wall/4bb77e863db7b713310a209a","categoryId":"4bf58dd8d48988d11b941735","category":"Pub","checkinsCount":1040,"usersCount":210,"tipCount":11,"visitsCount":1177,"url":"http://www.theholeinthewallpub.co.uk","tier":"","message":"","currency":"","rating":8.7},{"name":"Meat & Barrel","phone":"+442392176291","twitter":"meatandbarrel","address":"112 Palmerston Rd","lat":50.78346353802472,"lng":-1.0888588428497314,"city_fetched":"Gosport,UK","state":"Hampshire","country":"United Kingdom","canonicalUrl":"https://foursquare.com/v/meat--barrel/548466ea498ef51e69c2ce6d","categoryId":"4bf58dd8d48988d116941735","category":"Bar","checkinsCount":242,"usersCount":138,"tipCount":3,"visitsCount":332,"url":"http://www.meatandbarrel.co.uk","tier":"","message":"","currency":"","rating":8.2},{"name":"The Old Fort","phone":"+441983612363","address":"The Esplanade","lat":50.72145760059357,"lng":-1.109799,"city_fetched":"Gosport,UK","state":"Isle of Wight","country":"United Kingdom","canonicalUrl":"https://foursquare.com/v/the-old-fort/4c6145acde6920a16ad79764","categoryId":"4bf58dd8d48988d11b941735","category":"Pub","checkinsCount":197,"usersCount":106,"tipCount":4,"visitsCount":227,"url":"http://www.oldfortbarcafe.co.uk","tier":"","message":"","currency":"","rating":8.1},{"name":"The Belle Isle","phone":"+442392820515","twitter":"thebelleisle","address":"39 Osborne Rd","lat":50.78521021496314,"lng":-1.0916376113891602,"city_fetched":"Gosport,UK","state":"Hampshire","country":"United Kingdom","canonicalUrl":"https://foursquare.com/v/the-belle-isle/4c0aabc6340720a1fbdd8693","categoryId":"4bf58dd8d48988d11b941735","category":"Pub","checkinsCount":1427,"usersCount":418,"tipCount":25,"visitsCount":1549,"url":"http://www.thebelleisle.co.uk","tier":"","message":"","currency":"","rating":7.9},{"name":"The Wine Vaults","phone":"+442392864712","twitter":"wine_vaults","address":"41-47 Albert Rd","lat":50.787339,"lng":-1.081104,"city_fetched":"Gosport,UK","state":"Hampshire","country":"United Kingdom","canonicalUrl":"https://foursquare.com/wine_vaults","categoryId":"4bf58dd8d48988d11b941735","category":"Pub","checkinsCount":1570,"usersCount":457,"tipCount":22,"visitsCount":1768,"url":"http://wine-vaults-southsea.co.uk","tier":"","message":"","currency":"","rating":7.9},{"name":"The Spice Island Inn","phone":"+442392870543","address":"1 Bath Sq","lat":50.79252605,"lng":-1.1090773344039917,"neighborhood":"Old Portsmouth","city_fetched":"Gosport,UK","state":"Hampshire","country":"United Kingdom","canonicalUrl":"https://foursquare.com/v/the-spice-island-inn/4bf7e8255efe2d7f50af6934","categoryId":"4bf58dd8d48988d11b941735","category":"Pub","checkinsCount":561,"usersCount":408,"tipCount":6,"visitsCount":576,"url":"http://www.spiceisland-portsmouth.co.uk","tier":"","message":"","currency":"","rating":7.8},{"name":"Florence Arms","twitter":"flosouthsea","address":"18-20 Florence Road","lat":50.781416,"lng":-1.082543,"city_fetched":"Gosport,UK","state":"Hampshire","country":"United Kingdom","canonicalUrl":"https://foursquare.com/v/florence-arms/4b674535f964a520f5442be3","categoryId":"4bf58dd8d48988d11b941735","category":"Pub","checkinsCount":164,"usersCount":93,"tipCount":5,"visitsCount":170,"url":"http://www.florencearmssouthsea.co.uk","tier":"","message":"","currency":"","rating":7.8},{"name":"Little Johnny Russells","phone":"+442392826502","twitter":"johnnyrussells","address":"12/14 Albert Road","lat":50.78749501046727,"lng":-1.0816095437610564,"city_fetched":"Gosport,UK","state":"Hampshire","country":"United Kingdom","canonicalUrl":"https://foursquare.com/v/little-johnny-russells/4aeaf93bf964a52000bd21e3","categoryId":"4bf58dd8d48988d11b941735","category":"Pub","checkinsCount":1039,"usersCount":289,"tipCount":12,"visitsCount":1045,"url":"http://www.littlejohnnyrussells.com","tier":2,"message":"Moderate","currency":"£","rating":7.7},{"name":"The One Eyed Dog","phone":"+448719511000","address":"177-185 Elm Grove","lat":50.789335306170194,"lng":-1.0827758013607678,"city_fetched":"Gosport,UK","state":"Hampshire","country":"United Kingdom","canonicalUrl":"https://foursquare.com/v/the-one-eyed-dog/4ba7d4f3f964a5204fb739e3","categoryId":"4bf58dd8d48988d11b941735","category":"Pub","checkinsCount":853,"usersCount":402,"tipCount":10,"visitsCount":994,"tier":"","message":"","currency":"","rating":7.7},{"name":"The Wave Maiden","twitter":"thewavemaiden","address":"36 Osborne Road","lat":50.78502655029297,"lng":-1.0915011167526245,"city_fetched":"Gosport,UK","state":"Hampshire","country":"United Kingdom","canonicalUrl":"https://foursquare.com/v/the-wave-maiden/547776d0498ee690adb8b5db","categoryId":"4bf58dd8d48988d116941735","category":"Bar","checkinsCount":153,"usersCount":42,"tipCount":2,"visitsCount":163,"url":"http://www.thewavemaiden.co.uk","tier":"","message":"","currency":"","rating":7.6},{"name":"The Fareham","phone":"+441329220686","address":"54 Trinity St.","lat":50.854089118320424,"lng":-1.1833691596984863,"city_fetched":"Gosport,UK","state":"Hampshire","country":"United Kingdom","canonicalUrl":"https://foursquare.com/v/the-fareham/4bb7bca41261d13a6bcbe798","categoryId":"4bf58dd8d48988d11b941735","category":"Pub","checkinsCount":218,"usersCount":74,"tipCount":4,"visitsCount":276,"url":"http://www.thefarehampub.co.uk","tier":"","message":"","currency":"","rating":7.5},{"name":"The Still & West","phone":"+442392821567","twitter":"stillandwest","address":"Bath Sq","lat":50.79221710488807,"lng":-1.109449927555302,"city_fetched":"Gosport,UK","state":"Hampshire","country":"United Kingdom","canonicalUrl":"https://foursquare.com/v/the-still--west/4cc83a16fa03224ba71543ef","categoryId":"4bf58dd8d48988d11b941735","category":"Pub","checkinsCount":583,"usersCount":505,"tipCount":20,"visitsCount":681,"url":"http://stillandwest.co.uk","tier":"","message":"","currency":"","rating":7.4},{"name":"The Rose in June","phone":"+442392824191","twitter":"theroseinjune","address":"102 Milton Rd","lat":50.805011860730545,"lng":-1.064577619103485,"neighborhood":"Copnor","city_fetched":"Gosport,UK","state":"Hampshire","country":"United Kingdom","canonicalUrl":"https://foursquare.com/v/the-rose-in-june/4dce79377d8b975f18cea917","categoryId":"4bf58dd8d48988d11b941735","category":"Pub","checkinsCount":140,"usersCount":55,"tipCount":2,"visitsCount":186,"url":"http://www.theroseinjune.co.uk","tier":"","message":"","currency":"","rating":7.4},{"name":"The Fleet","phone":"+442392830150","address":"1, King Henry I Street","lat":50.79707716914659,"lng":-1.093305304617197,"neighborhood":"Guildhall","city_fetched":"Gosport,UK","state":"Hampshire","country":"United Kingdom","canonicalUrl":"https://foursquare.com/v/the-fleet/4c13764da9c220a182c0559d","categoryId":"4bf58dd8d48988d11b941735","category":"Pub","checkinsCount":1139,"usersCount":333,"tipCount":6,"visitsCount":1152,"url":"http://www.fleetportsmouth.co.uk","tier":"","message":"","currency":"","rating":7.3},{"name":"The Astoria","lat":50.7959067,"lng":-1.0933487,"neighborhood":"Guildhall","city_fetched":"Gosport,UK","state":"Hampshire","country":"United Kingdom","canonicalUrl":"https://foursquare.com/v/the-astoria/51fc655a698f0e374ce9ca49","categoryId":"4bf58dd8d48988d11f941735","category":"Nightclub","checkinsCount":175,"usersCount":86,"tipCount":0,"visitsCount":181,"tier":"","message":"","currency":"","rating":7.3},{"name":"The Bun Penny","lat":50.804119,"lng":-1.200226,"city_fetched":"Gosport,UK","state":"Hampshire","country":"United Kingdom","canonicalUrl":"https://foursquare.com/v/the-bun-penny/4c095086340720a1fb938493","categoryId":"4bf58dd8d48988d11b941735","category":"Pub","checkinsCount":308,"usersCount":84,"tipCount":5,"visitsCount":349,"tier":"","message":"","currency":"","rating":7.3},{"name":"The Jolly Sailor","phone":"+442392295195","address":"54 Clarence Parade","lat":50.781619160084446,"lng":-1.085219,"city_fetched":"Gosport,UK","state":"Hampshire","country":"United Kingdom","canonicalUrl":"https://foursquare.com/v/the-jolly-sailor/4d849ae261676dcba58275e4","categoryId":"4bf58dd8d48988d11b941735","category":"Pub","checkinsCount":238,"usersCount":150,"tipCount":4,"visitsCount":266,"url":"http://www.thejollysailorsouthsea.co.uk","tier":"","message":"","currency":"","rating":7.3},{"name":"The Bridge Tavern","phone":"+442392752992","address":"54 East St","lat":50.79175,"lng":-1.1059069633483887,"city_fetched":"Gosport,UK","state":"Hampshire","country":"United Kingdom","canonicalUrl":"https://foursquare.com/v/the-bridge-tavern/4c644b562a58c9b6d8c43461","categoryId":"4bf58dd8d48988d11b941735","category":"Pub","checkinsCount":275,"usersCount":189,"tipCount":7,"visitsCount":303,"url":"http://http://www.bridge-tavern-portsmouth.co.uk/","tier":"","message":"","currency":"","rating":7.1},{"name":"The Barley Mow","phone":"+442392823492","twitter":"barleymowssea","address":"39 Castle Road","lat":50.78949857424351,"lng":-1.092543618000437,"city_fetched":"Gosport,UK","state":"Hampshire","country":"United Kingdom","canonicalUrl":"https://foursquare.com/v/the-barley-mow/4c83edc32f1c236a0a584743","categoryId":"4bf58dd8d48988d11b941735","category":"Pub","checkinsCount":302,"usersCount":65,"tipCount":7,"visitsCount":308,"url":"http://www.barleymowsouthsea.com","tier":"","message":"","currency":"","rating":7},{"name":"The Sir John Baker (Wetherspoon)","phone":"+442392627960","address":"80 London Rd","lat":50.815455,"lng":-1.079368,"city_fetched":"Gosport,UK","state":"Hampshire","country":"United Kingdom","canonicalUrl":"https://foursquare.com/v/the-sir-john-baker-wetherspoon/4c87abcb821e9eb0accd8d89","categoryId":"4bf58dd8d48988d11b941735","category":"Pub","checkinsCount":2186,"usersCount":252,"tipCount":9,"visitsCount":2450,"url":"http://www.jdwetherspoon.co.uk","tier":"","message":"","currency":"","rating":6.9},{"name":"Cams Mill","phone":"+441329287506","twitter":"camsmillfareham","address":"Cams Hall Estate","lat":50.85227319274461,"lng":-1.1659394286323166,"city_fetched":"Gosport,UK","state":"Hampshire","country":"United Kingdom","canonicalUrl":"https://foursquare.com/v/cams-mill/528a297a11d24e4d2aefbdf7","categoryId":"4bf58dd8d48988d11b941735","category":"Pub","checkinsCount":226,"usersCount":123,"tipCount":4,"visitsCount":322,"url":"http://www.camsmill.co.uk","tier":"","message":"","currency":"","rating":6.9},{"name":"POPWORLD","address":"1 King Henry 1 St.","lat":50.797151371838325,"lng":-1.0933298013840091,"neighborhood":"Guildhall","city_fetched":"Gosport,UK","state":"Hampshire","country":"United Kingdom","canonicalUrl":"https://foursquare.com/v/popworld/510c8842e4b03a116e38f177","categoryId":"4bf58dd8d48988d11f941735","category":"Nightclub","checkinsCount":138,"usersCount":75,"tipCount":1,"visitsCount":140,"tier":"","message":"","currency":"","rating":6.9},{"name":"Bottega","phone":"+441983567047","address":"Union St","lat":50.73114351926704,"lng":-1.161912904944531,"city_fetched":"Gosport,UK","state":"Isle of Wight","country":"United Kingdom","canonicalUrl":"https://foursquare.com/v/bottega/4c15ff9e7f7f2d7fef39e368","categoryId":"4bf58dd8d48988d11e941735","category":"Cocktail Bar","checkinsCount":133,"usersCount":108,"tipCount":1,"visitsCount":134,"url":"http://www.bottegabar.co.uk","tier":"","message":"","currency":"","rating":6.9},{"name":"The Atrium","phone":"+442392356255","twitter":"atriumsouthsea","address":"Victoria Rd. S","lat":50.78856897871015,"lng":-1.0823609035953028,"city_fetched":"Gosport,UK","state":"Hampshire","country":"United Kingdom","canonicalUrl":"https://foursquare.com/v/the-atrium/4bc37a8174a9a5937d9bd4f6","categoryId":"4bf58dd8d48988d11e941735","category":"Cocktail Bar","checkinsCount":127,"usersCount":65,"tipCount":3,"visitsCount":127,"tier":"","message":"","currency":"","rating":6.8},{"name":"Hong Kong Charlie's","address":"Palmerston Rd.","lat":50.78429109795098,"lng":-1.0887891054153442,"city_fetched":"Gosport,UK","state":"Hampshire","country":"United Kingdom","canonicalUrl":"https://foursquare.com/v/hong-kong-charlies/4bc8e15ccc8cd13ac47cbacf","categoryId":"4bf58dd8d48988d116941735","category":"Bar","checkinsCount":255,"usersCount":145,"tipCount":5,"visitsCount":255,"tier":"","message":"","currency":"","rating":6.8},{"name":"The Pelham Arms","phone":"+442392691084","address":"78 Chichester Road","lat":50.81367611441746,"lng":-1.0763846096218597,"neighborhood":"Copnor","city_fetched":"Gosport,UK","state":"Hampshire","country":"United Kingdom","canonicalUrl":"https://foursquare.com/v/the-pelham-arms/4cdaca5c930af04d89f98697","categoryId":"4bf58dd8d48988d11b941735","category":"Pub","checkinsCount":149,"usersCount":52,"tipCount":5,"visitsCount":180,"tier":"","message":"","currency":"","rating":6.8},{"name":"The Deco","address":"Elm Grove","lat":50.78938829,"lng":-1.0842083999999999,"city_fetched":"Gosport,UK","state":"Hampshire","country":"United Kingdom","canonicalUrl":"https://foursquare.com/v/the-deco/4b79c261f964a5201d102fe3","categoryId":"4bf58dd8d48988d11b941735","category":"Pub","checkinsCount":900,"usersCount":216,"tipCount":14,"visitsCount":947,"tier":"","message":"","currency":"","rating":6.8},{"name":"Drift","phone":"+442392779839","address":"70-92 Palmerston Rd","lat":50.784454,"lng":-1.0890643,"city_fetched":"Gosport,UK","state":"Hampshire","country":"United Kingdom","canonicalUrl":"https://foursquare.com/v/drift/4b64b11cf964a520d1c82ae3","categoryId":"4bf58dd8d48988d116941735","category":"Bar","checkinsCount":352,"usersCount":215,"tipCount":12,"visitsCount":418,"url":"http://www.drift-bar.co.uk","tier":"","message":"","currency":"","rating":6.8},{"name":"The Old Customs House","phone":"+442392832333","twitter":"oldcustomshouse","address":"Vernon Building","lat":50.79494970998102,"lng":-1.1064863204956055,"neighborhood":"Gunwharf Quays","city_fetched":"Gosport,UK","state":"Hampshire","country":"United Kingdom","canonicalUrl":"https://foursquare.com/v/the-old-customs-house/4b6dc02cf964a520568c2ce3","categoryId":"4bf58dd8d48988d11b941735","category":"Pub","checkinsCount":1165,"usersCount":717,"tipCount":23,"visitsCount":1201,"url":"http://www.theoldcustomshouse.com","tier":"","message":"","currency":"","rating":6.7},{"name":"Mozzarella Joes","phone":"+442392295004","twitter":"mozzarellajoes","address":"Clarence Esplanade","lat":50.783419,"lng":-1.0977476835250854,"neighborhood":"Southsea","city_fetched":"Gosport,UK","state":"Hampshire","country":"United Kingdom","canonicalUrl":"https://foursquare.com/v/mozzarella-joes/4c00108637850f477faa973f","categoryId":"52e81612bcbc57f1066b7a0d","category":"Beach Bar","checkinsCount":332,"usersCount":252,"tipCount":17,"visitsCount":338,"url":"http://www.mozzarellajoes.co.uk","tier":"","message":"","currency":"","rating":6.7},{"name":"The First Post (Wetherspoon)","phone":"+442392210331","address":"42 High St.","lat":50.84476166376624,"lng":-1.067364284470193,"neighborhood":"Cosham","city_fetched":"Gosport,UK","state":"Hampshire","country":"United Kingdom","canonicalUrl":"https://foursquare.com/v/the-first-post-wetherspoon/4c87aab9821e9eb0b3cc8d89","categoryId":"4bf58dd8d48988d11b941735","category":"Pub","checkinsCount":564,"usersCount":145,"tipCount":3,"visitsCount":595,"url":"http://www.jdwetherspoon.co.uk","tier":"","message":"","currency":"","rating":6.6},{"name":"The Osborne View","phone":"+441329664623","address":"Hill Head Rd","lat":50.81658501440738,"lng":-1.2330436706542969,"city_fetched":"Gosport,UK","state":"Hampshire","country":"United Kingdom","canonicalUrl":"https://foursquare.com/v/the-osborne-view/4b9252aaf964a52026f233e3","categoryId":"4bf58dd8d48988d11b941735","category":"Pub","checkinsCount":412,"usersCount":289,"tipCount":10,"visitsCount":539,"url":"http://www.osborneviewhillhead.co.uk","tier":"","message":"","currency":"","rating":6.6},{"name":"The Slug and Lettuce","phone":"+448451262980","twitter":"slugportsmouth","address":"Unit R07, Gunwharf Quays","lat":50.795199412823195,"lng":-1.1075270511184037,"neighborhood":"Gunwharf Quays","city_fetched":"Gosport,UK","state":"Hampshire","country":"United Kingdom","canonicalUrl":"https://foursquare.com/v/the-slug-and-lettuce/4b9c1b45f964a520b74a36e3","categoryId":"4bf58dd8d48988d116941735","category":"Bar","checkinsCount":1112,"usersCount":805,"tipCount":16,"visitsCount":1116,"url":"http://www.slugandlettuce.co.uk/portsmouth/","tier":"","message":"","currency":"","rating":6.6},{"name":"The Dolphin","phone":"+442392823595","address":"41 High Street","lat":50.790071872928586,"lng":-1.1034782502348544,"neighborhood":"Old Portsmouth","city_fetched":"Gosport,UK","state":"Hampshire","country":"United Kingdom","canonicalUrl":"https://foursquare.com/v/the-dolphin/4c430e32e26920a1fbe060e7","categoryId":"4bf58dd8d48988d11b941735","category":"Pub","checkinsCount":292,"usersCount":145,"tipCount":7,"visitsCount":293,"tier":"","message":"","currency":"","rating":6.6},{"name":"Tiger Tiger","phone":"+442392882244","twitter":"easytigertiger","address":"R6-l7 South Promenade Bldg","lat":50.795124421885845,"lng":-1.1071553036840283,"neighborhood":"Gunwharf Quays","city_fetched":"Gosport,UK","state":"Hampshire","country":"United Kingdom","canonicalUrl":"https://foursquare.com/v/tiger-tiger/4b65933ef964a520f9f42ae3","categoryId":"4bf58dd8d48988d11f941735","category":"Nightclub","checkinsCount":1118,"usersCount":679,"tipCount":8,"visitsCount":1124,"url":"http://www.tigertiger.co.uk","tier":"","message":"","currency":"","rating":6.5},{"name":"Lawrence Arms","phone":"+442392821280","address":"63 Lawrence Road","lat":50.789278386539145,"lng":-1.0763698389236567,"neighborhood":"Central Southsea","city_fetched":"Gosport,UK","state":"Hampshire","country":"United Kingdom","canonicalUrl":"https://foursquare.com/v/lawrence-arms/4bccafb70687ef3ba7b5dfcc","categoryId":"4bf58dd8d48988d11b941735","category":"Pub","checkinsCount":280,"usersCount":72,"tipCount":4,"visitsCount":340,"url":"http://lawrence-arms-portsmouth.co.uk","tier":"","message":"","currency":"","rating":6.5},{"name":"Porters","phone":"+442392293474","address":"31-35 Albert Rd","lat":50.787637,"lng":-1.081664,"city_fetched":"Gosport,UK","state":"Hampshire","country":"United Kingdom","canonicalUrl":"https://foursquare.com/v/porters/4aeb57aaf964a5202ac121e3","categoryId":"4bf58dd8d48988d116941735","category":"Bar","checkinsCount":1048,"usersCount":227,"tipCount":9,"visitsCount":1085,"tier":"","message":"","currency":"","rating":6.5},{"name":"The Sir Alec Rose (Wetherspoon)","phone":"+442392314800","address":"32-33 The Boardwalk","lat":50.84093392888396,"lng":-1.0976672172546387,"city_fetched":"Gosport,UK","state":"Hampshire","country":"United Kingdom","canonicalUrl":"https://foursquare.com/v/the-sir-alec-rose-wetherspoon/4c4879db786b76b0221040f8","categoryId":"4bf58dd8d48988d11b941735","category":"Pub","checkinsCount":676,"usersCount":352,"tipCount":7,"visitsCount":698,"url":"http://www.jdwetherspoon.co.uk","tier":"","message":"","currency":"","rating":6.5},{"name":"The Lord Palmerston (Wetherspoon)","phone":"+442392728000","address":"84-90 Palmerston Rd.","lat":50.784285,"lng":-1.088865,"city_fetched":"Gosport,UK","state":"Hampshire","country":"United Kingdom","canonicalUrl":"https://foursquare.com/v/the-lord-palmerston-wetherspoon/4c87ac05821e9eb0ddcd8d89","categoryId":"4bf58dd8d48988d11b941735","category":"Pub","checkinsCount":1118,"usersCount":431,"tipCount":9,"visitsCount":1189,"url":"http://www.jdwetherspoon.co.uk","tier":"","message":"","currency":"","rating":6.4},{"name":"The Cocked Hat","phone":"+442392583422","twitter":"flaminggrillpub","address":"Privett Rd","lat":50.79471669727211,"lng":-1.1625539892420067,"city_fetched":"Gosport,UK","state":"Hampshire","country":"United Kingdom","canonicalUrl":"https://foursquare.com/v/the-cocked-hat/4d1f611d756e8cfacfd96254","categoryId":"4bf58dd8d48988d11b941735","category":"Pub","checkinsCount":169,"usersCount":95,"tipCount":5,"visitsCount":180,"url":"http://www.flaminggrillpubs.com/pub/cocked-hat-gosport/p1464/","tier":"","message":"","currency":"","rating":6.4},{"name":"Rutland Arms","phone":"+442392751221","address":"205 Francis Avenue","lat":50.793053083100574,"lng":-1.070372945884575,"neighborhood":"Central Southsea","city_fetched":"Gosport,UK","state":"Hampshire","country":"United Kingdom","canonicalUrl":"https://foursquare.com/v/rutland-arms/4ca22670750ca0937ee90d67","categoryId":"4bf58dd8d48988d11d941735","category":"Sports Bar","checkinsCount":271,"usersCount":78,"tipCount":2,"visitsCount":347,"tier":"","message":"","currency":"","rating":6.3},{"name":"Hampshire Boulevard","phone":"+442392297509","twitter":"hantsboulevard","address":"1 Hampshire Terrace","lat":50.79501856460661,"lng":-1.0949760697759887,"city_fetched":"Gosport,UK","state":"Hampshire","country":"United Kingdom","canonicalUrl":"https://foursquare.com/v/hampshire-boulevard/4c399e56dfb0e21e8cbfb0a8","categoryId":"4bf58dd8d48988d1d8941735","category":"Gay Bar","checkinsCount":370,"usersCount":122,"tipCount":5,"visitsCount":398,"url":"http://www.thehampshireboulevard.co.uk","tier":"","message":"","currency":"","rating":6.3},{"name":"Oast & Squire (Beefeater)","phone":"+441329844377","twitter":"beefeatergrill","address":"2 Peak Ln","lat":50.851133009381385,"lng":-1.2114944901827471,"city_fetched":"Gosport,UK","state":"Hampshire","country":"United Kingdom","canonicalUrl":"https://foursquare.com/v/oast--squire-beefeater/4c4d8cd914b7b7137fa36078","categoryId":"4bf58dd8d48988d11b941735","category":"Pub","checkinsCount":158,"usersCount":123,"tipCount":2,"visitsCount":207,"url":"http://www.beefeater.co.uk","tier":"","message":"","currency":"","rating":6.2},{"name":"The Honest Politician","phone":"+442392298877","address":"47 Elm Grove","lat":50.79051562624626,"lng":-1.0886250246741234,"city_fetched":"Gosport,UK","state":"Hampshire","country":"United Kingdom","canonicalUrl":"https://foursquare.com/v/the-honest-politician/4b81524ff964a5205c9f30e3","categoryId":"4bf58dd8d48988d11b941735","category":"Pub","checkinsCount":453,"usersCount":238,"tipCount":6,"visitsCount":545,"tier":"","message":"","currency":"","rating":6.2},{"name":"Eastney Tavern","lat":50.78401,"lng":-1.058336,"city_fetched":"Gosport,UK","country":"United Kingdom","canonicalUrl":"https://foursquare.com/v/eastney-tavern/4d7132d0cea9236a7a42431b","categoryId":"4bf58dd8d48988d116941735","category":"Bar","checkinsCount":93,"usersCount":56,"tipCount":1,"visitsCount":95,"tier":"","message":"","currency":"","rating":6.2},{"name":"The Farmhouse & Innlodge","phone":"+442392650510","address":"Burrfields Rd.","lat":50.81478789363712,"lng":-1.045984173406892,"neighborhood":"Baffins","city_fetched":"Gosport,UK","state":"Hampshire","country":"United Kingdom","canonicalUrl":"https://foursquare.com/v/the-farmhouse--innlodge/4bded0b2fe0e62b582f80506","categoryId":"4bf58dd8d48988d11b941735","category":"Pub","checkinsCount":416,"usersCount":198,"tipCount":3,"visitsCount":530,"url":"http://www.hungryhorse.co.uk/pubs/farmhouse-portsmouth","tier":"","message":"","currency":"","rating":6.2},{"name":"Coach and Horses","phone":"+442392660533","address":"London Road","lat":50.8317590073861,"lng":-1.0700566813124772,"neighborhood":"Hilsea","city_fetched":"Gosport,UK","state":"Hampshire","country":"United Kingdom","canonicalUrl":"https://foursquare.com/v/coach-and-horses/4b72fb2bf964a520b4932de3","categoryId":"4bf58dd8d48988d11b941735","category":"Pub","checkinsCount":250,"usersCount":117,"tipCount":5,"visitsCount":300,"url":"http://www.flaminggrillpubs.com/pub/coach-and-horses-hilsea-portsmouth/m8483/","tier":"","message":"","currency":"","rating":6.1},{"name":"The Isambard Kingdom Brunel (Wetherspoon)","phone":"+442392295112","twitter":"jdwtweet","address":"2 Guildhall Walk","lat":50.797201170720875,"lng":-1.0926246643066406,"neighborhood":"Guildhall","city_fetched":"Gosport,UK","state":"Hampshire","country":"United Kingdom","canonicalUrl":"https://foursquare.com/v/the-isambard-kingdom-brunel-wetherspoon/4b6cb02af964a5204e4c2ce3","categoryId":"4bf58dd8d48988d11b941735","category":"Pub","checkinsCount":1923,"usersCount":703,"tipCount":19,"visitsCount":1983,"url":"http://www.jdwetherspoon.co.uk","tier":1,"message":"Cheap","currency":"£","rating":6},{"name":"The Crown Inn (Wetherspoon)","phone":"+441329241750","address":"40 West St.","lat":50.85224680231901,"lng":-1.176760196685791,"city_fetched":"Gosport,UK","state":"Hampshire","country":"United Kingdom","canonicalUrl":"https://foursquare.com/v/the-crown-inn-wetherspoon/4b5e035ef964a5202b7929e3","categoryId":"4bf58dd8d48988d11b941735","category":"Pub","checkinsCount":1074,"usersCount":215,"tipCount":10,"visitsCount":1132,"url":"http://www.jdwetherspoon.co.uk","tier":"","message":"","currency":"","rating":5.9},{"name":"The Ship Anson","phone":"+442392824152","address":"10 The Hard","lat":50.798461715879306,"lng":-1.1065388022483973,"city_fetched":"Gosport,UK","state":"Hampshire","country":"United Kingdom","canonicalUrl":"https://foursquare.com/v/the-ship-anson/4b3797dbf964a520b44225e3","categoryId":"4bf58dd8d48988d11b941735","category":"Pub","checkinsCount":410,"usersCount":275,"tipCount":4,"visitsCount":434,"url":"http://www.shipanson-portsmouth.co.uk","tier":"","message":"","currency":"","rating":5.9},{"name":"The Lord Arthur Lee (Wetherspoon)","phone":"+441329280447","twitter":"jdwtweet","address":"100-108 West St.","lat":50.85243645585565,"lng":-1.1813843250274658,"city_fetched":"Gosport,UK","state":"Hampshire","country":"United Kingdom","canonicalUrl":"https://foursquare.com/v/the-lord-arthur-lee-wetherspoon/4cd2b78ddf88a35d65706aa0","categoryId":"4bf58dd8d48988d11b941735","category":"Pub","checkinsCount":797,"usersCount":233,"tipCount":10,"visitsCount":936,"url":"http://www.jdwetherspoon.co.uk/home/pubs/the-lord-arthur-lee","tier":"","message":"","currency":"","rating":5.8},{"name":"S. Fowler & Co. (Wetherspoon)","phone":"+441983812112","address":"41-43 Union St.","lat":50.73025689867199,"lng":-1.1625645927936339,"city_fetched":"Gosport,UK","state":"Isle of Wight","country":"United Kingdom","canonicalUrl":"https://foursquare.com/v/s-fowler--co-wetherspoon/4c87abe7821e9eb0c4cd8d89","categoryId":"4bf58dd8d48988d11b941735","category":"Pub","checkinsCount":960,"usersCount":372,"tipCount":9,"visitsCount":1097,"url":"http://www.jdwetherspoon.co.uk","tier":"","message":"","currency":"","rating":5.8},{"name":"All Bar One","phone":"+442392838880","twitter":"yourallbarone","address":"Unit Ro5a","lat":50.794973,"lng":-1.107372,"neighborhood":"Gunwharf Quays","city_fetched":"Gosport,UK","state":"Hampshire","country":"United Kingdom","canonicalUrl":"https://foursquare.com/v/all-bar-one/4d4d558ca7f86ea8086535de","categoryId":"4bf58dd8d48988d116941735","category":"Bar","checkinsCount":1040,"usersCount":607,"tipCount":20,"visitsCount":1050,"url":"http://www.allbarone.co.uk","tier":2,"message":"Moderate","currency":"£","rating":5.8},{"name":"The Seagull","address":"Cornaway Lane","lat":50.847295,"lng":-1.138413,"city_fetched":"Gosport,UK","country":"United Kingdom","canonicalUrl":"https://foursquare.com/v/the-seagull/4b75a4c0f964a5208b192ee3","categoryId":"4bf58dd8d48988d11b941735","category":"Pub","checkinsCount":348,"usersCount":166,"tipCount":4,"visitsCount":411,"tier":"","message":"","currency":"","rating":5.8},{"name":"The John Jacques (Wetherspoon)","phone":"+442392779742","address":"78-82 Fratton Rd","lat":50.798265720401595,"lng":-1.0768418145175986,"neighborhood":"Fratton","city_fetched":"Gosport,UK","state":"Hampshire","country":"United Kingdom","canonicalUrl":"https://foursquare.com/v/the-john-jacques-wetherspoon/4c000f2992a6c9286d9343e2","categoryId":"4bf58dd8d48988d11b941735","category":"Pub","checkinsCount":642,"usersCount":275,"tipCount":5,"visitsCount":790,"url":"http://www.jdwetherspoon.co.uk/home/pubs/the-john-jacques","tier":"","message":"","currency":"","rating":5.6},{"name":"The Wyvern","phone":"+442392552375","address":"Common Barn Lane","lat":50.81009653167393,"lng":-1.1940668120130848,"city_fetched":"Gosport,UK","state":"Hampshire","country":"United Kingdom","canonicalUrl":"https://foursquare.com/v/the-wyvern/4bf916815ec320a108b089d3","categoryId":"4bf58dd8d48988d11b941735","category":"Pub","checkinsCount":64,"usersCount":39,"tipCount":2,"visitsCount":70,"tier":"","message":"","currency":"","rating":5.6},{"name":"Red Lion Hotel","phone":"+441329822640","address":"East St.","lat":50.85207408146291,"lng":-1.174190640449524,"city_fetched":"Gosport,UK","state":"Hampshire","country":"United Kingdom","canonicalUrl":"https://foursquare.com/v/red-lion-hotel/4c3dc29e4bc9a5937a68d471","categoryId":"4bf58dd8d48988d11b941735","category":"Pub","checkinsCount":234,"usersCount":119,"tipCount":5,"visitsCount":249,"tier":"","message":"","currency":"","rating":5.6},{"name":"The Thatched House","phone":"+442392821527","address":"Milton Locks","lat":50.79397308396106,"lng":-1.0401577351464901,"city_fetched":"Gosport,UK","state":"Hampshire","country":"United Kingdom","canonicalUrl":"https://foursquare.com/v/the-thatched-house/4c25f0d9c11dc9b6ae002824","categoryId":"4bf58dd8d48988d11b941735","category":"Pub","checkinsCount":132,"usersCount":80,"tipCount":4,"visitsCount":144,"url":"http://www.fayre-square.com/pub/thatched-house-southsea/m2507","tier":"","message":"","currency":"","rating":5.6},{"name":"White Horse","phone":"+442392818979","twitter":"wh_southsea","address":"51 Southsea Terr","lat":50.788251,"lng":-1.095056,"city_fetched":"Gosport,UK","state":"Hampshire","country":"United Kingdom","canonicalUrl":"https://foursquare.com/v/white-horse/4bb8bb207421a593a607c240","categoryId":"4bf58dd8d48988d11b941735","category":"Pub","checkinsCount":435,"usersCount":180,"tipCount":4,"visitsCount":477,"tier":"","message":"","currency":"","rating":5.6},{"name":"The Sailmaker","phone":"+442392501332","address":"Fareham Rd","lat":50.816212752834,"lng":-1.16028682328761,"city_fetched":"Gosport,UK","state":"Hampshire","country":"United Kingdom","canonicalUrl":"https://foursquare.com/v/the-sailmaker/51fe3d58498e4070774bab8c","categoryId":"4bf58dd8d48988d11b941735","category":"Pub","checkinsCount":164,"usersCount":70,"tipCount":8,"visitsCount":169,"tier":"","message":"","currency":"","rating":5.5},{"name":"Lyberry","lat":50.79605427095071,"lng":-1.093421931271454,"neighborhood":"Guildhall","city_fetched":"Gosport,UK","state":"Hampshire","country":"United Kingdom","canonicalUrl":"https://foursquare.com/v/lyberry/4e62beacd4c06542ab1929df","categoryId":"4bf58dd8d48988d11f941735","category":"Nightclub","checkinsCount":369,"usersCount":166,"tipCount":4,"visitsCount":370,"tier":"","message":"","currency":"","rating":5.4},{"name":"Bar 38","phone":"+442392821070","twitter":"bar38portsmouth","address":"Gunwharf Quays","lat":50.795202929982665,"lng":-1.1047171481699898,"neighborhood":"Gunwharf Quays","city_fetched":"Gosport,UK","state":"Hampshire","country":"United Kingdom","canonicalUrl":"https://foursquare.com/v/bar-38/4c727c520e8cbfb751e201db","categoryId":"4bf58dd8d48988d116941735","category":"Bar","checkinsCount":1185,"usersCount":606,"tipCount":18,"visitsCount":1190,"url":"http://portsmouth.bar38.co.uk","tier":"","message":"","currency":"","rating":5.4},{"name":"The Good Companion","phone":"+442392825206","address":"2 Eastern Rd","lat":50.79945252299931,"lng":-1.054987907409668,"neighborhood":"Baffins","city_fetched":"Gosport,UK","state":"Hampshire","country":"United Kingdom","canonicalUrl":"https://foursquare.com/v/the-good-companion/4c8aac86a92fa093287d93bf","categoryId":"4bf58dd8d48988d11b941735","category":"Pub","checkinsCount":195,"usersCount":108,"tipCount":3,"visitsCount":251,"tier":"","message":"","currency":"","rating":5.3},{"name":"Liquid","phone":"+442392862312","twitter":"liquidports","address":"Stanhope Rd.","lat":50.79943987013239,"lng":-1.09203046877003,"neighborhood":"City Centre","city_fetched":"Gosport,UK","state":"Hampshire","country":"United Kingdom","canonicalUrl":"https://foursquare.com/v/liquid/4b6a0b5ef964a520dbc32be3","categoryId":"4bf58dd8d48988d11f941735","category":"Nightclub","checkinsCount":672,"usersCount":357,"tipCount":5,"visitsCount":767,"tier":"","message":"","currency":"","rating":5.2},{"name":"The Star (Wetherspoon)","phone":"+442392512130","address":"28-29 High St.","lat":50.795475286574835,"lng":-1.1220484972000122,"city_fetched":"Gosport,UK","state":"Hampshire","country":"United Kingdom","canonicalUrl":"https://foursquare.com/v/the-star-wetherspoon/4c87ab0e821e9eb000cd8d89","categoryId":"4bf58dd8d48988d11b941735","category":"Pub","checkinsCount":569,"usersCount":222,"tipCount":5,"visitsCount":669,"url":"http://www.jdwetherspoon.co.uk","tier":"","message":"","currency":"","rating":5}]