[{"name":"Belton Woods Hotel Grantham","address":"Belton","lat":52.94416783854362,"lng":-0.6301081409155603,"city_fetched":"Grantham,UK","state":"Lincolnshire","country":"United Kingdom","canonicalUrl":"https://foursquare.com/v/belton-woods-hotel-grantham/4bc8e981762beee16faf3d38","categoryId":"4bf58dd8d48988d1d5941735","category":"Hotel Bar","checkinsCount":334,"usersCount":215,"tipCount":1,"visitsCount":453,"tier":"","message":"","currency":"","rating":6.8},{"name":"The Tollemache Inn (Wetherspoon)","phone":"+441476594696","address":"17 St Peter's Hill","lat":52.90979944325261,"lng":-0.6397024368893015,"city_fetched":"Grantham,UK","state":"Lincolnshire","country":"United Kingdom","canonicalUrl":"https://foursquare.com/v/the-tollemache-inn-wetherspoon/4c87ab0f821e9eb002cd8d89","categoryId":"4bf58dd8d48988d11b941735","category":"Pub","checkinsCount":837,"usersCount":172,"tipCount":10,"visitsCount":861,"url":"http://www.jdwetherspoon.co.uk","tier":"","message":"","currency":"","rating":6.6},{"name":"Eden","lat":52.91322631718923,"lng":-0.6442524986274941,"city_fetched":"Grantham,UK","state":"Lincolnshire","country":"United Kingdom","canonicalUrl":"https://foursquare.com/v/eden/4bb50454eb6dd13abca896e4","categoryId":"4bf58dd8d48988d11b941735","category":"Pub","checkinsCount":179,"usersCount":61,"tipCount":5,"visitsCount":180,"tier":"","message":"","currency":"","rating":6.5},{"name":"The Farrier (Brewers Fayre)","phone":"+441476542920","twitter":"brewersfayre","address":"Harlaxton Rd.","lat":52.896816909056184,"lng":-0.6646674871444702,"city_fetched":"Grantham,UK","state":"Lincolnshire","country":"United Kingdom","canonicalUrl":"https://foursquare.com/v/the-farrier-brewers-fayre/4c590e0bd3aee21e636a6755","categoryId":"4bf58dd8d48988d11b941735","category":"Pub","checkinsCount":476,"usersCount":144,"tipCount":5,"visitsCount":516,"url":"http://www.brewersfayre.co.uk/pub-restaurant/Lincolnshire/Farrier-Grantham.html","tier":"","message":"","currency":"","rating":5.5}]