[{"name":"The Three Daws","address":"Town Pier","lat":51.444867,"lng":0.369714,"city_fetched":"Gravesend,UK","state":"Kent","country":"United Kingdom","canonicalUrl":"https://foursquare.com/v/the-three-daws/4b844e26f964a520b22d31e3","categoryId":"4bf58dd8d48988d11b941735","category":"Pub","checkinsCount":178,"usersCount":108,"tipCount":8,"visitsCount":221,"tier":"","message":"","currency":"","rating":8.5},{"name":"The Bell Inn","phone":"+441375642463","address":"High Rd","lat":51.52359051908362,"lng":0.406175400698439,"city_fetched":"Gravesend,UK","state":"Essex","country":"United Kingdom","canonicalUrl":"https://foursquare.com/v/the-bell-inn/4be05f502aed2d7fd121c86f","categoryId":"4bf58dd8d48988d11b941735","category":"Pub","checkinsCount":196,"usersCount":180,"tipCount":3,"visitsCount":315,"tier":"","message":"","currency":"","rating":8.3},{"name":"Crumpled Horn (Marston's)","phone":"+441708226698","twitter":"marstonspubs","address":"33-37 Corbets Tey Rd.","lat":51.554750204086304,"lng":0.24846911430358887,"neighborhood":"Upminster","city_fetched":"Gravesend,UK","state":"Greater London","country":"United Kingdom","canonicalUrl":"https://foursquare.com/v/crumpled-horn-marstons/4adb22f6f964a520832421e3","categoryId":"4bf58dd8d48988d11b941735","category":"Pub","checkinsCount":310,"usersCount":175,"tipCount":1,"visitsCount":424,"url":"http://www.crumpledhornpub.co.uk","tier":"","message":"","currency":"","rating":7.4},{"name":"The Man Of Kent","phone":"+447772214315","address":"6 - 8 Kent Street","lat":51.3837307381873,"lng":0.5054140090942383,"city_fetched":"Gravesend,UK","state":"Kent","country":"United Kingdom","canonicalUrl":"https://foursquare.com/v/the-man-of-kent/4b5b5fd1f964a520cdf828e3","categoryId":"4bf58dd8d48988d11b941735","category":"Pub","checkinsCount":779,"usersCount":142,"tipCount":9,"visitsCount":822,"tier":"","message":"","currency":"","rating":7.3},{"name":"The Ship Inn","phone":"+441634402222","address":"Upnor Road","lat":51.41154702009611,"lng":0.5301064252853394,"city_fetched":"Gravesend,UK","state":"Kent","country":"United Kingdom","canonicalUrl":"https://foursquare.com/v/the-ship-inn/4b7edd41f964a5203c0530e3","categoryId":"4bf58dd8d48988d11b941735","category":"Pub","checkinsCount":782,"usersCount":77,"tipCount":5,"visitsCount":804,"url":"http://www.shiprochester.co.uk","tier":"","message":"","currency":"","rating":7.2},{"name":"The Sandmartin","phone":"+441375481056","address":"Drake Road","lat":51.4894805726739,"lng":0.3133565899724916,"city_fetched":"Gravesend,UK","state":"Thurrock","country":"United Kingdom","canonicalUrl":"https://foursquare.com/v/the-sandmartin/4bc09faff8219c7425d3b110","categoryId":"4bf58dd8d48988d11b941735","category":"Pub","checkinsCount":180,"usersCount":86,"tipCount":3,"visitsCount":229,"tier":"","message":"","currency":"","rating":7.2},{"name":"The Treacle Mine","phone":"+441375382735","address":"Lodge Lane","lat":51.494147234627164,"lng":0.3184284815306879,"city_fetched":"Gravesend,UK","state":"Essex","country":"United Kingdom","canonicalUrl":"https://foursquare.com/v/the-treacle-mine/4c5f08076ebe2d7f7534d72e","categoryId":"4bf58dd8d48988d11b941735","category":"Pub","checkinsCount":275,"usersCount":116,"tipCount":2,"visitsCount":347,"url":"http://www.sizzlingpubs.co.uk/thetreacleminegrays/","tier":"","message":"","currency":"","rating":7.2},{"name":"The Tudor Rose - Shepherd Neame","address":"29 High St","lat":51.40620496914011,"lng":0.5260831117630005,"city_fetched":"Gravesend,UK","state":"Kent","country":"United Kingdom","canonicalUrl":"https://foursquare.com/v/the-tudor-rose--shepherd-neame/4d31bb3a2e56236a9d7515b4","categoryId":"4bf58dd8d48988d11b941735","category":"Pub","checkinsCount":48,"usersCount":43,"tipCount":2,"visitsCount":49,"url":"http://www.shepherdneame.co.uk","tier":"","message":"","currency":"","rating":7.1},{"name":"The Golden Lion (Wetherspoon)","phone":"+441634880521","address":"147-149 High St.","lat":51.38669189643161,"lng":0.5066880583763123,"city_fetched":"Gravesend,UK","state":"Kent","country":"United Kingdom","canonicalUrl":"https://foursquare.com/v/the-golden-lion-wetherspoon/4ba4049cf964a520487838e3","categoryId":"4bf58dd8d48988d11b941735","category":"Pub","checkinsCount":1369,"usersCount":477,"tipCount":5,"visitsCount":1555,"url":"http://www.jdwetherspoon.co.uk/home/pubs/the-golden-lion-rochester","tier":"","message":"","currency":"","rating":7},{"name":"The Woodlands (Beefeater)","phone":"+441474533556","twitter":"beefeater","address":"Wrotham Rd","lat":51.43168436775641,"lng":0.3640879483228785,"city_fetched":"Gravesend,UK","state":"Kent","country":"United Kingdom","canonicalUrl":"https://foursquare.com/v/the-woodlands-beefeater/4bdc71d82a3a0f47a4ddb2b6","categoryId":"4bf58dd8d48988d11b941735","category":"Pub","checkinsCount":477,"usersCount":201,"tipCount":6,"visitsCount":618,"url":"http://www.beefeater.co.uk/steak-restaurant/Kent/Woodlands-Gravesend.html","tier":"","message":"","currency":"","rating":7},{"name":"Air & Breathe Nightclub","phone":"+441322222423","twitter":"airandbreathe","address":"35-37 Essex Rd","lat":51.44595689490147,"lng":0.21443612527267022,"city_fetched":"Gravesend,UK","state":"Kent","country":"United Kingdom","canonicalUrl":"https://foursquare.com/v/air--breathe-nightclub/4bedc092a40fc928f072820c","categoryId":"4bf58dd8d48988d11f941735","category":"Nightclub","checkinsCount":151,"usersCount":71,"tipCount":4,"visitsCount":155,"url":"http://www.airandbreathe.com/dartford/","tier":"","message":"","currency":"","rating":7},{"name":"fighting cocks","address":"The Street","lat":51.39147219750637,"lng":0.24013012647628784,"city_fetched":"Gravesend,UK","country":"United Kingdom","canonicalUrl":"https://foursquare.com/v/fighting-cocks/4bc97712b6c49c7405878e91","categoryId":"4bf58dd8d48988d11b941735","category":"Pub","checkinsCount":137,"usersCount":140,"tipCount":5,"visitsCount":217,"url":"http://www.fightingcockshortonkirby.co.uk","tier":"","message":"","currency":"","rating":6.9},{"name":"The Haywain (Beefeater)","phone":"+441268554500","twitter":"beefeater","address":"High Road, Fobbing","lat":51.55066788196564,"lng":0.466706,"city_fetched":"Gravesend,UK","state":"Essex","country":"United Kingdom","canonicalUrl":"https://foursquare.com/v/the-haywain-beefeater/4c9bce630313370426954fd5","categoryId":"4bf58dd8d48988d11b941735","category":"Pub","checkinsCount":460,"usersCount":189,"tipCount":3,"visitsCount":590,"url":"http://www.beefeater.co.uk/steak-restaurant/Essex/Haywain-Basildon.html","tier":"","message":"","currency":"","rating":6.7},{"name":"The Flying Boat (Wetherspoon)","phone":"+441322421970","address":"36-42 Spital St.","lat":51.444779856012524,"lng":0.2143406867980957,"city_fetched":"Gravesend,UK","state":"Kent","country":"United Kingdom","canonicalUrl":"https://foursquare.com/v/the-flying-boat-wetherspoon/4bae7c44f964a5203fb83be3","categoryId":"4bf58dd8d48988d11b941735","category":"Pub","checkinsCount":1067,"usersCount":303,"tipCount":11,"visitsCount":1271,"url":"http://www.jdwetherspoon.co.uk","tier":"","message":"","currency":"","rating":6.7},{"name":"The Wharf","phone":"+441322229939","address":"Galleon Blvd.","lat":51.45290377348424,"lng":0.2536886930465698,"city_fetched":"Gravesend,UK","state":"Kent","country":"United Kingdom","canonicalUrl":"https://foursquare.com/v/the-wharf/4bf16c8a78a2a59321eb9efd","categoryId":"4bf58dd8d48988d11b941735","category":"Pub","checkinsCount":255,"usersCount":163,"tipCount":1,"visitsCount":347,"url":"http://www.shepherdneame.co.uk","tier":"","message":"","currency":"","rating":6.7},{"name":"Ship & Trades - Shepherd Neame","phone":"+441634895200","address":"Chatham Maritime","lat":51.40246867600972,"lng":0.536382794380188,"city_fetched":"Gravesend,UK","state":"Kent","country":"United Kingdom","canonicalUrl":"https://foursquare.com/v/ship--trades--shepherd-neame/4bc77d6b93bdeee1677037ae","categoryId":"4bf58dd8d48988d11b941735","category":"Pub","checkinsCount":480,"usersCount":335,"tipCount":5,"visitsCount":776,"url":"http://www.shepherdneame.co.uk","tier":"","message":"","currency":"","rating":6.6},{"name":"The Worlds End","phone":"+441375840827","address":"Fort Rd","lat":51.452436801198665,"lng":0.3702932306936183,"city_fetched":"Gravesend,UK","state":"Thurrock","country":"United Kingdom","canonicalUrl":"https://foursquare.com/v/the-worlds-end/4be2b6721dd22d7fcc9694bd","categoryId":"4bf58dd8d48988d11b941735","category":"Pub","checkinsCount":144,"usersCount":107,"tipCount":0,"visitsCount":168,"tier":"","message":"","currency":"","rating":6.5},{"name":"The Ship Inn","phone":"+441634402222","address":"347 High St","lat":51.38333730364682,"lng":0.5152789405766904,"city_fetched":"Gravesend,UK","state":"Kent","country":"United Kingdom","canonicalUrl":"https://foursquare.com/v/the-ship-inn/4cd04ad5f6378cfa5740b4d6","categoryId":"4bf58dd8d48988d1d8941735","category":"Gay Bar","checkinsCount":69,"usersCount":36,"tipCount":3,"visitsCount":112,"url":"http://www.shiprochester.co.uk","tier":"","message":"","currency":"","rating":6.5},{"name":"The Grapes Caf√© Bar - Shepherd Neame","phone":"+441474533994","address":"Edwin Street","lat":51.441707100640215,"lng":0.3719499707221985,"city_fetched":"Gravesend,UK","state":"Kent","country":"United Kingdom","canonicalUrl":"https://foursquare.com/v/the-grapes-caf%C3%A9-bar--shepherd-neame/4c2203e013c00f4742be86de","categoryId":"4bf58dd8d48988d11b941735","category":"Pub","checkinsCount":62,"usersCount":24,"tipCount":0,"visitsCount":62,"url":"http://www.shepherdneame.co.uk","tier":"","message":"","currency":"","rating":6.5},{"name":"The Orange Tree - Shepherd Neame","phone":"+441322272483","address":"Hawley Road","lat":51.43380024163564,"lng":0.21527409553527832,"city_fetched":"Gravesend,UK","state":"Kent","country":"United Kingdom","canonicalUrl":"https://foursquare.com/v/the-orange-tree--shepherd-neame/4c5dc03c7735c9b6d7059072","categoryId":"4bf58dd8d48988d11b941735","category":"Pub","checkinsCount":62,"usersCount":26,"tipCount":1,"visitsCount":65,"url":"http://www.shepherdneame.co.uk","tier":"","message":"","currency":"","rating":6.5},{"name":"Coopers","phone":"+442083317572","twitter":"gkunions","address":"Jellicoe Building","lat":51.398161267870464,"lng":0.5371713265566459,"city_fetched":"Gravesend,UK","state":"Kent","country":"United Kingdom","canonicalUrl":"https://foursquare.com/v/coopers/4cd7dc877bb06dcbe6149fb2","categoryId":"50327c8591d4c4b30a586d5d","category":"Brewery","checkinsCount":146,"usersCount":67,"tipCount":3,"visitsCount":166,"url":"http://www.gkunions.co.uk","tier":"","message":"","currency":"","rating":6.4},{"name":"The Two Brewers - Shepherd Neame","phone":"+441634812448","address":"113 High Street","lat":51.388136416812216,"lng":0.5052316188812256,"city_fetched":"Gravesend,UK","state":"Kent","country":"United Kingdom","canonicalUrl":"https://foursquare.com/v/the-two-brewers--shepherd-neame/4bddf493ffdec928141de7a1","categoryId":"4bf58dd8d48988d11b941735","category":"Pub","checkinsCount":136,"usersCount":58,"tipCount":1,"visitsCount":138,"url":"http://www.shepherdneame.co.uk","tier":"","message":"","currency":"","rating":6.4},{"name":"The Lamb Inn - Shepherd Neame","phone":"+441322615161","address":"Swanley Village","lat":51.4040750015521,"lng":0.20105302333831787,"city_fetched":"Gravesend,UK","state":"Kent","country":"United Kingdom","canonicalUrl":"https://foursquare.com/v/the-lamb-inn--shepherd-neame/4c51d704d797e21eb2e7bb7c","categoryId":"4bf58dd8d48988d11b941735","category":"Pub","checkinsCount":10,"usersCount":7,"tipCount":0,"visitsCount":12,"url":"http://www.shepherdneame.co.uk","tier":"","message":"","currency":"","rating":6.4},{"name":"Tap 'n' Tin","phone":"+441634831119","address":"24A Railway Street","lat":51.38125482758054,"lng":0.5212525469811936,"city_fetched":"Gravesend,UK","state":"Kent","country":"United Kingdom","canonicalUrl":"https://foursquare.com/v/tap-n-tin/4bc391dc74a9a59334bdd4f6","categoryId":"4bf58dd8d48988d116941735","category":"Bar","checkinsCount":298,"usersCount":78,"tipCount":1,"visitsCount":298,"tier":"","message":"","currency":"","rating":6.4},{"name":"The Royal Oak - Shepherd Neame","phone":"+441474872301","address":"Chapelwood Road","lat":51.367436756300485,"lng":0.2976474165916443,"city_fetched":"Gravesend,UK","state":"Kent","country":"United Kingdom","canonicalUrl":"https://foursquare.com/v/the-royal-oak--shepherd-neame/4e00fa6dd22db37fb026cdd3","categoryId":"4bf58dd8d48988d11b941735","category":"Pub","checkinsCount":38,"usersCount":16,"tipCount":0,"visitsCount":40,"url":"http://www.shepherdneame.co.uk","tier":"","message":"","currency":"","rating":6.4},{"name":"Six Bells - Shepherd Neame","phone":"+441634220609","address":"181 Church St","lat":51.46128360065736,"lng":0.4977911710739136,"city_fetched":"Gravesend,UK","state":"Kent","country":"United Kingdom","canonicalUrl":"https://foursquare.com/v/six-bells--shepherd-neame/4dec7286d164ef597d1e93ba","categoryId":"4bf58dd8d48988d11b941735","category":"Pub","checkinsCount":43,"usersCount":19,"tipCount":3,"visitsCount":45,"url":"http://www.shepherdneame.co.uk","tier":"","message":"","currency":"","rating":6.2},{"name":"The Casino Rooms Nightclub","phone":"+441634832888","twitter":"casinorooms","address":"Blue Boar Ln","lat":51.38781169662109,"lng":0.5065298080444336,"city_fetched":"Gravesend,UK","state":"Kent","country":"United Kingdom","canonicalUrl":"https://foursquare.com/v/the-casino-rooms-nightclub/4c117fc872caa593f0aa5da4","categoryId":"4bf58dd8d48988d11f941735","category":"Nightclub","checkinsCount":329,"usersCount":130,"tipCount":5,"visitsCount":329,"url":"http://www.casinoroomsnightclub.net","tier":"","message":"","currency":"","rating":6},{"name":"The Crown Freehouse","phone":"+441634814874","address":"2 High St.","lat":51.3912797230442,"lng":0.5018949508666992,"city_fetched":"Gravesend,UK","state":"Kent","country":"United Kingdom","canonicalUrl":"https://foursquare.com/v/the-crown-freehouse/4da0d11ad686b60c9d0c9828","categoryId":"4bf58dd8d48988d11b941735","category":"Pub","checkinsCount":185,"usersCount":107,"tipCount":4,"visitsCount":185,"url":"http://www.thecrownrochester.co.uk","tier":"","message":"","currency":"","rating":5.9},{"name":"The Robert Pocock (Wetherspoon)","phone":"+441474352765","twitter":"jdwtweet","address":"181-183 Windmill St","lat":51.4422304261969,"lng":0.36912404585284003,"city_fetched":"Gravesend,UK","state":"Kent","country":"United Kingdom","canonicalUrl":"https://foursquare.com/v/the-robert-pocock-wetherspoon/4c87ab10821e9eb003cd8d89","categoryId":"4bf58dd8d48988d11b941735","category":"Pub","checkinsCount":498,"usersCount":173,"tipCount":6,"visitsCount":535,"url":"http://www.jdwetherspoon.co.uk","tier":"","message":"","currency":"","rating":5.9},{"name":"The Rum Puncheon","phone":"+441474353434","address":"87 West St","lat":51.44496987295051,"lng":0.36847158108790384,"city_fetched":"Gravesend,UK","state":"Kent","country":"United Kingdom","canonicalUrl":"https://foursquare.com/v/the-rum-puncheon/4bd34941046076b001af7571","categoryId":"4bf58dd8d48988d11b941735","category":"Pub","checkinsCount":121,"usersCount":64,"tipCount":4,"visitsCount":122,"url":"http://www.therumpuncheon.co.uk","tier":"","message":"","currency":"","rating":5.8},{"name":"Brewers Fayre","phone":"+448701977253","address":"Howard Road","lat":51.4907261360225,"lng":0.29069244861602783,"city_fetched":"Gravesend,UK","state":"Essex","country":"United Kingdom","canonicalUrl":"https://foursquare.com/v/brewers-fayre/4bddb4fa0ee3a5936b4f2eb0","categoryId":"4bf58dd8d48988d11b941735","category":"Pub","checkinsCount":283,"usersCount":108,"tipCount":0,"visitsCount":288,"tier":"","message":"","currency":"","rating":5.7},{"name":"Brewers Fayre","phone":"+441732521630","twitter":"brewersfayre","address":"Castle Way","lat":51.306391654871824,"lng":0.4241752624511719,"city_fetched":"Gravesend,UK","state":"Kent","country":"United Kingdom","canonicalUrl":"https://foursquare.com/v/brewers-fayre/4c1cbd1deac020a14bf146c2","categoryId":"4bf58dd8d48988d11b941735","category":"Pub","checkinsCount":191,"usersCount":100,"tipCount":6,"visitsCount":222,"url":"http://www.brewersfayre.co.uk/pub-restaurant/Kent/Castle-Lake-Maidstone.html","tier":"","message":"","currency":"","rating":5.7},{"name":"Huntsman & Hounds (Ember Inns)","phone":"+441708221672","twitter":"emberinns","address":"Ockendon Rd","lat":51.54271,"lng":0.251967,"neighborhood":"Upminster","city_fetched":"Gravesend,UK","state":"Greater London","country":"United Kingdom","canonicalUrl":"https://foursquare.com/v/huntsman--hounds-ember-inns/4adb5056f964a520cf2521e3","categoryId":"4bf58dd8d48988d11b941735","category":"Pub","checkinsCount":142,"usersCount":115,"tipCount":3,"visitsCount":220,"tier":"","message":"","currency":"","rating":5.2},{"name":"The George Vaults","phone":"+441634817165","address":"35 High Street","lat":51.390399491018044,"lng":0.503449427860801,"city_fetched":"Gravesend,UK","state":"Kent","country":"United Kingdom","canonicalUrl":"https://foursquare.com/v/the-george-vaults/4c9f33fa0e9bb1f77951ee5f","categoryId":"4bf58dd8d48988d116941735","category":"Bar","checkinsCount":565,"usersCount":166,"tipCount":6,"visitsCount":595,"tier":"","message":"","currency":"","rating":5.1}]