[{"name":"The Three Daws","address":"Town Pier","lat":51.444867,"lng":0.369714,"city_fetched":"Grays,UK","state":"Kent","country":"United Kingdom","canonicalUrl":"https://foursquare.com/v/the-three-daws/4b844e26f964a520b22d31e3","categoryId":"4bf58dd8d48988d11b941735","category":"Pub","checkinsCount":178,"usersCount":108,"tipCount":8,"visitsCount":221,"tier":"","message":"","currency":"","rating":8.5},{"name":"The Bell Inn","phone":"+441375642463","address":"High Rd","lat":51.52359051908362,"lng":0.406175400698439,"city_fetched":"Grays,UK","state":"Essex","country":"United Kingdom","canonicalUrl":"https://foursquare.com/v/the-bell-inn/4be05f502aed2d7fd121c86f","categoryId":"4bf58dd8d48988d11b941735","category":"Pub","checkinsCount":196,"usersCount":180,"tipCount":3,"visitsCount":315,"tier":"","message":"","currency":"","rating":8.3},{"name":"The Leather Bottle","address":"Cobham","lat":51.390706300735474,"lng":0.3988015651702881,"city_fetched":"Grays,UK","state":"Kent","country":"United Kingdom","canonicalUrl":"https://foursquare.com/v/the-leather-bottle/4bd2f8f3caff9521c3b2d3f0","categoryId":"4bf58dd8d48988d11b941735","category":"Pub","checkinsCount":55,"usersCount":78,"tipCount":2,"visitsCount":110,"tier":"","message":"","currency":"","rating":8.3},{"name":"Crumpled Horn (Marston's)","phone":"+441708226698","twitter":"marstonspubs","address":"33-37 Corbets Tey Rd.","lat":51.554750204086304,"lng":0.24846911430358887,"neighborhood":"Upminster","city_fetched":"Grays,UK","state":"Greater London","country":"United Kingdom","canonicalUrl":"https://foursquare.com/v/crumpled-horn-marstons/4adb22f6f964a520832421e3","categoryId":"4bf58dd8d48988d11b941735","category":"Pub","checkinsCount":310,"usersCount":175,"tipCount":1,"visitsCount":424,"url":"http://www.crumpledhornpub.co.uk","tier":"","message":"","currency":"","rating":7.4},{"name":"The Sandmartin","phone":"+441375481056","address":"Drake Road","lat":51.4894805726739,"lng":0.3133565899724916,"city_fetched":"Grays,UK","state":"Thurrock","country":"United Kingdom","canonicalUrl":"https://foursquare.com/v/the-sandmartin/4bc09faff8219c7425d3b110","categoryId":"4bf58dd8d48988d11b941735","category":"Pub","checkinsCount":180,"usersCount":86,"tipCount":3,"visitsCount":229,"tier":"","message":"","currency":"","rating":7.2},{"name":"The Treacle Mine","phone":"+441375382735","address":"Lodge Lane","lat":51.494147234627164,"lng":0.3184284815306879,"city_fetched":"Grays,UK","state":"Essex","country":"United Kingdom","canonicalUrl":"https://foursquare.com/v/the-treacle-mine/4c5f08076ebe2d7f7534d72e","categoryId":"4bf58dd8d48988d11b941735","category":"Pub","checkinsCount":275,"usersCount":116,"tipCount":2,"visitsCount":347,"url":"http://www.sizzlingpubs.co.uk/thetreacleminegrays/","tier":"","message":"","currency":"","rating":7.2},{"name":"Bull & Vic","phone":"+441322224415","address":"1 High St","lat":51.44448072196345,"lng":0.21699616508035985,"city_fetched":"Grays,UK","state":"Kent","country":"United Kingdom","canonicalUrl":"https://foursquare.com/v/bull--vic/4b62d99af964a52072552ae3","categoryId":"4bf58dd8d48988d11b941735","category":"Pub","checkinsCount":186,"usersCount":70,"tipCount":6,"visitsCount":197,"tier":"","message":"","currency":"","rating":7.1},{"name":"The Woodlands (Beefeater)","phone":"+441474533556","twitter":"beefeater","address":"Wrotham Rd","lat":51.43168436775641,"lng":0.3640879483228785,"city_fetched":"Grays,UK","state":"Kent","country":"United Kingdom","canonicalUrl":"https://foursquare.com/v/the-woodlands-beefeater/4bdc71d82a3a0f47a4ddb2b6","categoryId":"4bf58dd8d48988d11b941735","category":"Pub","checkinsCount":477,"usersCount":201,"tipCount":6,"visitsCount":618,"url":"http://www.beefeater.co.uk/steak-restaurant/Kent/Woodlands-Gravesend.html","tier":"","message":"","currency":"","rating":7},{"name":"Air & Breathe Nightclub","phone":"+441322222423","twitter":"airandbreathe","address":"35-37 Essex Rd","lat":51.44595689490147,"lng":0.21443612527267022,"city_fetched":"Grays,UK","state":"Kent","country":"United Kingdom","canonicalUrl":"https://foursquare.com/v/air--breathe-nightclub/4bedc092a40fc928f072820c","categoryId":"4bf58dd8d48988d11f941735","category":"Nightclub","checkinsCount":151,"usersCount":71,"tipCount":4,"visitsCount":155,"url":"http://www.airandbreathe.com/dartford/","tier":"","message":"","currency":"","rating":7},{"name":"Manor Farm Barn - Shepherd Neame","phone":"+441474834967","address":"New Barn Road","lat":51.4134106517425,"lng":0.32873690128326416,"city_fetched":"Grays,UK","state":"Kent","country":"United Kingdom","canonicalUrl":"https://foursquare.com/v/manor-farm-barn--shepherd-neame/4aec9eabf964a52087c921e3","categoryId":"4bf58dd8d48988d11b941735","category":"Pub","checkinsCount":113,"usersCount":74,"tipCount":3,"visitsCount":115,"url":"http://www.shepherdneame.co.uk","tier":"","message":"","currency":"","rating":6.9},{"name":"fighting cocks","address":"The Street","lat":51.39147219750637,"lng":0.24013012647628784,"city_fetched":"Grays,UK","country":"United Kingdom","canonicalUrl":"https://foursquare.com/v/fighting-cocks/4bc97712b6c49c7405878e91","categoryId":"4bf58dd8d48988d11b941735","category":"Pub","checkinsCount":137,"usersCount":140,"tipCount":5,"visitsCount":217,"url":"http://www.fightingcockshortonkirby.co.uk","tier":"","message":"","currency":"","rating":6.9},{"name":"The Wharf","phone":"+441322229939","address":"Galleon Blvd.","lat":51.45290377348424,"lng":0.2536886930465698,"city_fetched":"Grays,UK","state":"Kent","country":"United Kingdom","canonicalUrl":"https://foursquare.com/v/the-wharf/4bf16c8a78a2a59321eb9efd","categoryId":"4bf58dd8d48988d11b941735","category":"Pub","checkinsCount":255,"usersCount":163,"tipCount":1,"visitsCount":347,"url":"http://www.shepherdneame.co.uk","tier":"","message":"","currency":"","rating":6.7},{"name":"The Flying Boat (Wetherspoon)","phone":"+441322421970","address":"36-42 Spital St.","lat":51.444779856012524,"lng":0.2143406867980957,"city_fetched":"Grays,UK","state":"Kent","country":"United Kingdom","canonicalUrl":"https://foursquare.com/v/the-flying-boat-wetherspoon/4bae7c44f964a5203fb83be3","categoryId":"4bf58dd8d48988d11b941735","category":"Pub","checkinsCount":1067,"usersCount":303,"tipCount":11,"visitsCount":1271,"url":"http://www.jdwetherspoon.co.uk","tier":"","message":"","currency":"","rating":6.7},{"name":"The Haywain (Beefeater)","phone":"+441268554500","twitter":"beefeater","address":"High Road, Fobbing","lat":51.55066788196564,"lng":0.466706,"city_fetched":"Grays,UK","state":"Essex","country":"United Kingdom","canonicalUrl":"https://foursquare.com/v/the-haywain-beefeater/4c9bce630313370426954fd5","categoryId":"4bf58dd8d48988d11b941735","category":"Pub","checkinsCount":460,"usersCount":189,"tipCount":3,"visitsCount":590,"url":"http://www.beefeater.co.uk/steak-restaurant/Essex/Haywain-Basildon.html","tier":"","message":"","currency":"","rating":6.7},{"name":"The Worlds End","phone":"+441375840827","address":"Fort Rd","lat":51.452436801198665,"lng":0.3702932306936183,"city_fetched":"Grays,UK","state":"Thurrock","country":"United Kingdom","canonicalUrl":"https://foursquare.com/v/the-worlds-end/4be2b6721dd22d7fcc9694bd","categoryId":"4bf58dd8d48988d11b941735","category":"Pub","checkinsCount":144,"usersCount":107,"tipCount":0,"visitsCount":168,"tier":"","message":"","currency":"","rating":6.5},{"name":"The Paper Moon  (Wetherspoon)","phone":"+441322281127","address":"55 High St.","lat":51.443850102707906,"lng":0.21976339755234714,"city_fetched":"Grays,UK","state":"Kent","country":"United Kingdom","canonicalUrl":"https://foursquare.com/v/the-paper-moon--wetherspoon/4c87aacc821e9eb0c4cc8d89","categoryId":"4bf58dd8d48988d11b941735","category":"Pub","checkinsCount":851,"usersCount":124,"tipCount":3,"visitsCount":874,"url":"http://www.jdwetherspoon.co.uk","tier":"","message":"","currency":"","rating":6.5},{"name":"The Orange Tree - Shepherd Neame","phone":"+441322272483","address":"Hawley Road","lat":51.43380024163564,"lng":0.21527409553527832,"city_fetched":"Grays,UK","state":"Kent","country":"United Kingdom","canonicalUrl":"https://foursquare.com/v/the-orange-tree--shepherd-neame/4c5dc03c7735c9b6d7059072","categoryId":"4bf58dd8d48988d11b941735","category":"Pub","checkinsCount":62,"usersCount":26,"tipCount":1,"visitsCount":65,"url":"http://www.shepherdneame.co.uk","tier":"","message":"","currency":"","rating":6.5},{"name":"The Grapes Caf√© Bar - Shepherd Neame","phone":"+441474533994","address":"Edwin Street","lat":51.441707100640215,"lng":0.3719499707221985,"city_fetched":"Grays,UK","state":"Kent","country":"United Kingdom","canonicalUrl":"https://foursquare.com/v/the-grapes-caf%C3%A9-bar--shepherd-neame/4c2203e013c00f4742be86de","categoryId":"4bf58dd8d48988d11b941735","category":"Pub","checkinsCount":62,"usersCount":24,"tipCount":0,"visitsCount":62,"url":"http://www.shepherdneame.co.uk","tier":"","message":"","currency":"","rating":6.5},{"name":"Stage Door (Shepherd Neame)","phone":"+441322311200","address":"37 Hythe St.","lat":51.445533803026265,"lng":0.21659374237060547,"city_fetched":"Grays,UK","state":"Kent","country":"United Kingdom","canonicalUrl":"https://foursquare.com/v/stage-door-shepherd-neame/4bb8e1cb53649c749e7247fb","categoryId":"4bf58dd8d48988d11b941735","category":"Pub","checkinsCount":47,"usersCount":37,"tipCount":1,"visitsCount":47,"url":"http://www.shepherdneame.co.uk","tier":"","message":"","currency":"","rating":6.4},{"name":"The Rabbits - Shepherd Neame","phone":"+441708868716","address":"783 London Road","lat":51.47575331298486,"lng":0.2759188413619995,"city_fetched":"Grays,UK","state":"Essex","country":"United Kingdom","canonicalUrl":"https://foursquare.com/v/the-rabbits--shepherd-neame/4e674070814db7421776b647","categoryId":"4bf58dd8d48988d11b941735","category":"Pub","checkinsCount":7,"usersCount":7,"tipCount":0,"visitsCount":7,"url":"http://www.shepherdneame.co.uk","tier":"","message":"","currency":"","rating":6.4},{"name":"The Lamb Inn - Shepherd Neame","phone":"+441322615161","address":"Swanley Village","lat":51.4040750015521,"lng":0.20105302333831787,"city_fetched":"Grays,UK","state":"Kent","country":"United Kingdom","canonicalUrl":"https://foursquare.com/v/the-lamb-inn--shepherd-neame/4c51d704d797e21eb2e7bb7c","categoryId":"4bf58dd8d48988d11b941735","category":"Pub","checkinsCount":10,"usersCount":7,"tipCount":0,"visitsCount":12,"url":"http://www.shepherdneame.co.uk","tier":"","message":"","currency":"","rating":6.4},{"name":"Railway Hotel (Ember Inns)","phone":"+441708440028","twitter":"emberinns","address":"Station Ln","lat":51.55400236474789,"lng":0.21898414322167734,"city_fetched":"Grays,UK","state":"Greater London","country":"United Kingdom","canonicalUrl":"https://foursquare.com/v/railway-hotel-ember-inns/4c827da274d7b60c51ba80d8","categoryId":"4bf58dd8d48988d11b941735","category":"Pub","checkinsCount":415,"usersCount":125,"tipCount":2,"visitsCount":488,"url":"http://www.emberinns.co.uk","tier":"","message":"","currency":"","rating":6.2},{"name":"The Royal Oak - Shepherd Neame","phone":"+441322271703","address":"57 Spital Street","lat":51.44511085867339,"lng":0.21352529525756836,"city_fetched":"Grays,UK","state":"Kent","country":"United Kingdom","canonicalUrl":"https://foursquare.com/v/the-royal-oak--shepherd-neame/4c278245f1272d7f994488c5","categoryId":"4bf58dd8d48988d11b941735","category":"Pub","checkinsCount":144,"usersCount":52,"tipCount":1,"visitsCount":144,"url":"http://www.shepherdneame.co.uk","tier":"","message":"","currency":"","rating":6},{"name":"The Robert Pocock (Wetherspoon)","phone":"+441474352765","twitter":"jdwtweet","address":"181-183 Windmill St","lat":51.4422304261969,"lng":0.36912404585284003,"city_fetched":"Grays,UK","state":"Kent","country":"United Kingdom","canonicalUrl":"https://foursquare.com/v/the-robert-pocock-wetherspoon/4c87ab10821e9eb003cd8d89","categoryId":"4bf58dd8d48988d11b941735","category":"Pub","checkinsCount":498,"usersCount":173,"tipCount":6,"visitsCount":535,"url":"http://www.jdwetherspoon.co.uk","tier":"","message":"","currency":"","rating":5.9},{"name":"The Rum Puncheon","phone":"+441474353434","address":"87 West St","lat":51.44496987295051,"lng":0.36847158108790384,"city_fetched":"Grays,UK","state":"Kent","country":"United Kingdom","canonicalUrl":"https://foursquare.com/v/the-rum-puncheon/4bd34941046076b001af7571","categoryId":"4bf58dd8d48988d11b941735","category":"Pub","checkinsCount":121,"usersCount":64,"tipCount":4,"visitsCount":122,"url":"http://www.therumpuncheon.co.uk","tier":"","message":"","currency":"","rating":5.8},{"name":"Brewers Fayre","phone":"+448701977253","address":"Howard Road","lat":51.4907261360225,"lng":0.29069244861602783,"city_fetched":"Grays,UK","state":"Essex","country":"United Kingdom","canonicalUrl":"https://foursquare.com/v/brewers-fayre/4bddb4fa0ee3a5936b4f2eb0","categoryId":"4bf58dd8d48988d11b941735","category":"Pub","checkinsCount":283,"usersCount":108,"tipCount":0,"visitsCount":288,"tier":"","message":"","currency":"","rating":5.7},{"name":"Optimist Tavern (Ember Inns)","phone":"+441708641530","twitter":"emberinns","address":"Hacton Ln","lat":51.54864685974923,"lng":0.23352384567260742,"neighborhood":"Upminster","city_fetched":"Grays,UK","state":"Greater London","country":"United Kingdom","canonicalUrl":"https://foursquare.com/v/optimist-tavern-ember-inns/4adb4f9cf964a520c82521e3","categoryId":"4bf58dd8d48988d11b941735","category":"Pub","checkinsCount":86,"usersCount":60,"tipCount":4,"visitsCount":100,"url":"http://www.emberinns.co.uk","tier":"","message":"","currency":"","rating":5.5},{"name":"The Albion","address":"2 Rainham Rd","lat":51.5229634761449,"lng":0.19165992736816406,"city_fetched":"Grays,UK","state":"Greater London","country":"United Kingdom","canonicalUrl":"https://foursquare.com/v/the-albion/4c755bfbc219224b5f4aa228","categoryId":"4bf58dd8d48988d11b941735","category":"Pub","checkinsCount":132,"usersCount":65,"tipCount":4,"visitsCount":133,"tier":"","message":"","currency":"","rating":5.5},{"name":"Huntsman & Hounds (Ember Inns)","phone":"+441708221672","twitter":"emberinns","address":"Ockendon Rd","lat":51.54271,"lng":0.251967,"neighborhood":"Upminster","city_fetched":"Grays,UK","state":"Greater London","country":"United Kingdom","canonicalUrl":"https://foursquare.com/v/huntsman--hounds-ember-inns/4adb5056f964a520cf2521e3","categoryId":"4bf58dd8d48988d11b941735","category":"Pub","checkinsCount":142,"usersCount":115,"tipCount":3,"visitsCount":220,"tier":"","message":"","currency":"","rating":5.2}]