[{"name":"The Ferry Inn","phone":"+441493751096","address":"Ferry Lane, Stokesby","lat":52.637796,"lng":1.591828,"city_fetched":"Great Yarmouth,UK","state":"Norfolk","country":"United Kingdom","canonicalUrl":"https://foursquare.com/v/the-ferry-inn/4c4aff9fbad7a593ace639ab","categoryId":"50327c8591d4c4b30a586d5d","category":"Brewery","checkinsCount":128,"usersCount":57,"tipCount":5,"visitsCount":146,"tier":"","message":"","currency":"","rating":7.1},{"name":"The Troll Cart (Wetherspoon)","phone":"+441493332932","address":"7-9 Regent Rd.","lat":52.607217563985294,"lng":1.7290592193603516,"city_fetched":"Great Yarmouth,UK","state":"Norfolk","country":"United Kingdom","canonicalUrl":"https://foursquare.com/v/the-troll-cart-wetherspoon/4c87ab11821e9eb004cd8d89","categoryId":"4bf58dd8d48988d11b941735","category":"Pub","checkinsCount":1430,"usersCount":390,"tipCount":5,"visitsCount":1582,"url":"http://www.jdwetherspoon.co.uk","tier":"","message":"","currency":"","rating":7},{"name":"Captain Manby Toby Carvery","address":"Beaufort Way","lat":52.55619532668891,"lng":1.716031248451451,"city_fetched":"Great Yarmouth,UK","state":"Norfolk","country":"United Kingdom","canonicalUrl":"https://foursquare.com/v/captain-manby-toby-carvery/4bd07a58caff9521fdddcef0","categoryId":"4bf58dd8d48988d11b941735","category":"Pub","checkinsCount":291,"usersCount":177,"tipCount":3,"visitsCount":340,"tier":"","message":"","currency":"","rating":6.8},{"name":"The Barking Smack","address":"16 Marine Parade","lat":52.60232854682154,"lng":1.7359849442659347,"city_fetched":"Great Yarmouth,UK","state":"Norfolk","country":"United Kingdom","canonicalUrl":"https://foursquare.com/v/the-barking-smack/4fc28599e4b00f3597c2235f","categoryId":"4bf58dd8d48988d11b941735","category":"Pub","checkinsCount":84,"usersCount":69,"tipCount":3,"visitsCount":84,"tier":"","message":"","currency":"","rating":6.2},{"name":"Fisherman's Return","phone":"+441493393305","address":"The Lane","lat":52.714771119993436,"lng":1.6927313804626465,"city_fetched":"Great Yarmouth,UK","state":"Norfolk","country":"United Kingdom","canonicalUrl":"https://foursquare.com/v/fishermans-return/4c12bf298aedd13ab3595137","categoryId":"4bf58dd8d48988d11b941735","category":"Pub","checkinsCount":75,"usersCount":38,"tipCount":4,"visitsCount":81,"tier":"","message":"","currency":"","rating":6},{"name":"Mash & Barrel","address":"haven seashore","lat":52.63575895158146,"lng":1.7377801043314018,"city_fetched":"Great Yarmouth,UK","state":"Norfolk","country":"United Kingdom","canonicalUrl":"https://foursquare.com/v/mash--barrel/4be9b084415e20a14524e4bb","categoryId":"4bf58dd8d48988d116941735","category":"Bar","checkinsCount":130,"usersCount":62,"tipCount":4,"visitsCount":131,"tier":"","message":"","currency":"","rating":5.8}]