[{"name":"The Yarborough Hotel (Wetherspoon)","phone":"+441472268283","address":"29 Bethlehem St.","lat":53.56388841159654,"lng":-0.08755924550018727,"city_fetched":"Grimsby,UK","state":"North East Lincolnshire","country":"United Kingdom","canonicalUrl":"https://foursquare.com/v/the-yarborough-hotel-wetherspoon/4c87ab14821e9eb007cd8d89","categoryId":"4bf58dd8d48988d11b941735","category":"Pub","checkinsCount":1079,"usersCount":168,"tipCount":7,"visitsCount":1112,"url":"http://www.jdwetherspoon.co.uk","tier":"","message":"","currency":"","rating":7.3},{"name":"Pear Tree","phone":"+441472601092","address":"Grimsby Rd.","lat":53.53874225550249,"lng":-0.04345966218703825,"city_fetched":"Grimsby,UK","state":"North East Lincolnshire","country":"United Kingdom","canonicalUrl":"https://foursquare.com/v/pear-tree/4c9a0e8878fc236a5b0c3297","categoryId":"4bf58dd8d48988d11b941735","category":"Pub","checkinsCount":186,"usersCount":89,"tipCount":5,"visitsCount":198,"tier":"","message":"","currency":"","rating":7.1},{"name":"The Wellow","phone":"+441472695589","address":"Kings Rd","lat":53.547985553741455,"lng":-0.015699,"city_fetched":"Grimsby,UK","state":"North East Lincolnshire","country":"United Kingdom","canonicalUrl":"https://foursquare.com/v/the-wellow/4c13990a7f7f2d7f1047df68","categoryId":"4bf58dd8d48988d11b941735","category":"Pub","checkinsCount":162,"usersCount":104,"tipCount":4,"visitsCount":166,"tier":"","message":"","currency":"","rating":7.1},{"name":"Willy's Pub and Brewery","phone":"+441472602145","address":"17 High Cliff Road","lat":53.5566420383931,"lng":-0.023132205366081772,"city_fetched":"Grimsby,UK","state":"North East Lincolnshire","country":"United Kingdom","canonicalUrl":"https://foursquare.com/v/willys-pub-and-brewery/4da05d6d784f370472ca97af","categoryId":"50327c8591d4c4b30a586d5d","category":"Brewery","checkinsCount":172,"usersCount":62,"tipCount":1,"visitsCount":179,"tier":"","message":"","currency":"","rating":6.9},{"name":"The Trawlerman","phone":"+441472811893","address":"North Sea Lane","lat":53.536978,"lng":-0.0073299613965244126,"city_fetched":"Grimsby,UK","state":"North Lincolnshire","country":"United Kingdom","canonicalUrl":"https://foursquare.com/v/the-trawlerman/4d9dfe5dc4b53704a3d8232e","categoryId":"4bf58dd8d48988d11b941735","category":"Pub","checkinsCount":147,"usersCount":82,"tipCount":3,"visitsCount":163,"tier":"","message":"","currency":"","rating":6.7},{"name":"The Signal Box Inn - Smallest Pub on The Planet","address":"Lakeside Station, Kings Rd","lat":53.543413,"lng":-0.009977,"city_fetched":"Grimsby,UK","state":"North East Lincolnshire","country":"United Kingdom","canonicalUrl":"https://foursquare.com/v/the-signal-box-inn--smallest-pub-on-the-planet/4f7844f1e4b01af713a65fae","categoryId":"4bf58dd8d48988d11b941735","category":"Pub","checkinsCount":74,"usersCount":46,"tipCount":3,"visitsCount":84,"tier":"","message":"","currency":"","rating":6.6},{"name":"The Wheatsheaf","phone":"+441472246821","address":"Bargate","lat":53.55772218608372,"lng":-0.09115219116210938,"city_fetched":"Grimsby,UK","state":"North East Lincolnshire","country":"United Kingdom","canonicalUrl":"https://foursquare.com/v/the-wheatsheaf/4b840fa0f964a520221e31e3","categoryId":"4bf58dd8d48988d11b941735","category":"Pub","checkinsCount":1432,"usersCount":134,"tipCount":3,"visitsCount":1547,"tier":"","message":"","currency":"","rating":6.4},{"name":"The Barge","phone":"+441472340911","address":"Victoria Street","lat":53.566082820198496,"lng":-0.08325576782226562,"city_fetched":"Grimsby,UK","state":"North East Lincolnshire","country":"United Kingdom","canonicalUrl":"https://foursquare.com/v/the-barge/4bdaed7c2a3a0f47308dacb6","categoryId":"4bf58dd8d48988d116941735","category":"Bar","checkinsCount":279,"usersCount":103,"tipCount":7,"visitsCount":280,"tier":"","message":"","currency":"","rating":6.3},{"name":"Jug & Bottle","lat":53.499036,"lng":-0.065874,"city_fetched":"Grimsby,UK","country":"United Kingdom","canonicalUrl":"https://foursquare.com/v/jug--bottle/4c37506293db0f47de841f92","categoryId":"4bf58dd8d48988d116941735","category":"Bar","checkinsCount":112,"usersCount":88,"tipCount":3,"visitsCount":143,"tier":"","message":"","currency":"","rating":6.3},{"name":"Ice Barque (Wetherspoon)","phone":"+441472243720","address":"Unit 4 Riverhead Frederick Ward Way","lat":53.566644650248676,"lng":-0.08317326018527134,"city_fetched":"Grimsby,UK","state":"North East Lincolnshire","country":"United Kingdom","canonicalUrl":"https://foursquare.com/v/ice-barque-wetherspoon/4c87ab13821e9eb006cd8d89","categoryId":"4bf58dd8d48988d11b941735","category":"Pub","checkinsCount":322,"usersCount":92,"tipCount":3,"visitsCount":322,"url":"http://www.jdwetherspoon.co.uk","tier":"","message":"","currency":"","rating":6.1},{"name":"The Trawl","phone":"+441472343372","address":"Yarborough Rd","lat":53.562556221656536,"lng":-0.1240245481964094,"city_fetched":"Grimsby,UK","state":"North East Lincolnshire","country":"United Kingdom","canonicalUrl":"https://foursquare.com/v/the-trawl/4c5476574623be9a780fd5f2","categoryId":"4bf58dd8d48988d11b941735","category":"Pub","checkinsCount":1018,"usersCount":120,"tipCount":5,"visitsCount":1066,"tier":"","message":"","currency":"","rating":6},{"name":"Brewers Fayre","phone":"+448701977121","address":"Appian Way","lat":53.57907930465945,"lng":-0.10853290557861328,"city_fetched":"Grimsby,UK","state":"Lincolnshire","country":"United Kingdom","canonicalUrl":"https://foursquare.com/v/brewers-fayre/4c4efe27960e76b08e3025e7","categoryId":"4bf58dd8d48988d11b941735","category":"Pub","checkinsCount":82,"usersCount":55,"tipCount":1,"visitsCount":94,"tier":"","message":"","currency":"","rating":6},{"name":"Rose and Crown","address":"Louth Road","lat":53.53660933135042,"lng":-0.08999347686767578,"city_fetched":"Grimsby,UK","country":"United Kingdom","canonicalUrl":"https://foursquare.com/v/rose-and-crown/4bb37e1beb3e95212932cb0a","categoryId":"4bf58dd8d48988d11b941735","category":"Pub","checkinsCount":94,"usersCount":57,"tipCount":2,"visitsCount":103,"tier":"","message":"","currency":"","rating":5.8}]