[{"name":"The Drummond","phone":"+441483579395","twitter":"drummondbulldog","address":"55-56 Woodbridge Rd","lat":51.24133950313797,"lng":-0.5758380889892578,"city_fetched":"Guildford,UK","state":"Surrey","country":"United Kingdom","canonicalUrl":"https://foursquare.com/v/the-drummond/4b40ce65f964a5205ebb25e3","categoryId":"4bf58dd8d48988d11b941735","category":"Pub","checkinsCount":1780,"usersCount":601,"tipCount":29,"visitsCount":2101,"url":"http://www.thedrummondguildford.co.uk","tier":"","message":"","currency":"","rating":8.8},{"name":"The Red Lion","phone":"+441483768497","address":"123 High St","lat":51.323533595038704,"lng":-0.5714823278330757,"city_fetched":"Guildford,UK","state":"Surrey","country":"United Kingdom","canonicalUrl":"https://foursquare.com/v/the-red-lion/4b2c3421f964a520b4c324e3","categoryId":"4bf58dd8d48988d11b941735","category":"Pub","checkinsCount":1241,"usersCount":429,"tipCount":14,"visitsCount":1580,"url":"http://www.redlionhorsell.co.uk","tier":2,"message":"Moderate","currency":"£","rating":8.7},{"name":"The Weyside","phone":"+441483568024","twitter":"weyside","address":"Millbrook","lat":51.23155028087051,"lng":-0.572927,"city_fetched":"Guildford,UK","state":"Surrey","country":"United Kingdom","canonicalUrl":"https://foursquare.com/v/the-weyside/4b894378f964a520e72632e3","categoryId":"4bf58dd8d48988d11b941735","category":"Pub","checkinsCount":697,"usersCount":738,"tipCount":16,"visitsCount":1120,"url":"http://www.theweyside.co.uk","tier":"","message":"","currency":"","rating":8.3},{"name":"The White House","phone":"+441483302006","twitter":"whitehouse888","address":"8 High St","lat":51.2348478512148,"lng":-0.5769214584252649,"city_fetched":"Guildford,UK","state":"Surrey","country":"United Kingdom","canonicalUrl":"https://foursquare.com/v/the-white-house/4b6de739f964a520769a2ce3","categoryId":"4bf58dd8d48988d11b941735","category":"Pub","checkinsCount":1229,"usersCount":762,"tipCount":15,"visitsCount":1410,"url":"http://whitehouseguildford.co.uk","tier":"","message":"","currency":"","rating":8.2},{"name":"White Hart","phone":"+441428683695","twitter":"witleywhitehart","address":"Petworth Rd","lat":51.148616,"lng":-0.6466979999999865,"city_fetched":"Guildford,UK","state":"Surrey","country":"United Kingdom","canonicalUrl":"https://foursquare.com/v/white-hart/4bf6efe4b182c9b69fcb745a","categoryId":"4bf58dd8d48988d11b941735","category":"Pub","checkinsCount":115,"usersCount":57,"tipCount":3,"visitsCount":125,"url":"http://whitehartwitley.co.uk","tier":"","message":"","currency":"","rating":8},{"name":"The King's Head","phone":"+441483568957","address":"27 King Rd","lat":51.234176,"lng":-0.573656,"city_fetched":"Guildford,UK","state":"Surrey","country":"United Kingdom","canonicalUrl":"https://foursquare.com/v/the-kings-head/4b426047f964a520a4d225e3","categoryId":"4bf58dd8d48988d11b941735","category":"Pub","checkinsCount":990,"usersCount":550,"tipCount":13,"visitsCount":1134,"url":"http://www.thekingsheadpub.co.uk","tier":"","message":"","currency":"","rating":7.9},{"name":"The Albany","phone":"+441483572401","twitter":"guildfordalbany","address":"80 Sydenham Rd","lat":51.23687122552597,"lng":-0.5666781994529876,"city_fetched":"Guildford,UK","state":"Surrey","country":"United Kingdom","canonicalUrl":"https://foursquare.com/v/the-albany/4b56243af964a5204f0228e3","categoryId":"4bf58dd8d48988d11b941735","category":"Pub","checkinsCount":717,"usersCount":251,"tipCount":12,"visitsCount":794,"url":"http://www.thealbanypubguildford.co.uk","tier":"","message":"","currency":"","rating":7.8},{"name":"The Keystone","phone":"+441483575089","twitter":"thekeystonepub","address":"3 Portsmouth Rd","lat":51.23437208365849,"lng":-0.5779758095741272,"city_fetched":"Guildford,UK","state":"Surrey","country":"United Kingdom","canonicalUrl":"https://foursquare.com/v/the-keystone/4bb475f449bdc9b65bcb0c10","categoryId":"4bf58dd8d48988d11b941735","category":"Pub","checkinsCount":448,"usersCount":203,"tipCount":19,"visitsCount":466,"url":"http://www.thekeystone.co.uk","tier":"","message":"","currency":"","rating":7.7},{"name":"White Hart","phone":"+441483235939","address":"White Hart Ln","lat":51.25011,"lng":-0.636736,"city_fetched":"Guildford,UK","state":"Surrey","country":"United Kingdom","canonicalUrl":"https://foursquare.com/v/white-hart/4d987f7961a3a1cd32aace42","categoryId":"4bf58dd8d48988d11b941735","category":"Pub","checkinsCount":137,"usersCount":125,"tipCount":7,"visitsCount":213,"url":"http://www.thewhitehartpub.com","tier":"","message":"","currency":"","rating":7.7},{"name":"Withies Inn","phone":"+441483421158","address":"Withies Ln","lat":51.21199,"lng":-0.621551,"city_fetched":"Guildford,UK","state":"Surrey","country":"United Kingdom","canonicalUrl":"https://foursquare.com/v/withies-inn/4c1a1c70838020a137aae661","categoryId":"4bf58dd8d48988d11b941735","category":"Pub","checkinsCount":118,"usersCount":151,"tipCount":6,"visitsCount":184,"url":"http://thewithiesinn.com","tier":"","message":"","currency":"","rating":7.6},{"name":"The King's Head","phone":"+441483568957","twitter":"kingsheadgford","address":"25-27 Kings Rd","lat":51.242570307432885,"lng":-0.5709833490748393,"city_fetched":"Guildford,UK","state":"Surrey","country":"United Kingdom","canonicalUrl":"https://foursquare.com/v/the-kings-head/4b48a60ff964a5208c5126e3","categoryId":"4bf58dd8d48988d11b941735","category":"Pub","checkinsCount":1783,"usersCount":260,"tipCount":8,"visitsCount":1869,"url":"http://kingsheadguildford.co.uk","tier":"","message":"","currency":"","rating":7.6},{"name":"Cliche Shisha Cafe","phone":"+447583254243","twitter":"cliche_shisha","address":"9 Madrid Rd","lat":51.23759997483259,"lng":-0.5868869789435164,"city_fetched":"Guildford,UK","state":"Surrey","country":"United Kingdom","canonicalUrl":"https://foursquare.com/v/cliche-shisha-cafe/4e7627862271ffa4e74060da","categoryId":"4bf58dd8d48988d119941735","category":"Hookah Bar","checkinsCount":195,"usersCount":140,"tipCount":10,"visitsCount":297,"url":"http://www.clicheshishalounge.co.uk","tier":"","message":"","currency":"","rating":7.5},{"name":"The White Hart","phone":"+441483799715","address":"The Green","lat":51.29348520333045,"lng":-0.6453609466552734,"city_fetched":"Guildford,UK","state":"Surrey","country":"United Kingdom","canonicalUrl":"https://foursquare.com/v/the-white-hart/4b8a92fcf964a520ff7232e3","categoryId":"4bf58dd8d48988d11b941735","category":"Pub","checkinsCount":368,"usersCount":248,"tipCount":8,"visitsCount":497,"url":"http://www.thewhitehartpirbright.co.uk","tier":"","message":"","currency":"","rating":7.5},{"name":"The Robin Hood","phone":"+441483888307","address":"Sydenham Rd","lat":51.23603403568268,"lng":-0.568686,"city_fetched":"Guildford,UK","state":"Surrey","country":"United Kingdom","canonicalUrl":"https://foursquare.com/v/the-robin-hood/4b490136f964a520a56126e3","categoryId":"4bf58dd8d48988d11b941735","category":"Pub","checkinsCount":106,"usersCount":77,"tipCount":8,"visitsCount":123,"tier":"","message":"","currency":"","rating":7.5},{"name":"The Seahorse","phone":"+441483514351","address":"The St","lat":51.21880354411032,"lng":-0.5689385918870818,"city_fetched":"Guildford,UK","state":"Surrey","country":"United Kingdom","canonicalUrl":"https://foursquare.com/v/the-seahorse/4bd8b0442e6f0f4754240808","categoryId":"4bf58dd8d48988d11b941735","category":"Pub","checkinsCount":284,"usersCount":245,"tipCount":16,"visitsCount":379,"url":"http://www.theseahorseguildford.co.uk","tier":"","message":"","currency":"","rating":7.4},{"name":"The Stoke","phone":"+441483504296","twitter":"thestoketweets","address":"103 Stoke Rd","lat":51.24255678685676,"lng":-0.5714819462412327,"city_fetched":"Guildford,UK","state":"Surrey","country":"United Kingdom","canonicalUrl":"https://foursquare.com/v/the-stoke/4b48c8a8f964a520cb5626e3","categoryId":"4bf58dd8d48988d11b941735","category":"Pub","checkinsCount":1097,"usersCount":411,"tipCount":28,"visitsCount":1246,"url":"http://www.thestoke.co.uk","tier":"","message":"","currency":"","rating":7.4},{"name":"The Britannia - Shepherd Neame","phone":"+441483572160","address":"9 Millmead","lat":51.233135936401446,"lng":-0.5761026625333201,"city_fetched":"Guildford,UK","state":"Surrey","country":"United Kingdom","canonicalUrl":"https://foursquare.com/v/the-britannia--shepherd-neame/4bb504a30ef1c9b6dbc2f412","categoryId":"4bf58dd8d48988d11b941735","category":"Pub","checkinsCount":656,"usersCount":478,"tipCount":12,"visitsCount":881,"url":"http://www.shepherdneame.co.uk","tier":"","message":"","currency":"","rating":7.3},{"name":"Rogues Bar","phone":"+441483579455","twitter":"roguesbar","address":"58 Epsom Rd","lat":51.23763173808256,"lng":-0.5610001087188721,"city_fetched":"Guildford,UK","state":"Surrey","country":"United Kingdom","canonicalUrl":"https://foursquare.com/v/rogues-bar/4ba55291f964a5209afa38e3","categoryId":"4bf58dd8d48988d11b941735","category":"Pub","checkinsCount":495,"usersCount":241,"tipCount":9,"visitsCount":779,"tier":"","message":"","currency":"","rating":7.3},{"name":"Rubix","twitter":"surrey_union","address":"Union House, Stag Hill","lat":51.24236042944634,"lng":-0.5869960784912109,"city_fetched":"Guildford,UK","state":"Surrey","country":"United Kingdom","canonicalUrl":"https://foursquare.com/v/rubix/4bdca490c79cc9284a7d87e9","categoryId":"4bf58dd8d48988d11f941735","category":"Nightclub","checkinsCount":706,"usersCount":239,"tipCount":5,"visitsCount":764,"url":"http://www.ussu.co.uk","tier":"","message":"","currency":"","rating":7.2},{"name":"Bar des Arts","phone":"+441483453227","twitter":"bardesarts_gu1","address":"Millbrook","lat":51.233977,"lng":-0.5746227500000001,"city_fetched":"Guildford,UK","state":"Surrey","country":"United Kingdom","canonicalUrl":"https://foursquare.com/v/bar-des-arts/4c38d18618e72d7fd21619f5","categoryId":"4bf58dd8d48988d11e941735","category":"Cocktail Bar","checkinsCount":152,"usersCount":90,"tipCount":7,"visitsCount":152,"url":"http://www.bardesarts.co.uk","tier":"","message":"","currency":"","rating":7.1},{"name":"Horse & Groom","phone":"+441483575375","address":"Epsom Road","lat":51.24614672635736,"lng":-0.5279016494750977,"city_fetched":"Guildford,UK","state":"Surrey","country":"United Kingdom","canonicalUrl":"https://foursquare.com/v/horse--groom/4b92cb0bf964a520501c34e3","categoryId":"4bf58dd8d48988d11b941735","category":"Pub","checkinsCount":326,"usersCount":206,"tipCount":2,"visitsCount":441,"tier":"","message":"","currency":"","rating":7},{"name":"The Five & Lime","phone":"+441483568979","twitter":"fiveandlimebar","address":"3 Leapale Rd","lat":51.236908,"lng":-0.573695,"city_fetched":"Guildford,UK","state":"Surrey","country":"United Kingdom","canonicalUrl":"https://foursquare.com/v/the-five--lime/4b426369f964a520e3d225e3","categoryId":"4bf58dd8d48988d11b941735","category":"Pub","checkinsCount":994,"usersCount":460,"tipCount":11,"visitsCount":1062,"url":"http://fiveandlimebar.co.uk","tier":"","message":"","currency":"","rating":6.9},{"name":"All Bar One","phone":"+441483573534","twitter":"yourallbarone","address":"17 North St","lat":51.236555,"lng":-0.574196,"city_fetched":"Guildford,UK","state":"Surrey","country":"United Kingdom","canonicalUrl":"https://foursquare.com/v/all-bar-one/4b5896d3f964a520ed5f28e3","categoryId":"4bf58dd8d48988d116941735","category":"Bar","checkinsCount":897,"usersCount":452,"tipCount":10,"visitsCount":963,"url":"http://www.allbarone.co.uk","tier":"","message":"","currency":"","rating":6.8},{"name":"The Legion","phone":"+441483566757","twitter":"legionguildford","address":"Millbrook","lat":51.233886,"lng":-0.574395,"city_fetched":"Guildford,UK","state":"Surrey","country":"United Kingdom","canonicalUrl":"https://foursquare.com/v/the-legion/4b887d31f964a520b7fb31e3","categoryId":"4bf58dd8d48988d11f941735","category":"Nightclub","checkinsCount":351,"usersCount":175,"tipCount":2,"visitsCount":358,"url":"http://guildfordlegion.com","tier":"","message":"","currency":"","rating":6.7},{"name":"The George Abbot","phone":"+441483456890","address":"7-11 High St","lat":51.235186599066246,"lng":-0.5779409408569336,"city_fetched":"Guildford,UK","state":"Surrey","country":"United Kingdom","canonicalUrl":"https://foursquare.com/v/the-george-abbot/4b4447f8f964a5206cf325e3","categoryId":"4bf58dd8d48988d11b941735","category":"Pub","checkinsCount":529,"usersCount":266,"tipCount":8,"visitsCount":572,"url":"http://www.georgeabbot-guildford.co.uk","tier":"","message":"","currency":"","rating":6.6},{"name":"The Star Inn","phone":"+441483532887","address":"2 Quarry St","lat":51.23501026190194,"lng":-0.5749610066413879,"city_fetched":"Guildford,UK","state":"Surrey","country":"United Kingdom","canonicalUrl":"https://foursquare.com/v/the-star-inn/4b425ec9f964a52086d225e3","categoryId":"4bf58dd8d48988d11b941735","category":"Pub","checkinsCount":742,"usersCount":349,"tipCount":12,"visitsCount":790,"url":"http://www.shepherdneame.co.uk","tier":"","message":"","currency":"","rating":6.6},{"name":"The Rowbarge","phone":"+441483573358","address":"7 Riverside","lat":51.25055105804697,"lng":-0.5729025186239382,"city_fetched":"Guildford,UK","state":"Surrey","country":"United Kingdom","canonicalUrl":"https://foursquare.com/v/the-rowbarge/4b484917f964a520184b26e3","categoryId":"4bf58dd8d48988d11b941735","category":"Pub","checkinsCount":203,"usersCount":85,"tipCount":4,"visitsCount":217,"url":"http://www.therowbargeguildford.com/index","tier":"","message":"","currency":"","rating":6.6},{"name":"The Royal Oak","phone":"+441483301988","address":"15 Trinity Churchyard","lat":51.23540322079267,"lng":-0.5700997163948699,"city_fetched":"Guildford,UK","state":"Surrey","country":"United Kingdom","canonicalUrl":"https://foursquare.com/v/the-royal-oak/4b444648f964a52049f325e3","categoryId":"4bf58dd8d48988d11b941735","category":"Pub","checkinsCount":322,"usersCount":122,"tipCount":11,"visitsCount":324,"url":"http://www.royaloakguildford.co.uk","tier":"","message":"","currency":"","rating":6.4},{"name":"The Three Pigeons","phone":"+441483574310","address":"169 High St","lat":51.236318,"lng":-0.57055,"city_fetched":"Guildford,UK","state":"Surrey","country":"United Kingdom","canonicalUrl":"https://foursquare.com/v/the-three-pigeons/4b411f2bf964a52082c125e3","categoryId":"4bf58dd8d48988d11b941735","category":"Pub","checkinsCount":805,"usersCount":514,"tipCount":14,"visitsCount":912,"url":"http://www.threepigeonsguildford.co.uk","tier":"","message":"","currency":"","rating":6.4},{"name":"Wates House","phone":"+441483689056","address":"University of Surrey","lat":51.2420380341127,"lng":-0.5908584594726562,"city_fetched":"Guildford,UK","state":"Surrey","country":"United Kingdom","canonicalUrl":"https://foursquare.com/v/wates-house/4c582015a7d976b0130cddee","categoryId":"4bf58dd8d48988d11b941735","category":"Pub","checkinsCount":562,"usersCount":187,"tipCount":4,"visitsCount":621,"url":"http://www.surrey.ac.uk/wates/","tier":"","message":"","currency":"","rating":6.3},{"name":"Alley Bar","phone":"+441483300999","address":"3 Milkhouse Gate","lat":51.235528,"lng":-0.571487545967102,"city_fetched":"Guildford,UK","state":"Surrey","country":"United Kingdom","canonicalUrl":"https://foursquare.com/v/alley-bar/4b4a4b93f964a520b68226e3","categoryId":"4bf58dd8d48988d116941735","category":"Bar","checkinsCount":588,"usersCount":219,"tipCount":7,"visitsCount":612,"url":"http://www.thealleybarguildford.com","tier":"","message":"","currency":"","rating":6.1},{"name":"The Parkway","address":"Parkway","lat":51.24813559060137,"lng":-0.5693959682205061,"city_fetched":"Guildford,UK","state":"Surrey","country":"United Kingdom","canonicalUrl":"https://foursquare.com/v/the-parkway/4c4f275651c2c9288af1859f","categoryId":"4bf58dd8d48988d11b941735","category":"Pub","checkinsCount":92,"usersCount":62,"tipCount":1,"visitsCount":92,"tier":"","message":"","currency":"","rating":5.9},{"name":"The Rodboro Buildings (Wetherspoon)","phone":"+441483306366","twitter":"rodboroale","address":"1-10 Bridge St","lat":51.23688067425595,"lng":-0.5771560695320407,"city_fetched":"Guildford,UK","state":"Surrey","country":"United Kingdom","canonicalUrl":"https://foursquare.com/v/the-rodboro-buildings-wetherspoon/4b7451e5f964a520fad42de3","categoryId":"4bf58dd8d48988d11b941735","category":"Pub","checkinsCount":2388,"usersCount":1074,"tipCount":19,"visitsCount":2735,"url":"http://www.jdwetherspoon.co.uk","tier":1,"message":"Cheap","currency":"£","rating":5.8},{"name":"Ye Olde Ship Inn","phone":"+441483575731","twitter":"yeoldeshipinn","address":"Portsmouth Rd","lat":51.225673503520696,"lng":-0.5796146392822266,"city_fetched":"Guildford,UK","state":"Surrey","country":"United Kingdom","canonicalUrl":"https://foursquare.com/v/ye-olde-ship-inn/4b9a86c4f964a520f2bd35e3","categoryId":"4bf58dd8d48988d11b941735","category":"Pub","checkinsCount":398,"usersCount":107,"tipCount":5,"visitsCount":449,"tier":"","message":"","currency":"","rating":5.8},{"name":"Pews Bar & Courtyard","phone":"+441483535012","address":"21 Chapel St","lat":51.234926,"lng":-0.573192,"city_fetched":"Guildford,UK","state":"Surrey","country":"United Kingdom","canonicalUrl":"https://foursquare.com/v/pews-bar--courtyard/4b589856f964a520416028e3","categoryId":"4bf58dd8d48988d116941735","category":"Bar","checkinsCount":579,"usersCount":280,"tipCount":11,"visitsCount":593,"url":"http://www.pewsbar.co.uk","tier":"","message":"","currency":"","rating":5.7},{"name":"The Keep","phone":"+441483450600","twitter":"thekeeppub","address":"29-30 Castle St","lat":51.234704,"lng":-0.572574,"city_fetched":"Guildford,UK","state":"Surrey","country":"United Kingdom","canonicalUrl":"https://foursquare.com/v/the-keep/4b48f87ff964a520096026e3","categoryId":"4bf58dd8d48988d11b941735","category":"Pub","checkinsCount":200,"usersCount":135,"tipCount":6,"visitsCount":205,"url":"http://www.thekeepguildford.pub","tier":"","message":"","currency":"","rating":5.6},{"name":"The Wooden Bridge","address":"37 Woodbridge Hill","lat":51.248547,"lng":-0.58514,"city_fetched":"Guildford,UK","state":"Surrey","country":"United Kingdom","canonicalUrl":"https://foursquare.com/v/the-wooden-bridge/4bd86cb6e914a593c92f53fa","categoryId":"4bf58dd8d48988d11b941735","category":"Pub","checkinsCount":341,"usersCount":147,"tipCount":5,"visitsCount":345,"tier":"","message":"","currency":"","rating":5.6},{"name":"The Guildford Tup","phone":"+441483562441","address":"46 Chertsey St","lat":51.237734,"lng":-0.5703823,"city_fetched":"Guildford,UK","state":"Surrey","country":"United Kingdom","canonicalUrl":"https://foursquare.com/v/the-guildford-tup/4b425f85f964a52092d225e3","categoryId":"4bf58dd8d48988d11b941735","category":"Pub","checkinsCount":737,"usersCount":216,"tipCount":12,"visitsCount":764,"url":"http://www.theguildfordtup.com","tier":"","message":"","currency":"","rating":5.5},{"name":"Manor Inn (Beefeater)","phone":"+441483427134","twitter":"beefeatergrill","address":"Guildford Rd","lat":51.19595257313284,"lng":-0.5939054489135742,"city_fetched":"Guildford,UK","state":"Surrey","country":"United Kingdom","canonicalUrl":"https://foursquare.com/v/manor-inn-beefeater/4bd895b6e914a593d6ab53fa","categoryId":"4bf58dd8d48988d11b941735","category":"Pub","checkinsCount":208,"usersCount":159,"tipCount":9,"visitsCount":277,"url":"http://www.beefeater.co.uk","tier":"","message":"","currency":"","rating":5.4},{"name":"Popworld","phone":"+441483306661","twitter":"popworldparty","address":"2-3 Armour Bldg","lat":51.236653015797344,"lng":-0.5778414727666826,"city_fetched":"Guildford,UK","state":"Surrey","country":"United Kingdom","canonicalUrl":"https://foursquare.com/v/popworld/4bf9956a508c0f4788733f31","categoryId":"4bf58dd8d48988d11f941735","category":"Nightclub","checkinsCount":285,"usersCount":169,"tipCount":9,"visitsCount":285,"url":"http://popworld-guildford.co.uk","tier":"","message":"","currency":"","rating":4.8},{"name":"Casino","phone":"+441483865780","twitter":"guildfordcasino","address":"Corner House, Onslow St","lat":51.23719172098434,"lng":-0.5775050498645888,"city_fetched":"Guildford,UK","state":"Surrey","country":"United Kingdom","canonicalUrl":"https://foursquare.com/v/casino/4bb152d2f964a520488c3ce3","categoryId":"4bf58dd8d48988d11f941735","category":"Nightclub","checkinsCount":437,"usersCount":232,"tipCount":7,"visitsCount":449,"url":"http://www.casinonightclub.co.uk","tier":"","message":"","currency":"","rating":4.7}]