[{"name":"Cross Keys","phone":"+441287610035","address":"Middlesbrough Road","lat":54.534083,"lng":-1.12509,"city_fetched":"Guisborough,UK","state":"North Yorkshire","country":"United Kingdom","canonicalUrl":"https://foursquare.com/v/cross-keys/4be5d2f5d4f7c9b69dfc2520","categoryId":"4bf58dd8d48988d116941735","category":"Bar","checkinsCount":42,"usersCount":35,"tipCount":4,"visitsCount":48,"tier":"","message":"","currency":"","rating":7.3},{"name":"The Plimsoll Line (Wetherspoon)","phone":"+441642495250","address":"138-142 High St. E.","lat":54.61723829725989,"lng":-1.060502529144287,"city_fetched":"Guisborough,UK","country":"United Kingdom","canonicalUrl":"https://foursquare.com/v/the-plimsoll-line-wetherspoon/4c87abd5821e9eb0b2cd8d89","categoryId":"4bf58dd8d48988d11b941735","category":"Pub","checkinsCount":202,"usersCount":103,"tipCount":2,"visitsCount":205,"url":"http://www.jdwetherspoon.co.uk","tier":"","message":"","currency":"","rating":6.7},{"name":"The Bay Horse","phone":"+441642712319","address":"88 High St","lat":54.44603893815252,"lng":-1.1553668975830078,"city_fetched":"Guisborough,UK","country":"United Kingdom","canonicalUrl":"https://foursquare.com/v/the-bay-horse/4c8130de309aef3b4e39ba81","categoryId":"4bf58dd8d48988d11b941735","category":"Pub","checkinsCount":58,"usersCount":37,"tipCount":5,"visitsCount":76,"url":"http://thebayhorse-greatbroughton.co.uk","tier":"","message":"","currency":"","rating":6.3},{"name":"Vista Mar","phone":"+441287623771","address":"Saltburn Bank","lat":54.58541380931269,"lng":-0.9689828753471375,"city_fetched":"Guisborough,UK","country":"United Kingdom","canonicalUrl":"https://foursquare.com/v/vista-mar/4b805ed0f964a5203b6c30e3","categoryId":"4bf58dd8d48988d11b941735","category":"Pub","checkinsCount":80,"usersCount":66,"tipCount":4,"visitsCount":80,"url":"http://www.vista-mar.com","tier":"","message":"","currency":"","rating":6.3},{"name":"The Rudds Arms","lat":54.53427529704119,"lng":-1.2048166734503503,"city_fetched":"Guisborough,UK","country":"United Kingdom","canonicalUrl":"https://foursquare.com/v/the-rudds-arms/4bbf6276b083a5933c54a3e9","categoryId":"4bf58dd8d48988d11b941735","category":"Pub","checkinsCount":124,"usersCount":88,"tipCount":3,"visitsCount":140,"tier":"","message":"","currency":"","rating":6.3},{"name":"The Ship","phone":"+441287622361","address":"Saltburn Rd","lat":54.58508895728501,"lng":-0.9651124477386476,"city_fetched":"Guisborough,UK","country":"United Kingdom","canonicalUrl":"https://foursquare.com/v/the-ship/4bc88de114d79521794369e9","categoryId":"4bf58dd8d48988d11b941735","category":"Pub","checkinsCount":74,"usersCount":60,"tipCount":3,"visitsCount":85,"tier":"","message":"","currency":"","rating":6}]