[{"name":"The Peterboat","phone":"+441702475666","address":"27 High Street","lat":51.54034480723487,"lng":0.6491777300834656,"city_fetched":"Hadleigh,UK","state":"Southend-on-Sea","country":"United Kingdom","canonicalUrl":"https://foursquare.com/v/the-peterboat/4bb9f81b7421a5939f35c340","categoryId":"4bf58dd8d48988d11b941735","category":"Pub","checkinsCount":578,"usersCount":536,"tipCount":10,"visitsCount":793,"tier":"","message":"","currency":"","rating":8.3},{"name":"Crooked Billet","phone":"+441702480289","address":"51 High St","lat":51.5406604,"lng":0.64812935,"city_fetched":"Hadleigh,UK","state":"Essex","country":"United Kingdom","canonicalUrl":"https://foursquare.com/v/crooked-billet/4c5ef4797f661b8d006d4f1c","categoryId":"4bf58dd8d48988d11b941735","category":"Pub","checkinsCount":367,"usersCount":178,"tipCount":9,"visitsCount":388,"tier":"","message":"","currency":"","rating":7.3},{"name":"Ye Olde Smack","phone":"+441702476765","address":"7 High St.","lat":51.53985404225119,"lng":0.6512765147427793,"city_fetched":"Hadleigh,UK","state":"Southend-on-Sea","country":"United Kingdom","canonicalUrl":"https://foursquare.com/v/ye-olde-smack/4ee4c5c3823180a98ba13c78","categoryId":"4bf58dd8d48988d11b941735","category":"Pub","checkinsCount":214,"usersCount":145,"tipCount":1,"visitsCount":235,"tier":"","message":"","currency":"","rating":7.1},{"name":"The Elms (Wetherspoon)","phone":"+441702474687","address":"1060 London Rd.","lat":51.54773359160139,"lng":0.6566695557464821,"city_fetched":"Hadleigh,UK","state":"Essex","country":"United Kingdom","canonicalUrl":"https://foursquare.com/v/the-elms-wetherspoon/4c87ab59821e9eb049cd8d89","categoryId":"4bf58dd8d48988d11b941735","category":"Pub","checkinsCount":1113,"usersCount":245,"tipCount":11,"visitsCount":1248,"url":"http://www.jdwetherspoon.co.uk","tier":"","message":"","currency":"","rating":6.3},{"name":"Hoy & Helmet","address":"24 High Rd.","lat":51.545786168875864,"lng":0.5626352742609505,"city_fetched":"Hadleigh,UK","state":"Essex","country":"United Kingdom","canonicalUrl":"https://foursquare.com/v/hoy--helmet/4c4055ecd691c9b63afa8a0a","categoryId":"4bf58dd8d48988d11b941735","category":"Pub","checkinsCount":157,"usersCount":53,"tipCount":3,"visitsCount":159,"tier":"","message":"","currency":"","rating":6},{"name":"The Roebuck (Wetherspoon)","phone":"+441268748430","address":"138 High St.","lat":51.58488916356331,"lng":0.6035725216756127,"city_fetched":"Hadleigh,UK","state":"Essex","country":"United Kingdom","canonicalUrl":"https://foursquare.com/v/the-roebuck-wetherspoon/4c87abd0821e9eb0aecd8d89","categoryId":"4bf58dd8d48988d11b941735","category":"Pub","checkinsCount":603,"usersCount":227,"tipCount":6,"visitsCount":663,"url":"http://www.jdwetherspoon.co.uk","tier":"","message":"","currency":"","rating":5.7},{"name":"Travellers Joy (Hungry Horse)","phone":"+441268784545","address":"Downhall Rd","lat":51.59227235800512,"lng":0.6029713153839111,"city_fetched":"Hadleigh,UK","state":"Essex","country":"United Kingdom","canonicalUrl":"https://foursquare.com/v/travellers-joy-hungry-horse/4be1e4b14283c9b6b9d654f8","categoryId":"4bf58dd8d48988d11b941735","category":"Pub","checkinsCount":223,"usersCount":108,"tipCount":2,"visitsCount":255,"tier":"","message":"","currency":"","rating":5.5},{"name":"The Mayflower Pub","address":"Old Leigh","lat":51.53989341487052,"lng":0.6513873090279358,"city_fetched":"Hadleigh,UK","state":"Essex","country":"United Kingdom","canonicalUrl":"https://foursquare.com/v/the-mayflower-pub/4bb87fb453649c74b80d47fb","categoryId":"4bf58dd8d48988d11b941735","category":"Pub","checkinsCount":143,"usersCount":98,"tipCount":6,"visitsCount":146,"tier":"","message":"","currency":"","rating":5.4}]