[{"name":"Magic Rock Tap","twitter":"magicrocktap","address":"Willow Park Business Centre, Willow Lane","lat":53.655668254758474,"lng":-1.7865407338662642,"neighborhood":"Birkby","city_fetched":"Halifax,UK","state":"Kirklees","country":"United Kingdom","canonicalUrl":"https://foursquare.com/v/magic-rock-tap/55846cb9498ee2645b6bbb0b","categoryId":"4bf58dd8d48988d116941735","category":"Bar","checkinsCount":429,"usersCount":200,"tipCount":10,"visitsCount":600,"url":"http://www.magicrockbrewing.com/tag/magic-rock-tap/","tier":"","message":"","currency":"","rating":9.4},{"name":"The Grove","phone":"+441484430113","twitter":"thegrovehudds","address":"2 Spring Grove St.","lat":53.64421556318612,"lng":-1.789217194772729,"neighborhood":"Newsome","city_fetched":"Halifax,UK","country":"United Kingdom","canonicalUrl":"https://foursquare.com/v/the-grove/4bd1c319b221c9b65317d6d0","categoryId":"4bf58dd8d48988d11b941735","category":"Pub","checkinsCount":1199,"usersCount":307,"tipCount":19,"visitsCount":1370,"url":"http://www.groveinn.co.uk","tier":"","message":"","currency":"","rating":9.2},{"name":"The Sparrow","phone":"+441274270772","twitter":"thesparrowbd1","address":"32 North Parade","lat":53.79724651364551,"lng":-1.7567216313161913,"neighborhood":"City","city_fetched":"Halifax,UK","country":"United Kingdom","canonicalUrl":"https://foursquare.com/v/the-sparrow/4dcc16b76365eedaf112f803","categoryId":"4bf58dd8d48988d116941735","category":"Bar","checkinsCount":561,"usersCount":245,"tipCount":15,"visitsCount":623,"url":"http://thesparrowbradford.co.uk","tier":"","message":"","currency":"","rating":8.9},{"name":"The Shibden Mill Inn","phone":"+441422365840","twitter":"shibdenmill","address":"Shibden Mill Fold","lat":53.741493,"lng":-1.847599,"city_fetched":"Halifax,UK","country":"United Kingdom","canonicalUrl":"https://foursquare.com/v/the-shibden-mill-inn/4be407e9d4f7c9b6748e2320","categoryId":"4bf58dd8d48988d11b941735","category":"Pub","checkinsCount":156,"usersCount":111,"tipCount":4,"visitsCount":174,"url":"http://www.shibdenmillinn.com","tier":"","message":"","currency":"","rating":8.3},{"name":"Al's Dime Bar","twitter":"alsdimebar","address":"10 North Parade","lat":53.796659,"lng":-1.755789,"neighborhood":"City","city_fetched":"Halifax,UK","state":"Bradford","country":"United Kingdom","canonicalUrl":"https://foursquare.com/alsdimebar","categoryId":"4bf58dd8d48988d118941735","category":"Dive Bar","checkinsCount":94,"usersCount":54,"tipCount":10,"visitsCount":105,"url":"http://www.alsdimebar.com","tier":"","message":"","currency":"","rating":8.3},{"name":"The Works","phone":"+441422834821","address":"12 Hollins Mill Lane","lat":53.70884995633531,"lng":-1.9127368927001953,"city_fetched":"Halifax,UK","country":"United Kingdom","canonicalUrl":"https://foursquare.com/v/the-works/4c3787e418e72d7f0fb616f5","categoryId":"4bf58dd8d48988d11b941735","category":"Pub","checkinsCount":318,"usersCount":136,"tipCount":4,"visitsCount":342,"url":"http://www.theworkssowerbybridge.co.uk","tier":"","message":"","currency":"","rating":8.3},{"name":"The Sportsman","phone":"+447766131123","twitter":"thesportsmanhud","address":"1 St. Johns Rd.","lat":53.65035928436357,"lng":-1.7841501849094696,"neighborhood":"Huddersfield Town Centre","city_fetched":"Halifax,UK","country":"United Kingdom","canonicalUrl":"https://foursquare.com/v/the-sportsman/4c6ee8e9d97fa1437c62f1ca","categoryId":"4bf58dd8d48988d116941735","category":"Bar","checkinsCount":780,"usersCount":348,"tipCount":17,"visitsCount":993,"url":"http://www.undertheviaduct.com","tier":"","message":"","currency":"","rating":8},{"name":"The Bradford Brewery","twitter":"bradfordbrewery","address":"Rawson Rd","lat":53.79657835171666,"lng":-1.7594826099068266,"neighborhood":"City","city_fetched":"Halifax,UK","country":"United Kingdom","canonicalUrl":"https://foursquare.com/v/the-bradford-brewery/54e63cdc498e1219a4db74e8","categoryId":"50327c8591d4c4b30a586d5d","category":"Brewery","checkinsCount":110,"usersCount":90,"tipCount":3,"visitsCount":161,"url":"http://bradfordbrewery.com","tier":"","message":"","currency":"","rating":7.9},{"name":"The Head of Steam","phone":"+441484454533","address":"St Georges Sq","lat":53.647994410370494,"lng":-1.7847384631105419,"neighborhood":"Huddersfield Town Centre","city_fetched":"Halifax,UK","country":"United Kingdom","canonicalUrl":"https://foursquare.com/v/the-head-of-steam/4b7ec50ef964a52009fe2fe3","categoryId":"4bf58dd8d48988d11b941735","category":"Pub","checkinsCount":1136,"usersCount":570,"tipCount":15,"visitsCount":1153,"url":"http://www.theheadofsteam.co.uk","tier":2,"message":"Moderate","currency":"Â£","rating":7.8},{"name":"Victorian Craft Beer Cafe","phone":"+441422300553","twitter":"victoriancbc","address":"18-22 Powell Street","lat":53.72110885959428,"lng":-1.8619589242450154,"city_fetched":"Halifax,UK","state":"Calderdale","country":"United Kingdom","canonicalUrl":"https://foursquare.com/v/victorian-craft-beer-cafe/5467b2f2498e4869dabc133b","categoryId":"4bf58dd8d48988d116941735","category":"Bar","checkinsCount":108,"usersCount":41,"tipCount":2,"visitsCount":133,"url":"http://www.victorian.beer","tier":"","message":"","currency":"","rating":7.7},{"name":"Turnpike Inn at Rishworth Moor","phone":"+441422822789","twitter":"theturnpikeinn","address":"Oldham Road","lat":53.64375671421619,"lng":-1.9615258785543548,"city_fetched":"Halifax,UK","country":"United Kingdom","canonicalUrl":"https://foursquare.com/v/turnpike-inn-at-rishworth-moor/4bdd775d4ffaa59386796ff7","categoryId":"4bf58dd8d48988d11b941735","category":"Pub","checkinsCount":230,"usersCount":169,"tipCount":9,"visitsCount":264,"url":"http://turnpikeinn.com","tier":"","message":"","currency":"","rating":7.7},{"name":"Dirty Dicks Food & Ale Emporium","address":"1 Clare Rd.","lat":53.72079933123714,"lng":-1.8595438464365661,"city_fetched":"Halifax,UK","country":"United Kingdom","canonicalUrl":"https://foursquare.com/v/dirty-dicks-food--ale-emporium/4df7b4438877d0d2075b9b5e","categoryId":"4bf58dd8d48988d11b941735","category":"Pub","checkinsCount":324,"usersCount":93,"tipCount":2,"visitsCount":346,"tier":"","message":"","currency":"","rating":7.6},{"name":"Phantom Lounge","address":"10 Hey st","lat":53.793959,"lng":-1.766122,"neighborhood":"City","city_fetched":"Halifax,UK","state":"Bradford","country":"United Kingdom","canonicalUrl":"https://foursquare.com/v/phantom-lounge/57801d2f498e545ab9e879e7","categoryId":"4bf58dd8d48988d119941735","category":"Hookah Bar","checkinsCount":15,"usersCount":13,"tipCount":1,"visitsCount":23,"tier":"","message":"","currency":"","rating":7.5},{"name":"Pasha","phone":"+441274733484","twitter":"pasha","address":"20 Edderthorpe St","lat":53.79186556345805,"lng":-1.737767732280386,"neighborhood":"Bradford East","city_fetched":"Halifax,UK","country":"United Kingdom","canonicalUrl":"https://foursquare.com/v/pasha/4c4a39969c8d2d7ff2e53569","categoryId":"4bf58dd8d48988d119941735","category":"Hookah Bar","checkinsCount":136,"usersCount":127,"tipCount":6,"visitsCount":204,"url":"http://www.pashashisha.co.uk","tier":"","message":"","currency":"","rating":7.4},{"name":"The Puzzle Hall","phone":"+441422835547","twitter":"puzzlehallinn","address":"21 Hollins Mill Lane","lat":53.70963738327659,"lng":-1.914491057395935,"city_fetched":"Halifax,UK","country":"United Kingdom","canonicalUrl":"https://foursquare.com/v/the-puzzle-hall/4c85f309e602b1f75ee3bb7a","categoryId":"4bf58dd8d48988d11b941735","category":"Pub","checkinsCount":130,"usersCount":74,"tipCount":4,"visitsCount":136,"url":"http://www.puzzlehall.com","tier":"","message":"","currency":"","rating":7.3},{"name":"The Rat And Ratchet","phone":"+441484542400","address":"40 Chapel Hill","lat":53.64155948982311,"lng":-1.784977912902832,"neighborhood":"Huddersfield Town Centre","city_fetched":"Halifax,UK","country":"United Kingdom","canonicalUrl":"https://foursquare.com/v/the-rat-and-ratchet/4bdda4586198c9b6cb1511ff","categoryId":"4bf58dd8d48988d11b941735","category":"Pub","checkinsCount":710,"usersCount":237,"tipCount":10,"visitsCount":852,"tier":"","message":"","currency":"","rating":7.3},{"name":"Fox And Goose","phone":"+441422648052","twitter":"hebdenfox","address":"7 Heptonstall Rd","lat":53.741898443116675,"lng":-2.021248493030583,"city_fetched":"Halifax,UK","state":"Calderdale","country":"United Kingdom","canonicalUrl":"https://foursquare.com/v/fox-and-goose/4c1285a67f7f2d7fe775dd68","categoryId":"4bf58dd8d48988d11b941735","category":"Pub","checkinsCount":320,"usersCount":53,"tipCount":9,"visitsCount":331,"url":"http://www.foxandgoose.org","tier":"","message":"","currency":"","rating":7.3},{"name":"Moorlands Inn","phone":"+441422248943","address":"Keighley Rd.","lat":53.766394867766536,"lng":-1.8953561782836914,"city_fetched":"Halifax,UK","country":"United Kingdom","canonicalUrl":"https://foursquare.com/v/moorlands-inn/4c7bdff272ccef3b60f76132","categoryId":"4bf58dd8d48988d11b941735","category":"Pub","checkinsCount":142,"usersCount":87,"tipCount":8,"visitsCount":158,"tier":"","message":"","currency":"","rating":7.2},{"name":"The Big Six","phone":"+441422350169","address":"10 Horsfall St","lat":53.713333,"lng":-1.87823,"city_fetched":"Halifax,UK","country":"United Kingdom","canonicalUrl":"https://foursquare.com/v/the-big-six/4c6eba744d24b60cd888d9d8","categoryId":"4bf58dd8d48988d11b941735","category":"Pub","checkinsCount":184,"usersCount":65,"tipCount":3,"visitsCount":193,"url":"http://www.thebig6inn.co.uk","tier":"","message":"","currency":"","rating":7.1},{"name":"Wyke Lion","phone":"+441274674756","address":"Bradford Rd.","lat":53.73084676477518,"lng":-1.777075693280156,"neighborhood":"Wyke","city_fetched":"Halifax,UK","country":"United Kingdom","canonicalUrl":"https://foursquare.com/v/wyke-lion/4bb88562cf2fc9b6e7969f02","categoryId":"4bf58dd8d48988d11b941735","category":"Pub","checkinsCount":170,"usersCount":155,"tipCount":2,"visitsCount":251,"url":"http://www.vintageinn.co.uk/thewykelionbradford/","tier":"","message":"","currency":"","rating":7.1},{"name":"Bottomley's Arms","phone":"+441274678649","lat":53.75254255456018,"lng":-1.8166494369506836,"city_fetched":"Halifax,UK","state":"Calderdale","country":"United Kingdom","canonicalUrl":"https://foursquare.com/v/bottomleys-arms/4cd6a858dfb4a1cd8b2d605c","categoryId":"50327c8591d4c4b30a586d5d","category":"Brewery","checkinsCount":386,"usersCount":69,"tipCount":4,"visitsCount":459,"tier":"","message":"","currency":"","rating":7},{"name":"Sir Titus Salt (Wetherspoon)","phone":"+441274732853","address":"Unit B, Windsor Baths","lat":53.79114512956937,"lng":-1.758338212966919,"neighborhood":"City","city_fetched":"Halifax,UK","country":"United Kingdom","canonicalUrl":"https://foursquare.com/v/sir-titus-salt-wetherspoon/4b659978f964a520eef52ae3","categoryId":"4bf58dd8d48988d11b941735","category":"Pub","checkinsCount":1128,"usersCount":481,"tipCount":10,"visitsCount":1378,"url":"http://www.jdwetherspoon.co.uk","tier":"","message":"","currency":"","rating":7},{"name":"The Firehouse","phone":"+441422832586","twitter":"firehousesb","address":"7 Town Hall St","lat":53.708505513520585,"lng":-1.9118602742587825,"city_fetched":"Halifax,UK","country":"United Kingdom","canonicalUrl":"https://foursquare.com/v/the-firehouse/4be1df61ae55a59307d45b62","categoryId":"4bf58dd8d48988d11b941735","category":"Pub","checkinsCount":354,"usersCount":85,"tipCount":3,"visitsCount":371,"url":"http://www.firehouserestaurant.co.uk","tier":"","message":"","currency":"","rating":7},{"name":"The Barum Top Inn (Wetherspoon)","phone":"+441422300488","address":"17 Rawson St.","lat":53.72164381820466,"lng":-1.8626976013183594,"city_fetched":"Halifax,UK","country":"United Kingdom","canonicalUrl":"https://foursquare.com/v/the-barum-top-inn-wetherspoon/4c87ab17821e9eb00acd8d89","categoryId":"4bf58dd8d48988d11b941735","category":"Pub","checkinsCount":1478,"usersCount":239,"tipCount":2,"visitsCount":1644,"url":"http://www.jdwetherspoon.co.uk","tier":"","message":"","currency":"","rating":7},{"name":"The Warehouse","phone":"+441484511698","twitter":"warehousehudds","address":"12 Zetland St","lat":53.6449978,"lng":-1.77943725,"neighborhood":"Huddersfield Town Centre","city_fetched":"Halifax,UK","country":"United Kingdom","canonicalUrl":"https://foursquare.com/warehousehudds","categoryId":"4bf58dd8d48988d116941735","category":"Bar","checkinsCount":1757,"usersCount":300,"tipCount":4,"visitsCount":1857,"url":"http://www.screampubs.co.uk/thewarehousehuddersfield/","tier":"","message":"","currency":"","rating":6.8},{"name":"Circle Lounge","phone":"+441422362435","address":"59 Commercial St","lat":53.721052,"lng":-1.861361,"city_fetched":"Halifax,UK","state":"Calderdale","country":"United Kingdom","canonicalUrl":"https://foursquare.com/v/circle-lounge/4c65b2ceb80abe9aa003cbe5","categoryId":"4bf58dd8d48988d11e941735","category":"Cocktail Bar","checkinsCount":180,"usersCount":55,"tipCount":2,"visitsCount":185,"url":"http://www.thecirclelounge.com","tier":"","message":"","currency":"","rating":6.7},{"name":"The Yorkshire Rose","phone":"+441484425881","address":"217 Leeds Rd.","lat":53.654786222933986,"lng":-1.7758787137793313,"neighborhood":"Dalton","city_fetched":"Halifax,UK","country":"United Kingdom","canonicalUrl":"https://foursquare.com/v/the-yorkshire-rose/4cbdee22f50e224bfe6f07fc","categoryId":"4bf58dd8d48988d11b941735","category":"Pub","checkinsCount":414,"usersCount":229,"tipCount":9,"visitsCount":480,"url":"http://www.yorkshirerosepub.co.uk","tier":"","message":"","currency":"","rating":6.7},{"name":"Jubilee Refreshment Rooms","phone":"+441422648285","address":"Sowerby Bridge Station","lat":53.70768854943814,"lng":-1.9074638636007093,"city_fetched":"Halifax,UK","country":"United Kingdom","canonicalUrl":"https://foursquare.com/v/jubilee-refreshment-rooms/4c92009f2626a1cd5094366b","categoryId":"4bf58dd8d48988d116941735","category":"Bar","checkinsCount":164,"usersCount":56,"tipCount":4,"visitsCount":174,"url":"http://www.jubileerefreshmentrooms.co.uk","tier":"","message":"","currency":"","rating":6.7},{"name":"The Commercial Inn (Wetherspoon)","phone":"+441422317350","twitter":"jdwtweet","address":"31 Wharf St","lat":53.709574447455985,"lng":-1.9076788131028832,"city_fetched":"Halifax,UK","state":"Calderdale","country":"United Kingdom","canonicalUrl":"https://foursquare.com/v/the-commercial-inn-wetherspoon/52acabba11d248afff1d3f7b","categoryId":"4bf58dd8d48988d11b941735","category":"Pub","checkinsCount":262,"usersCount":106,"tipCount":2,"visitsCount":348,"url":"http://www.jdwetherspoon.co.uk","tier":"","message":"","currency":"","rating":6.5},{"name":"The Three Pigeons","phone":"+441422347001","twitter":"thethreepigeons","address":"1 Sun Fold","lat":53.71869742870331,"lng":-1.8564948,"city_fetched":"Halifax,UK","state":"Calderdale","country":"United Kingdom","canonicalUrl":"https://foursquare.com/v/the-three-pigeons/4b55ef88f964a5207ff727e3","categoryId":"4bf58dd8d48988d11b941735","category":"Pub","checkinsCount":179,"usersCount":100,"tipCount":7,"visitsCount":205,"url":"http://www.ossett-brewery.co.uk/pubs/three-pigeons-halifax","tier":"","message":"","currency":"","rating":6.5},{"name":"The Castle Hotel","phone":"+441274393166","address":"20 Grattan Rd.","lat":53.79493001385214,"lng":-1.7575628441393565,"neighborhood":"City","city_fetched":"Halifax,UK","country":"United Kingdom","canonicalUrl":"https://foursquare.com/v/the-castle-hotel/4dc18445316aeec788df151c","categoryId":"4bf58dd8d48988d11b941735","category":"Pub","checkinsCount":57,"usersCount":25,"tipCount":3,"visitsCount":58,"url":"http://www.castle-hotel-bradford.co.uk","tier":"","message":"","currency":"","rating":6.4},{"name":"The New Beehive Inn","phone":"+441274721784","address":"169-171 Westgate","lat":53.79717908178179,"lng":-1.7615657468981736,"neighborhood":"City","city_fetched":"Halifax,UK","country":"United Kingdom","canonicalUrl":"https://foursquare.com/v/the-new-beehive-inn/4bd1bccf5e0cce72d8e9a184","categoryId":"4bf58dd8d48988d11b941735","category":"Pub","checkinsCount":116,"usersCount":78,"tipCount":5,"visitsCount":137,"url":"http://www.newbeehiveinn.co.uk","tier":"","message":"","currency":"","rating":6.4},{"name":"The Silver Birch","phone":"+441274877632","address":"Centurion Way","lat":53.73576020455435,"lng":-1.72355243298359,"neighborhood":"Cleckheaton","city_fetched":"Halifax,UK","country":"United Kingdom","canonicalUrl":"https://foursquare.com/v/the-silver-birch/4f9ecb6ae4b008dde3728099","categoryId":"4bf58dd8d48988d11b941735","category":"Pub","checkinsCount":277,"usersCount":180,"tipCount":7,"visitsCount":424,"url":"http://www.silverbirchpubcleckheaton.co.uk","tier":"","message":"","currency":"","rating":6.2},{"name":"The Duke Of Wellington","phone":"+441422360105","address":"30 Commercial St.","lat":53.721793710233605,"lng":-1.861119780852122,"city_fetched":"Halifax,UK","country":"United Kingdom","canonicalUrl":"https://foursquare.com/v/the-duke-of-wellington/50c37acfe4b0bde4a93a0002","categoryId":"4bf58dd8d48988d116941735","category":"Bar","checkinsCount":131,"usersCount":51,"tipCount":2,"visitsCount":132,"url":"http://www.thedukeofwellingtonhalifax.co.uk","tier":"","message":"","currency":"","rating":6.2},{"name":"The Commercial","phone":"+441484846258","address":"1 Carr Lane","lat":53.622535,"lng":-1.881061,"neighborhood":"Slaithwaite","city_fetched":"Halifax,UK","country":"United Kingdom","canonicalUrl":"https://foursquare.com/v/the-commercial/4bc71e04af07a59340867e2d","categoryId":"4bf58dd8d48988d11b941735","category":"Pub","checkinsCount":236,"usersCount":182,"tipCount":6,"visitsCount":245,"url":"http://www.commercial-slaithwaite.co.uk","tier":"","message":"","currency":"","rating":6.1},{"name":"The Moorings","phone":"+441422833940","twitter":"themooringspub","address":"No.1 Warehouse","lat":53.70971017057406,"lng":-1.9039495836498572,"city_fetched":"Halifax,UK","country":"United Kingdom","canonicalUrl":"https://foursquare.com/v/the-moorings/4b9d24d9f964a5209e9336e3","categoryId":"4bf58dd8d48988d11b941735","category":"Pub","checkinsCount":570,"usersCount":197,"tipCount":7,"visitsCount":612,"url":"http://www.themooringspub.co.uk","tier":"","message":"","currency":"","rating":6.1},{"name":"Salvation","address":"Bull Green","lat":53.721572,"lng":-1.862923,"city_fetched":"Halifax,UK","state":"Calderdale","country":"United Kingdom","canonicalUrl":"https://foursquare.com/v/salvation/4beea6e52c082d7f1da53042","categoryId":"4bf58dd8d48988d116941735","category":"Bar","checkinsCount":346,"usersCount":100,"tipCount":6,"visitsCount":350,"tier":"","message":"","currency":"","rating":6},{"name":"The Richard Oastler (Wetherspoon)","phone":"+441484401756","twitter":"jdwbrighouse","address":"Bethel St.","lat":53.701515,"lng":-1.77989385,"city_fetched":"Halifax,UK","country":"United Kingdom","canonicalUrl":"https://foursquare.com/v/the-richard-oastler-wetherspoon/4c2cf20db34ad13a6421ecce","categoryId":"4bf58dd8d48988d11b941735","category":"Pub","checkinsCount":432,"usersCount":177,"tipCount":6,"visitsCount":478,"url":"http://www.jdwetherspoon.co.uk","tier":"","message":"","currency":"","rating":6},{"name":"The Cherry Tree (Wetherspoon)","phone":"+441484448190","address":"Pearl Assurance House","lat":53.647467913979796,"lng":-1.7825102806091309,"neighborhood":"Huddersfield Town Centre","city_fetched":"Halifax,UK","country":"United Kingdom","canonicalUrl":"https://foursquare.com/v/the-cherry-tree-wetherspoon/4b9beb77f964a520d63536e3","categoryId":"4bf58dd8d48988d11b941735","category":"Pub","checkinsCount":1048,"usersCount":366,"tipCount":5,"visitsCount":1075,"url":"http://www.jdwetherspoon.co.uk","tier":"","message":"","currency":"","rating":6},{"name":"The Hunsworth (Brewers Fayre)","phone":"+441274862828","twitter":"brewersfayre","address":"Whitehall Rd","lat":53.73656222235382,"lng":-1.7216924749173175,"neighborhood":"Cleckheaton","city_fetched":"Halifax,UK","country":"United Kingdom","canonicalUrl":"https://foursquare.com/v/the-hunsworth-brewers-fayre/4bbf1b3d006dc9b68e02fc3f","categoryId":"4bf58dd8d48988d11b941735","category":"Pub","checkinsCount":350,"usersCount":133,"tipCount":3,"visitsCount":360,"url":"http://www.brewersfayre.co.uk/pub-restaurant/Yorkshire/The-Hunsworth-Bradford.html","tier":"","message":"","currency":"","rating":6},{"name":"Shoulder Of Mutton","phone":"+441274726038","address":"28 Kirkgate","lat":53.79510232040287,"lng":-1.7525031715331372,"neighborhood":"City","city_fetched":"Halifax,UK","country":"United Kingdom","canonicalUrl":"https://foursquare.com/v/shoulder-of-mutton/4c7f9d30a7958cfa6520912b","categoryId":"4bf58dd8d48988d11b941735","category":"Pub","checkinsCount":53,"usersCount":43,"tipCount":7,"visitsCount":53,"tier":"","message":"","currency":"","rating":5.9},{"name":"The Percy Shaw (Wetherspoon)","phone":"+441422339500","twitter":"jdwtweet","address":"Broad Street Plaza","lat":53.72492728591027,"lng":-1.8603807237385221,"city_fetched":"Halifax,UK","country":"United Kingdom","canonicalUrl":"https://foursquare.com/v/the-percy-shaw-wetherspoon/50cb67aee4b0af4455f0931e","categoryId":"4bf58dd8d48988d11b941735","category":"Pub","checkinsCount":557,"usersCount":165,"tipCount":3,"visitsCount":590,"url":"http://www.jdwetherspoon.co.uk","tier":"","message":"","currency":"","rating":5.9},{"name":"The Turls Green (Lloyds No. 1 Bar)","phone":"+441274718330","address":"Unit D Centenary Square","lat":53.79315417969535,"lng":-1.7546796798706055,"neighborhood":"City","city_fetched":"Halifax,UK","country":"United Kingdom","canonicalUrl":"https://foursquare.com/v/the-turls-green-lloyds-no-1-bar/4bd9b8b4d2cbc928128cd1ad","categoryId":"4bf58dd8d48988d11b941735","category":"Pub","checkinsCount":1128,"usersCount":454,"tipCount":8,"visitsCount":1142,"url":"http://www.jdwetherspoon.co.uk","tier":"","message":"","currency":"","rating":5.9},{"name":"The Lord Wilson (Lloyds No. 1 Bar)","phone":"+441484411020","address":"Unit 27 Kingsgate Centre","lat":53.645473041521264,"lng":-1.779366294888776,"neighborhood":"Huddersfield Town Centre","city_fetched":"Halifax,UK","country":"United Kingdom","canonicalUrl":"https://foursquare.com/v/the-lord-wilson-lloyds-no-1-bar/4c87ab3b821e9eb02ccd8d89","categoryId":"4bf58dd8d48988d11b941735","category":"Pub","checkinsCount":740,"usersCount":286,"tipCount":12,"visitsCount":789,"url":"http://www.jdwetherspoon.co.uk","tier":"","message":"","currency":"","rating":5.8},{"name":"High Park","phone":"+441484534226","address":"Bradley Rd","lat":53.6811251982247,"lng":-1.7607220322073618,"neighborhood":"Bradley","city_fetched":"Halifax,UK","state":"Kirklees","country":"United Kingdom","canonicalUrl":"https://foursquare.com/v/high-park/4c1766f759cc2d7f5e875287","categoryId":"4bf58dd8d48988d11b941735","category":"Pub","checkinsCount":143,"usersCount":97,"tipCount":2,"visitsCount":210,"tier":"","message":"","currency":"","rating":5.7},{"name":"Plummet Line","phone":"+441422353620","address":"9-21 Bull Close Lane","lat":53.721488,"lng":-1.863639,"city_fetched":"Halifax,UK","country":"United Kingdom","canonicalUrl":"https://foursquare.com/v/plummet-line/4ce83ec0948f224b4240ef5d","categoryId":"4bf58dd8d48988d11b941735","category":"Pub","checkinsCount":182,"usersCount":55,"tipCount":3,"visitsCount":185,"tier":"","message":"","currency":"","rating":5.7},{"name":"The Watermill (Brewers Fayre)","phone":"+448709906308","address":"Salterhebble Hill","lat":53.70201876891609,"lng":-1.85415931353017,"city_fetched":"Halifax,UK","country":"United Kingdom","canonicalUrl":"https://foursquare.com/v/the-watermill-brewers-fayre/4c76a15dff1fb60cd57af9a7","categoryId":"4bf58dd8d48988d11b941735","category":"Pub","checkinsCount":295,"usersCount":154,"tipCount":7,"visitsCount":361,"tier":"","message":"","currency":"","rating":5.1}]