[{"name":"Brewers Fayre","phone":"+448701977106","address":"10-12 Belziehill Rd.","lat":55.81943740243932,"lng":-4.040870660704493,"city_fetched":"Hamilton,UK","state":"North Lanarkshire","country":"United Kingdom","canonicalUrl":"https://foursquare.com/v/brewers-fayre/4bdc1a3563c5c9b628672a68","categoryId":"4bf58dd8d48988d11b941735","category":"Pub","checkinsCount":117,"usersCount":68,"tipCount":1,"visitsCount":119,"tier":"","message":"","currency":"","rating":6.6},{"name":"The Brandon Works (Wetherspoon)","phone":"+441698210280","address":"45-61 Merry St.","lat":55.79168324330119,"lng":-3.990111991062145,"city_fetched":"Hamilton,UK","state":"North Lanarkshire","country":"United Kingdom","canonicalUrl":"https://foursquare.com/v/the-brandon-works-wetherspoon/4c3704b23849c928ace9bcb1","categoryId":"4bf58dd8d48988d11b941735","category":"Pub","checkinsCount":510,"usersCount":113,"tipCount":9,"visitsCount":525,"url":"http://www.jdwetherspoon.co.uk","tier":"","message":"","currency":"","rating":6.6},{"name":"Angels Hotel","phone":"+441698812106","address":"114 Main Street","lat":55.82274292871394,"lng":-4.08390998840332,"city_fetched":"Hamilton,UK","country":"United Kingdom","canonicalUrl":"https://foursquare.com/v/angels-hotel/4b9d5e64f964a5206ba736e3","categoryId":"4bf58dd8d48988d116941735","category":"Bar","checkinsCount":167,"usersCount":96,"tipCount":3,"visitsCount":172,"tier":"","message":"","currency":"","rating":6.5},{"name":"The Wishaw Malt (Wetherspoon)","phone":"+441698358806","address":"62-66 Kirk Rd.","lat":55.774187,"lng":-3.91824806,"city_fetched":"Hamilton,UK","country":"United Kingdom","canonicalUrl":"https://foursquare.com/v/the-wishaw-malt-wetherspoon/4c87ac5e821e9eb022ce8d89","categoryId":"4bf58dd8d48988d11b941735","category":"Pub","checkinsCount":207,"usersCount":70,"tipCount":4,"visitsCount":213,"url":"http://www.jdwetherspoon.co.uk","tier":"","message":"","currency":"","rating":6.4},{"name":"The Railway Tavern","phone":"+441698267734","address":"31 Merry St","lat":55.790714448586236,"lng":-3.9921140670776367,"city_fetched":"Hamilton,UK","country":"United Kingdom","canonicalUrl":"https://foursquare.com/v/the-railway-tavern/4ca7b87614c33704efa5cc3b","categoryId":"4bf58dd8d48988d11b941735","category":"Pub","checkinsCount":67,"usersCount":35,"tipCount":2,"visitsCount":67,"tier":"","message":"","currency":"","rating":5.8}]