[{"name":"Green Man Pub & Hotel","address":"Mulberry Green","lat":51.783053003774995,"lng":0.14003011305488142,"city_fetched":"Harlow","state":"Essex","country":"United Kingdom","canonicalUrl":"https://foursquare.com/v/green-man-pub--hotel/4bc09237f8219c74dabab110","category":"Beer Garden","checkinsCount":162,"usersCount":126,"tipCount":3,"visitsCount":310,"tier":"","message":"","currency":"","rating":7.3},{"name":"The Moorhen","phone":"+441279423066","address":"Burnt Mill","lat":51.782097756382,"lng":0.09530907054997037,"city_fetched":"Harlow","state":"Essex","country":"United Kingdom","canonicalUrl":"https://foursquare.com/v/the-moorhen/4bc9bc1168f976b0d4b95d83","category":"Pub","checkinsCount":172,"usersCount":103,"tipCount":2,"visitsCount":174,"tier":"","message":"","currency":"","rating":6},{"name":"Brewers Fayre","phone":"+441279629712","address":"Church Langley Way","lat":51.766944142913324,"lng":0.1309306950197331,"city_fetched":"Harlow","state":"Essex","country":"United Kingdom","canonicalUrl":"https://foursquare.com/v/brewers-fayre/4bd455539854d13a945bff4d","category":"Pub","checkinsCount":168,"usersCount":83,"tipCount":4,"visitsCount":196,"tier":"","message":"","currency":"","rating":5.9},{"name":"The William Aylmer (Wetherspoon)","phone":"+441279620630","address":"Kitson Way","lat":51.771132975933185,"lng":0.09184956550598145,"city_fetched":"Harlow","state":"Essex","country":"United Kingdom","canonicalUrl":"https://foursquare.com/v/the-william-aylmer-wetherspoon/4b3faf6df964a5202cac25e3","category":"Pub","checkinsCount":766,"usersCount":203,"tipCount":6,"visitsCount":907,"url":"http://www.jdwetherspoon.co.uk","tier":"","message":"","currency":"","rating":5.7}]