[{"name":"Cross Keys","address":"High Street","lat":51.81678159471666,"lng":-0.35647078263189114,"city_fetched":"Harpenden","state":"Hertfordshire","country":"United Kingdom","canonicalUrl":"https://foursquare.com/v/cross-keys/4c83d6fee602b1f7874aa97a","category":"Bar","checkinsCount":175,"usersCount":67,"tipCount":5,"visitsCount":177,"tier":"","message":"","currency":"","rating":8.1},{"name":"Harpenden Arms","phone":"+441582461113","address":"188 High St","lat":51.81447136504669,"lng":-0.3548135607797296,"city_fetched":"Harpenden","state":"Hertfordshire","country":"United Kingdom","canonicalUrl":"https://foursquare.com/v/harpenden-arms/4b9bdad7f964a5208b2d36e3","category":"Pub","checkinsCount":717,"usersCount":173,"tipCount":5,"visitsCount":747,"url":"http://harpenden-arms.co.uk","tier":"","message":"","currency":"","rating":7.2},{"name":"Slug and Lettuce","phone":"+441582764624","twitter":"sluglettuce","address":"9 High Street","lat":51.814932750757556,"lng":-0.3549152612686157,"city_fetched":"Harpenden","state":"Hertfordshire","country":"United Kingdom","canonicalUrl":"https://foursquare.com/v/slug-and-lettuce/4b63622af964a520fc752ae3","category":"Bar","checkinsCount":295,"usersCount":157,"tipCount":7,"visitsCount":297,"url":"http://www.slugandlettuce.co.uk","tier":"","message":"","currency":"","rating":6.8},{"name":"Billy's Bar","phone":"+441582766188","address":"72 High St","lat":51.8175208140697,"lng":-0.3576431706088013,"city_fetched":"Harpenden","state":"Hertfordshire","country":"United Kingdom","canonicalUrl":"https://foursquare.com/v/billys-bar/4b76fbbbf964a52045712ee3","category":"Bar","checkinsCount":260,"usersCount":93,"tipCount":6,"visitsCount":273,"url":"http://billysbar.co.uk","tier":"","message":"","currency":"","rating":6.8},{"name":"White Horse","lat":51.80414,"lng":-0.3556136418562383,"city_fetched":"Harpenden","state":"Hertfordshire","country":"United Kingdom","canonicalUrl":"https://foursquare.com/v/white-horse/4c8ea979daa93704a77f4eb1","category":"Pub","checkinsCount":209,"usersCount":173,"tipCount":7,"visitsCount":292,"tier":"","message":"","currency":"","rating":6.6},{"name":"The Engineer","phone":"+441582460478","address":"12 St John's Rd.","lat":51.804929146022985,"lng":-0.34566996290897045,"city_fetched":"Harpenden","state":"Hertfordshire","country":"United Kingdom","canonicalUrl":"https://foursquare.com/v/the-engineer/4c781337df08a1cdcf29d65d","category":"Pub","checkinsCount":1122,"usersCount":114,"tipCount":1,"visitsCount":1163,"tier":"","message":"","currency":"","rating":6.6},{"name":"The Cock","twitter":"oldcockinnb_b","lat":51.81702618763233,"lng":-0.35749219599310567,"city_fetched":"Harpenden","state":"Hertfordshire","country":"United Kingdom","canonicalUrl":"https://foursquare.com/v/the-cock/4bb648706edc76b074b0301c","category":"Pub","checkinsCount":325,"usersCount":136,"tipCount":0,"visitsCount":342,"tier":"","message":"","currency":"","rating":6.4},{"name":"The Old Bell","lat":51.82461080631915,"lng":-0.3682433123140528,"city_fetched":"Harpenden","country":"United Kingdom","canonicalUrl":"https://foursquare.com/v/the-old-bell/4bc08a6bb492d13ac15ca460","category":"Pub","checkinsCount":188,"usersCount":113,"tipCount":2,"visitsCount":271,"tier":"","message":"","currency":"","rating":6.3},{"name":"The Silver Cup","phone":"+441582713095","address":"5 St Albans Rd.","lat":51.81164296719316,"lng":-0.35404065323573247,"city_fetched":"Harpenden","state":"Hertfordshire","country":"United Kingdom","canonicalUrl":"https://foursquare.com/v/the-silver-cup/4d21cc9fb69c6dcbe6657c95","category":"Brewery","checkinsCount":174,"usersCount":73,"tipCount":2,"visitsCount":186,"url":"http://www.silvercup.co.uk","tier":"","message":"","currency":"","rating":6.1},{"name":"Inn On The Green","address":"20 Leyton Rd","lat":51.81413417808253,"lng":-0.35599619150161743,"city_fetched":"Harpenden","state":"Hertfordshire","country":"United Kingdom","canonicalUrl":"https://foursquare.com/v/inn-on-the-green/4b3a7122f964a520606725e3","category":"Pub","checkinsCount":1049,"usersCount":157,"tipCount":6,"visitsCount":1053,"tier":"","message":"","currency":"","rating":5.9},{"name":"Amble Inn Pub","address":"182 Station Road","lat":51.82182219120633,"lng":-0.339963873803446,"city_fetched":"Harpenden","state":"Hertfordshire","country":"United Kingdom","canonicalUrl":"https://foursquare.com/v/amble-inn-pub/4b6dc604f964a5207f8e2ce3","category":"Pub","checkinsCount":499,"usersCount":79,"tipCount":10,"visitsCount":524,"tier":"","message":"","currency":"","rating":5.7},{"name":"The George","address":"4 High St","lat":51.8147636190217,"lng":-0.35563409328460693,"city_fetched":"Harpenden","state":"Hertfordshire","country":"United Kingdom","canonicalUrl":"https://foursquare.com/v/the-george/4b6359cdf964a520dd732ae3","category":"Pub","checkinsCount":455,"usersCount":232,"tipCount":6,"visitsCount":465,"url":"http://www.pizzakitchenbars.co.uk/location/the-george","tier":"","message":"","currency":"","rating":5.5}]