[{"name":"Ten Devonshire Place","phone":"+441423202356","twitter":"10devonshirepl","address":"10 Devonshire Pl","lat":53.99762417329947,"lng":-1.5289500964135476,"neighborhood":"High Harrogate","city_fetched":"Harrogate","state":"North Yorkshire","country":"United Kingdom","canonicalUrl":"https://foursquare.com/v/ten-devonshire-place/5470c79d498e591c7c733cc9","category":"Pub","checkinsCount":105,"usersCount":56,"tipCount":3,"visitsCount":174,"url":"http://www.10devonshireplace.com","tier":"","message":"","currency":"","rating":8.6},{"name":"The Old Bell Tavern","phone":"+441423507930","twitter":"markettowntavs","address":"6 Royal Parade","lat":53.9933,"lng":-1.545988,"city_fetched":"Harrogate","state":"North Yorkshire","country":"United Kingdom","canonicalUrl":"https://foursquare.com/v/the-old-bell-tavern/4af88723f964a5200b0e22e3","category":"Pub","checkinsCount":813,"usersCount":491,"tipCount":10,"visitsCount":1042,"tier":"","message":"","currency":"","rating":8.3},{"name":"The Swan on the Stray","phone":"+441423524587","twitter":"markettowntavs","address":"17 Devonshire Place","lat":53.99757851394134,"lng":-1.5286552906036377,"city_fetched":"Harrogate","state":"North Yorkshire","country":"United Kingdom","canonicalUrl":"https://foursquare.com/v/the-swan-on-the-stray/4b7b050ff964a520964c2fe3","category":"Pub","checkinsCount":661,"usersCount":131,"tipCount":4,"visitsCount":715,"url":"http://www.markettowntaverns.co.uk/swan-on-the-stray.asp?Tavern=Swan-on-the-Stray&Section=Main","tier":"","message":"","currency":"","rating":8},{"name":"Harrogate Tap","phone":"+441423501644","twitter":"harrogatetap","address":"Station Parade","lat":53.993028388911675,"lng":-1.5375712798709362,"city_fetched":"Harrogate","state":"North Yorkshire","country":"United Kingdom","canonicalUrl":"https://foursquare.com/v/harrogate-tap/52b351ad11d2f3f94a2440be","category":"Pub","checkinsCount":425,"usersCount":140,"tipCount":8,"visitsCount":455,"url":"http://harrogatetap.co.uk","tier":"","message":"","currency":"","rating":7.9},{"name":"Montey's Rock Cafe","phone":"+441423526652","address":"3 The Ginnel","lat":53.99356918462436,"lng":-1.543918085365077,"city_fetched":"Harrogate","state":"North Yorkshire","country":"United Kingdom","canonicalUrl":"https://foursquare.com/v/monteys-rock-cafe/4bf18b8fd39ad13a615daa0e","category":"Bar","checkinsCount":527,"usersCount":174,"tipCount":12,"visitsCount":542,"url":"http://www.monteys.com","tier":"","message":"","currency":"","rating":7.3},{"name":"The Fat Badger","phone":"+441423505681","twitter":"fatbadgerpub","address":"Cold Bath Rd","lat":53.99239,"lng":-1.5459,"city_fetched":"Harrogate","state":"North Yorkshire","country":"United Kingdom","canonicalUrl":"https://foursquare.com/v/the-fat-badger/4dd6dcb28877f1150fdb7289","category":"Pub","checkinsCount":651,"usersCount":438,"tipCount":12,"visitsCount":827,"url":"http://www.thefatbadger.co.uk","tier":"","message":"","currency":"","rating":7.3},{"name":"The Pine Marten","phone":"+441423709999","twitter":"thepinemarten","address":"Otley Road","lat":53.97939887172089,"lng":-1.5669679641723633,"city_fetched":"Harrogate","state":"North Yorkshire","country":"United Kingdom","canonicalUrl":"https://foursquare.com/v/the-pine-marten/4be6e08dbcef2d7f0a8a05e5","category":"Gastropub","checkinsCount":250,"usersCount":213,"tipCount":5,"visitsCount":446,"url":"http://www.thepinemarten.com","tier":"","message":"","currency":"","rating":7.3},{"name":"The Winter Gardens (Wetherspoon)","phone":"+441423877010","address":"Unit 4 Royal Baths","lat":53.99406191710713,"lng":-1.5442052635426664,"city_fetched":"Harrogate","state":"North Yorkshire","country":"United Kingdom","canonicalUrl":"https://foursquare.com/v/the-winter-gardens-wetherspoon/4bb914af53649c74f2b047fb","category":"Pub","checkinsCount":1836,"usersCount":741,"tipCount":17,"visitsCount":2123,"url":"http://www.jdwetherspoon.co.uk","tier":"","message":"","currency":"","rating":7.2},{"name":"Revolution","phone":"+441423858815","address":"Royal Baths","lat":53.99389528585396,"lng":-1.5445232391357422,"city_fetched":"Harrogate","state":"North Yorkshire","country":"United Kingdom","canonicalUrl":"https://foursquare.com/v/revolution/4b90ffe9f964a520689e33e3","category":"Cocktail Bar","checkinsCount":424,"usersCount":166,"tipCount":8,"visitsCount":425,"tier":"","message":"","currency":"","rating":7.2},{"name":"Tap & Spile","phone":"+441423526785","address":"41 Tower St.","lat":53.98929999905617,"lng":-1.539032233074177,"city_fetched":"Harrogate","state":"North Yorkshire","country":"United Kingdom","canonicalUrl":"https://foursquare.com/v/tap--spile/4cd9e42534bb8cfad615bbbf","category":"Pub","checkinsCount":242,"usersCount":72,"tipCount":6,"visitsCount":253,"tier":"","message":"","currency":"","rating":7.1},{"name":"Regency","phone":"+441423500773","twitter":"regencyhgate","address":"63a Bower Rd","lat":53.99544682233616,"lng":-1.5353608131408691,"city_fetched":"Harrogate","state":"North Yorkshire","country":"United Kingdom","canonicalUrl":"https://foursquare.com/v/regency/571cb71338fa812cdcd49826","category":"Pub","checkinsCount":3,"usersCount":2,"tipCount":5,"visitsCount":3,"tier":"","message":"","currency":"","rating":6.9},{"name":"Pitcher & Piano","phone":"+441423565628","twitter":"pitcherandpiano","address":"5-6 John St.","lat":53.99180714165272,"lng":-1.5408389544767513,"city_fetched":"Harrogate","state":"North Yorkshire","country":"United Kingdom","canonicalUrl":"https://foursquare.com/v/pitcher--piano/4bf50e95cad2c9280e909c99","category":"Gastropub","checkinsCount":427,"usersCount":234,"tipCount":3,"visitsCount":431,"url":"http://www.pitcherandpiano.com","tier":"","message":"","currency":"","rating":6.9},{"name":"The Alexandra","phone":"+441423564976","address":"11 Prospect Place","lat":53.991019114089355,"lng":-1.5409183502197266,"city_fetched":"Harrogate","state":"North Yorkshire","country":"United Kingdom","canonicalUrl":"https://foursquare.com/v/the-alexandra/4bf2f00a354e9c7400852602","category":"Pub","checkinsCount":866,"usersCount":268,"tipCount":7,"visitsCount":896,"tier":"","message":"","currency":"","rating":6.8},{"name":"Coach and Horses","phone":"+441423561802","twitter":"coachhorsespub","address":"16 West Park","lat":53.98886696294539,"lng":-1.5405835640714691,"city_fetched":"Harrogate","state":"North Yorkshire","country":"United Kingdom","canonicalUrl":"https://foursquare.com/v/coach-and-horses/4bad2d9bf964a5202b363be3","category":"Pub","checkinsCount":256,"usersCount":135,"tipCount":7,"visitsCount":293,"url":"http://www.thecoachandhorses.net","tier":"","message":"","currency":"","rating":6.7},{"name":"Old Spring Well Inn","phone":"+441423567035","address":"Otley Rd, Killinghall","lat":54.0074448551447,"lng":-1.5787949309833513,"city_fetched":"Harrogate","state":"North Yorkshire","country":"United Kingdom","canonicalUrl":"https://foursquare.com/v/old-spring-well-inn/51cd77b1498e7d6ae05403bf","category":"Pub","checkinsCount":81,"usersCount":100,"tipCount":4,"visitsCount":187,"tier":"","message":"","currency":"","rating":6.6},{"name":"The Viper Rooms","phone":"+441423520567","address":"Unit 1, The Royal Baths","lat":53.99461187417422,"lng":-1.5441299078954105,"city_fetched":"Harrogate","country":"United Kingdom","canonicalUrl":"https://foursquare.com/v/the-viper-rooms/4c02ea05f56c2d7f2c2b1c66","category":"Bar","checkinsCount":342,"usersCount":131,"tipCount":2,"visitsCount":344,"tier":"","message":"","currency":"","rating":6.5},{"name":"Christies","address":"20-22 Kings Rd","lat":53.995378,"lng":-1.542677879333496,"city_fetched":"Harrogate","state":"North Yorkshire","country":"United Kingdom","canonicalUrl":"https://foursquare.com/v/christies/4b520677f964a5202b6227e3","category":"Pub","checkinsCount":801,"usersCount":141,"tipCount":5,"visitsCount":828,"tier":"","message":"","currency":"","rating":6.5},{"name":"Hales Bar","address":"Crescent Road","lat":53.993835,"lng":-1.546657,"city_fetched":"Harrogate","state":"North Yorkshire","country":"United Kingdom","canonicalUrl":"https://foursquare.com/v/hales-bar/4b6f174ef964a5204fdc2ce3","category":"Pub","checkinsCount":264,"usersCount":188,"tipCount":6,"visitsCount":274,"tier":"","message":"","currency":"","rating":6.5},{"name":"So! Bar and Eats","phone":"+441423568834","address":"36 Otley Road","lat":53.98440844427229,"lng":-1.5492776235467458,"city_fetched":"Harrogate","state":"North Yorkshire","country":"United Kingdom","canonicalUrl":"https://foursquare.com/v/so-bar-and-eats/4ff5f7e2e4b00ee3e58bb20c","category":"Pub","checkinsCount":139,"usersCount":90,"tipCount":8,"visitsCount":203,"tier":2,"message":"Moderate","currency":"Â£","rating":6.4},{"name":"Banyan Bar","phone":"+441423538871","twitter":"banyanharrogate","address":"3-4 John Street","lat":53.991921092844855,"lng":-1.5408378839492798,"city_fetched":"Harrogate","state":"North Yorkshire","country":"United Kingdom","canonicalUrl":"https://foursquare.com/v/banyan-bar/4b9cd614f964a520ff7d36e3","category":"Bar","checkinsCount":732,"usersCount":320,"tipCount":6,"visitsCount":763,"url":"http://arcinspirations.com/banyan-harrogate","tier":"","message":"","currency":"","rating":6.3},{"name":"The Pit","phone":"+441423565668","twitter":"thepitharrogate","address":"The Ginnel","lat":53.9938,"lng":-1.54348,"city_fetched":"Harrogate","country":"United Kingdom","canonicalUrl":"https://foursquare.com/v/the-pit/541746c3498e8ab00d3de8e8","category":"Gastropub","checkinsCount":84,"usersCount":49,"tipCount":3,"visitsCount":87,"url":"http://arcinspirations.com/pit-harrogate","tier":"","message":"","currency":"","rating":6},{"name":"The Park Table Table","phone":"+448701977126","address":"Hornbeam Park Avenue","lat":53.98053,"lng":-1.52521865,"city_fetched":"Harrogate","state":"North Yorkshire","country":"United Kingdom","canonicalUrl":"https://foursquare.com/v/the-park-table-table/4c0257320d0e0f47c0f6009a","category":"Pub","checkinsCount":142,"usersCount":73,"tipCount":2,"visitsCount":171,"tier":"","message":"","currency":"","rating":5.9},{"name":"Rehab","phone":"+441423528321","twitter":"rehabharrogate","address":"18-20 Parliament St","lat":53.993655612461524,"lng":-1.5428495407104492,"city_fetched":"Harrogate","state":"North Yorkshire","country":"United Kingdom","canonicalUrl":"https://foursquare.com/v/rehab/4ba28922f964a520ef0138e3","category":"Bar","checkinsCount":694,"usersCount":120,"tipCount":3,"visitsCount":698,"url":"http://www.rehabharrogate.co.uk","tier":"","message":"","currency":"","rating":5.2}]