[{"name":"The Alma Inn","address":"25 King's Head Street","lat":51.94743820394963,"lng":1.2864626988926784,"neighborhood":"CO12 3EE","city_fetched":"Harwich,UK","state":"Essex","country":"United Kingdom","canonicalUrl":"https://foursquare.com/v/the-alma-inn/4c3b6b74be4620a196540c13","categoryId":"4bf58dd8d48988d11b941735","category":"Pub","checkinsCount":163,"usersCount":84,"tipCount":7,"visitsCount":182,"url":"http://www.almaharwich.co.uk","tier":"","message":"","currency":"","rating":8},{"name":"The Alex","phone":"+441394282958","address":"123 Undercliff Rd W","lat":51.95986,"lng":1.350577,"city_fetched":"Harwich,UK","state":"Suffolk","country":"United Kingdom","canonicalUrl":"https://foursquare.com/v/the-alex/4b9f8768f964a520202937e3","categoryId":"4bf58dd8d48988d116941735","category":"Bar","checkinsCount":555,"usersCount":289,"tipCount":15,"visitsCount":727,"tier":"","message":"","currency":"","rating":7.3},{"name":"Owl and the Pussycat (Hungry Horse)","phone":"+441394671810","address":"Grange Farm Ave","lat":51.965659,"lng":1.3267171382904053,"city_fetched":"Harwich,UK","state":"Suffolk","country":"United Kingdom","canonicalUrl":"https://foursquare.com/v/owl-and-the-pussycat-hungry-horse/4bf6d38613aed13ae245eaf7","categoryId":"4bf58dd8d48988d11b941735","category":"Pub","checkinsCount":256,"usersCount":61,"tipCount":4,"visitsCount":300,"tier":"","message":"","currency":"","rating":5.9},{"name":"Brewers Fayre","phone":"+441255509660","address":"Parkeston Road","lat":51.939086168836795,"lng":1.2579774856567383,"city_fetched":"Harwich,UK","state":"Essex","country":"United Kingdom","canonicalUrl":"https://foursquare.com/v/brewers-fayre/4bc899b86501c9b622744029","categoryId":"4bf58dd8d48988d11b941735","category":"Pub","checkinsCount":142,"usersCount":89,"tipCount":5,"visitsCount":155,"tier":"","message":"","currency":"","rating":5.8}]