[{"name":"Harpsfield Hall (Wetherspoon)","phone":"+441707265840","address":"13a Parkhouse Court","lat":51.76248447430968,"lng":-0.24026408465504934,"city_fetched":"Hatfield,UK","state":"Hertfordshire","country":"United Kingdom","canonicalUrl":"https://foursquare.com/v/harpsfield-hall-wetherspoon/565829d2498e36a60a999055","categoryId":"4bf58dd8d48988d11b941735","category":"Pub","checkinsCount":279,"usersCount":135,"tipCount":3,"visitsCount":511,"tier":"","message":"","currency":"","rating":8.7},{"name":"The Woodman","phone":"+441707642618","twitter":"woodmanwildhill","address":"Wild Hill","lat":51.745645111354676,"lng":-0.1712322235107422,"city_fetched":"Hatfield,UK","state":"Hertfordshire","country":"United Kingdom","canonicalUrl":"https://foursquare.com/v/the-woodman/5001a084f1366b23b4aef684","categoryId":"4bf58dd8d48988d11b941735","category":"Pub","checkinsCount":166,"usersCount":40,"tipCount":3,"visitsCount":260,"tier":"","message":"","currency":"","rating":8},{"name":"The Plough","address":"Sleapshyde Ln","lat":51.748589809145365,"lng":-0.25990681412170835,"city_fetched":"Hatfield,UK","state":"Hertfordshire","country":"United Kingdom","canonicalUrl":"https://foursquare.com/v/the-plough/4c4c23ac46240f473b485af4","categoryId":"4bf58dd8d48988d11b941735","category":"Pub","checkinsCount":152,"usersCount":76,"tipCount":3,"visitsCount":164,"tier":"","message":"","currency":"","rating":7.5},{"name":"Style Bar","address":"The Forum, College Lane","lat":51.750033981532404,"lng":-0.24205625618344787,"city_fetched":"Hatfield,UK","state":"Hertfordshire","country":"United Kingdom","canonicalUrl":"https://foursquare.com/v/style-bar/4b478342f964a520723426e3","categoryId":"4bf58dd8d48988d116941735","category":"Bar","checkinsCount":308,"usersCount":95,"tipCount":5,"visitsCount":309,"url":"http://www.forumhertfordshire.co.uk/venue/stylebar/","tier":"","message":"","currency":"","rating":7.3},{"name":"The Red Lion","address":"Great N Road","lat":51.76665544509888,"lng":-0.2148,"city_fetched":"Hatfield,UK","state":"Hertfordshire","country":"United Kingdom","canonicalUrl":"https://foursquare.com/v/the-red-lion/4beadf3061aca59329488400","categoryId":"4bf58dd8d48988d11b941735","category":"Pub","checkinsCount":407,"usersCount":201,"tipCount":8,"visitsCount":474,"tier":"","message":"","currency":"","rating":7.2},{"name":"Club De Havilland","phone":"+441707281144","address":"Mosquito Way, de Havilland Campus","lat":51.760130496774806,"lng":-0.2505925759983647,"city_fetched":"Hatfield,UK","state":"Hertfordshire","country":"United Kingdom","canonicalUrl":"https://foursquare.com/v/club-de-havilland/4bebf767415e20a1d7e1e6bb","categoryId":"4bf58dd8d48988d116941735","category":"Bar","checkinsCount":464,"usersCount":219,"tipCount":2,"visitsCount":532,"url":"http://www.clubdehavilland.co.uk","tier":"","message":"","currency":"","rating":7},{"name":"The Forum","phone":"+441707285000","twitter":"theforumherts","address":"College Lane","lat":51.750492999909795,"lng":-0.2420746106598759,"city_fetched":"Hatfield,UK","state":"Hertfordshire","country":"United Kingdom","canonicalUrl":"https://foursquare.com/v/the-forum/4b981d6ff964a520742d35e3","categoryId":"4bf58dd8d48988d11f941735","category":"Nightclub","checkinsCount":3349,"usersCount":866,"tipCount":11,"visitsCount":3868,"url":"http://www.forumhertfordshire.co.uk","tier":"","message":"","currency":"","rating":6.4},{"name":"Three Horseshoes","address":"612 Hatfield Road","lat":51.755242,"lng":-0.267437,"city_fetched":"Hatfield,UK","state":"Hertfordshire","country":"United Kingdom","canonicalUrl":"https://foursquare.com/v/three-horseshoes/4c936466f600236abbfbc432","categoryId":"4bf58dd8d48988d11b941735","category":"Pub","checkinsCount":216,"usersCount":117,"tipCount":3,"visitsCount":246,"tier":"","message":"","currency":"","rating":6},{"name":"EleHouse","phone":"+441707285010","address":"Elehouse, College Lane","lat":51.75068007153027,"lng":-0.2419567108154297,"city_fetched":"Hatfield,UK","state":"Hertfordshire","country":"United Kingdom","canonicalUrl":"https://foursquare.com/v/elehouse/4be48f768a8cb713954bc4a0","categoryId":"4bf58dd8d48988d11b941735","category":"Pub","checkinsCount":1001,"usersCount":264,"tipCount":13,"visitsCount":1084,"url":"http://www.forumhertfordshire.co.uk/venue/elehouse/","tier":"","message":"","currency":"","rating":5.8}]