[{"name":"The Ship Inn","phone":"+442392471719","address":"Langstone Rd","lat":50.837692,"lng":-0.980442,"neighborhood":"Langstone","city_fetched":"Havant","state":"Hampshire","country":"United Kingdom","canonicalUrl":"https://foursquare.com/v/the-ship-inn/4b8bc0aff964a520a5a932e3","category":"Pub","checkinsCount":543,"usersCount":333,"tipCount":14,"visitsCount":706,"url":"http://shiplangstone.co.uk","tier":"","message":"","currency":"","rating":7.9},{"name":"The Rusty Cutter (Beefeater)","phone":"+442392472619","twitter":"beefeatergrill","address":"65 Bedhampton Hill Rd","lat":50.85110719983218,"lng":-1.0109672438150037,"city_fetched":"Havant","state":"Hampshire","country":"United Kingdom","canonicalUrl":"https://foursquare.com/v/the-rusty-cutter-beefeater/4be6a790bcef2d7fee5405e5","category":"Restaurant","checkinsCount":238,"usersCount":174,"tipCount":6,"visitsCount":310,"url":"http://www.beefeater.co.uk/steak-restaurant/Hampshire/Rusty-Cutter-Bedhampton.html","tier":"","message":"","currency":"","rating":7.4},{"name":"The Wheelwright's Arms","phone":"+442392476502","twitter":"wheelshavant","address":"27 Emsworth Road","lat":50.85064033905628,"lng":-0.9751920913309762,"city_fetched":"Havant","state":"Hampshire","country":"United Kingdom","canonicalUrl":"https://foursquare.com/v/the-wheelwrights-arms/4f17240be4b03802085eb0e2","category":"Pub","checkinsCount":77,"usersCount":62,"tipCount":2,"visitsCount":177,"url":"http://www.wheelwrightshavant.co.uk","tier":"","message":"","currency":"","rating":7.1},{"name":"The Royal Oak","lat":50.839157538790566,"lng":-0.9797802856151328,"city_fetched":"Havant","country":"United Kingdom","canonicalUrl":"https://foursquare.com/v/the-royal-oak/4bdc01f363c5c9b6992e2a68","category":"Pub","checkinsCount":230,"usersCount":119,"tipCount":5,"visitsCount":276,"tier":"","message":"","currency":"","rating":6.7},{"name":"The Bear Hotel","phone":"+442392486501","address":"15 East St","lat":50.851363,"lng":-0.980299,"city_fetched":"Havant","state":"Hampshire","country":"United Kingdom","canonicalUrl":"https://foursquare.com/v/the-bear-hotel/4bad2c94f964a520ac353be3","category":"Hotel","checkinsCount":110,"usersCount":71,"tipCount":2,"visitsCount":133,"url":"https://www.oldenglishinns.co.uk/our-locations/the-bear-hotel-havant","tier":"","message":"","currency":"","rating":6.7},{"name":"The Parchment Makers (Wetherspoon)","phone":"+442392474023","address":"1 Park Rd N","lat":50.85204360124545,"lng":-0.9844779968261719,"city_fetched":"Havant","state":"Hampshire","country":"United Kingdom","canonicalUrl":"https://foursquare.com/v/the-parchment-makers-wetherspoon/4c87ab23821e9eb014cd8d89","category":"Pub","checkinsCount":830,"usersCount":201,"tipCount":3,"visitsCount":878,"url":"http://www.jdwetherspoon.co.uk","tier":"","message":"","currency":"","rating":6.3},{"name":"The Langbrook Farm","phone":"+442392480204","address":"2A Langstone Road","lat":50.84680429884193,"lng":-0.9843022142776525,"city_fetched":"Havant","state":"Hampshire","country":"United Kingdom","canonicalUrl":"https://foursquare.com/v/the-langbrook-farm/5421570a498ebd85fafa22fe","category":"Gastropub","checkinsCount":92,"usersCount":113,"tipCount":1,"visitsCount":215,"url":"http://www.farmhouseinns.co.uk/pubs/langbrook-farm","tier":"","message":"","currency":"","rating":6.1}]