[{"name":"The Lady Chatterley (Wetherspoon)","phone":"+441773536060","address":"59 Nottingham Road","lat":53.0179328918457,"lng":-1.3047716617584229,"city_fetched":"Heanor,UK","state":"Nottinghamshire","country":"United Kingdom","canonicalUrl":"https://foursquare.com/v/the-lady-chatterley-wetherspoon/53a70421498e7989b0bf902d","categoryId":"4bf58dd8d48988d116941735","category":"Bar","checkinsCount":91,"usersCount":74,"tipCount":3,"visitsCount":203,"tier":"","message":"","currency":"","rating":8.2},{"name":"Talbot Taphouse","phone":"+441773742626","twitter":"talbottaphouse","address":"Butterley Hill","lat":53.053225,"lng":-1.405398,"city_fetched":"Heanor,UK","state":"Derbyshire","country":"United Kingdom","canonicalUrl":"https://foursquare.com/v/talbot-taphouse/4ceea05f0acea35dcb91eaae","categoryId":"4bf58dd8d48988d11b941735","category":"Pub","checkinsCount":101,"usersCount":31,"tipCount":6,"visitsCount":107,"tier":"","message":"","currency":"","rating":7.8},{"name":"Blue Monkey Brewery","phone":"+448000280329","twitter":"bluemonkeybrew","address":"10 Pentrich Rd","lat":53.00417369606105,"lng":-1.2803115131698652,"city_fetched":"Heanor,UK","state":"Nottinghamshire","country":"United Kingdom","canonicalUrl":"https://foursquare.com/v/blue-monkey-brewery/4ed4c06299119575fe7ce572","categoryId":"50327c8591d4c4b30a586d5d","category":"Brewery","checkinsCount":75,"usersCount":47,"tipCount":3,"visitsCount":86,"url":"http://www.bluemonkeybrewery.com","tier":"","message":"","currency":"","rating":7.5},{"name":"The Red Lion (Wetherspoon)","phone":"+441773512875","address":"Market Place","lat":53.050692010657905,"lng":-1.4073047559755123,"city_fetched":"Heanor,UK","state":"Derbyshire","country":"United Kingdom","canonicalUrl":"https://foursquare.com/v/the-red-lion-wetherspoon/4c87abdb821e9eb0b8cd8d89","categoryId":"4bf58dd8d48988d11b941735","category":"Pub","checkinsCount":1898,"usersCount":190,"tipCount":4,"visitsCount":2080,"url":"http://www.jdwetherspoon.co.uk","tier":1,"message":"Cheap","currency":"Â£","rating":7.3},{"name":"The Hayloft","address":"Nottingham Road","lat":53.00773101,"lng":-1.283817,"city_fetched":"Heanor,UK","state":"Nottinghamshire","country":"United Kingdom","canonicalUrl":"https://foursquare.com/v/the-hayloft/4c239c55a852c928c1c6e16c","categoryId":"4bf58dd8d48988d11b941735","category":"Pub","checkinsCount":263,"usersCount":65,"tipCount":4,"visitsCount":281,"tier":"","message":"","currency":"","rating":7},{"name":"The Thorn Tree Inn","phone":"+441773768675","address":"246 Nottingham Rd","lat":53.034268,"lng":-1.359179,"city_fetched":"Heanor,UK","state":"Derbyshire","country":"United Kingdom","canonicalUrl":"https://foursquare.com/v/the-thorn-tree-inn/4cae0002632b370412386c6e","categoryId":"4bf58dd8d48988d11b941735","category":"Pub","checkinsCount":81,"usersCount":62,"tipCount":3,"visitsCount":100,"url":"http://www.georgestradition.co.uk","tier":"","message":"","currency":"","rating":6.8},{"name":"Rose & Crown","address":"Woodside","lat":52.98241470536056,"lng":-1.4015593992107325,"city_fetched":"Heanor,UK","state":"Derbyshire","country":"United Kingdom","canonicalUrl":"https://foursquare.com/v/rose--crown/4bd3201fa8b3a593aa1d695f","categoryId":"4bf58dd8d48988d11b941735","category":"Pub","checkinsCount":94,"usersCount":85,"tipCount":1,"visitsCount":143,"tier":"","message":"","currency":"","rating":6.2},{"name":"Butterley Park Table Table","phone":"+441773512334","address":"Nottingham Road","lat":53.055383,"lng":-1.398160457611084,"city_fetched":"Heanor,UK","country":"United Kingdom","canonicalUrl":"https://foursquare.com/v/butterley-park-table-table/4b884e54f964a520fbed31e3","categoryId":"4bf58dd8d48988d11b941735","category":"Pub","checkinsCount":108,"usersCount":59,"tipCount":4,"visitsCount":108,"tier":"","message":"","currency":"","rating":5.8}]