[{"name":"Ye Olde Fighting Cocks","phone":"+441727869152","twitter":"fightingcockssa","address":"16 Abbey Mill Ln","lat":51.749071746121324,"lng":-0.34680747184728095,"city_fetched":"Hemel Hempstead,UK","state":"Hertfordshire","country":"United Kingdom","canonicalUrl":"https://foursquare.com/v/ye-olde-fighting-cocks/4b631b8df964a5208a632ae3","categoryId":"4bf58dd8d48988d11b941735","category":"Pub","checkinsCount":1079,"usersCount":793,"tipCount":15,"visitsCount":1343,"url":"http://www.yeoldefightingcocks.co.uk","tier":"","message":"","currency":"","rating":8.6},{"name":"Rising Sun","phone":"+441442864913","address":"George Street","lat":51.759114696852095,"lng":-0.5563116073608398,"city_fetched":"Hemel Hempstead,UK","state":"Hertfordshire","country":"United Kingdom","canonicalUrl":"https://foursquare.com/v/rising-sun/4c474e5b972c0f47295f2321","categoryId":"4bf58dd8d48988d11b941735","category":"Pub","checkinsCount":315,"usersCount":192,"tipCount":10,"visitsCount":428,"url":"http://www.theriser.co.uk","tier":"","message":"","currency":"","rating":8.5},{"name":"The Berko Brewery Shop","phone":"+441442256970","twitter":"berkobrewshop","address":"104 High Street","lat":51.759149,"lng":-0.560283,"city_fetched":"Hemel Hempstead,UK","state":"Hertfordshire","country":"United Kingdom","canonicalUrl":"https://foursquare.com/v/the-berko-brewery-shop/55631147498e139d955e6e71","categoryId":"4bf58dd8d48988d117941735","category":"Beer Garden","checkinsCount":55,"usersCount":28,"tipCount":6,"visitsCount":73,"tier":"","message":"","currency":"","rating":8.4},{"name":"The Mermaid","phone":"+441727837758","address":"98 Hatfield Rd","lat":51.753602482273386,"lng":-0.33228278160095215,"city_fetched":"Hemel Hempstead,UK","state":"Hertfordshire","country":"United Kingdom","canonicalUrl":"https://foursquare.com/v/the-mermaid/4b8ed2aff964a520393933e3","categoryId":"4bf58dd8d48988d11b941735","category":"Pub","checkinsCount":862,"usersCount":250,"tipCount":8,"visitsCount":1273,"tier":"","message":"","currency":"","rating":8.3},{"name":"The Artichoke","phone":"+441923778677","address":"The Green","lat":51.64901422,"lng":-0.455579,"city_fetched":"Hemel Hempstead,UK","state":"Hertfordshire","country":"United Kingdom","canonicalUrl":"https://foursquare.com/v/the-artichoke/4bf5935bbfeac92864c09236","categoryId":"4bf58dd8d48988d11b941735","category":"Pub","checkinsCount":297,"usersCount":216,"tipCount":5,"visitsCount":436,"url":"http://www.artichokeonthegreen.co.uk","tier":"","message":"","currency":"","rating":8.2},{"name":"Lower Red Lion","phone":"+441727855669","address":"36 Fishpool St","lat":51.751627453720026,"lng":-0.3465654329468714,"city_fetched":"Hemel Hempstead,UK","state":"Hertfordshire","country":"United Kingdom","canonicalUrl":"https://foursquare.com/v/lower-red-lion/4b5212a9f964a520ae6527e3","categoryId":"4bf58dd8d48988d11b941735","category":"Pub","checkinsCount":267,"usersCount":152,"tipCount":8,"visitsCount":322,"tier":"","message":"","currency":"","rating":8.2},{"name":"The Six Bells","phone":"+441727856945","twitter":"thesixbells","address":"16-18 St Michael's St.","lat":51.75379693508148,"lng":-0.354059,"city_fetched":"Hemel Hempstead,UK","state":"Hertfordshire","country":"United Kingdom","canonicalUrl":"https://foursquare.com/v/the-six-bells/4beda6c291380f47fe3ba018","categoryId":"4bf58dd8d48988d11b941735","category":"Pub","checkinsCount":380,"usersCount":197,"tipCount":9,"visitsCount":448,"tier":"","message":"","currency":"","rating":8.1},{"name":"Bar Bodega","phone":"+441923229651","address":"151 The Parade","lat":51.65951615675465,"lng":-0.4018177755152334,"city_fetched":"Hemel Hempstead,UK","state":"Hertfordshire","country":"United Kingdom","canonicalUrl":"https://foursquare.com/v/bar-bodega/4b5b4025f964a5206eee28e3","categoryId":"4bf58dd8d48988d116941735","category":"Bar","checkinsCount":780,"usersCount":376,"tipCount":16,"visitsCount":925,"url":"http://www.barbodega.co.uk","tier":3,"message":"Expensive","currency":"£","rating":8.1},{"name":"The Paper Mill","phone":"+441442288800","address":"Stationers Place","lat":51.73365332798109,"lng":-0.4615652975377784,"city_fetched":"Hemel Hempstead,UK","state":"Hertfordshire","country":"United Kingdom","canonicalUrl":"https://foursquare.com/v/the-paper-mill/4b71bd12f964a52086592de3","categoryId":"4bf58dd8d48988d11b941735","category":"Pub","checkinsCount":1187,"usersCount":560,"tipCount":22,"visitsCount":1488,"tier":"","message":"","currency":"","rating":8.1},{"name":"The Coach & Horses on The Green","phone":"+441923774457","address":"The Green","lat":51.65037718137602,"lng":-0.4553581481732285,"city_fetched":"Hemel Hempstead,UK","state":"Hertfordshire","country":"United Kingdom","canonicalUrl":"https://foursquare.com/v/the-coach--horses-on-the-green/4c7bd9482d3ba143a62a95d0","categoryId":"4bf58dd8d48988d11b941735","category":"Pub","checkinsCount":805,"usersCount":195,"tipCount":3,"visitsCount":929,"url":"http://www.thecoachandhorses.co.uk","tier":"","message":"","currency":"","rating":8},{"name":"Bricklayers Arms","address":"Hogpit Bottoms","lat":51.70112973760636,"lng":-0.5332660675048828,"city_fetched":"Hemel Hempstead,UK","state":"Hertfordshire","country":"United Kingdom","canonicalUrl":"https://foursquare.com/v/bricklayers-arms/4b902bd7f964a520097a33e3","categoryId":"4bf58dd8d48988d11b941735","category":"Pub","checkinsCount":90,"usersCount":76,"tipCount":5,"visitsCount":117,"url":"http://www.bricklayersarms.com","tier":"","message":"","currency":"","rating":8},{"name":"The Red Lion","address":"Leighton Buzzard Rd.","lat":51.78102539507551,"lng":-0.4922840420241182,"city_fetched":"Hemel Hempstead,UK","state":"Hertfordshire","country":"United Kingdom","canonicalUrl":"https://foursquare.com/v/the-red-lion/4cfb91dfc51fa1cd5277e72b","categoryId":"4bf58dd8d48988d11b941735","category":"Pub","checkinsCount":405,"usersCount":243,"tipCount":7,"visitsCount":551,"tier":"","message":"","currency":"","rating":7.9},{"name":"The Fishery Inn","phone":"+441442230197","address":"2 Fishery Road","lat":51.74419425,"lng":-0.490946,"city_fetched":"Hemel Hempstead,UK","state":"Hertfordshire","country":"United Kingdom","canonicalUrl":"https://foursquare.com/v/the-fishery-inn/4b96eed4f964a520aeee34e3","categoryId":"4bf58dd8d48988d11b941735","category":"Pub","checkinsCount":453,"usersCount":333,"tipCount":7,"visitsCount":657,"tier":"","message":"","currency":"","rating":7.9},{"name":"Nascot Arms","phone":"+441923231336","address":"11 Stamford Rd","lat":51.66515193413053,"lng":-0.40180087352478633,"city_fetched":"Hemel Hempstead,UK","state":"Hertfordshire","country":"United Kingdom","canonicalUrl":"https://foursquare.com/v/nascot-arms/4bb11e14f964a520c87b3ce3","categoryId":"4bf58dd8d48988d11b941735","category":"Pub","checkinsCount":431,"usersCount":251,"tipCount":21,"visitsCount":689,"url":"http://www.nascotarms.co.uk","tier":"","message":"","currency":"","rating":7.9},{"name":"Cross Keys","address":"High Street","lat":51.81678159471666,"lng":-0.35647078263189114,"city_fetched":"Hemel Hempstead,UK","state":"Hertfordshire","country":"United Kingdom","canonicalUrl":"https://foursquare.com/v/cross-keys/4c83d6fee602b1f7874aa97a","categoryId":"4bf58dd8d48988d116941735","category":"Bar","checkinsCount":175,"usersCount":67,"tipCount":5,"visitsCount":177,"tier":"","message":"","currency":"","rating":7.9},{"name":"The Plough","phone":"+441727857777","address":"Tyttenhanger Green","lat":51.7396003353924,"lng":-0.28911003355294396,"city_fetched":"Hemel Hempstead,UK","state":"Hertfordshire","country":"United Kingdom","canonicalUrl":"https://foursquare.com/v/the-plough/4c712ea5d97fa143c611f8ca","categoryId":"4bf58dd8d48988d116941735","category":"Bar","checkinsCount":208,"usersCount":82,"tipCount":9,"visitsCount":281,"tier":"","message":"","currency":"","rating":7.8},{"name":"The Cock Inn","address":"Church Lane","lat":51.67487327686467,"lng":-0.49792863495627243,"city_fetched":"Hemel Hempstead,UK","state":"Hertfordshire","country":"United Kingdom","canonicalUrl":"https://foursquare.com/v/the-cock-inn/4b916c30f964a52049bb33e3","categoryId":"4bf58dd8d48988d11b941735","category":"Pub","checkinsCount":122,"usersCount":112,"tipCount":1,"visitsCount":179,"tier":"","message":"","currency":"","rating":7.7},{"name":"The Sportsman","phone":"+441923443360","address":"2 Scots Hill Close","lat":51.64600936536495,"lng":-0.4557655585884428,"city_fetched":"Hemel Hempstead,UK","state":"Hertfordshire","country":"United Kingdom","canonicalUrl":"https://foursquare.com/v/the-sportsman/4c6980b90e98a593919e2459","categoryId":"4bf58dd8d48988d11b941735","category":"Pub","checkinsCount":933,"usersCount":91,"tipCount":3,"visitsCount":1039,"tier":"","message":"","currency":"","rating":7.7},{"name":"The Beehive","phone":"+441727811127","address":"2 Keyfield Terrace","lat":51.749537623195586,"lng":-0.3359198570251465,"city_fetched":"Hemel Hempstead,UK","state":"Hertfordshire","country":"United Kingdom","canonicalUrl":"https://foursquare.com/v/the-beehive/4bb8f849b35776b03876c901","categoryId":"4bf58dd8d48988d11b941735","category":"Pub","checkinsCount":1149,"usersCount":230,"tipCount":4,"visitsCount":1361,"url":"http://www.thebeehivestalbans.co.uk","tier":"","message":"","currency":"","rating":7.7},{"name":"The Horns","phone":"+441923225020","address":"1 Hempstead Rd.","lat":51.66022002696991,"lng":-0.403587,"city_fetched":"Hemel Hempstead,UK","state":"Hertfordshire","country":"United Kingdom","canonicalUrl":"https://foursquare.com/v/the-horns/4b6d5a57f964a52065722ce3","categoryId":"4bf58dd8d48988d11b941735","category":"Pub","checkinsCount":254,"usersCount":139,"tipCount":3,"visitsCount":263,"tier":"","message":"","currency":"","rating":7.6},{"name":"White Hart Tap","phone":"+441727860974","twitter":"whiteharttap","address":"4 Keyfield Terrace","lat":51.74880863306644,"lng":-0.33640265464782715,"city_fetched":"Hemel Hempstead,UK","state":"Hertfordshire","country":"United Kingdom","canonicalUrl":"https://foursquare.com/v/white-hart-tap/4b7c3b56f964a5200d862fe3","categoryId":"4bf58dd8d48988d11b941735","category":"Pub","checkinsCount":1500,"usersCount":322,"tipCount":17,"visitsCount":1802,"tier":1,"message":"Cheap","currency":"£","rating":7.6},{"name":"The Boat","phone":"+441442877152","twitter":"boatberkhamsted","address":"Gravel Path","lat":51.76018826738995,"lng":-0.5568883254598486,"city_fetched":"Hemel Hempstead,UK","state":"Hertfordshire","country":"United Kingdom","canonicalUrl":"https://foursquare.com/v/the-boat/4c01775958dbc9288969ee6b","categoryId":"4bf58dd8d48988d11b941735","category":"Pub","checkinsCount":891,"usersCount":346,"tipCount":9,"visitsCount":1169,"url":"http://boatberkhamsted.co.uk","tier":"","message":"","currency":"","rating":7.5},{"name":"The Boot","phone":"+441727857533","twitter":"thebootonline","address":"4 Market Pl","lat":51.751341833330976,"lng":-0.34023192072975095,"city_fetched":"Hemel Hempstead,UK","state":"Hertfordshire","country":"United Kingdom","canonicalUrl":"https://foursquare.com/v/the-boot/4bd5c84c4e32d13a5370c180","categoryId":"4bf58dd8d48988d11b941735","category":"Pub","checkinsCount":971,"usersCount":374,"tipCount":15,"visitsCount":1025,"tier":"","message":"","currency":"","rating":7.5},{"name":"The Hare & Hounds","phone":"+441727855565","twitter":"harestalbans","address":"104 Sopwell Ln","lat":51.74789817072451,"lng":-0.33656,"city_fetched":"Hemel Hempstead,UK","country":"United Kingdom","canonicalUrl":"https://foursquare.com/v/the-hare--hounds/4b993845f964a520e26a35e3","categoryId":"4bf58dd8d48988d11b941735","category":"Pub","checkinsCount":532,"usersCount":204,"tipCount":7,"visitsCount":608,"url":"http://www.hareandhoundsstalbans.com","tier":"","message":"","currency":"","rating":7.5},{"name":"The White Lion","phone":"+441727850540","address":"91 Sopwell Ln.","lat":51.74812777762392,"lng":-0.337215,"city_fetched":"Hemel Hempstead,UK","state":"Hertfordshire","country":"United Kingdom","canonicalUrl":"https://foursquare.com/v/the-white-lion/4c129659a9c220a11943549d","categoryId":"4bf58dd8d48988d11b941735","category":"Pub","checkinsCount":524,"usersCount":162,"tipCount":12,"visitsCount":546,"url":"http://www.thewhitelionph.co.uk","tier":"","message":"","currency":"","rating":7.5},{"name":"Moor Mill (Beefeater)","phone":"+441727875557","twitter":"beefeater","address":"Smug Oak Lane, Bricket Wood","lat":51.7089435047975,"lng":-0.33640978662857984,"city_fetched":"Hemel Hempstead,UK","state":"Hertfordshire","country":"United Kingdom","canonicalUrl":"https://foursquare.com/v/moor-mill-beefeater/4bd358c1462cb713f339de07","categoryId":"4bf58dd8d48988d11b941735","category":"Pub","checkinsCount":305,"usersCount":227,"tipCount":4,"visitsCount":351,"url":"http://www.beefeater.co.uk/steak-restaurant/Hertfordshire/Moor-Hill-Bricket-Wood.html","tier":"","message":"","currency":"","rating":7.3},{"name":"The Verulam Arms","phone":"+441727836004","address":"41 Lower Dagnall St","lat":51.752836054371976,"lng":-0.3440961434697364,"city_fetched":"Hemel Hempstead,UK","state":"Hertfordshire","country":"United Kingdom","canonicalUrl":"https://foursquare.com/v/the-verulam-arms/4d1ce4e6ddc85481a520cc60","categoryId":"4bf58dd8d48988d11b941735","category":"Pub","checkinsCount":380,"usersCount":183,"tipCount":4,"visitsCount":465,"tier":"","message":"","currency":"","rating":7.3},{"name":"The Fox","phone":"+441582713817","address":"Luton Rd","lat":51.83317055220193,"lng":-0.38763328737041824,"city_fetched":"Hemel Hempstead,UK","state":"Hertfordshire","country":"United Kingdom","canonicalUrl":"https://foursquare.com/v/the-fox/4bb09b2ef964a520054f3ce3","categoryId":"4bf58dd8d48988d11b941735","category":"Pub","checkinsCount":260,"usersCount":276,"tipCount":12,"visitsCount":418,"url":"http://www.thefoxharpenden.co.uk","tier":"","message":"","currency":"","rating":7.3},{"name":"Three Horseshoes","phone":"+441442862585","twitter":"thewinkwell","address":"Pouchen End Ln","lat":51.74658745879855,"lng":-0.5148033302442465,"city_fetched":"Hemel Hempstead,UK","state":"Hertfordshire","country":"United Kingdom","canonicalUrl":"https://foursquare.com/v/three-horseshoes/4d739267d145a1cd699bc4f3","categoryId":"4bf58dd8d48988d11b941735","category":"Pub","checkinsCount":260,"usersCount":227,"tipCount":5,"visitsCount":383,"url":"http://www.the3horseshoeswinkwell.co.uk","tier":"","message":"","currency":"","rating":7.3},{"name":"The Crown","phone":"+441727853347","address":"144-146 Hatfield Rd.","lat":51.75132292393704,"lng":-0.3232955862692281,"city_fetched":"Hemel Hempstead,UK","state":"Hertfordshire","country":"United Kingdom","canonicalUrl":"https://foursquare.com/v/the-crown/4cb06c60cbab236a4307a073","categoryId":"4bf58dd8d48988d11b941735","category":"Pub","checkinsCount":570,"usersCount":184,"tipCount":4,"visitsCount":648,"url":"http://www.crownstalbans.com","tier":"","message":"","currency":"","rating":7.2},{"name":"The Rose And Crown","lat":51.71104344800958,"lng":-0.44930638307341103,"city_fetched":"Hemel Hempstead,UK","state":"Hertfordshire","country":"United Kingdom","canonicalUrl":"https://foursquare.com/v/the-rose-and-crown/4c990d01eaa5a143c564c0e4","categoryId":"4bf58dd8d48988d11b941735","category":"Pub","checkinsCount":575,"usersCount":273,"tipCount":7,"visitsCount":787,"tier":"","message":"","currency":"","rating":7.2},{"name":"The Red Lion Pub","lat":51.727388816862025,"lng":-0.4538267198219197,"city_fetched":"Hemel Hempstead,UK","state":"Hertfordshire","country":"United Kingdom","canonicalUrl":"https://foursquare.com/v/the-red-lion-pub/4dcc41c1e4cd02511e2b59ac","categoryId":"4bf58dd8d48988d11b941735","category":"Pub","checkinsCount":129,"usersCount":94,"tipCount":2,"visitsCount":172,"tier":"","message":"","currency":"","rating":7.1},{"name":"The Plough","phone":"+441442732132","address":"Leverstock Green Rd","lat":51.750719237363455,"lng":-0.43731728917673324,"city_fetched":"Hemel Hempstead,UK","state":"Hertfordshire","country":"United Kingdom","canonicalUrl":"https://foursquare.com/v/the-plough/4e88709c0aaf31af4ad1f3e0","categoryId":"4bf58dd8d48988d11b941735","category":"Pub","checkinsCount":220,"usersCount":63,"tipCount":5,"visitsCount":237,"url":"http://www.innbritain.co.uk","tier":"","message":"","currency":"","rating":7.1},{"name":"The Young Pretender","lat":51.716444,"lng":-0.4514586925506592,"city_fetched":"Hemel Hempstead,UK","country":"United Kingdom","canonicalUrl":"https://foursquare.com/v/the-young-pretender/4b72b7a5f964a52041852de3","categoryId":"4bf58dd8d48988d11b941735","category":"Pub","checkinsCount":248,"usersCount":182,"tipCount":9,"visitsCount":282,"tier":"","message":"","currency":"","rating":7.1},{"name":"The Jolly Sailor","phone":"+441727893982","twitter":"jollysailor2","address":"3 Stonecross","lat":51.75842350021067,"lng":-0.3320453597270841,"city_fetched":"Hemel Hempstead,UK","state":"Hertfordshire","country":"United Kingdom","canonicalUrl":"https://foursquare.com/v/the-jolly-sailor/4c056e0c517d0f47e787f415","categoryId":"4bf58dd8d48988d11b941735","category":"Pub","checkinsCount":373,"usersCount":119,"tipCount":5,"visitsCount":436,"url":"http://www.thejollysailorpub.co.uk","tier":"","message":"","currency":"","rating":7},{"name":"The Beech House","phone":"+441727701230","twitter":"beechhousesta","address":"81 St Peter's St.","lat":51.754715,"lng":-0.336485,"city_fetched":"Hemel Hempstead,UK","state":"Hertfordshire","country":"United Kingdom","canonicalUrl":"https://foursquare.com/v/the-beech-house/54134380498e02cb71eba9c8","categoryId":"4bf58dd8d48988d116941735","category":"Bar","checkinsCount":348,"usersCount":162,"tipCount":5,"visitsCount":453,"url":"http://www.beechhousestalbans.co.uk","tier":"","message":"","currency":"","rating":7},{"name":"Billy's Bar","phone":"+441582766188","address":"72 High St","lat":51.8175208140697,"lng":-0.3576431706088013,"city_fetched":"Hemel Hempstead,UK","state":"Hertfordshire","country":"United Kingdom","canonicalUrl":"https://foursquare.com/v/billys-bar/4b76fbbbf964a52045712ee3","categoryId":"4bf58dd8d48988d116941735","category":"Bar","checkinsCount":260,"usersCount":93,"tipCount":6,"visitsCount":273,"url":"http://billysbar.co.uk","tier":"","message":"","currency":"","rating":7},{"name":"The Great Northern","phone":"+441727859801","address":"172 London Rd","lat":51.74773090173228,"lng":-0.33203601837158203,"city_fetched":"Hemel Hempstead,UK","state":"Hertfordshire","country":"United Kingdom","canonicalUrl":"https://foursquare.com/v/the-great-northern/4f35b189e4b08f00979d6d69","categoryId":"4bf58dd8d48988d11b941735","category":"Pub","checkinsCount":141,"usersCount":41,"tipCount":1,"visitsCount":143,"tier":"","message":"","currency":"","rating":6.8},{"name":"The Moon Under Water (Wetherspoon)","phone":"+441923223559","address":"44 High St.","lat":51.656264353907474,"lng":-0.39765357971191406,"city_fetched":"Hemel Hempstead,UK","state":"Hertfordshire","country":"United Kingdom","canonicalUrl":"https://foursquare.com/v/the-moon-under-water-wetherspoon/4b687861f964a5209c7a2be3","categoryId":"4bf58dd8d48988d11b941735","category":"Pub","checkinsCount":1776,"usersCount":869,"tipCount":11,"visitsCount":2128,"url":"http://www.jdwetherspoon.co.uk","tier":1,"message":"Cheap","currency":"£","rating":6.8},{"name":"The Swan","phone":"+441923672539","address":"College Rd.","lat":51.702958269599876,"lng":-0.4088705778121948,"city_fetched":"Hemel Hempstead,UK","state":"Hertfordshire","country":"United Kingdom","canonicalUrl":"https://foursquare.com/v/the-swan/4c34adbd16adc928e686c59c","categoryId":"4bf58dd8d48988d11b941735","category":"Pub","checkinsCount":343,"usersCount":113,"tipCount":13,"visitsCount":394,"tier":"","message":"","currency":"","rating":6.8},{"name":"Waterend Barn (Wetherspoon)","phone":"+441727814100","address":"Civic Cl.","lat":51.75267973029682,"lng":-0.3372294580133541,"city_fetched":"Hemel Hempstead,UK","state":"Hertfordshire","country":"United Kingdom","canonicalUrl":"https://foursquare.com/v/waterend-barn-wetherspoon/4c87ac07821e9eb0dfcd8d89","categoryId":"4bf58dd8d48988d11b941735","category":"Pub","checkinsCount":1243,"usersCount":521,"tipCount":15,"visitsCount":1365,"tier":1,"message":"Cheap","currency":"£","rating":6.7},{"name":"The Old Mill","phone":"+441442879590","twitter":"the_old_mill","address":"London Road","lat":51.756695,"lng":-0.551845,"city_fetched":"Hemel Hempstead,UK","state":"Hertfordshire","country":"United Kingdom","canonicalUrl":"https://foursquare.com/v/the-old-mill/4b47c573f964a520133e26e3","categoryId":"4bf58dd8d48988d11b941735","category":"Pub","checkinsCount":277,"usersCount":278,"tipCount":13,"visitsCount":408,"url":"http://www.theoldmillberkhamsted.co.uk","tier":"","message":"","currency":"","rating":6.7},{"name":"The Goat Inn","phone":"+441727833934","address":"37 Sopwell Ln.","lat":51.74883691735666,"lng":-0.33900886830517923,"city_fetched":"Hemel Hempstead,UK","state":"Hertfordshire","country":"United Kingdom","canonicalUrl":"https://foursquare.com/v/the-goat-inn/4b72ab9ff964a52013832de3","categoryId":"4bf58dd8d48988d11b941735","category":"Pub","checkinsCount":479,"usersCount":204,"tipCount":6,"visitsCount":553,"url":"http://www.goatinn.co.uk","tier":"","message":"","currency":"","rating":6.6},{"name":"The Old Bell","lat":51.82461080631915,"lng":-0.3682433123140528,"city_fetched":"Hemel Hempstead,UK","country":"United Kingdom","canonicalUrl":"https://foursquare.com/v/the-old-bell/4bc08a6bb492d13ac15ca460","categoryId":"4bf58dd8d48988d11b941735","category":"Pub","checkinsCount":188,"usersCount":113,"tipCount":2,"visitsCount":272,"tier":"","message":"","currency":"","rating":6.6},{"name":"The Speckled Hen","phone":"+441727866856","address":"Hatfield Rd","lat":51.752344823976905,"lng":-0.2968456280953345,"city_fetched":"Hemel Hempstead,UK","state":"Hertfordshire","country":"United Kingdom","canonicalUrl":"https://foursquare.com/v/the-speckled-hen/4b925190f964a520e8f133e3","categoryId":"4bf58dd8d48988d11b941735","category":"Pub","checkinsCount":454,"usersCount":160,"tipCount":11,"visitsCount":557,"tier":"","message":"","currency":"","rating":6.6},{"name":"White Horse","lat":51.80414,"lng":-0.3556136418562383,"city_fetched":"Hemel Hempstead,UK","state":"Hertfordshire","country":"United Kingdom","canonicalUrl":"https://foursquare.com/v/white-horse/4c8ea979daa93704a77f4eb1","categoryId":"4bf58dd8d48988d11b941735","category":"Pub","checkinsCount":209,"usersCount":173,"tipCount":7,"visitsCount":292,"tier":"","message":"","currency":"","rating":6.6},{"name":"The Full House (Wetherspoon)","phone":"+441442265512","address":"128 Marlowes","lat":51.75361543060872,"lng":-0.4728226987304759,"city_fetched":"Hemel Hempstead,UK","state":"Hertfordshire","country":"United Kingdom","canonicalUrl":"https://foursquare.com/v/the-full-house-wetherspoon/4c87ab26821e9eb019cd8d89","categoryId":"4bf58dd8d48988d11b941735","category":"Pub","checkinsCount":1132,"usersCount":345,"tipCount":8,"visitsCount":1414,"url":"http://www.jdwetherspoon.co.uk","tier":1,"message":"Cheap","currency":"£","rating":6.6},{"name":"The Garibaldi","phone":"+441727894745","twitter":"thegarista","address":"61 Albert St.","lat":51.74842,"lng":-0.336768,"city_fetched":"Hemel Hempstead,UK","state":"Hertfordshire","country":"United Kingdom","canonicalUrl":"https://foursquare.com/v/the-garibaldi/4c1290f2b7b9c9282e08a837","categoryId":"4bf58dd8d48988d11b941735","category":"Pub","checkinsCount":427,"usersCount":126,"tipCount":3,"visitsCount":456,"url":"http://www.garibaldistalbans.co.uk","tier":"","message":"","currency":"","rating":6.5},{"name":"Mokoko","address":"26 Verulam Rd.","lat":51.752540415350005,"lng":-0.3411701492270925,"city_fetched":"Hemel Hempstead,UK","state":"Hertfordshire","country":"United Kingdom","canonicalUrl":"https://foursquare.com/v/mokoko/4d484d762165721e06c1c5d7","categoryId":"4bf58dd8d48988d11e941735","category":"Cocktail Bar","checkinsCount":256,"usersCount":156,"tipCount":9,"visitsCount":261,"tier":"","message":"","currency":"","rating":6.5},{"name":"The Cock","phone":"+441727854816","address":"48 St Peter's St","lat":51.75448481,"lng":-0.336136,"city_fetched":"Hemel Hempstead,UK","state":"Hertfordshire","country":"United Kingdom","canonicalUrl":"https://foursquare.com/v/the-cock/4b3936d1f964a520505825e3","categoryId":"4bf58dd8d48988d11b941735","category":"Pub","checkinsCount":939,"usersCount":384,"tipCount":15,"visitsCount":985,"url":"http://www.thecockinstalbans.co.uk","tier":"","message":"","currency":"","rating":6.4},{"name":"Blacksmiths Arms","phone":"+441727868845","twitter":"blackiessta","address":"56 St Peter's St","lat":51.75461526727604,"lng":-0.3359548113504822,"city_fetched":"Hemel Hempstead,UK","state":"Hertfordshire","country":"United Kingdom","canonicalUrl":"https://foursquare.com/v/blacksmiths-arms/4bc9b7b8511f9521b216aec7","categoryId":"4bf58dd8d48988d11b941735","category":"Pub","checkinsCount":1223,"usersCount":401,"tipCount":13,"visitsCount":1282,"url":"http://www.blacksmitharms.co.uk","tier":"","message":"","currency":"","rating":6.4},{"name":"Colombia Press (Wetherspoon)","phone":"+441923811540","address":"72-74 The Parade","lat":51.658340957343185,"lng":-0.40022850036621094,"city_fetched":"Hemel Hempstead,UK","state":"Hertfordshire","country":"United Kingdom","canonicalUrl":"https://foursquare.com/v/colombia-press-wetherspoon/4bb90c257421a5932b6dc240","categoryId":"4bf58dd8d48988d11b941735","category":"Pub","checkinsCount":562,"usersCount":223,"tipCount":2,"visitsCount":587,"url":"http://www.jdwetherspoon.co.uk","tier":"","message":"","currency":"","rating":6.4},{"name":"chequers public house","twitter":"trumanboy01","lat":51.79345,"lng":-0.3914720436708299,"city_fetched":"Hemel Hempstead,UK","state":"Hertfordshire","country":"United Kingdom","canonicalUrl":"https://foursquare.com/v/chequers-public-house/4b9e87cef964a52053ec36e3","categoryId":"4bf58dd8d48988d11b941735","category":"Pub","checkinsCount":177,"usersCount":115,"tipCount":1,"visitsCount":238,"tier":"","message":"","currency":"","rating":6.4},{"name":"The Engineer","phone":"+441582460478","address":"12 St John's Rd.","lat":51.804929146022985,"lng":-0.34566996290897045,"city_fetched":"Hemel Hempstead,UK","state":"Hertfordshire","country":"United Kingdom","canonicalUrl":"https://foursquare.com/v/the-engineer/4c781337df08a1cdcf29d65d","categoryId":"4bf58dd8d48988d11b941735","category":"Pub","checkinsCount":1122,"usersCount":114,"tipCount":1,"visitsCount":1163,"tier":"","message":"","currency":"","rating":6.4},{"name":"The Snug Bar","phone":"+441727856631","twitter":"thesnugbar","address":"1 French Row","lat":51.751423975841924,"lng":-0.3406190872192383,"city_fetched":"Hemel Hempstead,UK","state":"Hertfordshire","country":"United Kingdom","canonicalUrl":"https://foursquare.com/v/the-snug-bar/4c9de908604c76b0e949837b","categoryId":"4bf58dd8d48988d116941735","category":"Bar","checkinsCount":660,"usersCount":327,"tipCount":12,"visitsCount":669,"url":"http://www.thesnugbar.co.uk/st-albans","tier":"","message":"","currency":"","rating":6.3},{"name":"The Compasses","address":"95 Tibbs Hill Rd","lat":51.70405846564168,"lng":-0.41179521784826034,"city_fetched":"Hemel Hempstead,UK","state":"Hertfordshire","country":"United Kingdom","canonicalUrl":"https://foursquare.com/v/the-compasses/4d3c9310557d6dcb7f443c44","categoryId":"4bf58dd8d48988d11b941735","category":"Pub","checkinsCount":294,"usersCount":63,"tipCount":3,"visitsCount":320,"tier":"","message":"","currency":"","rating":6.2},{"name":"The Peahen","phone":"+441727853669","twitter":"mcmullens1827","address":"14 London Rd","lat":51.750711002081246,"lng":-0.33957754990513234,"city_fetched":"Hemel Hempstead,UK","state":"Hertfordshire","country":"United Kingdom","canonicalUrl":"https://foursquare.com/v/the-peahen/4c1a14e1838020a1529de661","categoryId":"4bf58dd8d48988d11b941735","category":"Pub","checkinsCount":1600,"usersCount":596,"tipCount":25,"visitsCount":1737,"url":"http://www.mcmullens.co.uk/peahen","tier":"","message":"","currency":"","rating":6.1},{"name":"The Olde Leather Bottle","phone":"+441442239911","address":"Leverstock Green Road","lat":51.74685332367597,"lng":-0.4336467655666827,"city_fetched":"Hemel Hempstead,UK","state":"Hertfordshire","country":"United Kingdom","canonicalUrl":"https://foursquare.com/v/the-olde-leather-bottle/4c336575ed37a59353456d03","categoryId":"4bf58dd8d48988d11b941735","category":"Pub","checkinsCount":123,"usersCount":51,"tipCount":3,"visitsCount":126,"tier":"","message":"","currency":"","rating":6.1},{"name":"The Silver Cup","phone":"+441582713095","address":"5 St Albans Rd.","lat":51.81164296719316,"lng":-0.35404065323573247,"city_fetched":"Hemel Hempstead,UK","state":"Hertfordshire","country":"United Kingdom","canonicalUrl":"https://foursquare.com/v/the-silver-cup/4d21cc9fb69c6dcbe6657c95","categoryId":"50327c8591d4c4b30a586d5d","category":"Brewery","checkinsCount":174,"usersCount":73,"tipCount":2,"visitsCount":186,"url":"http://www.silvercup.co.uk","tier":"","message":"","currency":"","rating":6},{"name":"King Harry","twitter":"kingharrypub","address":"2 King Harry Ln","lat":51.74196687622653,"lng":-0.3492255388764257,"city_fetched":"Hemel Hempstead,UK","state":"Hertfordshire","country":"United Kingdom","canonicalUrl":"https://foursquare.com/v/king-harry/4b9bba44f964a5207c1e36e3","categoryId":"4bf58dd8d48988d11b941735","category":"Pub","checkinsCount":453,"usersCount":249,"tipCount":7,"visitsCount":627,"url":"http://www.thekingharrystalbans.co.uk","tier":"","message":"","currency":"","rating":5.9},{"name":"Que Pasa","address":"58 High St.","lat":51.656077118183994,"lng":-0.39720935014691505,"city_fetched":"Hemel Hempstead,UK","state":"Hertfordshire","country":"United Kingdom","canonicalUrl":"https://foursquare.com/v/que-pasa/4bfbb735d0382d7fb4f3c90a","categoryId":"4bf58dd8d48988d116941735","category":"Bar","checkinsCount":325,"usersCount":168,"tipCount":5,"visitsCount":330,"tier":"","message":"","currency":"","rating":5.9},{"name":"The Southern Cross","phone":"+441923256033","address":"41-43 Langley Rd","lat":51.664620107054944,"lng":-0.40420353412628174,"city_fetched":"Hemel Hempstead,UK","state":"Hertfordshire","country":"United Kingdom","canonicalUrl":"https://foursquare.com/v/the-southern-cross/4b6b33cbf964a52041f92be3","categoryId":"4bf58dd8d48988d11b941735","category":"Pub","checkinsCount":411,"usersCount":189,"tipCount":8,"visitsCount":552,"url":"http://www.flaminggrillpubs.com/pub/southern-cross-watford/p0576/","tier":"","message":"","currency":"","rating":5.8},{"name":"The Flag","phone":"+441923218413","address":"Station Rd","lat":51.66369461731951,"lng":-0.397577102985294,"city_fetched":"Hemel Hempstead,UK","state":"Hertfordshire","country":"United Kingdom","canonicalUrl":"https://foursquare.com/v/the-flag/4b522e24f964a520dc6d27e3","categoryId":"4bf58dd8d48988d11b941735","category":"Pub","checkinsCount":976,"usersCount":570,"tipCount":15,"visitsCount":1040,"url":"http://www.theflagwatford.co.uk","tier":"","message":"","currency":"","rating":5.8},{"name":"Green Man","phone":"+441442253212","twitter":"greenmanhemel","address":"Leverstock Green Rd","lat":51.74854516983032,"lng":-0.433044,"neighborhood":"Leverstock Green","city_fetched":"Hemel Hempstead,UK","state":"Hertfordshire","country":"United Kingdom","canonicalUrl":"https://foursquare.com/v/green-man/4bc21d11920eb713e5aa1b2c","categoryId":"4bf58dd8d48988d116941735","category":"Bar","checkinsCount":222,"usersCount":104,"tipCount":3,"visitsCount":316,"url":"http://www.greenmanhemelhempstead.co.uk","tier":"","message":"","currency":"","rating":5.7},{"name":"Estcourt Tavern","address":"Estcourt Rd.","lat":51.65860718167128,"lng":-0.3955507278442383,"city_fetched":"Hemel Hempstead,UK","state":"Hertfordshire","country":"United Kingdom","canonicalUrl":"https://foursquare.com/v/estcourt-tavern/4c36409c18e72d7f768114f5","categoryId":"4bf58dd8d48988d11b941735","category":"Pub","checkinsCount":459,"usersCount":123,"tipCount":3,"visitsCount":531,"tier":"","message":"","currency":"","rating":5.7},{"name":"Oceana","phone":"+441923239848","twitter":"oceana_watford","address":"127 The Parade","lat":51.65899985970045,"lng":-0.40070056915283203,"city_fetched":"Hemel Hempstead,UK","state":"Hertfordshire","country":"United Kingdom","canonicalUrl":"https://foursquare.com/v/oceana/4b06ba98f964a52037ef22e3","categoryId":"4bf58dd8d48988d11f941735","category":"Nightclub","checkinsCount":623,"usersCount":371,"tipCount":5,"visitsCount":691,"url":"http://www.oceanaclubs.com/watford","tier":"","message":"","currency":"","rating":5.7},{"name":"The Crown (Wetherspoon)","phone":"+441442863993","address":"145 High St.","lat":51.75987174365013,"lng":-0.5634784698486328,"city_fetched":"Hemel Hempstead,UK","state":"Hertfordshire","country":"United Kingdom","canonicalUrl":"https://foursquare.com/v/the-crown-wetherspoon/4c00e6058c1076b065cf2071","categoryId":"4bf58dd8d48988d11b941735","category":"Pub","checkinsCount":820,"usersCount":218,"tipCount":9,"visitsCount":839,"url":"http://www.jdwetherspoon.co.uk","tier":"","message":"","currency":"","rating":5.7},{"name":"The Farmer's Boy","phone":"+441727860535","address":"134 London Rd","lat":51.74874719144735,"lng":-0.3337955474853515,"city_fetched":"Hemel Hempstead,UK","state":"Hertfordshire","country":"United Kingdom","canonicalUrl":"https://foursquare.com/v/the-farmers-boy/4b8994abf964a520834332e3","categoryId":"4bf58dd8d48988d11b941735","category":"Pub","checkinsCount":617,"usersCount":196,"tipCount":9,"visitsCount":678,"url":"http://www.farmersboy.co.uk","tier":"","message":"","currency":"","rating":5.7},{"name":"The Crabtree","lat":51.755949328082075,"lng":-0.4444552442568812,"city_fetched":"Hemel Hempstead,UK","country":"United Kingdom","canonicalUrl":"https://foursquare.com/v/the-crabtree/4c52cdbc94790f47b99f0fa3","categoryId":"4bf58dd8d48988d11b941735","category":"Pub","checkinsCount":531,"usersCount":186,"tipCount":5,"visitsCount":672,"tier":"","message":"","currency":"","rating":5.6},{"name":"The George","address":"4 High St","lat":51.8147636190217,"lng":-0.35563409328460693,"city_fetched":"Hemel Hempstead,UK","state":"Hertfordshire","country":"United Kingdom","canonicalUrl":"https://foursquare.com/v/the-george/4b6359cdf964a520dd732ae3","categoryId":"4bf58dd8d48988d11b941735","category":"Pub","checkinsCount":455,"usersCount":232,"tipCount":6,"visitsCount":465,"url":"http://www.pizzakitchenbars.co.uk/location/the-george","tier":"","message":"","currency":"","rating":5.6},{"name":"The King William IV","phone":"+441727869272","address":"185 Sandridge Rd.","lat":51.766303,"lng":-0.3225207,"city_fetched":"Hemel Hempstead,UK","state":"Hertfordshire","country":"United Kingdom","canonicalUrl":"https://foursquare.com/v/the-king-william-iv/4b9d5978f964a520c3a536e3","categoryId":"4bf58dd8d48988d11b941735","category":"Pub","checkinsCount":519,"usersCount":188,"tipCount":7,"visitsCount":613,"tier":"","message":"","currency":"","rating":5.6},{"name":"Essex Arms","phone":"+441923218031","address":"Langley Way","lat":51.66742719366773,"lng":-0.41784878597696107,"city_fetched":"Hemel Hempstead,UK","state":"Hertfordshire","country":"United Kingdom","canonicalUrl":"https://foursquare.com/v/essex-arms/4b7da22af964a5202fcb2fe3","categoryId":"4bf58dd8d48988d11b941735","category":"Pub","checkinsCount":578,"usersCount":270,"tipCount":3,"visitsCount":760,"url":"http://www.emberinns.co.uk/the-essex-arms-watford/","tier":"","message":"","currency":"","rating":5.6},{"name":"Club Batchwood","phone":"+441727856596","address":"Batchwood Drive","lat":51.76651196103987,"lng":-0.35370826721191406,"city_fetched":"Hemel Hempstead,UK","state":"Hertfordshire","country":"United Kingdom","canonicalUrl":"https://foursquare.com/v/club-batchwood/4bc0edf44cdfc9b660cb9321","categoryId":"4bf58dd8d48988d11f941735","category":"Nightclub","checkinsCount":166,"usersCount":148,"tipCount":2,"visitsCount":222,"url":"http://www.batchwoodhall.com","tier":"","message":"","currency":"","rating":5.6},{"name":"Reflex","address":"66-70 The Parade","lat":51.657888372396044,"lng":-0.4001426696777344,"city_fetched":"Hemel Hempstead,UK","state":"Hertfordshire","country":"United Kingdom","canonicalUrl":"https://foursquare.com/v/reflex/4b75e84cf964a520ca2d2ee3","categoryId":"4bf58dd8d48988d11f941735","category":"Nightclub","checkinsCount":148,"usersCount":85,"tipCount":4,"visitsCount":148,"tier":"","message":"","currency":"","rating":5.5},{"name":"Revolution","phone":"+441923229843","address":"48-50 High Street","lat":51.655412386509724,"lng":-0.3964519500732422,"city_fetched":"Hemel Hempstead,UK","state":"Hertfordshire","country":"United Kingdom","canonicalUrl":"https://foursquare.com/v/revolution/4b1175b3f964a520107d23e3","categoryId":"4bf58dd8d48988d116941735","category":"Bar","checkinsCount":295,"usersCount":158,"tipCount":4,"visitsCount":296,"url":"http://www.revolution-bars.co.uk/watford","tier":"","message":"","currency":"","rating":5.3},{"name":"Slug & Lettuce","phone":"+441727857494","twitter":"slugstalbans","address":"13-15 Victoria St","lat":51.75202506814377,"lng":-0.33745408058166504,"city_fetched":"Hemel Hempstead,UK","state":"Hertfordshire","country":"United Kingdom","canonicalUrl":"https://foursquare.com/v/slug--lettuce/4b4dd2e7f964a52095d826e3","categoryId":"4bf58dd8d48988d116941735","category":"Bar","checkinsCount":985,"usersCount":360,"tipCount":8,"visitsCount":1020,"url":"http://www.slugandlettuce.co.uk/slug-stalbans","tier":"","message":"","currency":"","rating":5.1}]