[{"name":"The Snug","address":"Railway Street","lat":51.79718323524258,"lng":-0.07604155217812072,"city_fetched":"Hertford","state":"Hertfordshire","country":"United Kingdom","canonicalUrl":"https://foursquare.com/v/the-snug/4bb8a64798c7ef3bee3e3102","category":"Bar","checkinsCount":288,"usersCount":120,"tipCount":12,"visitsCount":298,"tier":"","message":"","currency":"","rating":7.7},{"name":"Baroosh","phone":"+441992584911","address":"76-78 Fore St","lat":51.796219038950454,"lng":-0.07648012253092726,"city_fetched":"Hertford","state":"Hertfordshire","country":"United Kingdom","canonicalUrl":"https://foursquare.com/v/baroosh/4d124e2a957fa1cd1cfc6c9f","category":"Bar","checkinsCount":526,"usersCount":260,"tipCount":8,"visitsCount":569,"url":"http://www.baroosh.co.uk/locations/baroosh-hertford","tier":"","message":"","currency":"","rating":7.7},{"name":"The Old Barge","address":"The Folly, Hertford","lat":51.797921,"lng":-0.078244,"city_fetched":"Hertford","state":"Hertfordshire","country":"United Kingdom","canonicalUrl":"https://foursquare.com/v/the-old-barge/4b5e2492f964a520078029e3","category":"Pub","checkinsCount":541,"usersCount":247,"tipCount":11,"visitsCount":610,"tier":"","message":"","currency":"","rating":7.6},{"name":"The Dog and Whistle","phone":"+441992552274","twitter":"dogandwhistle","address":"112 Fore St","lat":51.796688079833984,"lng":-0.07514689862728119,"city_fetched":"Hertford","state":"Hertfordshire","country":"United Kingdom","canonicalUrl":"https://foursquare.com/v/the-dog-and-whistle/5353cc4e498e7c38a9ab8170","category":"Pub","checkinsCount":95,"usersCount":43,"tipCount":0,"visitsCount":98,"url":"http://www.dogandwhistlepub.co.uk","tier":"","message":"","currency":"","rating":7.6},{"name":"The Old Cross Tavern","lat":51.796864,"lng":-0.081221,"city_fetched":"Hertford","country":"United Kingdom","canonicalUrl":"https://foursquare.com/v/the-old-cross-tavern/4b6d9f0bf964a520fc802ce3","category":"Pub","checkinsCount":258,"usersCount":90,"tipCount":3,"visitsCount":309,"tier":"","message":"","currency":"","rating":7.1},{"name":"The Woolpack","lat":51.79689738164094,"lng":-0.07991812413501427,"city_fetched":"Hertford","state":"Hertfordshire","country":"United Kingdom","canonicalUrl":"https://foursquare.com/v/the-woolpack/4bb8d7cf1261d13aaa00e998","category":"Bar","checkinsCount":192,"usersCount":143,"tipCount":2,"visitsCount":238,"tier":"","message":"","currency":"","rating":6.1},{"name":"The Six Templars (Wetherspoon)","phone":"+441992517430","address":"1 The Wash","lat":51.796367583783656,"lng":-0.07928609848022461,"city_fetched":"Hertford","state":"Hertfordshire","country":"United Kingdom","canonicalUrl":"https://foursquare.com/v/the-six-templars-wetherspoon/4c87ab29821e9eb01bcd8d89","category":"Pub","checkinsCount":990,"usersCount":318,"tipCount":6,"visitsCount":1116,"url":"http://www.jdwetherspoon.co.uk","tier":"","message":"","currency":"","rating":5.1}]