[{"name":"The Black Bull","phone":"+441434632261","address":"Middle Street","lat":54.973966659901336,"lng":-2.018693359528584,"city_fetched":"Hexham,UK","state":"Northumberland","country":"United Kingdom","canonicalUrl":"https://foursquare.com/v/the-black-bull/4b8135acf964a5208d9a30e3","categoryId":"4bf58dd8d48988d11b941735","category":"Pub","checkinsCount":179,"usersCount":111,"tipCount":10,"visitsCount":197,"tier":"","message":"","currency":"","rating":7.3},{"name":"The Angel of Corbridge","phone":"+441434632119","twitter":"angelcorbridge","address":"Main St","lat":54.973664277358445,"lng":-2.017543469952075,"city_fetched":"Hexham,UK","state":"Northumberland","country":"United Kingdom","canonicalUrl":"https://foursquare.com/v/the-angel-of-corbridge/4d0bf711376f6dcb5487d0ec","categoryId":"4bf58dd8d48988d11b941735","category":"Pub","checkinsCount":289,"usersCount":172,"tipCount":5,"visitsCount":374,"url":"http://www.theangelofcorbridge.com","tier":"","message":"","currency":"","rating":7},{"name":"The Forum (Wetherspoon)","phone":"+441434609190","address":"Market Place","lat":54.97202253333333,"lng":-2.100899,"city_fetched":"Hexham,UK","state":"Northumberland","country":"United Kingdom","canonicalUrl":"https://foursquare.com/v/the-forum-wetherspoon/4b6d5c8ff964a520db722ce3","categoryId":"4bf58dd8d48988d11b941735","category":"Pub","checkinsCount":475,"usersCount":180,"tipCount":5,"visitsCount":493,"url":"http://www.jdwetherspoon.co.uk","tier":"","message":"","currency":"","rating":5.7}]