[{"name":"The Royal Standard of England","phone":"+441494673382","address":"Forty Green","lat":51.618576115394355,"lng":-0.6688785552978516,"city_fetched":"High Wycombe,UK","state":"Buckinghamshire","country":"United Kingdom","canonicalUrl":"https://foursquare.com/v/the-royal-standard-of-england/4bcdd1e0b6c49c74fff59591","categoryId":"4bf58dd8d48988d11b941735","category":"Pub","checkinsCount":1072,"usersCount":697,"tipCount":32,"visitsCount":1449,"url":"http://rsoe.co.uk","tier":"","message":"","currency":"","rating":9.4},{"name":"Rebellion Beer Co. Ltd.","phone":"+441628476594","twitter":"rebellionbeer","address":"Bencome Farm","lat":51.586125030527114,"lng":-0.7680283569129743,"city_fetched":"High Wycombe,UK","state":"Buckinghamshire","country":"United Kingdom","canonicalUrl":"https://foursquare.com/v/rebellion-beer-co-ltd/4b893e2bf964a520752532e3","categoryId":"50327c8591d4c4b30a586d5d","category":"Brewery","checkinsCount":1108,"usersCount":389,"tipCount":22,"visitsCount":1421,"url":"http://www.rebellionbeer.co.uk","tier":"","message":"","currency":"","rating":9.3},{"name":"The Bootlegger","phone":"+441494525457","twitter":"bootleggerpub","address":"3 Amersham Hill","lat":51.62981927751726,"lng":-0.7472419738769531,"city_fetched":"High Wycombe,UK","state":"Buckinghamshire","country":"United Kingdom","canonicalUrl":"https://foursquare.com/v/the-bootlegger/4c127eb57f7f2d7f6c68dd68","categoryId":"4bf58dd8d48988d11b941735","category":"Pub","checkinsCount":723,"usersCount":347,"tipCount":12,"visitsCount":843,"url":"http://www.thebootleggerpub.co.uk","tier":"","message":"","currency":"","rating":8.3},{"name":"The Jolly Cricketers","phone":"+441494676308","twitter":"jollycricketers","address":"24 Chalfont Rd","lat":51.6180479575006,"lng":-0.6055637369626227,"city_fetched":"High Wycombe,UK","state":"Buckinghamshire","country":"United Kingdom","canonicalUrl":"https://foursquare.com/v/the-jolly-cricketers/4c55b214f5f3d13a8a3f39fc","categoryId":"4bf58dd8d48988d11b941735","category":"Pub","checkinsCount":142,"usersCount":140,"tipCount":10,"visitsCount":240,"url":"http://www.thejollycricketers.co.uk","tier":"","message":"","currency":"","rating":7.8},{"name":"Le De Spencer Arms","phone":"+441494535317","address":"Downley Common","lat":51.655054,"lng":-0.773928,"city_fetched":"High Wycombe,UK","state":"Buckinghamshire","country":"United Kingdom","canonicalUrl":"https://foursquare.com/v/le-de-spencer-arms/4ba63edbf964a520b73e39e3","categoryId":"4bf58dd8d48988d11b941735","category":"Pub","checkinsCount":367,"usersCount":79,"tipCount":8,"visitsCount":478,"url":"http://www.ledespencersarms.co.uk","tier":"","message":"","currency":"","rating":7.8},{"name":"The Red Lion","phone":"+441494813107","address":"Elm Rd","lat":51.63495361804962,"lng":-0.6904059648513794,"city_fetched":"High Wycombe,UK","state":"Buckinghamshire","country":"United Kingdom","canonicalUrl":"https://foursquare.com/v/the-red-lion/4be0899a652b0f4777c47211","categoryId":"4bf58dd8d48988d11b941735","category":"Pub","checkinsCount":115,"usersCount":96,"tipCount":2,"visitsCount":180,"url":"http://www.redlionpenn.co.uk","tier":"","message":"","currency":"","rating":7.5},{"name":"The Royal Saracens Head","phone":"+441494674119","address":"6-8 London End","lat":51.60140540720076,"lng":-0.6361570518790405,"city_fetched":"High Wycombe,UK","state":"Buckinghamshire","country":"United Kingdom","canonicalUrl":"https://foursquare.com/v/the-royal-saracens-head/4b4f695bf964a520610527e3","categoryId":"4bf58dd8d48988d11b941735","category":"Pub","checkinsCount":873,"usersCount":583,"tipCount":16,"visitsCount":1108,"tier":"","message":"","currency":"","rating":7.4},{"name":"Royal Standard","phone":"+441628521121","address":"Wooburn Common Rd","lat":51.580226834351016,"lng":-0.670138069940549,"city_fetched":"High Wycombe,UK","state":"Buckinghamshire","country":"United Kingdom","canonicalUrl":"https://foursquare.com/v/royal-standard/4e399cd3b0fb2f7ee8694495","categoryId":"4bf58dd8d48988d11b941735","category":"Pub","checkinsCount":258,"usersCount":62,"tipCount":4,"visitsCount":301,"url":"http://www.theroyalstandard.biz","tier":"","message":"","currency":"","rating":7.4},{"name":"The Swan","phone":"+441494673800","twitter":"swanbfield","address":"60 London End","lat":51.602117,"lng":-0.633192,"city_fetched":"High Wycombe,UK","state":"Buckinghamshire","country":"United Kingdom","canonicalUrl":"https://foursquare.com/swanbfield","categoryId":"4bf58dd8d48988d11b941735","category":"Pub","checkinsCount":614,"usersCount":274,"tipCount":14,"visitsCount":724,"url":"http://www.swanbeaconsfield.com","tier":"","message":"","currency":"","rating":7.4},{"name":"Stag","phone":"+441628521277","twitter":"stagflackwell","address":"91 Heath End Rd, Flackwell Heath","lat":51.60447884931223,"lng":-0.7171836705357484,"city_fetched":"High Wycombe,UK","state":"Buckinghamshire","country":"United Kingdom","canonicalUrl":"https://foursquare.com/stagflackwell","categoryId":"4bf58dd8d48988d11b941735","category":"Pub","checkinsCount":259,"usersCount":76,"tipCount":5,"visitsCount":296,"url":"http://www.stagflackwell.com","tier":"","message":"","currency":"","rating":7.3},{"name":"The Cross Keys","lat":51.70365554245572,"lng":-0.7074261335491021,"city_fetched":"High Wycombe,UK","state":"Buckinghamshire","country":"United Kingdom","canonicalUrl":"https://foursquare.com/v/the-cross-keys/4c9504246b35a143970021dc","categoryId":"4bf58dd8d48988d116941735","category":"Bar","checkinsCount":286,"usersCount":118,"tipCount":7,"visitsCount":373,"tier":"","message":"","currency":"","rating":7.3},{"name":"Baroosh","phone":"+441628472878","twitter":"barooshbars","address":"56-58 High St","lat":51.570523404982715,"lng":-0.7757677404419502,"city_fetched":"High Wycombe,UK","state":"Buckinghamshire","country":"United Kingdom","canonicalUrl":"https://foursquare.com/v/baroosh/50cf5376e4b0ed4375e73562","categoryId":"4bf58dd8d48988d116941735","category":"Bar","checkinsCount":411,"usersCount":216,"tipCount":13,"visitsCount":457,"url":"http://www.baroosh.co.uk","tier":"","message":"","currency":"","rating":7.2},{"name":"The Ship","phone":"+441628484360","address":"23 Weat St","lat":51.571154,"lng":-0.7776421308517456,"city_fetched":"High Wycombe,UK","state":"Buckinghamshire","country":"United Kingdom","canonicalUrl":"https://foursquare.com/v/the-ship/4bfd9138f61dc9b6ff369fde","categoryId":"4bf58dd8d48988d11b941735","category":"Pub","checkinsCount":402,"usersCount":172,"tipCount":5,"visitsCount":457,"url":"http://www.theshipmarlow.co.uk","tier":"","message":"","currency":"","rating":7.1},{"name":"The Sausage Tree","address":"Saffron Road","lat":51.6281189026843,"lng":-0.7423584752793035,"city_fetched":"High Wycombe,UK","state":"Buckinghamshire","country":"United Kingdom","canonicalUrl":"https://foursquare.com/v/the-sausage-tree/4b8d714af964a52023fc32e3","categoryId":"4bf58dd8d48988d11b941735","category":"Pub","checkinsCount":213,"usersCount":138,"tipCount":8,"visitsCount":219,"tier":"","message":"","currency":"","rating":7.1},{"name":"The Snug","address":"7 Crown Lane","lat":51.62837495669574,"lng":-0.7515169283378162,"city_fetched":"High Wycombe,UK","state":"Buckinghamshire","country":"United Kingdom","canonicalUrl":"https://foursquare.com/v/the-snug/4f5a4886e4b00c49e4226530","categoryId":"4bf58dd8d48988d116941735","category":"Bar","checkinsCount":163,"usersCount":94,"tipCount":4,"visitsCount":165,"tier":"","message":"","currency":"","rating":7.1},{"name":"The Falcon (Wetherspoon)","phone":"+441494538610","address":"9 Cornmarket","lat":51.62919192681504,"lng":-0.751456794335119,"city_fetched":"High Wycombe,UK","state":"Buckinghamshire","country":"United Kingdom","canonicalUrl":"https://foursquare.com/v/the-falcon-wetherspoon/4b93be48f964a5206f4f34e3","categoryId":"4bf58dd8d48988d11b941735","category":"Pub","checkinsCount":1261,"usersCount":431,"tipCount":6,"visitsCount":1390,"url":"http://www.jdwetherspoon.co.uk","tier":1,"message":"Cheap","currency":"Â£","rating":7.1},{"name":"Belle Vue","phone":"+441494524728","twitter":"thebv","address":"45 Gordon Rd","lat":51.628444,"lng":-0.740719,"city_fetched":"High Wycombe,UK","state":"Buckinghamshire","country":"United Kingdom","canonicalUrl":"https://foursquare.com/v/belle-vue/4cb89372bac937040722de7c","categoryId":"4bf58dd8d48988d11b941735","category":"Pub","checkinsCount":128,"usersCount":42,"tipCount":7,"visitsCount":135,"url":"http://www.thebv.co.uk","tier":"","message":"","currency":"","rating":7},{"name":"The Treehouse","phone":"+441494674104","twitter":"treehousebfield","address":"35 Aylesbury End","lat":51.602537,"lng":-0.637864,"city_fetched":"High Wycombe,UK","state":"Buckinghamshire","country":"United Kingdom","canonicalUrl":"https://foursquare.com/treehousebfield","categoryId":"4bf58dd8d48988d11e941735","category":"Cocktail Bar","checkinsCount":316,"usersCount":102,"tipCount":6,"visitsCount":321,"url":"http://www.treehousebeaconsfield.com","tier":"","message":"","currency":"","rating":7},{"name":"The Bounty","phone":"+441628520056","address":"Cockmarsh","lat":51.576465368270874,"lng":-0.716329,"city_fetched":"High Wycombe,UK","state":"Buckinghamshire","country":"United Kingdom","canonicalUrl":"https://foursquare.com/v/the-bounty/4b5c60def964a5203a2d29e3","categoryId":"4bf58dd8d48988d11b941735","category":"Pub","checkinsCount":349,"usersCount":277,"tipCount":10,"visitsCount":428,"tier":"","message":"","currency":"","rating":6.9},{"name":"Queens Head","phone":"+441628482927","lat":51.583635,"lng":-0.741306,"city_fetched":"High Wycombe,UK","state":"Buckinghamshire","country":"United Kingdom","canonicalUrl":"https://foursquare.com/v/queens-head/4bc778e42f94d13ae1fd117f","categoryId":"4bf58dd8d48988d11b941735","category":"Pub","checkinsCount":154,"usersCount":153,"tipCount":3,"visitsCount":212,"tier":"","message":"","currency":"","rating":6.8},{"name":"Stix","address":"3 Warwick Rd. Buckinghamshire","lat":51.612859,"lng":-0.646555,"city_fetched":"High Wycombe,UK","state":"Buckinghamshire","country":"United Kingdom","canonicalUrl":"https://foursquare.com/v/stix/4be2c5c021d5a593ff3d1711","categoryId":"4bf58dd8d48988d123941735","category":"Wine Bar","checkinsCount":134,"usersCount":62,"tipCount":4,"visitsCount":134,"url":"http://www.stixbar.co.uk","tier":"","message":"","currency":"","rating":6.5},{"name":"The Windsor Castle Pub","phone":"+441628621649","address":"Bath Rd","lat":51.522332637806336,"lng":-0.7337933778762817,"city_fetched":"High Wycombe,UK","state":"Berkshire","country":"United Kingdom","canonicalUrl":"https://foursquare.com/v/the-windsor-castle-pub/4bbf7abb006dc9b64eadfc3f","categoryId":"4bf58dd8d48988d11b941735","category":"Pub","checkinsCount":759,"usersCount":233,"tipCount":10,"visitsCount":896,"url":"http://www.thewindsorcastlepub.co.uk","tier":"","message":"","currency":"","rating":6.4},{"name":"Grouse And Ale","phone":"+441494882299","address":"High Street Lane End","lat":51.61857435507946,"lng":-0.8331645342607468,"city_fetched":"High Wycombe,UK","state":"Buckinghamshire","country":"United Kingdom","canonicalUrl":"https://foursquare.com/v/grouse-and-ale/4c49760a6f1420a1a614a255","categoryId":"4bf58dd8d48988d11b941735","category":"Pub","checkinsCount":183,"usersCount":183,"tipCount":9,"visitsCount":320,"tier":"","message":"","currency":"","rating":6.2},{"name":"Brewers Fayre","phone":"+448701977135","address":"London Road","lat":51.60794071491987,"lng":-0.6946164951807293,"city_fetched":"High Wycombe,UK","state":"Buckinghamshire","country":"United Kingdom","canonicalUrl":"https://foursquare.com/v/brewers-fayre/4c488bd096abd13aaebf7401","categoryId":"4bf58dd8d48988d11b941735","category":"Pub","checkinsCount":237,"usersCount":123,"tipCount":1,"visitsCount":272,"tier":"","message":"","currency":"","rating":6.2},{"name":"The Hobgoblin","phone":"+441494526533","address":"35 High St.","lat":51.62862699323378,"lng":-0.7499657468595542,"city_fetched":"High Wycombe,UK","state":"Buckinghamshire","country":"United Kingdom","canonicalUrl":"https://foursquare.com/v/the-hobgoblin/4b9a993bf964a52008c535e3","categoryId":"4bf58dd8d48988d11b941735","category":"Pub","checkinsCount":330,"usersCount":162,"tipCount":7,"visitsCount":333,"tier":"","message":"","currency":"","rating":6.2},{"name":"Butlers","phone":"+441494558188","twitter":"butlerspub","address":"21-31 Frogmoor","lat":51.631485,"lng":-0.752848,"city_fetched":"High Wycombe,UK","state":"Buckinghamshire","country":"United Kingdom","canonicalUrl":"https://foursquare.com/v/butlers/4b8fa848f964a520bb5b33e3","categoryId":"4bf58dd8d48988d11b941735","category":"Pub","checkinsCount":122,"usersCount":48,"tipCount":2,"visitsCount":122,"url":"http://www.butlerspub.co.uk","tier":"","message":"","currency":"","rating":6.1},{"name":"The Three Horseshoes","phone":"+441628483109","lat":51.59372204342234,"lng":-0.7663607597351074,"city_fetched":"High Wycombe,UK","state":"Buckinghamshire","country":"United Kingdom","canonicalUrl":"https://foursquare.com/v/the-three-horseshoes/4b93a9c1f964a520194c34e3","categoryId":"4bf58dd8d48988d11b941735","category":"Pub","checkinsCount":256,"usersCount":152,"tipCount":8,"visitsCount":320,"tier":"","message":"","currency":"","rating":5.9},{"name":"The Dolphin","phone":"+441494534326","address":"56 Totteridge Lane","lat":51.639425969153045,"lng":-0.7216010388792202,"neighborhood":"HP13 7PZ","city_fetched":"High Wycombe,UK","state":"Buckinghamshire","country":"United Kingdom","canonicalUrl":"https://foursquare.com/v/the-dolphin/4ed91239be7be2833613b562","categoryId":"4bf58dd8d48988d11b941735","category":"Pub","checkinsCount":115,"usersCount":56,"tipCount":5,"visitsCount":138,"tier":"","message":"","currency":"","rating":5.9},{"name":"The William Robert Loosley (Wetherspoon)","phone":"+441494838680","address":"120-123 Oxford Rd","lat":51.63119546671083,"lng":-0.7549906849999556,"city_fetched":"High Wycombe,UK","state":"Buckinghamshire","country":"United Kingdom","canonicalUrl":"https://foursquare.com/v/the-william-robert-loosley-wetherspoon/4b9bd83ef964a520572c36e3","categoryId":"4bf58dd8d48988d11b941735","category":"Pub","checkinsCount":995,"usersCount":316,"tipCount":9,"visitsCount":1027,"url":"http://www.jdwetherspoon.co.uk","tier":"","message":"","currency":"","rating":5.6},{"name":"Bar Sport","phone":"+441628560823","twitter":"barsportmaiden","address":"Unit 2, Grenfell Island","lat":51.52053980339069,"lng":-0.7222000162856547,"city_fetched":"High Wycombe,UK","state":"Berkshire","country":"United Kingdom","canonicalUrl":"https://foursquare.com/v/bar-sport/4f6317f8e4b0ce431bcf3704","categoryId":"4bf58dd8d48988d11d941735","category":"Sports Bar","checkinsCount":443,"usersCount":134,"tipCount":5,"visitsCount":446,"url":"http://www.barsportmaidenhead.co.uk","tier":"","message":"","currency":"","rating":5.5},{"name":"Yates's","address":"46A-50 High St, Frogmore","lat":51.631766,"lng":-0.752803,"city_fetched":"High Wycombe,UK","state":"Buckinghamshire","country":"United Kingdom","canonicalUrl":"https://foursquare.com/v/yatess/4bef488d5e4aa593b1d958bb","categoryId":"4bf58dd8d48988d11b941735","category":"Pub","checkinsCount":379,"usersCount":176,"tipCount":3,"visitsCount":399,"tier":"","message":"","currency":"","rating":5.4}]