[{"name":"The Marina","address":"coventry road","lat":52.53698385867954,"lng":-1.4001656104010793,"city_fetched":"Hinckley,UK","state":"Leicestershire","country":"United Kingdom","canonicalUrl":"https://foursquare.com/v/the-marina/4c9dd375542b224bf0aeed9f","categoryId":"4bf58dd8d48988d11b941735","category":"Pub","checkinsCount":183,"usersCount":78,"tipCount":1,"visitsCount":184,"tier":"","message":"","currency":"","rating":7.4},{"name":"The Railway","phone":"+441455251311","address":"Station Rd","lat":52.53623871927168,"lng":-1.3725274882005996,"city_fetched":"Hinckley,UK","state":"Leicestershire","country":"United Kingdom","canonicalUrl":"https://foursquare.com/v/the-railway/4bf911ba8d30d13a8da70118","categoryId":"4bf58dd8d48988d11b941735","category":"Pub","checkinsCount":51,"usersCount":30,"tipCount":3,"visitsCount":56,"url":"http://www.steamin-billy.co.uk","tier":"","message":"","currency":"","rating":7},{"name":"Triumph Bar","phone":"+441455631122","twitter":"hinckleyisland","address":"Watling Street","lat":52.513296,"lng":-1.354574,"city_fetched":"Hinckley,UK","state":"Leicestershire","country":"United Kingdom","canonicalUrl":"https://foursquare.com/v/triumph-bar/50a2aac5e4b03846e4bdb542","categoryId":"4bf58dd8d48988d116941735","category":"Bar","checkinsCount":52,"usersCount":40,"tipCount":2,"visitsCount":52,"url":"http://www.thehotelcollection.co.uk/hinckleyislandhotel","tier":"","message":"","currency":"","rating":6.8},{"name":"The Baron of Hinckley (Wetherspoon)","phone":"+441455890169","address":"5-7 Regent St.","lat":52.54116720236935,"lng":-1.3741707801818848,"city_fetched":"Hinckley,UK","state":"Leicestershire","country":"United Kingdom","canonicalUrl":"https://foursquare.com/v/the-baron-of-hinckley-wetherspoon/4c87ab2e821e9eb01fcd8d89","categoryId":"4bf58dd8d48988d11b941735","category":"Pub","checkinsCount":483,"usersCount":138,"tipCount":2,"visitsCount":519,"url":"http://www.jdwetherspoon.co.uk","tier":"","message":"","currency":"","rating":6.4},{"name":"The Longshoot Hotel","phone":"+442476329711","address":"Watling St.","lat":52.53640355949757,"lng":-1.4201974868774414,"city_fetched":"Hinckley,UK","state":"Warwickshire","country":"United Kingdom","canonicalUrl":"https://foursquare.com/v/the-longshoot-hotel/4bcced7f0687ef3b9e34e0cc","categoryId":"4bf58dd8d48988d11b941735","category":"Pub","checkinsCount":248,"usersCount":112,"tipCount":4,"visitsCount":337,"tier":"","message":"","currency":"","rating":5.8}]