[{"name":"Hermitage Rd Bar and Restaurant","phone":"+441462433603","twitter":"hermitagerd","address":"20-21 Hermitage Rd","lat":51.949461811856814,"lng":-0.27549945335688836,"city_fetched":"Hitchin","state":"Hertfordshire","country":"United Kingdom","canonicalUrl":"https://foursquare.com/v/hermitage-rd-bar-and-restaurant/4e5f4ee11f6e3022a730836b","category":"Bar","checkinsCount":608,"usersCount":411,"tipCount":17,"visitsCount":907,"url":"http://www.hermitagerd.co.uk","tier":"","message":"","currency":"","rating":8.4},{"name":"The Half Moon","phone":"+441462452448","twitter":"halfmoonhitchin","address":"57 Queen St.","lat":51.9450783385559,"lng":-0.2766752243041992,"city_fetched":"Hitchin","state":"Hertfordshire","country":"United Kingdom","canonicalUrl":"https://foursquare.com/v/the-half-moon/4c5eab3f2815c9286227b867","category":"Pub","checkinsCount":233,"usersCount":109,"tipCount":6,"visitsCount":276,"url":"http://thehalfmoonhitchin.co.uk","tier":"","message":"","currency":"","rating":8.1},{"name":"The Victoria","phone":"+441462432682","twitter":"hitchinvic","address":"1 Ickleford Rd","lat":51.953593816666675,"lng":-0.2753180265426636,"city_fetched":"Hitchin","state":"Hertfordshire","country":"United Kingdom","canonicalUrl":"https://foursquare.com/v/the-victoria/4bc898466501c9b6f36f4029","category":"Pub","checkinsCount":404,"usersCount":201,"tipCount":6,"visitsCount":658,"url":"http://www.thevictoriahitchin.com","tier":"","message":"","currency":"","rating":8.1},{"name":"Radcliffe Arms","phone":"+441462456111","address":"31 Walsworth Rd","lat":51.95116889597183,"lng":-0.26950836181640625,"city_fetched":"Hitchin","state":"Hertfordshire","country":"United Kingdom","canonicalUrl":"https://foursquare.com/v/radcliffe-arms/4bc47e0f920eb713aec61e2c","category":"Gastropub","checkinsCount":339,"usersCount":221,"tipCount":4,"visitsCount":472,"url":"http://www.radcliffearms.com","tier":2,"message":"Moderate","currency":"Â£","rating":7.9},{"name":"The Highlander","phone":"+441462454612","address":"Upper Tilehouse Street","lat":51.94715046072169,"lng":-0.28464993025761254,"city_fetched":"Hitchin","state":"Hertfordshire","country":"United Kingdom","canonicalUrl":"https://foursquare.com/v/the-highlander/4c2900d197d00f4742c240ea","category":"Pub","checkinsCount":92,"usersCount":53,"tipCount":3,"visitsCount":114,"tier":"","message":"","currency":"","rating":7.9},{"name":"Pitcher & Piano","twitter":"pandphitchin","address":"31 Market Place","lat":51.94750005283988,"lng":-0.279383336885694,"city_fetched":"Hitchin","state":"Hertfordshire","country":"United Kingdom","canonicalUrl":"https://foursquare.com/v/pitcher--piano/51f956e5498eebe3855006ec","category":"Bar","checkinsCount":353,"usersCount":132,"tipCount":7,"visitsCount":405,"tier":"","message":"","currency":"","rating":7.4},{"name":"Club 85","phone":"+441462434801","twitter":"club85","address":"74 Whinbush Rd","lat":51.953191,"lng":-0.272004,"city_fetched":"Hitchin","state":"Hertfordshire","country":"United Kingdom","canonicalUrl":"https://foursquare.com/v/club-85/4c1d1c66b9f876b08a0c7d46","category":"Rock Club","checkinsCount":287,"usersCount":106,"tipCount":5,"visitsCount":350,"url":"http://www.myspace.com/club85","tier":"","message":"","currency":"","rating":6.8},{"name":"The Angel Vaults Inn (Wetherspoon)","address":"Sun Street","lat":51.94652475767294,"lng":-0.2782261453916631,"city_fetched":"Hitchin","state":"Hertfordshire","country":"United Kingdom","canonicalUrl":"https://foursquare.com/v/the-angel-vaults-inn-wetherspoon/54faede0498e954a0550ead6","category":"Pub","checkinsCount":106,"usersCount":56,"tipCount":1,"visitsCount":116,"tier":"","message":"","currency":"","rating":6.4},{"name":"Osinsky's","address":"Market Square","lat":51.94757221645577,"lng":-0.2790208783582516,"city_fetched":"Hitchin","state":"Hertfordshire","country":"United Kingdom","canonicalUrl":"https://foursquare.com/v/osinskys/4f2520b2e4b01b0c60304b06","category":"Bar","checkinsCount":279,"usersCount":81,"tipCount":3,"visitsCount":280,"tier":"","message":"","currency":"","rating":6.1},{"name":"Millstream Pub","lat":51.955663,"lng":-0.25842,"city_fetched":"Hitchin","country":"United Kingdom","canonicalUrl":"https://foursquare.com/v/millstream-pub/4bbb3661b35776b014abcb01","category":"Gastropub","checkinsCount":334,"usersCount":161,"tipCount":12,"visitsCount":424,"tier":"","message":"","currency":"","rating":6},{"name":"The Sunrunnner","address":"24 Bancroft","lat":51.95039383124249,"lng":-0.27665084981126536,"city_fetched":"Hitchin","state":"Hertfordshire","country":"United Kingdom","canonicalUrl":"https://foursquare.com/v/the-sunrunnner/4be569e62457a5939d6aab15","category":"Pub","checkinsCount":178,"usersCount":94,"tipCount":5,"visitsCount":178,"tier":"","message":"","currency":"","rating":5.6},{"name":"The Three Moorhens","lat":51.941338544572595,"lng":-0.2759174707761648,"city_fetched":"Hitchin","country":"United Kingdom","canonicalUrl":"https://foursquare.com/v/the-three-moorhens/4ca2314ab0ff8cfa0ebeac5e","category":"Pub","checkinsCount":165,"usersCount":101,"tipCount":2,"visitsCount":225,"tier":"","message":"","currency":"","rating":5.6}]