[{"name":"The Bulls Head","phone":"+441992463385","lat":51.722454,"lng":-0.025893,"city_fetched":"Hoddesdon,UK","state":"Hertfordshire","country":"United Kingdom","canonicalUrl":"https://foursquare.com/v/the-bulls-head/4cfff9826edfa093f89c0915","categoryId":"4bf58dd8d48988d11b941735","category":"Pub","checkinsCount":207,"usersCount":141,"tipCount":2,"visitsCount":281,"tier":"","message":"","currency":"","rating":8.4},{"name":"The Black Swan","address":"Broadly Common","lat":51.74538967770136,"lng":0.05918828668082496,"city_fetched":"Hoddesdon,UK","country":"United Kingdom","canonicalUrl":"https://foursquare.com/v/the-black-swan/4d8c9a8dc1b1721ea7590446","categoryId":"4bf58dd8d48988d117941735","category":"Beer Garden","checkinsCount":83,"usersCount":46,"tipCount":6,"visitsCount":136,"tier":"","message":"","currency":"","rating":6.7},{"name":"Saracens Head","phone":"+441920463640","address":"Bridge Foot","lat":51.80979073047638,"lng":-0.029588,"city_fetched":"Hoddesdon,UK","state":"Hertfordshire","country":"United Kingdom","canonicalUrl":"https://foursquare.com/v/saracens-head/4b815b6bf964a52046a130e3","categoryId":"4bf58dd8d48988d11b941735","category":"Pub","checkinsCount":305,"usersCount":104,"tipCount":2,"visitsCount":314,"tier":"","message":"","currency":"","rating":6.6},{"name":"The College Arms","address":"40 London Rd","lat":51.780422866492195,"lng":-0.0421281398959905,"city_fetched":"Hoddesdon,UK","state":"Hertfordshire","country":"United Kingdom","canonicalUrl":"https://foursquare.com/v/the-college-arms/4d3208db98336dcb09161ff0","categoryId":"4bf58dd8d48988d11b941735","category":"Pub","checkinsCount":157,"usersCount":93,"tipCount":7,"visitsCount":255,"url":"http://www.thecollegearmshertfordheath.com","tier":"","message":"","currency":"","rating":6.6},{"name":"The Waterside Inn","address":"Bridgefoot","lat":51.80988159481121,"lng":-0.029058314891706873,"city_fetched":"Hoddesdon,UK","state":"Hertfordshire","country":"United Kingdom","canonicalUrl":"https://foursquare.com/v/the-waterside-inn/53e3c19c498ec42c8bececc9","categoryId":"4bf58dd8d48988d11b941735","category":"Pub","checkinsCount":85,"usersCount":52,"tipCount":1,"visitsCount":90,"tier":"","message":"","currency":"","rating":6.5},{"name":"The Bull","lat":51.74579943477927,"lng":-0.019793868556469543,"city_fetched":"Hoddesdon,UK","state":"Hertfordshire","country":"United Kingdom","canonicalUrl":"https://foursquare.com/v/the-bull/4bc8ca658b7c9c74e4ec38cf","categoryId":"4bf58dd8d48988d11b941735","category":"Pub","checkinsCount":111,"usersCount":104,"tipCount":1,"visitsCount":254,"tier":"","message":"","currency":"","rating":5.9},{"name":"The Crown","address":"157-175 Old Nazeing Rd","lat":51.74273566352738,"lng":-0.012275336185866955,"city_fetched":"Hoddesdon,UK","state":"Hertfordshire","country":"United Kingdom","canonicalUrl":"https://foursquare.com/v/the-crown/4beea48f2c082d7f00a23042","categoryId":"4bf58dd8d48988d11b941735","category":"Pub","checkinsCount":266,"usersCount":351,"tipCount":13,"visitsCount":471,"tier":"","message":"","currency":"","rating":5.5},{"name":"The Fish & Eels","phone":"+441992466073","address":"Dobbs Weir Road","lat":51.755271,"lng":0.005975,"city_fetched":"Hoddesdon,UK","state":"Hertfordshire","country":"United Kingdom","canonicalUrl":"https://foursquare.com/v/the-fish--eels/4b749050f964a52059e42de3","categoryId":"4bf58dd8d48988d11b941735","category":"Pub","checkinsCount":281,"usersCount":209,"tipCount":12,"visitsCount":334,"tier":"","message":"","currency":"","rating":5.5}]