[{"name":"Gonzo","twitter":"gonzoholmfirth","address":"10-12 Dunford Road","lat":53.56954142579362,"lng":-1.7858509471941921,"neighborhood":"Holmfirth","city_fetched":"Holmfirth","state":"Kirklees","country":"United Kingdom","canonicalUrl":"https://foursquare.com/v/gonzo/515f294fe4b0f2117cdd1efa","category":"Bar","checkinsCount":322,"usersCount":61,"tipCount":11,"visitsCount":343,"tier":"","message":"","currency":"","rating":8.7},{"name":"Y's Bar & Snap","phone":"+441484686925","address":"Norridge Bottom","lat":53.57073,"lng":-1.786752,"neighborhood":"Holmfirth","city_fetched":"Holmfirth","country":"United Kingdom","canonicalUrl":"https://foursquare.com/v/ys-bar--snap/4c44698fda2176b017d6627a","category":"Wine Bar","checkinsCount":174,"usersCount":59,"tipCount":2,"visitsCount":174,"tier":"","message":"","currency":"","rating":7.9},{"name":"The Nook Brewhouse","phone":"+441484682373","twitter":"nookbrewhouse","address":"3A Victoria St.","lat":53.569659435756854,"lng":-1.7862084947444385,"neighborhood":"Holmfirth","city_fetched":"Holmfirth","country":"United Kingdom","canonicalUrl":"https://foursquare.com/v/the-nook-brewhouse/4c0d8b02adcd9c74ce8702f6","category":"Pub","checkinsCount":643,"usersCount":145,"tipCount":13,"visitsCount":685,"url":"http://thenookbrewhouse.co.uk","tier":"","message":"","currency":"","rating":7.4},{"name":"Brambles Bar & Caf√©","phone":"+441484684166","twitter":"bramblesbarcafe","address":"Towngate","lat":53.570561,"lng":-1.786094,"neighborhood":"Holmfirth","city_fetched":"Holmfirth","country":"United Kingdom","canonicalUrl":"https://foursquare.com/v/brambles-bar--caf%C3%A9/4eb5882e4901cef9d8948e0c","category":"Bar","checkinsCount":214,"usersCount":96,"tipCount":1,"visitsCount":220,"url":"http://bramblesholmfirth.co.uk","tier":"","message":"","currency":"","rating":6.1}]