[{"name":"The Black Jug","phone":"+441403253526","address":"31 North St","lat":51.06401513346504,"lng":-0.3243700353004479,"city_fetched":"Horsham","state":"West Sussex","country":"United Kingdom","canonicalUrl":"https://foursquare.com/v/the-black-jug/4b828ce1f964a520ddd730e3","category":"Pub","checkinsCount":1322,"usersCount":375,"tipCount":15,"visitsCount":1523,"url":"http://www.blackjug-horsham.co.uk","tier":"","message":"","currency":"","rating":8.6},{"name":"The Hornbrook Inn","phone":"+441403252638","address":"Brighton Rd.","lat":51.05412831189872,"lng":-0.30770301818847656,"city_fetched":"Horsham","state":"West Sussex","country":"United Kingdom","canonicalUrl":"https://foursquare.com/v/the-hornbrook-inn/4bb300e9eb3e952160aeca0a","category":"Pub","checkinsCount":146,"usersCount":88,"tipCount":0,"visitsCount":173,"url":"http://www.thehornbrook.co.uk","tier":"","message":"","currency":"","rating":7.9},{"name":"Malt Shovel","phone":"+441403252302","address":"15 Springfield Rd","lat":51.064486,"lng":-0.330871,"city_fetched":"Horsham","state":"West Sussex","country":"United Kingdom","canonicalUrl":"https://foursquare.com/v/malt-shovel/4bb8c7b01261d13af5eae898","category":"Pub","checkinsCount":334,"usersCount":86,"tipCount":5,"visitsCount":356,"url":"http://www.maltshovelpub.com","tier":"","message":"","currency":"","rating":7.7},{"name":"The Crown","phone":"+441403266350","address":"Carfax","lat":51.06285,"lng":-0.328492,"city_fetched":"Horsham","state":"West Sussex","country":"United Kingdom","canonicalUrl":"https://foursquare.com/v/the-crown/4c05000473a8c9b639c596e0","category":"Pub","checkinsCount":217,"usersCount":105,"tipCount":6,"visitsCount":222,"url":"http://gkpubs.co.uk/pubs-in-horsham/crown-pub/","tier":"","message":"","currency":"","rating":7.3},{"name":"The Olive Branch","phone":"+441403252286","address":"12 Bishopric","lat":51.06386330001338,"lng":-0.33289073577801004,"city_fetched":"Horsham","state":"West Sussex","country":"United Kingdom","canonicalUrl":"https://foursquare.com/v/the-olive-branch/4c15002977cea5934468d160","category":"Bar","checkinsCount":392,"usersCount":119,"tipCount":5,"visitsCount":416,"url":"http://www.cromptons-horsham.co.uk","tier":"","message":"","currency":"","rating":7.1},{"name":"Sussex Barn","phone":"+441403270406","twitter":"flaminggrillpub","address":"North Heath Ln","lat":51.08296521284512,"lng":-0.31529335297925065,"city_fetched":"Horsham","state":"West Sussex","country":"United Kingdom","canonicalUrl":"https://foursquare.com/v/sussex-barn/4bbe0f6c8a4fb7132ec73d9d","category":"Pub","checkinsCount":176,"usersCount":120,"tipCount":8,"visitsCount":336,"url":"http://www.flaminggrillpubs.com","tier":"","message":"","currency":"","rating":6.3},{"name":"The Anchor Hotel","phone":"+441403250640","address":"3 Market Square","lat":51.06188325712441,"lng":-0.3281092643737793,"city_fetched":"Horsham","state":"West Sussex","country":"United Kingdom","canonicalUrl":"https://foursquare.com/v/the-anchor-hotel/4dfcdc2c922e73158cbdc76a","category":"Bar","checkinsCount":187,"usersCount":99,"tipCount":3,"visitsCount":191,"tier":"","message":"","currency":"","rating":6},{"name":"Piries Bar","phone":"+441403267846","twitter":"piriesbar","address":"15 Piries Place","lat":51.062575057517456,"lng":-0.3269305469251746,"city_fetched":"Horsham","state":"West Sussex","country":"United Kingdom","canonicalUrl":"https://foursquare.com/v/piries-bar/4c815ec374d7b60c722276d8","category":"Bar","checkinsCount":124,"usersCount":80,"tipCount":6,"visitsCount":124,"url":"http://piriesbar.co.uk","tier":"","message":"","currency":"","rating":5.5},{"name":"The Lynd Cross (Wetherspoon)","phone":"+441403272393","address":"St John's House","lat":51.06352498910529,"lng":-0.33213616473702195,"city_fetched":"Horsham","state":"West Sussex","country":"United Kingdom","canonicalUrl":"https://foursquare.com/v/the-lynd-cross-wetherspoon/4b87c53af964a52022cb31e3","category":"Pub","checkinsCount":599,"usersCount":235,"tipCount":10,"visitsCount":669,"url":"http://www.jdwetherspoon.co.uk","tier":"","message":"","currency":"","rating":5.3},{"name":"The Station (Beefeater)","phone":"+441403250141","twitter":"beefeater","address":"57 North St","lat":51.06639386235116,"lng":-0.31946541551692315,"city_fetched":"Horsham","state":"West Sussex","country":"United Kingdom","canonicalUrl":"https://foursquare.com/v/the-station-beefeater/4bf1043a6f8aa5935e70c23c","category":"Pub","checkinsCount":375,"usersCount":160,"tipCount":6,"visitsCount":380,"url":"http://www.beefeater.co.uk/steak-restaurant/Sussex/Station-Horsham.html","tier":"","message":"","currency":"","rating":5.3}]