[{"name":"Magic Rock Tap","twitter":"magicrocktap","address":"Willow Park Business Centre, Willow Lane","lat":53.655668254758474,"lng":-1.7865407338662642,"neighborhood":"Birkby","city_fetched":"Huddersfield","state":"Kirklees","country":"United Kingdom","canonicalUrl":"https://foursquare.com/v/magic-rock-tap/55846cb9498ee2645b6bbb0b","category":"Bar","checkinsCount":428,"usersCount":200,"tipCount":10,"visitsCount":599,"url":"http://www.magicrockbrewing.com/tag/magic-rock-tap/","tier":"","message":"","currency":"","rating":9.3},{"name":"The Grove","phone":"+441484430113","twitter":"thegrovehudds","address":"2 Spring Grove St.","lat":53.64421556318612,"lng":-1.789217194772729,"neighborhood":"Newsome","city_fetched":"Huddersfield","country":"United Kingdom","canonicalUrl":"https://foursquare.com/v/the-grove/4bd1c319b221c9b65317d6d0","category":"Pub","checkinsCount":1199,"usersCount":307,"tipCount":19,"visitsCount":1370,"url":"http://www.groveinn.co.uk","tier":"","message":"","currency":"","rating":9.2},{"name":"The Sportsman","phone":"+447766131123","twitter":"thesportsmanhud","address":"1 St. Johns Rd.","lat":53.65035928436357,"lng":-1.7841501849094696,"neighborhood":"Huddersfield Town Centre","city_fetched":"Huddersfield","country":"United Kingdom","canonicalUrl":"https://foursquare.com/v/the-sportsman/4c6ee8e9d97fa1437c62f1ca","category":"Bar","checkinsCount":779,"usersCount":348,"tipCount":17,"visitsCount":992,"url":"http://www.undertheviaduct.com","tier":"","message":"","currency":"","rating":8},{"name":"The Head of Steam","phone":"+441484454533","address":"St Georges Sq","lat":53.647994410370494,"lng":-1.7847384631105419,"neighborhood":"Huddersfield Town Centre","city_fetched":"Huddersfield","country":"United Kingdom","canonicalUrl":"https://foursquare.com/v/the-head-of-steam/4b7ec50ef964a52009fe2fe3","category":"Pub","checkinsCount":1136,"usersCount":570,"tipCount":15,"visitsCount":1153,"url":"http://www.theheadofsteam.co.uk","tier":2,"message":"Moderate","currency":"Â£","rating":7.8},{"name":"Wood Street Craft Beer House","twitter":"woodstreetbarhd","address":"28 Wood Street","lat":53.64819972894989,"lng":-1.7821370250187667,"neighborhood":"Huddersfield Town Centre","city_fetched":"Huddersfield","state":"Kirklees","country":"United Kingdom","canonicalUrl":"https://foursquare.com/v/wood-street-craft-beer-house/4fe4c956e4b0994b0e201c2f","category":"Bar","checkinsCount":272,"usersCount":101,"tipCount":7,"visitsCount":276,"tier":"","message":"","currency":"","rating":7.6},{"name":"The Rat And Ratchet","phone":"+441484542400","address":"40 Chapel Hill","lat":53.64155948982311,"lng":-1.784977912902832,"neighborhood":"Huddersfield Town Centre","city_fetched":"Huddersfield","country":"United Kingdom","canonicalUrl":"https://foursquare.com/v/the-rat-and-ratchet/4bdda4586198c9b6cb1511ff","category":"Pub","checkinsCount":710,"usersCount":237,"tipCount":10,"visitsCount":852,"tier":"","message":"","currency":"","rating":7.6},{"name":"Herbert's Bar","phone":"+441484434888","twitter":"herbertsbar","address":"30 Cross Church St.","lat":53.646151,"lng":-1.780576,"neighborhood":"Huddersfield Town Centre","city_fetched":"Huddersfield","country":"United Kingdom","canonicalUrl":"https://foursquare.com/v/herberts-bar/4eab50f0f7905c3941a5a34d","category":"Bar","checkinsCount":202,"usersCount":102,"tipCount":5,"visitsCount":204,"url":"http://www.herbertsbar.co.uk","tier":"","message":"","currency":"","rating":7.6},{"name":"The Parish","phone":"+441484421950","address":"28 Kirkgate","lat":53.647098033007154,"lng":-1.7799554966853117,"neighborhood":"Huddersfield Town Centre","city_fetched":"Huddersfield","country":"United Kingdom","canonicalUrl":"https://foursquare.com/v/the-parish/4bc34b7df8219c74ecdab510","category":"Rock Club","checkinsCount":1810,"usersCount":369,"tipCount":17,"visitsCount":1932,"tier":"","message":"","currency":"","rating":7.4},{"name":"The Star Inn","phone":"+441484545443","twitter":"samatthestar","address":"7 Albert St.","lat":53.6381044019724,"lng":-1.7875914978890197,"neighborhood":"Lockwood","city_fetched":"Huddersfield","country":"United Kingdom","canonicalUrl":"https://foursquare.com/v/the-star-inn/4c41cf40cc410f47bab5ab61","category":"Pub","checkinsCount":651,"usersCount":88,"tipCount":8,"visitsCount":682,"url":"http://www.thestarinn.info","tier":"","message":"","currency":"","rating":7.1},{"name":"Rhubarb","phone":"+441484767132","address":"41-45 Queensgate","lat":53.644649,"lng":-1.778247,"neighborhood":"Huddersfield Town Centre","city_fetched":"Huddersfield","country":"United Kingdom","canonicalUrl":"https://foursquare.com/v/rhubarb/4e086de8b0fbba5eee21b124","category":"Gastropub","checkinsCount":386,"usersCount":105,"tipCount":5,"visitsCount":392,"tier":"","message":"","currency":"","rating":7},{"name":"Revolution","phone":"+441484546243","twitter":"revolutionbars","address":"28 Cross Church St.","lat":53.64632384309895,"lng":-1.780414909894285,"neighborhood":"Huddersfield Town Centre","city_fetched":"Huddersfield","country":"United Kingdom","canonicalUrl":"https://foursquare.com/v/revolution/4bc71a66af07a593e37f7e2d","category":"Cocktail Bar","checkinsCount":706,"usersCount":294,"tipCount":11,"visitsCount":791,"tier":"","message":"","currency":"","rating":6.9},{"name":"Vox","address":"10 Wood St","lat":53.647423,"lng":-1.782296,"neighborhood":"Huddersfield Town Centre","city_fetched":"Huddersfield","state":"Kirklees","country":"United Kingdom","canonicalUrl":"https://foursquare.com/v/vox/4b76bebaf964a520305c2ee3","category":"Bar","checkinsCount":835,"usersCount":225,"tipCount":13,"visitsCount":838,"tier":"","message":"","currency":"","rating":6.9},{"name":"The Warehouse","phone":"+441484511698","twitter":"warehousehudds","address":"12 Zetland St","lat":53.6449978,"lng":-1.77943725,"neighborhood":"Huddersfield Town Centre","city_fetched":"Huddersfield","country":"United Kingdom","canonicalUrl":"https://foursquare.com/warehousehudds","category":"Bar","checkinsCount":1756,"usersCount":300,"tipCount":4,"visitsCount":1856,"url":"http://www.screampubs.co.uk/thewarehousehuddersfield/","tier":"","message":"","currency":"","rating":6.8},{"name":"The Yorkshire Rose","phone":"+441484425881","address":"217 Leeds Rd.","lat":53.654786222933986,"lng":-1.7758787137793313,"neighborhood":"Dalton","city_fetched":"Huddersfield","country":"United Kingdom","canonicalUrl":"https://foursquare.com/v/the-yorkshire-rose/4cbdee22f50e224bfe6f07fc","category":"Pub","checkinsCount":414,"usersCount":229,"tipCount":9,"visitsCount":480,"url":"http://www.yorkshirerosepub.co.uk","tier":"","message":"","currency":"","rating":6.7},{"name":"Bar Maroc","lat":53.6429,"lng":-1.784523,"neighborhood":"Huddersfield Town Centre","city_fetched":"Huddersfield","country":"United Kingdom","canonicalUrl":"https://foursquare.com/v/bar-maroc/4f7f537de4b0b58904e1f663","category":"Bar","checkinsCount":132,"usersCount":85,"tipCount":3,"visitsCount":144,"tier":"","message":"","currency":"","rating":6.6},{"name":"The Kings Head","address":"St Georges Sq","lat":53.648648,"lng":-1.7841078940889572,"neighborhood":"Huddersfield Town Centre","city_fetched":"Huddersfield","country":"United Kingdom","canonicalUrl":"https://foursquare.com/v/the-kings-head/4b9bddcff964a520112f36e3","category":"Pub","checkinsCount":501,"usersCount":224,"tipCount":5,"visitsCount":503,"tier":"","message":"","currency":"","rating":6.5},{"name":"Northern Taps","address":"57 King St.","lat":53.645637587533386,"lng":-1.7797403024591487,"neighborhood":"Huddersfield Town Centre","city_fetched":"Huddersfield","state":"Kirklees","country":"United Kingdom","canonicalUrl":"https://foursquare.com/v/northern-taps/50f849f4e4b0740f1317cfa2","category":"Bar","checkinsCount":186,"usersCount":74,"tipCount":3,"visitsCount":189,"tier":"","message":"","currency":"","rating":6.4},{"name":"Zephyr Bar","address":"61 King St","lat":53.64550277112334,"lng":-1.7794203758239746,"neighborhood":"Huddersfield Town Centre","city_fetched":"Huddersfield","country":"United Kingdom","canonicalUrl":"https://foursquare.com/v/zephyr-bar/4bc4f606e58e9521be3ec9e1","category":"Bar","checkinsCount":417,"usersCount":155,"tipCount":5,"visitsCount":417,"tier":"","message":"","currency":"","rating":6.3},{"name":"The Cherry Tree (Wetherspoon)","phone":"+441484448190","address":"Pearl Assurance House","lat":53.647467913979796,"lng":-1.7825102806091309,"neighborhood":"Huddersfield Town Centre","city_fetched":"Huddersfield","country":"United Kingdom","canonicalUrl":"https://foursquare.com/v/the-cherry-tree-wetherspoon/4b9beb77f964a520d63536e3","category":"Pub","checkinsCount":1048,"usersCount":366,"tipCount":5,"visitsCount":1075,"url":"http://www.jdwetherspoon.co.uk","tier":"","message":"","currency":"","rating":6},{"name":"The Lord Wilson (Lloyds No. 1 Bar)","phone":"+441484411020","address":"Unit 27 Kingsgate Centre","lat":53.645473041521264,"lng":-1.779366294888776,"neighborhood":"Huddersfield Town Centre","city_fetched":"Huddersfield","country":"United Kingdom","canonicalUrl":"https://foursquare.com/v/the-lord-wilson-lloyds-no-1-bar/4c87ab3b821e9eb02ccd8d89","category":"Pub","checkinsCount":740,"usersCount":286,"tipCount":12,"visitsCount":789,"url":"http://www.jdwetherspoon.co.uk","tier":"","message":"","currency":"","rating":5.9},{"name":"The Aspley (Table Table)","phone":"+441484544250","twitter":"yourtabletable","address":"St Andrew's Rd, Aspley","lat":53.64479091542644,"lng":-1.7745825475865764,"neighborhood":"Aspley","city_fetched":"Huddersfield","state":"Kirklees","country":"United Kingdom","canonicalUrl":"https://foursquare.com/v/the-aspley-table-table/4cb55c9e9c7ba35d47058a06","category":"Pub","checkinsCount":302,"usersCount":153,"tipCount":5,"visitsCount":304,"url":"http://www.tabletable.co.uk/pub-restaurants/Yorkshire/Aspley-Huddersfield.html","tier":"","message":"","currency":"","rating":5.9},{"name":"High Park","phone":"+441484534226","address":"Bradley Rd","lat":53.6811251982247,"lng":-1.7607220322073618,"neighborhood":"Bradley","city_fetched":"Huddersfield","state":"Kirklees","country":"United Kingdom","canonicalUrl":"https://foursquare.com/v/high-park/4c1766f759cc2d7f5e875287","category":"Pub","checkinsCount":143,"usersCount":97,"tipCount":2,"visitsCount":210,"tier":"","message":"","currency":"","rating":5.7}]