[{"name":"The Minerva","phone":"+441482210025","twitter":"minerva_hull","address":"Pier Hall","lat":53.738019360472485,"lng":-0.33488988876342773,"city_fetched":"Hull","state":"Kingston upon Hull","country":"United Kingdom","canonicalUrl":"https://foursquare.com/v/the-minerva/4b4c8fe1f964a5202bb626e3","category":"Pub","checkinsCount":386,"usersCount":192,"tipCount":15,"visitsCount":473,"url":"http://www.minerva-hull.co.uk","tier":"","message":"","currency":"","rating":8.6},{"name":"Furley & Co","phone":"+447964227906","twitter":"furleyandco","address":"18-20 Princes Dock Street","lat":53.74210378697928,"lng":-0.3383777067911702,"city_fetched":"Hull","state":"Kingston upon Hull","country":"United Kingdom","canonicalUrl":"https://foursquare.com/v/furley--co/566470ac498e2afbdee3d32e","category":"Bar","checkinsCount":71,"usersCount":36,"tipCount":4,"visitsCount":74,"tier":"","message":"","currency":"","rating":8.1},{"name":"Woksoever","phone":"+441482844844","address":"119 Hallgate","lat":53.7815821314868,"lng":-0.4147939407123393,"city_fetched":"Hull","state":"East Yorkshire","country":"United Kingdom","canonicalUrl":"https://foursquare.com/v/woksoever/4bdb2f803904a593112b499e","category":"Chinese Restaurant","checkinsCount":89,"usersCount":38,"tipCount":4,"visitsCount":93,"tier":"","message":"","currency":"","rating":7.9},{"name":"Lion & Key","phone":"+441482225212","address":"48 High St.","lat":53.74258433381421,"lng":-0.3312206268310547,"city_fetched":"Hull","state":"Kingston upon Hull","country":"United Kingdom","canonicalUrl":"https://foursquare.com/v/lion--key/4c3eacaa80bc20a18366ab58","category":"Pub","checkinsCount":410,"usersCount":164,"tipCount":9,"visitsCount":433,"tier":"","message":"","currency":"","rating":7.9},{"name":"New Clarence","phone":"+441482320327","address":"Charles St.","lat":53.74761410756777,"lng":-0.3395014814541895,"city_fetched":"Hull","country":"United Kingdom","canonicalUrl":"https://foursquare.com/v/new-clarence/4bdabdf5c79cc928748a7fe9","category":"Pub","checkinsCount":169,"usersCount":73,"tipCount":3,"visitsCount":179,"tier":"","message":"","currency":"","rating":7.8},{"name":"Manor Farm","phone":"+441482505604","address":"164 Willerby Rd.","lat":53.75297709441462,"lng":-0.4076957702636719,"city_fetched":"Hull","state":"Kingston upon Hull","country":"United Kingdom","canonicalUrl":"https://foursquare.com/v/manor-farm/4babfe72f964a5207cdc3ae3","category":"Pub","checkinsCount":208,"usersCount":99,"tipCount":1,"visitsCount":250,"tier":"","message":"","currency":"","rating":7.8},{"name":"Walters","phone":"+441482224004","address":"21 Scale Lane","lat":53.74286098292865,"lng":-0.3328084945678711,"city_fetched":"Hull","state":"Kingston upon Hull","country":"United Kingdom","canonicalUrl":"https://foursquare.com/v/walters/4b4c92c7f964a52081b626e3","category":"Bar","checkinsCount":328,"usersCount":106,"tipCount":8,"visitsCount":331,"tier":"","message":"","currency":"","rating":7.7},{"name":"The Avenue","phone":"+441482498961","address":"100 Chanterlands Avenue","lat":53.75528901883937,"lng":-0.373719210661444,"neighborhood":"Avenue","city_fetched":"Hull","state":"Kingston upon Hull","country":"United Kingdom","canonicalUrl":"https://foursquare.com/v/the-avenue/4cb995d49552b60c1a41d48b","category":"Pub","checkinsCount":440,"usersCount":107,"tipCount":5,"visitsCount":486,"tier":"","message":"","currency":"","rating":7.5},{"name":"Ye Olde Black Boy","phone":"+441482326516","address":"150 High Street","lat":53.74268966373763,"lng":-0.3314244747161865,"city_fetched":"Hull","state":"Kingston upon Hull","country":"United Kingdom","canonicalUrl":"https://foursquare.com/v/ye-olde-black-boy/4b4c8d3ff964a520e1b526e3","category":"Bar","checkinsCount":239,"usersCount":112,"tipCount":7,"visitsCount":239,"tier":"","message":"","currency":"","rating":7.5},{"name":"Pave","phone":"+441482333181","address":"16-20 Princes Ave","lat":53.753728806030416,"lng":-0.35993099212646484,"neighborhood":"Avenue","city_fetched":"Hull","state":"Kingston upon Hull","country":"United Kingdom","canonicalUrl":"https://foursquare.com/v/pave/4b605cb2f964a520c7e129e3","category":"Bar","checkinsCount":1206,"usersCount":386,"tipCount":20,"visitsCount":1350,"tier":"","message":"","currency":"","rating":7.5},{"name":"Dukes Cafe Bar","phone":"+441482343903","address":"44-46 Princes Ave","lat":53.75455979646496,"lng":-0.35941600799560547,"neighborhood":"Avenue","city_fetched":"Hull","state":"Kingston upon Hull","country":"United Kingdom","canonicalUrl":"https://foursquare.com/v/dukes-cafe-bar/4ba3d4b2f964a5203d6438e3","category":"Bar","checkinsCount":510,"usersCount":170,"tipCount":6,"visitsCount":526,"tier":"","message":"","currency":"","rating":7.5},{"name":"New Adelphi","phone":"+441482348216","address":"89 De Grey Street","lat":53.76248166321828,"lng":-0.35508003116982334,"neighborhood":"Newland","city_fetched":"Hull","state":"Kingston upon Hull","country":"United Kingdom","canonicalUrl":"https://foursquare.com/v/new-adelphi/4bc4a869f8219c7454aab710","category":"Rock Club","checkinsCount":120,"usersCount":63,"tipCount":2,"visitsCount":124,"tier":"","message":"","currency":"","rating":7.4},{"name":"Ye Olde White Harte","phone":"+441482326363","address":"25 Silver St.","lat":53.742981,"lng":-0.33345009999999997,"city_fetched":"Hull","state":"Kingston upon Hull","country":"United Kingdom","canonicalUrl":"https://foursquare.com/v/ye-olde-white-harte/4b4c8755f964a5203fb526e3","category":"Pub","checkinsCount":278,"usersCount":167,"tipCount":9,"visitsCount":280,"tier":"","message":"","currency":"","rating":7.4},{"name":"Fuel","phone":"+441482228436","address":"6 Baker St","lat":53.747200836133516,"lng":-0.3436446189880371,"city_fetched":"Hull","state":"Kingston upon Hull","country":"United Kingdom","canonicalUrl":"https://foursquare.com/v/fuel/4b4c9579f964a520c1b626e3","category":"Gay Bar","checkinsCount":292,"usersCount":120,"tipCount":3,"visitsCount":304,"tier":"","message":"","currency":"","rating":7.4},{"name":"The Three John Scotts (Wetherspoon)","phone":"+441482381910","address":"City Exchange","lat":53.743850813467645,"lng":-0.3330874443054199,"city_fetched":"Hull","state":"Kingston upon Hull","country":"United Kingdom","canonicalUrl":"https://foursquare.com/v/the-three-john-scotts-wetherspoon/4c87ab4a821e9eb03bcd8d89","category":"Pub","checkinsCount":1274,"usersCount":413,"tipCount":16,"visitsCount":1384,"url":"http://www.jdwetherspoon.co.uk","tier":"","message":"","currency":"","rating":7.3},{"name":"Garbutts","phone":"+441482343490","address":"54 Princes Ave","lat":53.75463366508484,"lng":-0.359487,"neighborhood":"Avenue","city_fetched":"Hull","state":"Kingston upon Hull","country":"United Kingdom","canonicalUrl":"https://foursquare.com/v/garbutts/4b5c7185f964a5201a3029e3","category":"Bar","checkinsCount":513,"usersCount":181,"tipCount":12,"visitsCount":559,"tier":"","message":"","currency":"","rating":7.2},{"name":"Spiders","phone":"+441482326698","address":"9 Cleveland St","lat":53.75166711755382,"lng":-0.32918214797973633,"neighborhood":"Drypool","city_fetched":"Hull","state":"Kingston upon Hull","country":"United Kingdom","canonicalUrl":"https://foursquare.com/v/spiders/4b65a8a6f964a5203af82ae3","category":"Nightclub","checkinsCount":697,"usersCount":174,"tipCount":7,"visitsCount":717,"tier":"","message":"","currency":"","rating":7.1},{"name":"The Welly","phone":"+441482221113","twitter":"giveitsomewelly","address":"105 - 107 Beverley Rd","lat":53.753613829914194,"lng":-0.3484538197517395,"city_fetched":"Hull","state":"Kingston upon Hull","country":"United Kingdom","canonicalUrl":"https://foursquare.com/v/the-welly/4b5b58cff964a5207ff628e3","category":"Nightclub","checkinsCount":773,"usersCount":208,"tipCount":4,"visitsCount":818,"url":"http://www.giveitsomewelly.com","tier":"","message":"","currency":"","rating":7},{"name":"Henry Yeast & Sons","address":"2-16 Newland Ave","lat":53.76056870131177,"lng":-0.35895960900408114,"neighborhood":"Avenue","city_fetched":"Hull","state":"Kingston upon Hull","country":"United Kingdom","canonicalUrl":"https://foursquare.com/v/henry-yeast--sons/4e0e231c45ddc2c6d174d5b4","category":"Dive Bar","checkinsCount":108,"usersCount":70,"tipCount":7,"visitsCount":118,"tier":"","message":"","currency":"","rating":7},{"name":"Wm Hawkes","address":"Scale Lane","lat":53.74265793788488,"lng":-0.33195018768310547,"city_fetched":"Hull","state":"Kingston upon Hull","country":"United Kingdom","canonicalUrl":"https://foursquare.com/v/wm-hawkes/4ff34ac4e4b01d081eb33ca2","category":"Pub","checkinsCount":103,"usersCount":62,"tipCount":5,"visitsCount":105,"tier":"","message":"","currency":"","rating":7},{"name":"Sailmakers Arms","phone":"+441482227437","twitter":"sailmakersarms","address":"Chandlers Court, High Street","lat":53.74343204185434,"lng":-0.33109724521636963,"city_fetched":"Hull","state":"Kingston upon Hull","country":"United Kingdom","canonicalUrl":"https://foursquare.com/v/sailmakers-arms/4c137026a9c220a1a3b8559d","category":"Pub","checkinsCount":289,"usersCount":104,"tipCount":14,"visitsCount":297,"url":"http://www.thesailmakersarms.com","tier":"","message":"","currency":"","rating":6.9},{"name":"The Polar Bear","address":"229 Spring Bank","lat":53.75129917481607,"lng":-0.35978078842163086,"city_fetched":"Hull","country":"United Kingdom","canonicalUrl":"https://foursquare.com/v/the-polar-bear/4bac023df964a520c0dd3ae3","category":"Pub","checkinsCount":62,"usersCount":38,"tipCount":4,"visitsCount":67,"tier":"","message":"","currency":"","rating":6.9},{"name":"The Blue Bell Inn","phone":"+441482847113","address":"West Green","lat":53.781461,"lng":-0.420714,"city_fetched":"Hull","state":"East Yorkshire","country":"United Kingdom","canonicalUrl":"https://foursquare.com/v/the-blue-bell-inn/4bd44736462cb7139aeedf07","category":"Gastropub","checkinsCount":103,"usersCount":49,"tipCount":4,"visitsCount":112,"tier":"","message":"","currency":"","rating":6.9},{"name":"The Haworth Arms","phone":"+441482498951","address":"449 Beverley Rd.","lat":53.76855887898141,"lng":-0.3540274500846863,"neighborhood":"University","city_fetched":"Hull","state":"Kingston upon Hull","country":"United Kingdom","canonicalUrl":"https://foursquare.com/v/the-haworth-arms/4b51ddd2f964a520af5827e3","category":"Pub","checkinsCount":936,"usersCount":264,"tipCount":6,"visitsCount":965,"tier":"","message":"","currency":"","rating":6.9},{"name":"Jaz Bar","phone":"+441482228063","address":"41 Lowgate","lat":53.74287367321129,"lng":-0.33282995223999023,"city_fetched":"Hull","state":"Kingston upon Hull","country":"United Kingdom","canonicalUrl":"https://foursquare.com/v/jaz-bar/4b9ba685f964a520bf1636e3","category":"Bar","checkinsCount":403,"usersCount":121,"tipCount":10,"visitsCount":431,"tier":"","message":"","currency":"","rating":6.9},{"name":"Xanders","phone":"+441482342409","address":"158 Newland Ave","lat":53.764663,"lng":-0.358632,"neighborhood":"Newland","city_fetched":"Hull","state":"Kingston upon Hull","country":"United Kingdom","canonicalUrl":"https://foursquare.com/v/xanders/4c44be3b74ffc928eafc75cc","category":"Bar","checkinsCount":315,"usersCount":110,"tipCount":9,"visitsCount":317,"tier":"","message":"","currency":"","rating":6.9},{"name":"Propaganda","phone":"+441482222700","address":"107 Ferensway","lat":53.745525858187115,"lng":-0.34510374069213867,"city_fetched":"Hull","state":"Kingston upon Hull","country":"United Kingdom","canonicalUrl":"https://foursquare.com/v/propaganda/4b6f12fdf964a5202fdb2ce3","category":"Gay Bar","checkinsCount":270,"usersCount":128,"tipCount":5,"visitsCount":271,"tier":"","message":"","currency":"","rating":6.8},{"name":"Larkin's","phone":"+441482440991","address":"50-52 Newland Ave","lat":53.76155437154502,"lng":-0.35874277353286743,"neighborhood":"Newland","city_fetched":"Hull","state":"Kingston upon Hull","country":"United Kingdom","canonicalUrl":"https://foursquare.com/v/larkins/4c6810854e429c74b3df96b6","category":"Pub","checkinsCount":580,"usersCount":251,"tipCount":21,"visitsCount":626,"tier":"","message":"","currency":"","rating":6.8},{"name":"Hop & Vine","phone":"+447787564264","address":"24 Albion Street","lat":53.746845543360934,"lng":-0.34096240997314453,"city_fetched":"Hull","state":"Kingston upon Hull","country":"United Kingdom","canonicalUrl":"https://foursquare.com/v/hop--vine/4c3747fe2c8020a184b08800","category":"Pub","checkinsCount":77,"usersCount":43,"tipCount":7,"visitsCount":78,"tier":"","message":"","currency":"","rating":6.7},{"name":"Old English Gentleman","address":"Albion Street","lat":53.747612007203266,"lng":-0.33666974323848253,"city_fetched":"Hull","country":"United Kingdom","canonicalUrl":"https://foursquare.com/v/old-english-gentleman/4c3dd70a7d002d7fc44cb018","category":"Pub","checkinsCount":114,"usersCount":36,"tipCount":3,"visitsCount":115,"tier":"","message":"","currency":"","rating":6.7},{"name":"Queens Hotel","phone":"+441482343541","address":"Queens Road","lat":53.75998198321385,"lng":-0.35661998745396634,"neighborhood":"Avenue","city_fetched":"Hull","state":"Kingston upon Hull","country":"United Kingdom","canonicalUrl":"https://foursquare.com/v/queens-hotel/4b9bb407f964a520c41b36e3","category":"Pub","checkinsCount":336,"usersCount":100,"tipCount":5,"visitsCount":356,"tier":"","message":"","currency":"","rating":6.7},{"name":"Red Sails","phone":"+441482218081","address":"2 Beacon Way","lat":53.72935581276336,"lng":-0.37428944364024863,"city_fetched":"Hull","state":"Kingston upon Hull","country":"United Kingdom","canonicalUrl":"https://foursquare.com/v/red-sails/523745df498ea78a283908d0","category":"Pub","checkinsCount":125,"usersCount":67,"tipCount":9,"visitsCount":177,"url":"http://www.redsailspubhull.co.uk","tier":"","message":"","currency":"","rating":6.6},{"name":"Hollywood Bowl","phone":"+441482825656","twitter":"amf_hollywood","address":"Kingswood Leisure Park","lat":53.791164143113086,"lng":-0.35465240478515625,"city_fetched":"Hull","state":"Kingston upon Hull","country":"United Kingdom","canonicalUrl":"https://foursquare.com/v/hollywood-bowl/4bfd577c2b83b713b7b1a998","category":"Bowling Alley","checkinsCount":442,"usersCount":271,"tipCount":6,"visitsCount":454,"url":"http://www.hollywoodbowl.co.uk/our_centres/hull","tier":"","message":"","currency":"","rating":6.6},{"name":"The Fair Maid","phone":"+441482843848","address":"Baynard Avenue","lat":53.78156120675595,"lng":-0.4220724105834961,"city_fetched":"Hull","state":"East Yorkshire","country":"United Kingdom","canonicalUrl":"https://foursquare.com/v/the-fair-maid/4beb41526295c9b6a9898708","category":"Pub","checkinsCount":334,"usersCount":95,"tipCount":3,"visitsCount":418,"tier":"","message":"","currency":"","rating":6.6},{"name":"The Gardeners Arms","phone":"+441482342396","address":"35 Cottingham Rd","lat":53.76830364243514,"lng":-0.35656481981277466,"neighborhood":"Newland","city_fetched":"Hull","state":"Kingston upon Hull","country":"United Kingdom","canonicalUrl":"https://foursquare.com/v/the-gardeners-arms/4b51dd69f964a520955827e3","category":"Pub","checkinsCount":1651,"usersCount":384,"tipCount":3,"visitsCount":1830,"url":"http://www.thegardenersarmshull.co.uk","tier":"","message":"","currency":"","rating":6.6},{"name":"Wellington Inn","phone":"+441482329486","address":"55 Russell Street","lat":53.74926908797783,"lng":-0.34392356872558594,"city_fetched":"Hull","state":"Kingston upon Hull","country":"United Kingdom","canonicalUrl":"https://foursquare.com/v/wellington-inn/4b954043f964a520fa9734e3","category":"Pub","checkinsCount":271,"usersCount":84,"tipCount":8,"visitsCount":272,"tier":"","message":"","currency":"","rating":6.5},{"name":"The Kingswood TableTable","phone":"+441482820225","address":"Kingswood Retail Park","lat":53.79363348975325,"lng":-0.35068611435906993,"city_fetched":"Hull","state":"Kingston upon Hull","country":"United Kingdom","canonicalUrl":"https://foursquare.com/v/the-kingswood-tabletable/4b97faa1f964a520bc2335e3","category":"Pub","checkinsCount":227,"usersCount":109,"tipCount":12,"visitsCount":235,"tier":"","message":"","currency":"","rating":6.4},{"name":"Asylum","address":"University of Hull","lat":53.7718736424971,"lng":-0.3661537170410156,"neighborhood":"University","city_fetched":"Hull","state":"Kingston upon Hull","country":"United Kingdom","canonicalUrl":"https://foursquare.com/v/asylum/4c01999127dcc928c4d5e052","category":"Nightclub","checkinsCount":1227,"usersCount":278,"tipCount":7,"visitsCount":1265,"tier":"","message":"","currency":"","rating":6.4},{"name":"The Priory Inn","phone":"+441482352011","address":"121 Priory Road","lat":53.75578978453209,"lng":-0.3975851744454133,"city_fetched":"Hull","state":"Kingston upon Hull","country":"United Kingdom","canonicalUrl":"https://foursquare.com/v/the-priory-inn/4babff3cf964a520c0dc3ae3","category":"Pub","checkinsCount":552,"usersCount":56,"tipCount":1,"visitsCount":592,"tier":"","message":"","currency":"","rating":6.4},{"name":"The Goldcrest","phone":"+441482229505","address":"Plimsoll Way","lat":53.743287985378004,"lng":-0.3219667619535751,"neighborhood":"Victoria Dock","city_fetched":"Hull","state":"Kingston upon Hull","country":"United Kingdom","canonicalUrl":"https://foursquare.com/v/the-goldcrest/4f4001c3e4b0ae0655c07ee6","category":"Pub","checkinsCount":283,"usersCount":83,"tipCount":3,"visitsCount":293,"url":"http://www.goldcrestpubhull.co.uk","tier":"","message":"","currency":"","rating":6.3},{"name":"The Empress","phone":"+441482326839","address":"20 Alfred Gelder Street","lat":53.74405970063869,"lng":-0.33750626685595997,"neighborhood":"Queen's Gardens","city_fetched":"Hull","state":"Kingston upon Hull","country":"United Kingdom","canonicalUrl":"https://foursquare.com/v/the-empress/4b4c89d5f964a52085b526e3","category":"Bar","checkinsCount":176,"usersCount":58,"tipCount":2,"visitsCount":180,"tier":"","message":"","currency":"","rating":6.3},{"name":"The Admiral Of The Humber (Wetherspoon)","phone":"+441482381850","address":"1 Anlaby Rd.","lat":53.743197274124284,"lng":-0.3438591957092285,"city_fetched":"Hull","state":"Kingston upon Hull","country":"United Kingdom","canonicalUrl":"https://foursquare.com/v/the-admiral-of-the-humber-wetherspoon/4b4c8b27f964a520abb526e3","category":"Pub","checkinsCount":1395,"usersCount":529,"tipCount":13,"visitsCount":1563,"url":"http://www.jdwetherspoon.co.uk","tier":"","message":"","currency":"","rating":6.2},{"name":"Sleepers","phone":"+441482342223","address":"47-49 Newland Ave","lat":53.761522659936425,"lng":-0.35902172327041626,"neighborhood":"Newland","city_fetched":"Hull","state":"Kingston upon Hull","country":"United Kingdom","canonicalUrl":"https://foursquare.com/v/sleepers/4babbbdbf964a520c9c43ae3","category":"Restaurant","checkinsCount":340,"usersCount":182,"tipCount":16,"visitsCount":367,"tier":"","message":"","currency":"","rating":6.2},{"name":"The National","phone":"+441482498921","address":"19 National Avenue","lat":53.76198948233717,"lng":-0.3826770368540699,"neighborhood":"Bricknell","city_fetched":"Hull","state":"Kingston upon Hull","country":"United Kingdom","canonicalUrl":"https://foursquare.com/v/the-national/4cf1321d88de37046bc3702b","category":"Pub","checkinsCount":103,"usersCount":51,"tipCount":2,"visitsCount":112,"url":"http://www.thenationalhull.co.uk","tier":"","message":"","currency":"","rating":6.1},{"name":"The William Wilberforce (Lloyd's No. 1 Bar)","phone":"+441482586099","address":"Trinity House Ln","lat":53.74276580568652,"lng":-0.33438563346862793,"city_fetched":"Hull","state":"Kingston upon Hull","country":"United Kingdom","canonicalUrl":"https://foursquare.com/v/the-william-wilberforce-lloyds-no-1-bar/4c87ab4b821e9eb03ccd8d89","category":"Pub","checkinsCount":1016,"usersCount":398,"tipCount":12,"visitsCount":1069,"url":"http://www.jdwetherspoon.co.uk","tier":"","message":"","currency":"","rating":6.1},{"name":"The Mission","phone":"+441482221751","address":"11-13 Posterngate","lat":53.742194737706875,"lng":-0.33701419830322266,"city_fetched":"Hull","state":"Kingston upon Hull","country":"United Kingdom","canonicalUrl":"https://foursquare.com/v/the-mission/4b4c88d3f964a52066b526e3","category":"Pub","checkinsCount":364,"usersCount":176,"tipCount":7,"visitsCount":390,"tier":"","message":"","currency":"","rating":6.1},{"name":"The West Bulls","phone":"+441482847957","address":"Bricknell Ave.","lat":53.771791,"lng":-0.392807,"city_fetched":"Hull","state":"Kingston upon Hull","country":"United Kingdom","canonicalUrl":"https://foursquare.com/v/the-west-bulls/4bfbf7f6d931c928bf71838b","category":"Pub","checkinsCount":229,"usersCount":128,"tipCount":10,"visitsCount":252,"tier":"","message":"","currency":"","rating":6.1},{"name":"Oscars Bar","phone":"+441482228750","address":"Suffolk House","lat":53.74291174403629,"lng":-0.33362388610839844,"city_fetched":"Hull","state":"Kingston upon Hull","country":"United Kingdom","canonicalUrl":"https://foursquare.com/v/oscars-bar/4d1907dfbb64224b6baacb65","category":"Cocktail Bar","checkinsCount":174,"usersCount":70,"tipCount":4,"visitsCount":174,"tier":"","message":"","currency":"","rating":6.1},{"name":"Tofts Bar & Grill","phone":"+441482342010","address":"64 â€“ 70 Newland Avenue","lat":53.762248634717125,"lng":-0.35872921226819904,"neighborhood":"Newland","city_fetched":"Hull","state":"Kingston upon Hull","country":"United Kingdom","canonicalUrl":"https://foursquare.com/v/tofts-bar--grill/4f511d36e4b02bef4347b6be","category":"Bar","checkinsCount":159,"usersCount":87,"tipCount":4,"visitsCount":176,"url":"http://www.toftslane.com","tier":"","message":"","currency":"","rating":6},{"name":"The Bowery","phone":"+441482441126","address":"30-32 Princes Ave","lat":53.754026949527734,"lng":-0.3597378730773926,"neighborhood":"Avenue","city_fetched":"Hull","state":"Kingston upon Hull","country":"United Kingdom","canonicalUrl":"https://foursquare.com/v/the-bowery/4bc085ffabf49521b853bf93","category":"Bar","checkinsCount":361,"usersCount":129,"tipCount":3,"visitsCount":361,"tier":"","message":"","currency":"","rating":6},{"name":"The Piper Club","phone":"+441482498931","address":"Newland Ave","lat":53.76433476036658,"lng":-0.3585436046126711,"neighborhood":"Newland","city_fetched":"Hull","state":"Kingston upon Hull","country":"United Kingdom","canonicalUrl":"https://foursquare.com/v/the-piper-club/4b794645f964a520cdf12ee3","category":"Nightclub","checkinsCount":662,"usersCount":209,"tipCount":8,"visitsCount":670,"tier":"","message":"","currency":"","rating":6},{"name":"Cross Keys","phone":"+441482840118","address":"94 Northgate","lat":53.78466200424719,"lng":-0.41364439958973187,"city_fetched":"Hull","state":"East Yorkshire","country":"United Kingdom","canonicalUrl":"https://foursquare.com/v/cross-keys/4bf82a21abdaef3b06a3a184","category":"Pub","checkinsCount":222,"usersCount":78,"tipCount":3,"visitsCount":279,"tier":"","message":"","currency":"","rating":5.9},{"name":"Sanctuary","phone":"+441482466264","address":"Hull University Union","lat":53.77151855839689,"lng":-0.3661537170410156,"neighborhood":"University","city_fetched":"Hull","state":"Kingston upon Hull","country":"United Kingdom","canonicalUrl":"https://foursquare.com/v/sanctuary/4bfe7c154cf820a13becedf4","category":"Bar","checkinsCount":2247,"usersCount":335,"tipCount":6,"visitsCount":2276,"tier":"","message":"","currency":"","rating":5.9},{"name":"The Sailmakers","phone":"+441482610921","address":"St Andrews Quay","lat":53.726988364739,"lng":-0.37409447258259787,"city_fetched":"Hull","state":"Kingston upon Hull","country":"United Kingdom","canonicalUrl":"https://foursquare.com/v/the-sailmakers/4c51ada7d797e21e19367a7c","category":"Gastropub","checkinsCount":152,"usersCount":94,"tipCount":8,"visitsCount":155,"tier":"","message":"","currency":"","rating":5.8},{"name":"The Goodfellowship","phone":"+441482342858","twitter":"goodfellowship1","address":"Cottingham Rd","lat":53.769780179124425,"lng":-0.3817551263642544,"neighborhood":"Bricknell","city_fetched":"Hull","state":"Kingston upon Hull","country":"United Kingdom","canonicalUrl":"https://foursquare.com/v/the-goodfellowship/4bab9657f964a5209cb63ae3","category":"Pub","checkinsCount":520,"usersCount":129,"tipCount":13,"visitsCount":544,"url":"http://goodfellowshipinnhull.co.uk","tier":"","message":"","currency":"","rating":5.8},{"name":"Old Grey Mare Hotel","phone":"+441482448193","address":"193 Cottingham Road","lat":53.76891874402215,"lng":-0.3684067726135254,"neighborhood":"Bricknell","city_fetched":"Hull","state":"Kingston upon Hull","country":"United Kingdom","canonicalUrl":"https://foursquare.com/v/old-grey-mare-hotel/4bd745bb304fce729b4b33ab","category":"Pub","checkinsCount":662,"usersCount":268,"tipCount":14,"visitsCount":727,"tier":"","message":"","currency":"","rating":5.7},{"name":"Pozition","address":"135 George Street","lat":53.747316261433006,"lng":-0.33422250016984784,"city_fetched":"Hull","state":"Kingston upon Hull","country":"United Kingdom","canonicalUrl":"https://foursquare.com/v/pozition/4b5b57ecf964a5202df628e3","category":"Nightclub","checkinsCount":401,"usersCount":159,"tipCount":3,"visitsCount":416,"tier":"","message":"","currency":"","rating":5.6},{"name":"Lounge Cafe Bar","phone":"+441482440659","address":"26 - 28 Princes Ave","lat":53.75384933237989,"lng":-0.35978078842163086,"neighborhood":"Avenue","city_fetched":"Hull","state":"Kingston upon Hull","country":"United Kingdom","canonicalUrl":"https://foursquare.com/v/lounge-cafe-bar/4bc0a961f8219c7480e7b110","category":"Bar","checkinsCount":486,"usersCount":165,"tipCount":9,"visitsCount":491,"tier":"","message":"","currency":"","rating":5.5}]