[{"name":"The Horseshoe Inn & Restaurant","phone":"+441480810293","twitter":"theoffordshoe","address":"90 High Street","lat":52.28427321299068,"lng":-0.214158296585083,"city_fetched":"Huntingdon,UK","state":"Cambridgeshire","country":"United Kingdom","canonicalUrl":"https://foursquare.com/v/the-horseshoe-inn--restaurant/4c14cbd3b7b9c92871daab37","categoryId":"4bf58dd8d48988d11b941735","category":"Pub","checkinsCount":127,"usersCount":75,"tipCount":5,"visitsCount":140,"tier":"","message":"","currency":"","rating":8},{"name":"The Falcon","phone":"+441480457416","address":"10 Market Hill","lat":52.33033494472553,"lng":-0.18471122108503676,"neighborhood":"Cambridgeshire","city_fetched":"Huntingdon,UK","state":"Cambridgeshire","country":"United Kingdom","canonicalUrl":"https://foursquare.com/v/the-falcon/54ee24ab498e00ad2f090565","categoryId":"4bf58dd8d48988d11b941735","category":"Pub","checkinsCount":92,"usersCount":37,"tipCount":4,"visitsCount":119,"url":"http://falconhuntingdon.co.uk","tier":"","message":"","currency":"","rating":7.8},{"name":"The Barley Mow","address":"42 Main St","lat":52.33846812589701,"lng":-0.1577093466211113,"city_fetched":"Huntingdon,UK","state":"Cambridgeshire","country":"United Kingdom","canonicalUrl":"https://foursquare.com/v/the-barley-mow/4c4171033735be9a3d7718a4","categoryId":"4bf58dd8d48988d11b941735","category":"Pub","checkinsCount":175,"usersCount":94,"tipCount":6,"visitsCount":255,"tier":"","message":"","currency":"","rating":7},{"name":"The Three Jolly Butchers","phone":"+441480463228","address":"3 Huntingdon Rd","lat":52.33423769447797,"lng":-0.12357473373413086,"city_fetched":"Huntingdon,UK","state":"Cambridgeshire","country":"United Kingdom","canonicalUrl":"https://foursquare.com/v/the-three-jolly-butchers/4d037fec8620224bf83ba340","categoryId":"4bf58dd8d48988d11b941735","category":"Pub","checkinsCount":146,"usersCount":69,"tipCount":3,"visitsCount":194,"tier":"","message":"","currency":"","rating":6.8},{"name":"The White Hart","address":"Cambridge Road","lat":52.318945085000614,"lng":-0.16939942743386405,"city_fetched":"Huntingdon,UK","state":"Cambridgeshire","country":"United Kingdom","canonicalUrl":"https://foursquare.com/v/the-white-hart/4bec611f75b2c9b67467438d","categoryId":"4bf58dd8d48988d11b941735","category":"Pub","checkinsCount":142,"usersCount":115,"tipCount":6,"visitsCount":233,"tier":"","message":"","currency":"","rating":6.8},{"name":"The Black Bull","phone":"+441480457201","address":"25 Church Rd.","lat":52.320627890674,"lng":-0.21979635700836297,"city_fetched":"Huntingdon,UK","state":"Cambridgeshire","country":"United Kingdom","canonicalUrl":"https://foursquare.com/v/the-black-bull/4c5d960e9b28d13a1df05970","categoryId":"4bf58dd8d48988d11b941735","category":"Pub","checkinsCount":196,"usersCount":78,"tipCount":4,"visitsCount":257,"tier":"","message":"","currency":"","rating":6.6},{"name":"George Hotel","phone":"+441480432444","address":"George St","lat":52.33093995406862,"lng":-0.1853621006011963,"city_fetched":"Huntingdon,UK","state":"Cambridgeshire","country":"United Kingdom","canonicalUrl":"https://foursquare.com/v/george-hotel/4be84903c5220f477f8ca9ca","categoryId":"4bf58dd8d48988d1d5941735","category":"Hotel Bar","checkinsCount":286,"usersCount":157,"tipCount":12,"visitsCount":314,"tier":"","message":"","currency":"","rating":5.3},{"name":"Hartford Mill","lat":52.337472438812256,"lng":-0.1418513059616089,"city_fetched":"Huntingdon,UK","country":"United Kingdom","canonicalUrl":"https://foursquare.com/v/hartford-mill/4c475321c047be9af4343079","categoryId":"4bf58dd8d48988d11b941735","category":"Pub","checkinsCount":134,"usersCount":100,"tipCount":5,"visitsCount":174,"tier":"","message":"","currency":"","rating":4.8}]