[{"name":"The White Lion","address":"74 Swingate","lat":52.99058358665737,"lng":-1.254321889215609,"city_fetched":"Ilkeston,UK","state":"Nottinghamshire","country":"United Kingdom","canonicalUrl":"https://foursquare.com/v/the-white-lion/517d3c0fe4b0a7bf682f6ab2","categoryId":"4bf58dd8d48988d11b941735","category":"Pub","checkinsCount":386,"usersCount":40,"tipCount":6,"visitsCount":438,"tier":"","message":"","currency":"","rating":8.5},{"name":"Nelson and Railway","phone":"+441159382177","address":"Station Rd.","lat":52.999005408612014,"lng":-1.2594795227050781,"city_fetched":"Ilkeston,UK","state":"Nottinghamshire","country":"United Kingdom","canonicalUrl":"https://foursquare.com/v/nelson-and-railway/4bace434f964a52070163be3","categoryId":"4bf58dd8d48988d11b941735","category":"Pub","checkinsCount":132,"usersCount":63,"tipCount":1,"visitsCount":174,"url":"http://www.nelsonandrailway.co.uk","tier":"","message":"","currency":"","rating":7.5},{"name":"Blue Monkey Brewery","phone":"+448000280329","twitter":"bluemonkeybrew","address":"10 Pentrich Rd","lat":53.00417369606105,"lng":-1.2803115131698652,"city_fetched":"Ilkeston,UK","state":"Nottinghamshire","country":"United Kingdom","canonicalUrl":"https://foursquare.com/v/blue-monkey-brewery/4ed4c06299119575fe7ce572","categoryId":"50327c8591d4c4b30a586d5d","category":"Brewery","checkinsCount":75,"usersCount":47,"tipCount":3,"visitsCount":86,"url":"http://www.bluemonkeybrewery.com","tier":"","message":"","currency":"","rating":7.5},{"name":"The Admiral Sir John Borlase Warren (Wetherspoon)","phone":"+441159496780","twitter":"jdwtweet","address":"97 Derby Rd","lat":52.92774077200989,"lng":-1.2781254301242637,"city_fetched":"Ilkeston,UK","state":"Nottinghamshire","country":"United Kingdom","canonicalUrl":"https://foursquare.com/v/the-admiral-sir-john-borlase-warren-wetherspoon/4f53707be4b036244b414c79","categoryId":"4bf58dd8d48988d11b941735","category":"Pub","checkinsCount":219,"usersCount":140,"tipCount":5,"visitsCount":319,"url":"http://www.jdwetherspoon.co.uk","tier":"","message":"","currency":"","rating":7.1},{"name":"Spanish Bar","phone":"+441159308666","address":"South St","lat":52.96789434335459,"lng":-1.3084998364601437,"city_fetched":"Ilkeston,UK","state":"Derbyshire","country":"United Kingdom","canonicalUrl":"https://foursquare.com/v/spanish-bar/4d682da60a25b60c3d131490","categoryId":"4bf58dd8d48988d116941735","category":"Bar","checkinsCount":399,"usersCount":70,"tipCount":3,"visitsCount":417,"tier":"","message":"","currency":"","rating":7},{"name":"The Hayloft","address":"Nottingham Road","lat":53.00773101,"lng":-1.283817,"city_fetched":"Ilkeston,UK","state":"Nottinghamshire","country":"United Kingdom","canonicalUrl":"https://foursquare.com/v/the-hayloft/4c239c55a852c928c1c6e16c","categoryId":"4bf58dd8d48988d11b941735","category":"Pub","checkinsCount":263,"usersCount":65,"tipCount":4,"visitsCount":281,"tier":"","message":"","currency":"","rating":7},{"name":"The Festival Inn","address":"Ilkeston Road","lat":52.95359194278717,"lng":-1.2823748588562012,"city_fetched":"Ilkeston,UK","state":"Nottinghamshire","country":"United Kingdom","canonicalUrl":"https://foursquare.com/v/the-festival-inn/4badc15ef964a5203b673be3","categoryId":"4bf58dd8d48988d11b941735","category":"Pub","checkinsCount":137,"usersCount":80,"tipCount":2,"visitsCount":156,"tier":"","message":"","currency":"","rating":6.9},{"name":"Risley Park","lat":52.915861,"lng":-1.320566,"city_fetched":"Ilkeston,UK","country":"United Kingdom","canonicalUrl":"https://foursquare.com/v/risley-park/4c5ea64a9b28d13a50d95c70","categoryId":"4bf58dd8d48988d11b941735","category":"Pub","checkinsCount":161,"usersCount":125,"tipCount":1,"visitsCount":198,"tier":"","message":"","currency":"","rating":6.9},{"name":"Nurseryman (Eating Inn)","phone":"+441159170021","address":"177 Derby Rd","lat":52.93736887540298,"lng":-1.226423978805542,"city_fetched":"Ilkeston,UK","state":"Nottinghamshire","country":"United Kingdom","canonicalUrl":"https://foursquare.com/v/nurseryman-eating-inn/4b252a71f964a520406d24e3","categoryId":"4bf58dd8d48988d11b941735","category":"Pub","checkinsCount":527,"usersCount":206,"tipCount":8,"visitsCount":639,"tier":"","message":"","currency":"","rating":6.7},{"name":"The Observatory (Wetherspoon)","phone":"+441159328040","address":"14a Market Pl","lat":52.971533094494355,"lng":-1.308430733619454,"city_fetched":"Ilkeston,UK","state":"Derbyshire","country":"United Kingdom","canonicalUrl":"https://foursquare.com/v/the-observatory-wetherspoon/4c87ab3e821e9eb02ecd8d89","categoryId":"4bf58dd8d48988d11b941735","category":"Pub","checkinsCount":963,"usersCount":160,"tipCount":5,"visitsCount":1139,"url":"http://www.jdwetherspoon.co.uk","tier":"","message":"","currency":"","rating":6.5},{"name":"Rose & Crown","address":"Woodside","lat":52.98241470536056,"lng":-1.4015593992107325,"city_fetched":"Ilkeston,UK","state":"Derbyshire","country":"United Kingdom","canonicalUrl":"https://foursquare.com/v/rose--crown/4bd3201fa8b3a593aa1d695f","categoryId":"4bf58dd8d48988d11b941735","category":"Pub","checkinsCount":94,"usersCount":85,"tipCount":1,"visitsCount":143,"tier":"","message":"","currency":"","rating":6.2},{"name":"The Hemlock Stone Pub","phone":"+441159284463","twitter":"emberinns","address":"Bramcote Lane","lat":52.948485016822815,"lng":-1.2290525436401367,"city_fetched":"Ilkeston,UK","state":"Nottinghamshire","country":"United Kingdom","canonicalUrl":"https://foursquare.com/v/the-hemlock-stone-pub/4c5859f36418a593b674810e","categoryId":"4bf58dd8d48988d11b941735","category":"Pub","checkinsCount":210,"usersCount":138,"tipCount":10,"visitsCount":270,"tier":"","message":"","currency":"","rating":6.2},{"name":"Horse & Jockey","address":"20 Nottingham Rd","lat":52.92970582445132,"lng":-1.2731695175170896,"city_fetched":"Ilkeston,UK","state":"Nottinghamshire","country":"United Kingdom","canonicalUrl":"https://foursquare.com/v/horse--jockey/4ed1679ef5b9832adb6d4aa9","categoryId":"4bf58dd8d48988d11b941735","category":"Pub","checkinsCount":81,"usersCount":49,"tipCount":1,"visitsCount":98,"url":"http://horseandjockeystapleford.co.uk","tier":"","message":"","currency":"","rating":6.1},{"name":"The Three Ponds","phone":"+441159383170","address":"Kimberley Rd","lat":52.995117,"lng":-1.2334192,"city_fetched":"Ilkeston,UK","state":"Nottinghamshire","country":"United Kingdom","canonicalUrl":"https://foursquare.com/v/the-three-ponds/4bf010e151f2c9b6d723f192","categoryId":"4bf58dd8d48988d11b941735","category":"Pub","checkinsCount":208,"usersCount":107,"tipCount":4,"visitsCount":265,"url":"http://www.threeponds-nuthall.co.uk","tier":"","message":"","currency":"","rating":6.1},{"name":"Sir John Warren","address":"10 Market Pl","lat":52.971017571859946,"lng":-1.3095519612164432,"city_fetched":"Ilkeston,UK","state":"Derbyshire","country":"United Kingdom","canonicalUrl":"https://foursquare.com/v/sir-john-warren/4ba78e13f964a520ef9c39e3","categoryId":"4bf58dd8d48988d11b941735","category":"Pub","checkinsCount":1124,"usersCount":118,"tipCount":0,"visitsCount":1212,"tier":"","message":"","currency":"","rating":6.1},{"name":"Old Moor Lodge","phone":"+441159762200","address":"Mornington Crescent","lat":52.98615758620814,"lng":-1.2301067141195619,"city_fetched":"Ilkeston,UK","state":"Nottinghamshire","country":"United Kingdom","canonicalUrl":"https://foursquare.com/v/old-moor-lodge/4c4f0dd7e33495219436bf15","categoryId":"4bf58dd8d48988d11b941735","category":"Pub","checkinsCount":78,"usersCount":56,"tipCount":0,"visitsCount":82,"tier":"","message":"","currency":"","rating":5.8},{"name":"The Broad Oak","phone":"+441159293340","address":"Main St.","lat":52.97191967106602,"lng":-1.238859033178111,"city_fetched":"Ilkeston,UK","state":"Nottinghamshire","country":"United Kingdom","canonicalUrl":"https://foursquare.com/v/the-broad-oak/4d331ee98250f04dcfeff9e0","categoryId":"4bf58dd8d48988d11b941735","category":"Pub","checkinsCount":188,"usersCount":97,"tipCount":4,"visitsCount":220,"tier":"","message":"","currency":"","rating":5.5},{"name":"The Plough","address":"43-71 Town St","lat":52.92492804757208,"lng":-1.2880696050278422,"city_fetched":"Ilkeston,UK","state":"Derbyshire","country":"United Kingdom","canonicalUrl":"https://foursquare.com/v/the-plough/4ba65a29f964a520604939e3","categoryId":"4bf58dd8d48988d11b941735","category":"Pub","checkinsCount":204,"usersCount":87,"tipCount":4,"visitsCount":207,"tier":"","message":"","currency":"","rating":5.4},{"name":"Sherwin Arms","address":"Sherwin Arms","lat":52.9362922501702,"lng":-1.2516260147094727,"city_fetched":"Ilkeston,UK","state":"Nottinghamshire","country":"United Kingdom","canonicalUrl":"https://foursquare.com/v/sherwin-arms/4ba7d982f964a520c2b839e3","categoryId":"4bf58dd8d48988d11b941735","category":"Pub","checkinsCount":305,"usersCount":120,"tipCount":4,"visitsCount":333,"tier":"","message":"","currency":"","rating":5.1}]