[{"name":"Friends of Ham (Ilkley)","phone":"+441943604344","address":"8 Wells Rd","lat":53.924167,"lng":-1.822762,"neighborhood":"Ilkley","city_fetched":"Ilkley","state":"Bradford","country":"United Kingdom","canonicalUrl":"https://foursquare.com/v/friends-of-ham-ilkley/55df058d498eb23a677a44b0","category":"Bar","checkinsCount":53,"usersCount":50,"tipCount":2,"visitsCount":91,"url":"http://www.friendsofham.com/friends-of-ham-ilkley/","tier":"","message":"","currency":"","rating":8.3},{"name":"The Cow & Calf","phone":"+441943607335","address":"Hanging Stone Rd.","lat":53.915292,"lng":-1.797873,"neighborhood":"Ilkley","city_fetched":"Ilkley","country":"United Kingdom","canonicalUrl":"https://foursquare.com/v/the-cow--calf/4bc1c327abf49521066cc193","category":"Pub","checkinsCount":345,"usersCount":369,"tipCount":12,"visitsCount":470,"tier":"","message":"","currency":"","rating":8.2},{"name":"The Flying Duck","phone":"+441943609587","twitter":"flyingduckpub","address":"16 Church Street","lat":53.9263853792678,"lng":-1.8252861499786377,"neighborhood":"Ilkley","city_fetched":"Ilkley","country":"United Kingdom","canonicalUrl":"https://foursquare.com/v/the-flying-duck/5285f12911d27acf440520ac","category":"Pub","checkinsCount":96,"usersCount":53,"tipCount":4,"visitsCount":96,"tier":"","message":"","currency":"","rating":7.7},{"name":"Bar T'at","phone":"+441943608888","twitter":"markettowntavs","address":"7 Cunliffe Road","lat":53.92514376075074,"lng":-1.8258956268526763,"neighborhood":"Ilkley","city_fetched":"Ilkley","country":"United Kingdom","canonicalUrl":"https://foursquare.com/v/bar-tat/4bb26e8b2397b713fc0037b3","category":"Bar","checkinsCount":475,"usersCount":186,"tipCount":13,"visitsCount":512,"tier":"","message":"","currency":"","rating":7.6},{"name":"the crescent","address":"brook street","lat":53.92593684157323,"lng":-1.8230438232421875,"neighborhood":"Ilkley","city_fetched":"Ilkley","country":"United Kingdom","canonicalUrl":"https://foursquare.com/v/the-crescent/4e0dee0a1fc79cade2238703","category":"Pub","checkinsCount":192,"usersCount":102,"tipCount":4,"visitsCount":193,"tier":"","message":"","currency":"","rating":7.5},{"name":"The Yard","phone":"+441943609606","twitter":"yardilkley","address":"30 Brook St","lat":53.92567150714699,"lng":-1.823129653930664,"neighborhood":"Ilkley","city_fetched":"Ilkley","country":"United Kingdom","canonicalUrl":"https://foursquare.com/v/the-yard/4bdc8abffed22d7f92a758c9","category":"Bar","checkinsCount":166,"usersCount":90,"tipCount":3,"visitsCount":168,"url":"http://www.workhardplayyard.co.uk","tier":"","message":"","currency":"","rating":7},{"name":"Wheatley Arms","phone":"+441943816496","address":"Wheatley Lane","lat":53.923321243523006,"lng":-1.7977499766556537,"neighborhood":"Ilkley","city_fetched":"Ilkley","country":"United Kingdom","canonicalUrl":"https://foursquare.com/v/wheatley-arms/4c66964ce75ac92894d5f7da","category":"Gastropub","checkinsCount":164,"usersCount":110,"tipCount":7,"visitsCount":273,"tier":2,"message":"Moderate","currency":"Â£","rating":7},{"name":"The Lister's Arms (Wetherspoon)","phone":"+441943811240","twitter":"jdwtweet","address":"The Moors Shopping Centre","lat":53.925638748674054,"lng":-1.8258422620998402,"neighborhood":"Ilkley","city_fetched":"Ilkley","country":"United Kingdom","canonicalUrl":"https://foursquare.com/v/the-listers-arms-wetherspoon/4deb9e4552b11677f0598a7e","category":"Pub","checkinsCount":264,"usersCount":122,"tipCount":2,"visitsCount":270,"url":"http://www.jdwetherspoon.co.uk","tier":"","message":"","currency":"","rating":6.6}]