[{"name":"Dove Street Inn","phone":"+441473211270","twitter":"dovesi","address":"76 St Helens St.","lat":52.05631240615905,"lng":1.164152284860088,"city_fetched":"Ipswich,UK","state":"Suffolk","country":"United Kingdom","canonicalUrl":"https://foursquare.com/v/dove-street-inn/4bb7c6b298c7ef3bca593002","categoryId":"4bf58dd8d48988d11b941735","category":"Pub","checkinsCount":1328,"usersCount":257,"tipCount":11,"visitsCount":1611,"url":"http://www.dovestreetinn.co.uk","tier":"","message":"","currency":"","rating":9.3},{"name":"The Fat Cat","phone":"+441473726524","address":"288 Spring Road","lat":52.05887485945472,"lng":1.1809145574593591,"city_fetched":"Ipswich,UK","state":"Suffolk","country":"United Kingdom","canonicalUrl":"https://foursquare.com/v/the-fat-cat/4bbb978cafe1b71301652f4b","categoryId":"4bf58dd8d48988d11b941735","category":"Pub","checkinsCount":982,"usersCount":162,"tipCount":7,"visitsCount":1093,"tier":"","message":"","currency":"","rating":8.7},{"name":"Cult Cafe Bar","phone":"+441473338166","address":"University Avenue","lat":52.05059634647299,"lng":1.1634589081021305,"neighborhood":"Waterfront","city_fetched":"Ipswich,UK","state":"Suffolk","country":"United Kingdom","canonicalUrl":"https://foursquare.com/v/cult-cafe-bar/5219f8cd498e66d048a9a0cd","categoryId":"4bf58dd8d48988d116941735","category":"Bar","checkinsCount":335,"usersCount":153,"tipCount":10,"visitsCount":485,"url":"http://cultcafe.co.uk","tier":"","message":"","currency":"","rating":8.7},{"name":"Seckford Hall","lat":52.08781739147599,"lng":1.2866325748253478,"city_fetched":"Ipswich,UK","state":"Suffolk","country":"United Kingdom","canonicalUrl":"https://foursquare.com/v/seckford-hall/4c153c2a77cea59387e2d160","categoryId":"4bf58dd8d48988d1d5941735","category":"Hotel Bar","checkinsCount":250,"usersCount":172,"tipCount":5,"visitsCount":314,"tier":"","message":"","currency":"","rating":8.5},{"name":"Arcade Street Tavern","phone":"+441473805454","twitter":"arcadetavern","address":"1 Arcade Street","lat":52.05736912216897,"lng":1.1517512798309326,"city_fetched":"Ipswich,UK","state":"Suffolk","country":"United Kingdom","canonicalUrl":"https://foursquare.com/v/arcade-street-tavern/54888157498ede43a0173f76","categoryId":"4bf58dd8d48988d11b941735","category":"Pub","checkinsCount":178,"usersCount":56,"tipCount":2,"visitsCount":218,"tier":"","message":"","currency":"","rating":8.4},{"name":"The Woolpack","phone":"+441473215862","address":"1 Tuddenham Rd","lat":52.061796,"lng":1.159899,"city_fetched":"Ipswich,UK","state":"Suffolk","country":"United Kingdom","canonicalUrl":"https://foursquare.com/v/the-woolpack/4b6431c2f964a52077a32ae3","categoryId":"4bf58dd8d48988d11b941735","category":"Pub","checkinsCount":233,"usersCount":110,"tipCount":4,"visitsCount":341,"tier":"","message":"","currency":"","rating":8.3},{"name":"The Brewery Tap","phone":"+441473225501","twitter":"theipswichtap","address":"Cliff Rd","lat":52.04479963321827,"lng":1.164157637719442,"city_fetched":"Ipswich,UK","state":"Suffolk","country":"United Kingdom","canonicalUrl":"https://foursquare.com/v/the-brewery-tap/4b83c5fdf964a520e80f31e3","categoryId":"50327c8591d4c4b30a586d5d","category":"Brewery","checkinsCount":517,"usersCount":186,"tipCount":12,"visitsCount":630,"url":"http://thebrewerytap.org","tier":"","message":"","currency":"","rating":8.2},{"name":"Greyhound Public House","phone":"+441473252862","twitter":"thegreyhoundips","address":"9 Henley Road","lat":52.062359369871494,"lng":1.1511611938476562,"city_fetched":"Ipswich,UK","state":"Suffolk","country":"United Kingdom","canonicalUrl":"https://foursquare.com/v/greyhound-public-house/4b617949f964a520c5142ae3","categoryId":"4bf58dd8d48988d11b941735","category":"Pub","checkinsCount":1338,"usersCount":177,"tipCount":19,"visitsCount":1521,"url":"http://www.thegreyhoundipswich.com","tier":2,"message":"Moderate","currency":"£","rating":8.2},{"name":"The Lord Nelson","address":"97-107 Fore St","lat":52.053405,"lng":1.1608059499999999,"city_fetched":"Ipswich,UK","state":"Suffolk","country":"United Kingdom","canonicalUrl":"https://foursquare.com/v/the-lord-nelson/4c2259e19a67a593025adc87","categoryId":"4bf58dd8d48988d116941735","category":"Bar","checkinsCount":137,"usersCount":67,"tipCount":1,"visitsCount":137,"tier":"","message":"","currency":"","rating":7.8},{"name":"Steamboat Tavern","address":"New Cut West","lat":52.04918324947357,"lng":1.158857,"city_fetched":"Ipswich,UK","state":"Suffolk","country":"United Kingdom","canonicalUrl":"https://foursquare.com/v/steamboat-tavern/4c7ce09aa141b1f74a316c79","categoryId":"4bf58dd8d48988d11b941735","category":"Pub","checkinsCount":118,"usersCount":66,"tipCount":4,"visitsCount":177,"tier":"","message":"","currency":"","rating":7.8},{"name":"The Thomas Wolsey","address":"St Peters Street","lat":52.054298,"lng":1.153141,"city_fetched":"Ipswich,UK","state":"Suffolk","country":"United Kingdom","canonicalUrl":"https://foursquare.com/v/the-thomas-wolsey/4ed91ee7f5b921398719e967","categoryId":"4bf58dd8d48988d116941735","category":"Bar","checkinsCount":257,"usersCount":86,"tipCount":4,"visitsCount":297,"tier":"","message":"","currency":"","rating":7.7},{"name":"Waterfront Bar & Brasserie","phone":"+441473226082","address":"15 Regatta Quay","lat":52.052311974786114,"lng":1.1580699055348151,"city_fetched":"Ipswich,UK","state":"Suffolk","country":"United Kingdom","canonicalUrl":"https://foursquare.com/v/waterfront-bar--brasserie/4bf5328cff90c9b6720a5628","categoryId":"4bf58dd8d48988d116941735","category":"Bar","checkinsCount":199,"usersCount":105,"tipCount":8,"visitsCount":203,"url":"http://www.waterfrontbistroipswich.co.uk","tier":"","message":"","currency":"","rating":7.7},{"name":"Mannings","phone":"+441473254170","address":"8 Cornhill","lat":52.057985,"lng":1.1524486541748047,"city_fetched":"Ipswich,UK","state":"Suffolk","country":"United Kingdom","canonicalUrl":"https://foursquare.com/v/mannings/4b5f31aef964a52064ac29e3","categoryId":"4bf58dd8d48988d11b941735","category":"Pub","checkinsCount":189,"usersCount":111,"tipCount":5,"visitsCount":189,"tier":"","message":"","currency":"","rating":7.6},{"name":"St Jude's Brewery Tavern","phone":"+447787468514","address":"60 St Matthew's Street","lat":52.06018411875883,"lng":1.1467293172663298,"city_fetched":"Ipswich,UK","state":"Suffolk","country":"United Kingdom","canonicalUrl":"https://foursquare.com/v/st-judes-brewery-tavern/4d558f2558856dcb3a9f4b6d","categoryId":"4bf58dd8d48988d11b941735","category":"Pub","checkinsCount":204,"usersCount":36,"tipCount":7,"visitsCount":220,"url":"http://www.stjudestavern.com","tier":"","message":"","currency":"","rating":7.6},{"name":"Briarbank Brewing Company","address":"70 Fore Street","lat":52.05325060056847,"lng":1.1603426792827676,"city_fetched":"Ipswich,UK","state":"Suffolk","country":"United Kingdom","canonicalUrl":"https://foursquare.com/v/briarbank-brewing-company/518946a47dd22e7a042d3377","categoryId":"50327c8591d4c4b30a586d5d","category":"Brewery","checkinsCount":217,"usersCount":71,"tipCount":6,"visitsCount":228,"url":"http://briarbank.org","tier":"","message":"","currency":"","rating":7.3},{"name":"Isaacs","phone":"+441473259952","address":"7 Wherry Quay","lat":52.052850042821554,"lng":1.1608117818832397,"city_fetched":"Ipswich,UK","state":"Suffolk","country":"United Kingdom","canonicalUrl":"https://foursquare.com/v/isaacs/4b9cdffaf964a5201c8036e3","categoryId":"4bf58dd8d48988d11b941735","category":"Pub","checkinsCount":1335,"usersCount":694,"tipCount":14,"visitsCount":1559,"tier":2,"message":"Moderate","currency":"£","rating":7},{"name":"The Cricketers (Wetherspoon)","phone":"+441473225910","address":"51 Crown St","lat":52.059422111955215,"lng":1.1547633585833266,"city_fetched":"Ipswich,UK","state":"Suffolk","country":"United Kingdom","canonicalUrl":"https://foursquare.com/v/the-cricketers-wetherspoon/4c87ab3f821e9eb030cd8d89","categoryId":"4bf58dd8d48988d11b941735","category":"Pub","checkinsCount":853,"usersCount":251,"tipCount":2,"visitsCount":965,"url":"http://www.jdwetherspoon.co.uk","tier":"","message":"","currency":"","rating":7},{"name":"Cherry Tree Inn","phone":"+441394384627","address":"73 Cumberland St","lat":52.089859,"lng":1.310373,"city_fetched":"Ipswich,UK","state":"Suffolk","country":"United Kingdom","canonicalUrl":"https://foursquare.com/v/cherry-tree-inn/4bb753eb46d4a593014ec7c0","categoryId":"4bf58dd8d48988d11b941735","category":"Pub","checkinsCount":202,"usersCount":98,"tipCount":8,"visitsCount":238,"tier":"","message":"","currency":"","rating":6.9},{"name":"The Mulberry Tree","address":"5 Woodbridge Rd, Ipswich, Suffolk IP4 2EA","lat":52.058287609235464,"lng":1.1591028331686288,"city_fetched":"Ipswich,UK","state":"Suffolk","country":"United Kingdom","canonicalUrl":"https://foursquare.com/v/the-mulberry-tree/4f7210f2e4b030300cec5a1e","categoryId":"4bf58dd8d48988d11b941735","category":"Pub","checkinsCount":233,"usersCount":52,"tipCount":4,"visitsCount":244,"tier":"","message":"","currency":"","rating":6.9},{"name":"Cock & Pye","phone":"+441473254213","address":"Upper Brook St.","lat":52.05725513359036,"lng":1.1566275482546886,"city_fetched":"Ipswich,UK","state":"Suffolk","country":"United Kingdom","canonicalUrl":"https://foursquare.com/v/cock--pye/4ba37b50f964a520cf4038e3","categoryId":"4bf58dd8d48988d11b941735","category":"Pub","checkinsCount":329,"usersCount":144,"tipCount":4,"visitsCount":335,"tier":"","message":"","currency":"","rating":6.6},{"name":"The Farmhouse","phone":"+441473611600","address":"St Isidores Road","lat":52.062424617731004,"lng":1.2513507071422798,"city_fetched":"Ipswich,UK","state":"Suffolk","country":"United Kingdom","canonicalUrl":"https://foursquare.com/v/the-farmhouse/4b2289ebf964a5209f4824e3","categoryId":"4bf58dd8d48988d11b941735","category":"Pub","checkinsCount":736,"usersCount":140,"tipCount":5,"visitsCount":811,"tier":"","message":"","currency":"","rating":6.6},{"name":"The Punch & Judy","address":"41 Grafton Way","lat":52.052706612298145,"lng":1.152409594155433,"city_fetched":"Ipswich,UK","state":"Suffolk","country":"United Kingdom","canonicalUrl":"https://foursquare.com/v/the-punch--judy/4b94e51df964a520ca8634e3","categoryId":"4bf58dd8d48988d11b941735","category":"Pub","checkinsCount":197,"usersCount":107,"tipCount":8,"visitsCount":204,"tier":"","message":"","currency":"","rating":6.4},{"name":"The Swan","phone":"+441473252485","address":"King Street","lat":52.0571959541936,"lng":1.1523038148880005,"city_fetched":"Ipswich,UK","state":"Suffolk","country":"United Kingdom","canonicalUrl":"https://foursquare.com/v/the-swan/4b9f5d76f964a5208a1e37e3","categoryId":"4bf58dd8d48988d11b941735","category":"Pub","checkinsCount":488,"usersCount":163,"tipCount":5,"visitsCount":492,"tier":"","message":"","currency":"","rating":6.2},{"name":"Wetherspoons","phone":"+441473210334","address":"10 Corn Hill","lat":52.05789682761076,"lng":1.1519220607461425,"city_fetched":"Ipswich,UK","state":"Suffolk","country":"United Kingdom","canonicalUrl":"https://foursquare.com/v/wetherspoons/4c87ab41821e9eb032cd8d89","categoryId":"4bf58dd8d48988d11b941735","category":"Pub","checkinsCount":139,"usersCount":41,"tipCount":1,"visitsCount":139,"url":"http://www.jdwetherspoon.co.uk","tier":"","message":"","currency":"","rating":6.2},{"name":"The Robert Ransome (Wetherspoon)","phone":"+441473341920","address":"Trafalgar House","lat":52.059225459146056,"lng":1.155088520936257,"city_fetched":"Ipswich,UK","state":"Suffolk","country":"United Kingdom","canonicalUrl":"https://foursquare.com/v/the-robert-ransome-wetherspoon/4c87ab40821e9eb031cd8d89","categoryId":"4bf58dd8d48988d11b941735","category":"Pub","checkinsCount":787,"usersCount":226,"tipCount":7,"visitsCount":854,"url":"http://www.jdwetherspoon.co.uk","tier":"","message":"","currency":"","rating":6},{"name":"The Raven","phone":"+441473718704","address":"1 Hening Ave.","lat":52.029759968077684,"lng":1.2001500415155182,"city_fetched":"Ipswich,UK","state":"Suffolk","country":"United Kingdom","canonicalUrl":"https://foursquare.com/v/the-raven/4c09477a009a0f47a87ce7bf","categoryId":"4bf58dd8d48988d11b941735","category":"Pub","checkinsCount":263,"usersCount":93,"tipCount":8,"visitsCount":266,"url":"http://www.ravenpub.co.uk","tier":"","message":"","currency":"","rating":6},{"name":"Oyster Reach (Beefeater)","phone":"+441473692372","twitter":"beefeatergrill","address":"Bourne Hill","lat":52.03312428844733,"lng":1.150212693856683,"city_fetched":"Ipswich,UK","state":"Suffolk","country":"United Kingdom","canonicalUrl":"https://foursquare.com/v/oyster-reach-beefeater/4bf817bc8d30d13ac9160018","categoryId":"4bf58dd8d48988d11b941735","category":"Pub","checkinsCount":214,"usersCount":124,"tipCount":2,"visitsCount":237,"url":"http://www.beefeater.co.uk","tier":"","message":"","currency":"","rating":5.9},{"name":"Liquid & Envy","address":"17 Grafton Way","lat":52.053356247506024,"lng":1.1506217622106252,"city_fetched":"Ipswich,UK","state":"Suffolk","country":"United Kingdom","canonicalUrl":"https://foursquare.com/v/liquid--envy/4b94e56bf964a520d88634e3","categoryId":"4bf58dd8d48988d11f941735","category":"Nightclub","checkinsCount":178,"usersCount":94,"tipCount":4,"visitsCount":178,"tier":"","message":"","currency":"","rating":5.8},{"name":"Brewers Fayre","phone":"+441473721683","address":"3 Augusta Close","lat":52.027075467193576,"lng":1.2067107177239467,"city_fetched":"Ipswich,UK","state":"Suffolk","country":"United Kingdom","canonicalUrl":"https://foursquare.com/v/brewers-fayre/4be459112468c928aca4fe42","categoryId":"4bf58dd8d48988d11b941735","category":"Pub","checkinsCount":65,"usersCount":33,"tipCount":1,"visitsCount":65,"tier":"","message":"","currency":"","rating":5.8},{"name":"The Douglas Bader","address":"Martlesham Sq","lat":52.06082341731835,"lng":1.2719358148662172,"city_fetched":"Ipswich,UK","state":"Suffolk","country":"United Kingdom","canonicalUrl":"https://foursquare.com/v/the-douglas-bader/4bee765235dc0f47aed93f5b","categoryId":"4bf58dd8d48988d11b941735","category":"Pub","checkinsCount":111,"usersCount":54,"tipCount":6,"visitsCount":125,"tier":"","message":"","currency":"","rating":5.7},{"name":"The Plough","phone":"+441473288005","address":"2 Dogs Head St","lat":52.05580294132233,"lng":1.155086,"city_fetched":"Ipswich,UK","state":"Suffolk","country":"United Kingdom","canonicalUrl":"https://foursquare.com/v/the-plough/4c533c9a06901b8d2116c149","categoryId":"4bf58dd8d48988d11b941735","category":"Pub","checkinsCount":241,"usersCount":104,"tipCount":4,"visitsCount":248,"url":"http://www.ploughipswich.co.uk","tier":"","message":"","currency":"","rating":5.6},{"name":"PJ McGintys","phone":"+441473251515","address":"15 Northgate Street","lat":52.059235,"lng":1.1561232805252075,"city_fetched":"Ipswich,UK","state":"Suffolk","country":"United Kingdom","canonicalUrl":"https://foursquare.com/v/pj-mcgintys/4b9e4b32f964a520e4d736e3","categoryId":"4bf58dd8d48988d11b941735","category":"Pub","checkinsCount":178,"usersCount":113,"tipCount":4,"visitsCount":180,"tier":"","message":"","currency":"","rating":5.5},{"name":"The Rep","phone":"+441473221361","address":"11 Tower Street","lat":52.05802985861794,"lng":1.1548119866799464,"city_fetched":"Ipswich,UK","state":"Suffolk","country":"United Kingdom","canonicalUrl":"https://foursquare.com/v/the-rep/4bc3121e461576b084167e32","categoryId":"4bf58dd8d48988d11b941735","category":"Pub","checkinsCount":127,"usersCount":88,"tipCount":5,"visitsCount":131,"tier":"","message":"","currency":"","rating":5.4},{"name":"The Royal George","lat":52.06934191344638,"lng":1.1817993944998015,"city_fetched":"Ipswich,UK","country":"United Kingdom","canonicalUrl":"https://foursquare.com/v/the-royal-george/4b6b0919f964a52038ee2be3","categoryId":"4bf58dd8d48988d11b941735","category":"Pub","checkinsCount":96,"usersCount":73,"tipCount":3,"visitsCount":98,"tier":"","message":"","currency":"","rating":5.3},{"name":"Shepherd & Dog Inn","phone":"+441473659210","address":"Felixstowe Rd, Nacton","lat":52.028184,"lng":1.231077,"city_fetched":"Ipswich,UK","state":"Suffolk","country":"United Kingdom","canonicalUrl":"https://foursquare.com/v/shepherd--dog-inn/4c3c5efc933b0f4776eae321","categoryId":"4bf58dd8d48988d11b941735","category":"Pub","checkinsCount":101,"usersCount":94,"tipCount":6,"visitsCount":136,"tier":"","message":"","currency":"","rating":5.2}]