[{"name":"The Grove","phone":"+441484430113","twitter":"thegrovehudds","address":"2 Spring Grove St.","lat":53.64421556318612,"lng":-1.789217194772729,"neighborhood":"Newsome","city_fetched":"Keighley,UK","country":"United Kingdom","canonicalUrl":"https://foursquare.com/v/the-grove/4bd1c319b221c9b65317d6d0","categoryId":"4bf58dd8d48988d11b941735","category":"Pub","checkinsCount":1199,"usersCount":307,"tipCount":19,"visitsCount":1370,"url":"http://www.groveinn.co.uk","tier":"","message":"","currency":"","rating":9.2},{"name":"Kirkstall Bridge Inn","phone":"+441132784044","twitter":"kirkstallbridge","address":"12 Bridge Rd","lat":53.81589253469875,"lng":-1.6066187048712235,"neighborhood":"Kirkstall","city_fetched":"Keighley,UK","state":"Leeds","country":"United Kingdom","canonicalUrl":"https://foursquare.com/v/kirkstall-bridge-inn/4bdc7343fed22d7f6b3758c9","categoryId":"4bf58dd8d48988d11b941735","category":"Pub","checkinsCount":586,"usersCount":218,"tipCount":7,"visitsCount":762,"url":"http://www.kirkstallbridge.co.uk","tier":"","message":"","currency":"","rating":9},{"name":"Midnight Bell","phone":"+441132445044","twitter":"themidnightbell","address":"101 Water Ln","lat":53.79155203,"lng":-1.551722,"neighborhood":"Holbeck Urban Village","city_fetched":"Keighley,UK","country":"United Kingdom","canonicalUrl":"https://foursquare.com/v/midnight-bell/4b7c14e0f964a520ca7b2fe3","categoryId":"4bf58dd8d48988d11b941735","category":"Pub","checkinsCount":1873,"usersCount":652,"tipCount":30,"visitsCount":2037,"url":"http://www.midnightbell.co.uk","tier":"","message":"","currency":"","rating":8.8},{"name":"Swan With Two Necks","address":"Pendleton","lat":53.852203554154016,"lng":-2.373004421309675,"city_fetched":"Keighley,UK","state":"Lancashire","country":"United Kingdom","canonicalUrl":"https://foursquare.com/v/swan-with-two-necks/4bbe2af9b42aef3b3d864bc3","categoryId":"4bf58dd8d48988d11b941735","category":"Pub","checkinsCount":197,"usersCount":62,"tipCount":9,"visitsCount":223,"tier":"","message":"","currency":"","rating":8.7},{"name":"Ten Devonshire Place","phone":"+441423202356","twitter":"10devonshirepl","address":"10 Devonshire Pl","lat":53.99762417329947,"lng":-1.5289500964135476,"neighborhood":"High Harrogate","city_fetched":"Keighley,UK","state":"North Yorkshire","country":"United Kingdom","canonicalUrl":"https://foursquare.com/v/ten-devonshire-place/5470c79d498e591c7c733cc9","categoryId":"4bf58dd8d48988d11b941735","category":"Pub","checkinsCount":105,"usersCount":56,"tipCount":3,"visitsCount":174,"url":"http://www.10devonshireplace.com","tier":"","message":"","currency":"","rating":8.6},{"name":"The Mustard Pot","phone":"+441132695699","address":"20 Stainbeck Lane","lat":53.828952363702165,"lng":-1.5398025512695312,"neighborhood":"Chapel Allerton","city_fetched":"Keighley,UK","state":"Leeds","country":"United Kingdom","canonicalUrl":"https://foursquare.com/v/the-mustard-pot/4b9132abf964a5206ea933e3","categoryId":"4bf58dd8d48988d11b941735","category":"Pub","checkinsCount":925,"usersCount":394,"tipCount":7,"visitsCount":1131,"tier":"","message":"","currency":"","rating":8.6},{"name":"Fanny's Ale House","phone":"+441274591419","twitter":"fannysalehouse","address":"63 Saltaire Rd.","lat":53.836112453926795,"lng":-1.787865631721659,"neighborhood":"Shipley","city_fetched":"Keighley,UK","country":"United Kingdom","canonicalUrl":"https://foursquare.com/v/fannys-ale-house/4b6dd119f964a520a4922ce3","categoryId":"4bf58dd8d48988d11b941735","category":"Pub","checkinsCount":1131,"usersCount":359,"tipCount":18,"visitsCount":1249,"url":"http://www.fannysalehouse.com","tier":"","message":"","currency":"","rating":8.6},{"name":"The Fleece","phone":"+441132565564","address":"116 Town St.","lat":53.81502875900979,"lng":-1.6702299955537117,"neighborhood":"Stanningley","city_fetched":"Keighley,UK","country":"United Kingdom","canonicalUrl":"https://foursquare.com/v/the-fleece/4c889d42a0ffb60c767d23c5","categoryId":"4bf58dd8d48988d11b941735","category":"Pub","checkinsCount":243,"usersCount":89,"tipCount":4,"visitsCount":386,"tier":"","message":"","currency":"","rating":8.5},{"name":"The Fighting Cock","phone":"+441274726907","address":"21-23, Preston St","lat":53.795518749432226,"lng":-1.770355573516507,"neighborhood":"City","city_fetched":"Keighley,UK","country":"United Kingdom","canonicalUrl":"https://foursquare.com/v/the-fighting-cock/4c8a36de542e9c74a61e8397","categoryId":"4bf58dd8d48988d11b941735","category":"Pub","checkinsCount":387,"usersCount":89,"tipCount":7,"visitsCount":427,"tier":"","message":"","currency":"","rating":8.4},{"name":"The Fox","twitter":"foxshipley","address":"41 Briggate","lat":53.834988,"lng":-1.774002,"neighborhood":"Shipley","city_fetched":"Keighley,UK","state":"Bradford","country":"United Kingdom","canonicalUrl":"https://foursquare.com/v/the-fox/52407a9a498e65df093fab37","categoryId":"4bf58dd8d48988d11b941735","category":"Pub","checkinsCount":255,"usersCount":63,"tipCount":4,"visitsCount":299,"tier":"","message":"","currency":"","rating":8.4},{"name":"New Inn","address":"Parson Lane","lat":53.87195978055373,"lng":-2.3936433360083216,"city_fetched":"Keighley,UK","state":"Lancashire","country":"United Kingdom","canonicalUrl":"https://foursquare.com/v/new-inn/4c39f2c81a38ef3bc4019321","categoryId":"4bf58dd8d48988d11b941735","category":"Pub","checkinsCount":921,"usersCount":63,"tipCount":8,"visitsCount":938,"tier":"","message":"","currency":"","rating":8.4},{"name":"The Old Bell Tavern","phone":"+441423507930","twitter":"markettowntavs","address":"6 Royal Parade","lat":53.9933,"lng":-1.545988,"city_fetched":"Keighley,UK","state":"North Yorkshire","country":"United Kingdom","canonicalUrl":"https://foursquare.com/v/the-old-bell-tavern/4af88723f964a5200b0e22e3","categoryId":"4bf58dd8d48988d11b941735","category":"Pub","checkinsCount":813,"usersCount":492,"tipCount":10,"visitsCount":1043,"tier":"","message":"","currency":"","rating":8.4},{"name":"The Woolly Sheep Inn","phone":"+441756700966","twitter":"woollysheepinn","address":"38 Sheep St","lat":53.9604990676067,"lng":-2.017750818085341,"city_fetched":"Keighley,UK","state":"North Yorkshire","country":"United Kingdom","canonicalUrl":"https://foursquare.com/v/the-woolly-sheep-inn/4baa8e59f964a52048743ae3","categoryId":"4bf58dd8d48988d11b941735","category":"Pub","checkinsCount":403,"usersCount":251,"tipCount":11,"visitsCount":451,"url":"http://woollysheepinn.co.uk","tier":"","message":"","currency":"","rating":8.4},{"name":"The Works","phone":"+441422834821","address":"12 Hollins Mill Lane","lat":53.70884995633531,"lng":-1.9127368927001953,"city_fetched":"Keighley,UK","country":"United Kingdom","canonicalUrl":"https://foursquare.com/v/the-works/4c3787e418e72d7f0fb616f5","categoryId":"4bf58dd8d48988d11b941735","category":"Pub","checkinsCount":318,"usersCount":136,"tipCount":4,"visitsCount":342,"url":"http://www.theworkssowerbybridge.co.uk","tier":"","message":"","currency":"","rating":8.3},{"name":"The Shibden Mill Inn","phone":"+441422365840","twitter":"shibdenmill","address":"Shibden Mill Fold","lat":53.741493,"lng":-1.847599,"city_fetched":"Keighley,UK","country":"United Kingdom","canonicalUrl":"https://foursquare.com/v/the-shibden-mill-inn/4be407e9d4f7c9b6748e2320","categoryId":"4bf58dd8d48988d11b941735","category":"Pub","checkinsCount":156,"usersCount":111,"tipCount":4,"visitsCount":174,"url":"http://www.shibdenmillinn.com","tier":"","message":"","currency":"","rating":8.3},{"name":"Al's Dime Bar","twitter":"alsdimebar","address":"10 North Parade","lat":53.796659,"lng":-1.755789,"neighborhood":"City","city_fetched":"Keighley,UK","state":"Bradford","country":"United Kingdom","canonicalUrl":"https://foursquare.com/alsdimebar","categoryId":"4bf58dd8d48988d118941735","category":"Dive Bar","checkinsCount":94,"usersCount":54,"tipCount":10,"visitsCount":105,"url":"http://www.alsdimebar.com","tier":"","message":"","currency":"","rating":8.3},{"name":"Friends of Ham (Ilkley)","phone":"+441943604344","address":"8 Wells Rd","lat":53.924167,"lng":-1.822762,"neighborhood":"Ilkley","city_fetched":"Keighley,UK","state":"Bradford","country":"United Kingdom","canonicalUrl":"https://foursquare.com/v/friends-of-ham-ilkley/55df058d498eb23a677a44b0","categoryId":"4bf58dd8d48988d116941735","category":"Bar","checkinsCount":53,"usersCount":50,"tipCount":2,"visitsCount":91,"url":"http://www.friendsofham.com/friends-of-ham-ilkley/","tier":"","message":"","currency":"","rating":8.2},{"name":"The Cow & Calf","phone":"+441943607335","address":"Hanging Stone Rd.","lat":53.915292,"lng":-1.797873,"neighborhood":"Ilkley","city_fetched":"Keighley,UK","country":"United Kingdom","canonicalUrl":"https://foursquare.com/v/the-cow--calf/4bc1c327abf49521066cc193","categoryId":"4bf58dd8d48988d11b941735","category":"Pub","checkinsCount":346,"usersCount":370,"tipCount":12,"visitsCount":471,"tier":"","message":"","currency":"","rating":8.2},{"name":"Blind Jacks","lat":54.00780659236548,"lng":-1.466996669769287,"city_fetched":"Keighley,UK","state":"North Yorkshire","country":"United Kingdom","canonicalUrl":"https://foursquare.com/v/blind-jacks/4b93d319f964a520895334e3","categoryId":"4bf58dd8d48988d11b941735","category":"Pub","checkinsCount":554,"usersCount":107,"tipCount":7,"visitsCount":558,"tier":"","message":"","currency":"","rating":8.2},{"name":"The Grouse Inn","phone":"+441535643073","address":"Harehills Lane, Oldfield","lat":53.8403,"lng":-1.9856169732346314,"neighborhood":"Keighley","city_fetched":"Keighley,UK","country":"United Kingdom","canonicalUrl":"https://foursquare.com/v/the-grouse-inn/4d20bacadd6a236aacd63938","categoryId":"4bf58dd8d48988d11b941735","category":"Pub","checkinsCount":52,"usersCount":56,"tipCount":4,"visitsCount":79,"url":"http://thegrouse.co.uk","tier":"","message":"","currency":"","rating":8.2},{"name":"The Cross Keys","phone":"+441132433711","address":"107 Water Lane","lat":53.791692720000114,"lng":-1.5525124341536305,"neighborhood":"Holbeck Urban Village","city_fetched":"Keighley,UK","country":"United Kingdom","canonicalUrl":"https://foursquare.com/v/the-cross-keys/4b47a5dcf964a520f03826e3","categoryId":"4bf58dd8d48988d11b941735","category":"Pub","checkinsCount":1095,"usersCount":550,"tipCount":26,"visitsCount":1270,"tier":"","message":"","currency":"","rating":8.2},{"name":"The Golden Fleece","phone":"+441274651743","address":"23 Whitehall Rd. East","lat":53.74768106917297,"lng":-1.6907956933189647,"neighborhood":"Birkenshaw","city_fetched":"Keighley,UK","country":"United Kingdom","canonicalUrl":"https://foursquare.com/v/the-golden-fleece/4cf177657bf3b60ceff05f7f","categoryId":"4bf58dd8d48988d11b941735","category":"Pub","checkinsCount":31,"usersCount":48,"tipCount":1,"visitsCount":126,"tier":"","message":"","currency":"","rating":8.2},{"name":"Delius Lived Next Door","phone":"+441274721672","address":"8-10 Claremont","lat":53.790314,"lng":-1.763187525,"neighborhood":"City","city_fetched":"Keighley,UK","country":"United Kingdom","canonicalUrl":"https://foursquare.com/v/delius-lived-next-door/4bdb13632a3a0f472e4aadb6","categoryId":"4bf58dd8d48988d116941735","category":"Bar","checkinsCount":503,"usersCount":126,"tipCount":9,"visitsCount":515,"url":"http://www.deliuslivednextdoor.co.uk","tier":"","message":"","currency":"","rating":8.1},{"name":"Coopers","phone":"+441943878835","twitter":"markettowntavs","address":"4-6 Otley Rd","lat":53.872504,"lng":-1.709326,"neighborhood":"Guiseley","city_fetched":"Keighley,UK","country":"United Kingdom","canonicalUrl":"https://foursquare.com/v/coopers/4bf2e4276991c9b6cea029e9","categoryId":"4bf58dd8d48988d11b941735","category":"Pub","checkinsCount":538,"usersCount":151,"tipCount":9,"visitsCount":629,"url":"http://www.mttcoopers.co.uk","tier":"","message":"","currency":"","rating":8},{"name":"The Sportsman","phone":"+447766131123","twitter":"thesportsmanhud","address":"1 St. Johns Rd.","lat":53.65035928436357,"lng":-1.7841501849094696,"neighborhood":"Huddersfield Town Centre","city_fetched":"Keighley,UK","country":"United Kingdom","canonicalUrl":"https://foursquare.com/v/the-sportsman/4c6ee8e9d97fa1437c62f1ca","categoryId":"4bf58dd8d48988d116941735","category":"Bar","checkinsCount":780,"usersCount":348,"tipCount":17,"visitsCount":993,"url":"http://www.undertheviaduct.com","tier":"","message":"","currency":"","rating":8},{"name":"Harrogate Tap","phone":"+441423501644","twitter":"harrogatetap","address":"Station Parade","lat":53.993028388911675,"lng":-1.5375712798709362,"city_fetched":"Keighley,UK","state":"North Yorkshire","country":"United Kingdom","canonicalUrl":"https://foursquare.com/v/harrogate-tap/52b351ad11d2f3f94a2440be","categoryId":"4bf58dd8d48988d11b941735","category":"Pub","checkinsCount":425,"usersCount":140,"tipCount":8,"visitsCount":455,"url":"http://harrogatetap.co.uk","tier":"","message":"","currency":"","rating":7.9},{"name":"The Emporium","phone":"+441200444174","twitter":"theempclitheroe","address":"More Lane","lat":53.86930373,"lng":-2.392449,"city_fetched":"Keighley,UK","state":"Lancashire","country":"United Kingdom","canonicalUrl":"https://foursquare.com/v/the-emporium/4beaa87462c0c928d50fe1d4","categoryId":"4bf58dd8d48988d123941735","category":"Wine Bar","checkinsCount":355,"usersCount":179,"tipCount":11,"visitsCount":396,"url":"http://www.theemporiumclitheroe.co.uk","tier":"","message":"","currency":"","rating":7.9},{"name":"The Fleece","phone":"+441943830491","address":"152-154 Main Street","lat":53.943785422807586,"lng":-1.8760993138991582,"neighborhood":"Addingham","city_fetched":"Keighley,UK","state":"Bradford","country":"United Kingdom","canonicalUrl":"https://foursquare.com/v/the-fleece/4c7bd7afdf08a1cd0a9fe15d","categoryId":"4bf58dd8d48988d11b941735","category":"Pub","checkinsCount":267,"usersCount":70,"tipCount":13,"visitsCount":267,"tier":"","message":"","currency":"","rating":7.8},{"name":"The Greyhound","phone":"+441132852427","address":"23 Tong Lane, Tong Village,","lat":53.77184827944671,"lng":-1.6653728485107422,"neighborhood":"Tong","city_fetched":"Keighley,UK","country":"United Kingdom","canonicalUrl":"https://foursquare.com/v/the-greyhound/4b8bb94cf964a52070a832e3","categoryId":"4bf58dd8d48988d11b941735","category":"Pub","checkinsCount":145,"usersCount":66,"tipCount":3,"visitsCount":164,"tier":"","message":"","currency":"","rating":7.8},{"name":"The Head of Steam","phone":"+441484454533","address":"St Georges Sq","lat":53.647994410370494,"lng":-1.7847384631105419,"neighborhood":"Huddersfield Town Centre","city_fetched":"Keighley,UK","country":"United Kingdom","canonicalUrl":"https://foursquare.com/v/the-head-of-steam/4b7ec50ef964a52009fe2fe3","categoryId":"4bf58dd8d48988d11b941735","category":"Pub","checkinsCount":1136,"usersCount":570,"tipCount":15,"visitsCount":1153,"url":"http://www.theheadofsteam.co.uk","tier":2,"message":"Moderate","currency":"Â£","rating":7.8},{"name":"The Library","phone":"+441132440794","address":"229 Woodhouse Ln.","lat":53.81079759022744,"lng":-1.5566765769553168,"neighborhood":"Hyde Park","city_fetched":"Keighley,UK","country":"United Kingdom","canonicalUrl":"https://foursquare.com/v/the-library/4b47a012f964a520e83726e3","categoryId":"4bf58dd8d48988d11b941735","category":"Pub","checkinsCount":1203,"usersCount":864,"tipCount":12,"visitsCount":1665,"tier":"","message":"","currency":"","rating":7.7},{"name":"Turnpike Inn at Rishworth Moor","phone":"+441422822789","twitter":"theturnpikeinn","address":"Oldham Road","lat":53.64375671421619,"lng":-1.9615258785543548,"city_fetched":"Keighley,UK","country":"United Kingdom","canonicalUrl":"https://foursquare.com/v/turnpike-inn-at-rishworth-moor/4bdd775d4ffaa59386796ff7","categoryId":"4bf58dd8d48988d11b941735","category":"Pub","checkinsCount":230,"usersCount":169,"tipCount":9,"visitsCount":264,"url":"http://turnpikeinn.com","tier":"","message":"","currency":"","rating":7.7},{"name":"the crescent","address":"brook street","lat":53.92593684157323,"lng":-1.8230438232421875,"neighborhood":"Ilkley","city_fetched":"Keighley,UK","country":"United Kingdom","canonicalUrl":"https://foursquare.com/v/the-crescent/4e0dee0a1fc79cade2238703","categoryId":"4bf58dd8d48988d11b941735","category":"Pub","checkinsCount":194,"usersCount":102,"tipCount":4,"visitsCount":195,"tier":"","message":"","currency":"","rating":7.7},{"name":"Canal Mills","lat":53.79637491229179,"lng":-1.5677820014064034,"city_fetched":"Keighley,UK","state":"Leeds","country":"United Kingdom","canonicalUrl":"https://foursquare.com/v/canal-mills/504959eaf470ab1aca7acdf4","categoryId":"4bf58dd8d48988d11f941735","category":"Nightclub","checkinsCount":99,"usersCount":142,"tipCount":1,"visitsCount":212,"tier":"","message":"","currency":"","rating":7.6},{"name":"The Old Unicorn (Wetherspoon)","phone":"+441132564465","address":"Stocks Hill, Town St","lat":53.81078786166617,"lng":-1.6272211074829102,"neighborhood":"Bramley","city_fetched":"Keighley,UK","country":"United Kingdom","canonicalUrl":"https://foursquare.com/v/the-old-unicorn-wetherspoon/4bb723ccf562ef3b9c0d3197","categoryId":"4bf58dd8d48988d11b941735","category":"Pub","checkinsCount":321,"usersCount":98,"tipCount":4,"visitsCount":409,"tier":"","message":"","currency":"","rating":7.6},{"name":"Sanctuary Burnley","phone":"+441282459595","address":"Cow lane","lat":53.78901555813945,"lng":-2.246532440185547,"city_fetched":"Keighley,UK","state":"Lancashire","country":"United Kingdom","canonicalUrl":"https://foursquare.com/v/sanctuary-burnley/4c5dc3947f661b8d96544c1c","categoryId":"4bf58dd8d48988d116941735","category":"Bar","checkinsCount":1800,"usersCount":83,"tipCount":14,"visitsCount":2026,"tier":"","message":"","currency":"","rating":7.6},{"name":"Stylus","phone":"+441133801342","address":"Leeds University Union","lat":53.806340539190344,"lng":-1.5561962127685547,"neighborhood":"Woodhouse","city_fetched":"Keighley,UK","country":"United Kingdom","canonicalUrl":"https://foursquare.com/v/stylus/4b6201baf964a52020302ae3","categoryId":"4bf58dd8d48988d11f941735","category":"Nightclub","checkinsCount":552,"usersCount":228,"tipCount":1,"visitsCount":557,"tier":"","message":"","currency":"","rating":7.5},{"name":"Bar T'at","phone":"+441943608888","twitter":"markettowntavs","address":"7 Cunliffe Road","lat":53.92514376075074,"lng":-1.8258956268526763,"neighborhood":"Ilkley","city_fetched":"Keighley,UK","country":"United Kingdom","canonicalUrl":"https://foursquare.com/v/bar-tat/4bb26e8b2397b713fc0037b3","categoryId":"4bf58dd8d48988d116941735","category":"Bar","checkinsCount":475,"usersCount":186,"tipCount":13,"visitsCount":512,"tier":"","message":"","currency":"","rating":7.5},{"name":"The Clothiers' Arms (Wetherspoon)","twitter":"jdwtweet","address":"56 High St.","lat":53.86600999061442,"lng":-1.6817982743051678,"neighborhood":"Yeadon","city_fetched":"Keighley,UK","country":"United Kingdom","canonicalUrl":"https://foursquare.com/v/the-clothiers-arms-wetherspoon/4c09909f6071a5932d2ede32","categoryId":"4bf58dd8d48988d11b941735","category":"Pub","checkinsCount":256,"usersCount":79,"tipCount":4,"visitsCount":260,"url":"http://www.jdwetherspoon.co.uk","tier":"","message":"","currency":"","rating":7.5},{"name":"The Myrtle Grove (Wetherspoon)","phone":"+441274568637","address":"141 Main St.","lat":53.84728821315337,"lng":-1.8373967271689002,"neighborhood":"Bingley","city_fetched":"Keighley,UK","country":"United Kingdom","canonicalUrl":"https://foursquare.com/v/the-myrtle-grove-wetherspoon/4c87aa55821e9eb056cc8d89","categoryId":"4bf58dd8d48988d11b941735","category":"Pub","checkinsCount":439,"usersCount":158,"tipCount":3,"visitsCount":478,"url":"http://www.jdwetherspoon.co.uk","tier":"","message":"","currency":"","rating":7.5},{"name":"The Rodley Barge","phone":"+441132574606","twitter":"therodleybarge","address":"182-184 Town St.","lat":53.823173,"lng":-1.662487,"neighborhood":"Rodley","city_fetched":"Keighley,UK","country":"United Kingdom","canonicalUrl":"https://foursquare.com/therodleybarge","categoryId":"4bf58dd8d48988d11b941735","category":"Pub","checkinsCount":837,"usersCount":121,"tipCount":3,"visitsCount":844,"url":"http://www.therodley-barge.co.uk","tier":"","message":"","currency":"","rating":7.5},{"name":"Pasha","phone":"+441274733484","twitter":"pasha","address":"20 Edderthorpe St","lat":53.79186556345805,"lng":-1.737767732280386,"neighborhood":"Bradford East","city_fetched":"Keighley,UK","country":"United Kingdom","canonicalUrl":"https://foursquare.com/v/pasha/4c4a39969c8d2d7ff2e53569","categoryId":"4bf58dd8d48988d119941735","category":"Hookah Bar","checkinsCount":136,"usersCount":127,"tipCount":6,"visitsCount":204,"url":"http://www.pashashisha.co.uk","tier":"","message":"","currency":"","rating":7.4},{"name":"The Boathouse Inn","phone":"+441274585690","address":"Victoria Rd.","lat":53.83984222129571,"lng":-1.7900848388671875,"neighborhood":"Shipley","city_fetched":"Keighley,UK","country":"United Kingdom","canonicalUrl":"https://foursquare.com/v/the-boathouse-inn/4c38670818e72d7f923918f5","categoryId":"4bf58dd8d48988d116941735","category":"Bar","checkinsCount":491,"usersCount":299,"tipCount":12,"visitsCount":578,"url":"http://www.theboathouseinn.co.uk","tier":"","message":"","currency":"","rating":7.4},{"name":"The Flying Duck","phone":"+441943609587","twitter":"flyingduckpub","address":"16 Church Street","lat":53.9263853792678,"lng":-1.8252861499786377,"neighborhood":"Ilkley","city_fetched":"Keighley,UK","country":"United Kingdom","canonicalUrl":"https://foursquare.com/v/the-flying-duck/5285f12911d27acf440520ac","categoryId":"4bf58dd8d48988d11b941735","category":"Pub","checkinsCount":96,"usersCount":53,"tipCount":4,"visitsCount":96,"tier":"","message":"","currency":"","rating":7.4},{"name":"The Hitching Post","phone":"+441274611169","address":"54 Leeds Rd.","lat":53.834525471323595,"lng":-1.7183694729687207,"neighborhood":"Bradford East","city_fetched":"Keighley,UK","country":"United Kingdom","canonicalUrl":"https://foursquare.com/v/the-hitching-post/4bdc75b9fed22d7ffe4258c9","categoryId":"4bf58dd8d48988d11b941735","category":"Pub","checkinsCount":166,"usersCount":80,"tipCount":4,"visitsCount":230,"url":"http://www.hitchingpostbradfordpub.co.uk","tier":"","message":"","currency":"","rating":7.4},{"name":"The Fleece","address":"61 Westgate","lat":53.904146908581374,"lng":-1.7004332137904044,"neighborhood":"Otley and Wharfedale","city_fetched":"Keighley,UK","state":"Leeds","country":"United Kingdom","canonicalUrl":"https://foursquare.com/v/the-fleece/4d83d49599b78cfa95dea91f","categoryId":"4bf58dd8d48988d11b941735","category":"Pub","checkinsCount":438,"usersCount":119,"tipCount":11,"visitsCount":471,"tier":"","message":"","currency":"","rating":7.4},{"name":"The Tempest Arms","phone":"+441282842450","address":"Elslack Ln","lat":53.94442285426097,"lng":-2.113109930358749,"city_fetched":"Keighley,UK","state":"North Yorkshire","country":"United Kingdom","canonicalUrl":"https://foursquare.com/v/the-tempest-arms/4baa4c69f964a5206a5c3ae3","categoryId":"4bf58dd8d48988d11b941735","category":"Pub","checkinsCount":203,"usersCount":162,"tipCount":7,"visitsCount":286,"tier":"","message":"","currency":"","rating":7.4},{"name":"The Stubbing Wharf","phone":"+441422844107","address":"King Street","lat":53.74083048834174,"lng":-2.027599811553955,"city_fetched":"Keighley,UK","state":"Calderdale","country":"United Kingdom","canonicalUrl":"https://foursquare.com/v/the-stubbing-wharf/4b8bd66ef964a520e7ad32e3","categoryId":"4bf58dd8d48988d11b941735","category":"Pub","checkinsCount":176,"usersCount":141,"tipCount":10,"visitsCount":244,"tier":"","message":"","currency":"","rating":7.4},{"name":"Assheton Arms","phone":"+441200441227","address":"Downham","lat":53.89445629681647,"lng":-2.3291883413122814,"city_fetched":"Keighley,UK","state":"Lancashire","country":"United Kingdom","canonicalUrl":"https://foursquare.com/v/assheton-arms/4be4a11d2457a5931b85aa15","categoryId":"4bf58dd8d48988d116941735","category":"Bar","checkinsCount":55,"usersCount":51,"tipCount":4,"visitsCount":69,"tier":"","message":"","currency":"","rating":7.4},{"name":"City Vaults","phone":"+441274739697","address":"33 Hustlergate","lat":53.794421597087975,"lng":-1.7526490055658028,"neighborhood":"City","city_fetched":"Keighley,UK","country":"United Kingdom","canonicalUrl":"https://foursquare.com/v/city-vaults/4b98048bf964a520632635e3","categoryId":"4bf58dd8d48988d11b941735","category":"Pub","checkinsCount":359,"usersCount":179,"tipCount":11,"visitsCount":371,"url":"http://www.cityvaults.co.uk","tier":"","message":"","currency":"","rating":7.4},{"name":"West End House","phone":"+441132786332","lat":53.81715230125699,"lng":-1.6020575937575283,"neighborhood":"Kirkstall","city_fetched":"Keighley,UK","state":"Leeds","country":"United Kingdom","canonicalUrl":"https://foursquare.com/v/west-end-house/4c08ed64bbc676b0ee3d47d5","categoryId":"4bf58dd8d48988d11b941735","category":"Pub","checkinsCount":492,"usersCount":161,"tipCount":9,"visitsCount":583,"url":"http://www.westendleeds.co.uk","tier":"","message":"","currency":"","rating":7.4},{"name":"Trio's Bar and Grill","phone":"+441132036090","address":"44-46 North Ln, Headingley","lat":53.82006601975598,"lng":-1.5810400917579501,"neighborhood":"Headingley","city_fetched":"Keighley,UK","country":"United Kingdom","canonicalUrl":"https://foursquare.com/v/trios-bar-and-grill/4b80824cf964a520a87830e3","categoryId":"4bf58dd8d48988d116941735","category":"Bar","checkinsCount":508,"usersCount":319,"tipCount":1,"visitsCount":537,"url":"http://www.arcinspirations.com/trio/","tier":"","message":"","currency":"","rating":7.4},{"name":"The Rat And Ratchet","phone":"+441484542400","address":"40 Chapel Hill","lat":53.64155948982311,"lng":-1.784977912902832,"neighborhood":"Huddersfield Town Centre","city_fetched":"Keighley,UK","country":"United Kingdom","canonicalUrl":"https://foursquare.com/v/the-rat-and-ratchet/4bdda4586198c9b6cb1511ff","categoryId":"4bf58dd8d48988d11b941735","category":"Pub","checkinsCount":710,"usersCount":237,"tipCount":10,"visitsCount":852,"tier":"","message":"","currency":"","rating":7.3},{"name":"The Old Peacock","phone":"+441132710997","address":"Elland Rd","lat":53.77698041598112,"lng":-1.5706323880042605,"neighborhood":"Elland Road","city_fetched":"Keighley,UK","country":"United Kingdom","canonicalUrl":"https://foursquare.com/v/the-old-peacock/4bc368b5f8219c74e20bb610","categoryId":"4bf58dd8d48988d11b941735","category":"Pub","checkinsCount":389,"usersCount":134,"tipCount":3,"visitsCount":401,"tier":"","message":"","currency":"","rating":7.3},{"name":"The Thatch and Thistle","twitter":"lancashireroads","address":"Scotland Rd","lat":53.843303626625854,"lng":-2.22052100463581,"city_fetched":"Keighley,UK","state":"Lancashire","country":"United Kingdom","canonicalUrl":"https://foursquare.com/v/the-thatch-and-thistle/4b368deff964a520da3725e3","categoryId":"4bf58dd8d48988d11b941735","category":"Pub","checkinsCount":531,"usersCount":151,"tipCount":10,"visitsCount":612,"tier":"","message":"","currency":"","rating":7.3},{"name":"The Fat Badger","phone":"+441423505681","twitter":"fatbadgerpub","address":"Cold Bath Rd","lat":53.99239,"lng":-1.5459,"city_fetched":"Keighley,UK","state":"North Yorkshire","country":"United Kingdom","canonicalUrl":"https://foursquare.com/v/the-fat-badger/4dd6dcb28877f1150fdb7289","categoryId":"4bf58dd8d48988d11b941735","category":"Pub","checkinsCount":651,"usersCount":438,"tipCount":12,"visitsCount":827,"url":"http://www.thefatbadger.co.uk","tier":"","message":"","currency":"","rating":7.3},{"name":"Fox And Goose","phone":"+441422648052","twitter":"hebdenfox","address":"7 Heptonstall Rd","lat":53.741898443116675,"lng":-2.021248493030583,"city_fetched":"Keighley,UK","state":"Calderdale","country":"United Kingdom","canonicalUrl":"https://foursquare.com/v/fox-and-goose/4c1285a67f7f2d7fe775dd68","categoryId":"4bf58dd8d48988d11b941735","category":"Pub","checkinsCount":320,"usersCount":53,"tipCount":9,"visitsCount":331,"url":"http://www.foxandgoose.org","tier":"","message":"","currency":"","rating":7.3},{"name":"Montey's Rock Cafe","phone":"+441423526652","address":"3 The Ginnel","lat":53.99356918462436,"lng":-1.543918085365077,"city_fetched":"Keighley,UK","state":"North Yorkshire","country":"United Kingdom","canonicalUrl":"https://foursquare.com/v/monteys-rock-cafe/4bf18b8fd39ad13a615daa0e","categoryId":"4bf58dd8d48988d116941735","category":"Bar","checkinsCount":527,"usersCount":174,"tipCount":12,"visitsCount":542,"url":"http://www.monteys.com","tier":"","message":"","currency":"","rating":7.2},{"name":"Moorlands Inn","phone":"+441422248943","address":"Keighley Rd.","lat":53.766394867766536,"lng":-1.8953561782836914,"city_fetched":"Keighley,UK","country":"United Kingdom","canonicalUrl":"https://foursquare.com/v/moorlands-inn/4c7bdff272ccef3b60f76132","categoryId":"4bf58dd8d48988d11b941735","category":"Pub","checkinsCount":142,"usersCount":87,"tipCount":8,"visitsCount":158,"tier":"","message":"","currency":"","rating":7.2},{"name":"Revolution","phone":"+441423858815","address":"Royal Baths","lat":53.99389528585396,"lng":-1.5445232391357422,"city_fetched":"Keighley,UK","state":"North Yorkshire","country":"United Kingdom","canonicalUrl":"https://foursquare.com/v/revolution/4b90ffe9f964a520689e33e3","categoryId":"4bf58dd8d48988d11e941735","category":"Cocktail Bar","checkinsCount":424,"usersCount":166,"tipCount":8,"visitsCount":425,"tier":"","message":"","currency":"","rating":7.2},{"name":"The Warehouse","phone":"+441132343535","address":"19 - 21 Somers Street","lat":53.79883473746455,"lng":-1.553614964737341,"neighborhood":"Financial Quarter","city_fetched":"Keighley,UK","country":"United Kingdom","canonicalUrl":"https://foursquare.com/v/the-warehouse/4bbf2b4bba9776b030a3fec8","categoryId":"4bf58dd8d48988d11f941735","category":"Nightclub","checkinsCount":156,"usersCount":102,"tipCount":0,"visitsCount":160,"tier":"","message":"","currency":"","rating":7.2},{"name":"Horse and Farrier","address":"7 Bridge St","lat":53.90674959103531,"lng":-1.6934596937825035,"neighborhood":"Otley and Wharfedale","city_fetched":"Keighley,UK","country":"United Kingdom","canonicalUrl":"https://foursquare.com/v/horse-and-farrier/4db0912ef7b1bd003acbafbd","categoryId":"4bf58dd8d48988d11b941735","category":"Pub","checkinsCount":381,"usersCount":83,"tipCount":7,"visitsCount":411,"tier":"","message":"","currency":"","rating":7.2},{"name":"Cricketers Arms","phone":"+441535669912","address":"23, Coney Ln.","lat":53.865582880873404,"lng":-1.9052888824866692,"neighborhood":"Keighley Central","city_fetched":"Keighley,UK","country":"United Kingdom","canonicalUrl":"https://foursquare.com/v/cricketers-arms/4c275edd5c5ca593aea047fe","categoryId":"4bf58dd8d48988d11b941735","category":"Pub","checkinsCount":133,"usersCount":55,"tipCount":4,"visitsCount":134,"url":"http://www.cricketersarmskeighley.co.uk","tier":"","message":"","currency":"","rating":7.2},{"name":"Boltmakers Arms","phone":"+441535661936","address":"117 East Parade","lat":53.86657892891087,"lng":-1.9046590077266496,"neighborhood":"Keighley Central","city_fetched":"Keighley,UK","country":"United Kingdom","canonicalUrl":"https://foursquare.com/v/boltmakers-arms/4d150d59e190721ee56b0c21","categoryId":"4bf58dd8d48988d11b941735","category":"Pub","checkinsCount":150,"usersCount":69,"tipCount":6,"visitsCount":164,"url":"http://www.boltmakers.co.uk","tier":"","message":"","currency":"","rating":7.2},{"name":"The Fox","phone":"+441943873024","address":"129 Bradford Rd","lat":53.89284138171922,"lng":-1.7320713134071481,"neighborhood":"Menston","city_fetched":"Keighley,UK","country":"United Kingdom","canonicalUrl":"https://foursquare.com/v/the-fox/4b8a83c1f964a5201b7032e3","categoryId":"4bf58dd8d48988d11b941735","category":"Pub","checkinsCount":190,"usersCount":139,"tipCount":4,"visitsCount":275,"url":"http://www.thefoxmenston.co.uk","tier":"","message":"","currency":"","rating":7.1},{"name":"Terrace","phone":"+441133801318","address":"Leeds University Union","lat":53.80648625666187,"lng":-1.5563571453094482,"neighborhood":"Woodhouse","city_fetched":"Keighley,UK","country":"United Kingdom","canonicalUrl":"https://foursquare.com/v/terrace/4b5ec1dcf964a520bf9729e3","categoryId":"4bf58dd8d48988d116941735","category":"Bar","checkinsCount":1891,"usersCount":508,"tipCount":20,"visitsCount":1902,"url":"http://www.leedsuniversityunion.org.uk/terrace/","tier":"","message":"","currency":"","rating":7.1},{"name":"The Winter Gardens (Wetherspoon)","phone":"+441423877010","address":"Unit 4 Royal Baths","lat":53.99406191710713,"lng":-1.5442052635426664,"city_fetched":"Keighley,UK","state":"North Yorkshire","country":"United Kingdom","canonicalUrl":"https://foursquare.com/v/the-winter-gardens-wetherspoon/4bb914af53649c74f2b047fb","categoryId":"4bf58dd8d48988d11b941735","category":"Pub","checkinsCount":1836,"usersCount":741,"tipCount":17,"visitsCount":2124,"url":"http://www.jdwetherspoon.co.uk","tier":"","message":"","currency":"","rating":7.1},{"name":"The Regent","phone":"+441132939395","address":"15-17 Regent Street","lat":53.83035807423972,"lng":-1.5365731716156006,"neighborhood":"Chapel Allerton","city_fetched":"Keighley,UK","country":"United Kingdom","canonicalUrl":"https://foursquare.com/v/the-regent/4b75b233f964a520af1d2ee3","categoryId":"4bf58dd8d48988d11b941735","category":"Pub","checkinsCount":653,"usersCount":182,"tipCount":10,"visitsCount":766,"tier":"","message":"","currency":"","rating":7.1},{"name":"The Deer Park","phone":"+441132463211","twitter":"deerparkleeds","address":"68 Street Lane","lat":53.84435,"lng":-1.508961,"neighborhood":"Roundhay","city_fetched":"Keighley,UK","country":"United Kingdom","canonicalUrl":"https://foursquare.com/v/the-deer-park/4b6888b9f964a520637e2be3","categoryId":"4bf58dd8d48988d11b941735","category":"Pub","checkinsCount":493,"usersCount":180,"tipCount":12,"visitsCount":525,"url":"http://www.deerparkleeds.co.uk","tier":"","message":"","currency":"","rating":7.1},{"name":"Wyke Lion","phone":"+441274674756","address":"Bradford Rd.","lat":53.73084676477518,"lng":-1.777075693280156,"neighborhood":"Wyke","city_fetched":"Keighley,UK","country":"United Kingdom","canonicalUrl":"https://foursquare.com/v/wyke-lion/4bb88562cf2fc9b6e7969f02","categoryId":"4bf58dd8d48988d11b941735","category":"Pub","checkinsCount":170,"usersCount":155,"tipCount":2,"visitsCount":251,"url":"http://www.vintageinn.co.uk/thewykelionbradford/","tier":"","message":"","currency":"","rating":7.1},{"name":"The Roundhay Fox","phone":"+441132693352","address":"Princes Ave.","lat":53.839625,"lng":-1.5043155,"neighborhood":"Roundhay","city_fetched":"Keighley,UK","state":"Leeds","country":"United Kingdom","canonicalUrl":"https://foursquare.com/v/the-roundhay-fox/4b812f59f964a520b79930e3","categoryId":"4bf58dd8d48988d11b941735","category":"Pub","checkinsCount":736,"usersCount":452,"tipCount":12,"visitsCount":854,"url":"http://www.vintageinn.co.uk/theroundhayfoxleeds","tier":"","message":"","currency":"","rating":7},{"name":"The Firehouse","phone":"+441422832586","twitter":"firehousesb","address":"7 Town Hall St","lat":53.708505513520585,"lng":-1.9118602742587825,"city_fetched":"Keighley,UK","country":"United Kingdom","canonicalUrl":"https://foursquare.com/v/the-firehouse/4be1df61ae55a59307d45b62","categoryId":"4bf58dd8d48988d11b941735","category":"Pub","checkinsCount":354,"usersCount":85,"tipCount":3,"visitsCount":371,"url":"http://www.firehouserestaurant.co.uk","tier":"","message":"","currency":"","rating":7},{"name":"Woodies Craft Ale House","phone":"+441132784393","address":"104 Otley Rd.","lat":53.828058,"lng":-1.583077,"city_fetched":"Keighley,UK","country":"United Kingdom","canonicalUrl":"https://foursquare.com/v/woodies-craft-ale-house/4b76993df964a520ca532ee3","categoryId":"4bf58dd8d48988d11b941735","category":"Pub","checkinsCount":695,"usersCount":437,"tipCount":3,"visitsCount":1000,"tier":"","message":"","currency":"","rating":7},{"name":"The Junction","phone":"+441943463233","address":"44 Bondgate","lat":53.90400947677477,"lng":-1.6912508010864258,"neighborhood":"Otley and Wharfedale","city_fetched":"Keighley,UK","country":"United Kingdom","canonicalUrl":"https://foursquare.com/v/the-junction/4ba56465f964a520950239e3","categoryId":"4bf58dd8d48988d11b941735","category":"Pub","checkinsCount":717,"usersCount":109,"tipCount":13,"visitsCount":758,"tier":"","message":"","currency":"","rating":7},{"name":"The Yard","phone":"+441943609606","twitter":"yardilkley","address":"30 Brook St","lat":53.92567150714699,"lng":-1.823129653930664,"neighborhood":"Ilkley","city_fetched":"Keighley,UK","country":"United Kingdom","canonicalUrl":"https://foursquare.com/v/the-yard/4bdc8abffed22d7f92a758c9","categoryId":"4bf58dd8d48988d116941735","category":"Bar","checkinsCount":166,"usersCount":90,"tipCount":3,"visitsCount":168,"url":"http://www.workhardplayyard.co.uk","tier":"","message":"","currency":"","rating":7},{"name":"Sir Titus Salt (Wetherspoon)","phone":"+441274732853","address":"Unit B, Windsor Baths","lat":53.79114512956937,"lng":-1.758338212966919,"neighborhood":"City","city_fetched":"Keighley,UK","country":"United Kingdom","canonicalUrl":"https://foursquare.com/v/sir-titus-salt-wetherspoon/4b659978f964a520eef52ae3","categoryId":"4bf58dd8d48988d11b941735","category":"Pub","checkinsCount":1128,"usersCount":481,"tipCount":10,"visitsCount":1378,"url":"http://www.jdwetherspoon.co.uk","tier":"","message":"","currency":"","rating":7},{"name":"The Barum Top Inn (Wetherspoon)","phone":"+441422300488","address":"17 Rawson St.","lat":53.72164381820466,"lng":-1.8626976013183594,"city_fetched":"Keighley,UK","country":"United Kingdom","canonicalUrl":"https://foursquare.com/v/the-barum-top-inn-wetherspoon/4c87ab17821e9eb00acd8d89","categoryId":"4bf58dd8d48988d11b941735","category":"Pub","checkinsCount":1478,"usersCount":239,"tipCount":2,"visitsCount":1644,"url":"http://www.jdwetherspoon.co.uk","tier":"","message":"","currency":"","rating":7},{"name":"The Kestrel","phone":"+441423797979","address":"Wetherby Road, Plompton","lat":53.98060674635534,"lng":-1.476004384809404,"city_fetched":"Keighley,UK","state":"North Yorkshire","country":"United Kingdom","canonicalUrl":"https://foursquare.com/v/the-kestrel/4b9615fff964a5204bbc34e3","categoryId":"4bf58dd8d48988d11b941735","category":"Pub","checkinsCount":179,"usersCount":164,"tipCount":3,"visitsCount":248,"tier":"","message":"","currency":"","rating":6.9},{"name":"Top Brink Inn","lat":53.708149,"lng":-2.067247,"city_fetched":"Keighley,UK","state":"Calderdale","country":"United Kingdom","canonicalUrl":"https://foursquare.com/v/top-brink-inn/4bb9d20553649c74674348fb","categoryId":"4bf58dd8d48988d11b941735","category":"Pub","checkinsCount":107,"usersCount":79,"tipCount":7,"visitsCount":141,"tier":"","message":"","currency":"","rating":6.9},{"name":"The Crown (Wetherspoon)","phone":"+441423862122","address":"71-75 High Street","lat":54.00899827480316,"lng":-1.468696575527405,"city_fetched":"Keighley,UK","state":"North Yorkshire","country":"United Kingdom","canonicalUrl":"https://foursquare.com/v/the-crown-wetherspoon/4d73ccefd976236a99601979","categoryId":"4bf58dd8d48988d11b941735","category":"Pub","checkinsCount":133,"usersCount":78,"tipCount":2,"visitsCount":181,"tier":"","message":"","currency":"","rating":6.9},{"name":"Pendle Inn","phone":"+441282614808","twitter":"pendleinn","address":"The Bullion","lat":53.85936153222957,"lng":-2.272612314217722,"city_fetched":"Keighley,UK","state":"Lancashire","country":"United Kingdom","canonicalUrl":"https://foursquare.com/v/pendle-inn/4bc20356f8219c747318b410","categoryId":"4bf58dd8d48988d11b941735","category":"Pub","checkinsCount":110,"usersCount":50,"tipCount":1,"visitsCount":127,"url":"http://www.pendle-inn.co.uk","tier":"","message":"","currency":"","rating":6.9},{"name":"Vox","address":"10 Wood St","lat":53.647423,"lng":-1.782296,"neighborhood":"Huddersfield Town Centre","city_fetched":"Keighley,UK","state":"Kirklees","country":"United Kingdom","canonicalUrl":"https://foursquare.com/v/vox/4b76bebaf964a520305c2ee3","categoryId":"4bf58dd8d48988d116941735","category":"Bar","checkinsCount":835,"usersCount":225,"tipCount":13,"visitsCount":838,"tier":"","message":"","currency":"","rating":6.9},{"name":"The Crossed Shuttle (Wetherspoon)","phone":"+441132909620","twitter":"jdwtweet","address":"11 Manor House St.","lat":53.79651117381642,"lng":-1.6616597406490825,"neighborhood":"South Pudsey","city_fetched":"Keighley,UK","country":"United Kingdom","canonicalUrl":"https://foursquare.com/v/the-crossed-shuttle-wetherspoon/4dc290dbfa7608e86fdbbc65","categoryId":"4bf58dd8d48988d11b941735","category":"Pub","checkinsCount":384,"usersCount":128,"tipCount":3,"visitsCount":452,"url":"http://www.jdwetherspoon.co.uk","tier":"","message":"","currency":"","rating":6.9},{"name":"The Alexandra","phone":"+441423564976","address":"11 Prospect Place","lat":53.991019114089355,"lng":-1.5409183502197266,"city_fetched":"Keighley,UK","state":"North Yorkshire","country":"United Kingdom","canonicalUrl":"https://foursquare.com/v/the-alexandra/4bf2f00a354e9c7400852602","categoryId":"4bf58dd8d48988d11b941735","category":"Pub","checkinsCount":866,"usersCount":268,"tipCount":7,"visitsCount":896,"tier":"","message":"","currency":"","rating":6.9},{"name":"Revolution","phone":"+441484546243","twitter":"revolutionbars","address":"28 Cross Church St.","lat":53.64632384309895,"lng":-1.780414909894285,"neighborhood":"Huddersfield Town Centre","city_fetched":"Keighley,UK","country":"United Kingdom","canonicalUrl":"https://foursquare.com/v/revolution/4bc71a66af07a593e37f7e2d","categoryId":"4bf58dd8d48988d11e941735","category":"Cocktail Bar","checkinsCount":706,"usersCount":294,"tipCount":11,"visitsCount":791,"tier":"","message":"","currency":"","rating":6.9},{"name":"The Fox & Newt","address":"9 Burley Street","lat":53.800249,"lng":-1.559538,"neighborhood":"Hyde Park","city_fetched":"Keighley,UK","state":"Leeds","country":"United Kingdom","canonicalUrl":"https://foursquare.com/v/the-fox--newt/4b56b734f964a5205f1928e3","categoryId":"4bf58dd8d48988d11b941735","category":"Pub","checkinsCount":554,"usersCount":184,"tipCount":11,"visitsCount":592,"tier":"","message":"","currency":"","rating":6.8},{"name":"The Old Ball","address":"Horsforth","lat":53.84626181648476,"lng":-1.63462,"neighborhood":"Horsforth","city_fetched":"Keighley,UK","state":"Leeds","country":"United Kingdom","canonicalUrl":"https://foursquare.com/v/the-old-ball/4ba626aef964a5205b3739e3","categoryId":"4bf58dd8d48988d11b941735","category":"Pub","checkinsCount":414,"usersCount":192,"tipCount":5,"visitsCount":498,"tier":"","message":"","currency":"","rating":6.8},{"name":"Kobe","phone":"+441132588439","address":"106-108 New Road Side","lat":53.83226714195705,"lng":-1.6421132234505038,"neighborhood":"Horsforth","city_fetched":"Keighley,UK","state":"Leeds","country":"United Kingdom","canonicalUrl":"https://foursquare.com/v/kobe/4bdd7067645e0f47767b6b19","categoryId":"4bf58dd8d48988d116941735","category":"Bar","checkinsCount":484,"usersCount":283,"tipCount":8,"visitsCount":650,"url":"http://www.arcinspirations.com/kobe/","tier":"","message":"","currency":"","rating":6.8},{"name":"The Hop","phone":"+441274582111","twitter":"thehopsaltaire","address":"199 Bingley Rd.","lat":53.835624284383854,"lng":-1.7949132929948826,"neighborhood":"Shipley","city_fetched":"Keighley,UK","country":"United Kingdom","canonicalUrl":"https://foursquare.com/v/the-hop/4bb8966bb35776b0d503c901","categoryId":"4bf58dd8d48988d116941735","category":"Bar","checkinsCount":891,"usersCount":336,"tipCount":11,"visitsCount":1119,"url":"http://theoldtramshed.com","tier":"","message":"","currency":"","rating":6.8},{"name":"The Warehouse","phone":"+441484511698","twitter":"warehousehudds","address":"12 Zetland St","lat":53.6449978,"lng":-1.77943725,"neighborhood":"Huddersfield Town Centre","city_fetched":"Keighley,UK","country":"United Kingdom","canonicalUrl":"https://foursquare.com/warehousehudds","categoryId":"4bf58dd8d48988d116941735","category":"Bar","checkinsCount":1757,"usersCount":300,"tipCount":4,"visitsCount":1857,"url":"http://www.screampubs.co.uk/thewarehousehuddersfield/","tier":"","message":"","currency":"","rating":6.8},{"name":"The Bowling Green (Wetherspoon)","phone":"+441943858980","address":"18 Bondgate","lat":53.904218062141844,"lng":-1.6928789019584656,"neighborhood":"Otley and Wharfedale","city_fetched":"Keighley,UK","state":"Leeds","country":"United Kingdom","canonicalUrl":"https://foursquare.com/v/the-bowling-green-wetherspoon/4c54320b72cf0f4700bc20d4","categoryId":"4bf58dd8d48988d11b941735","category":"Pub","checkinsCount":836,"usersCount":210,"tipCount":7,"visitsCount":869,"url":"http://www.jdwetherspoon.co.uk","tier":"","message":"","currency":"","rating":6.8},{"name":"The Yorkshire Rose","phone":"+441484425881","address":"217 Leeds Rd.","lat":53.654786222933986,"lng":-1.7758787137793313,"neighborhood":"Dalton","city_fetched":"Keighley,UK","country":"United Kingdom","canonicalUrl":"https://foursquare.com/v/the-yorkshire-rose/4cbdee22f50e224bfe6f07fc","categoryId":"4bf58dd8d48988d11b941735","category":"Pub","checkinsCount":414,"usersCount":229,"tipCount":9,"visitsCount":480,"url":"http://www.yorkshirerosepub.co.uk","tier":"","message":"","currency":"","rating":6.7},{"name":"Coach and Horses","phone":"+441423561802","twitter":"coachhorsespub","address":"16 West Park","lat":53.98886696294539,"lng":-1.5405835640714691,"city_fetched":"Keighley,UK","state":"North Yorkshire","country":"United Kingdom","canonicalUrl":"https://foursquare.com/v/coach-and-horses/4bad2d9bf964a5202b363be3","categoryId":"4bf58dd8d48988d11b941735","category":"Pub","checkinsCount":256,"usersCount":135,"tipCount":7,"visitsCount":293,"url":"http://www.thecoachandhorses.net","tier":"","message":"","currency":"","rating":6.7},{"name":"Bar Maroc","lat":53.6429,"lng":-1.784523,"neighborhood":"Huddersfield Town Centre","city_fetched":"Keighley,UK","country":"United Kingdom","canonicalUrl":"https://foursquare.com/v/bar-maroc/4f7f537de4b0b58904e1f663","categoryId":"4bf58dd8d48988d116941735","category":"Bar","checkinsCount":132,"usersCount":85,"tipCount":3,"visitsCount":144,"tier":"","message":"","currency":"","rating":6.7},{"name":"The Old Steps","address":"26 York Place","lat":53.797317740614105,"lng":-1.5541791915893555,"neighborhood":"Financial Quarter","city_fetched":"Keighley,UK","country":"United Kingdom","canonicalUrl":"https://foursquare.com/v/the-old-steps/4b582761f964a5205c4c28e3","categoryId":"4bf58dd8d48988d116941735","category":"Bar","checkinsCount":171,"usersCount":57,"tipCount":7,"visitsCount":188,"tier":"","message":"","currency":"","rating":6.7},{"name":"The Pit","phone":"+441132698666","address":"8 Stainbeck Lane","lat":53.82907900622463,"lng":-1.5386009216308594,"neighborhood":"Chapel Allerton","city_fetched":"Keighley,UK","country":"United Kingdom","canonicalUrl":"https://foursquare.com/v/the-pit/4b64796df964a5202bb62ae3","categoryId":"4bf58dd8d48988d116941735","category":"Bar","checkinsCount":578,"usersCount":197,"tipCount":9,"visitsCount":615,"tier":"","message":"","currency":"","rating":6.7},{"name":"Circle Lounge","phone":"+441422362435","address":"59 Commercial St","lat":53.721052,"lng":-1.861361,"city_fetched":"Keighley,UK","state":"Calderdale","country":"United Kingdom","canonicalUrl":"https://foursquare.com/v/circle-lounge/4c65b2ceb80abe9aa003cbe5","categoryId":"4bf58dd8d48988d11e941735","category":"Cocktail Bar","checkinsCount":180,"usersCount":55,"tipCount":2,"visitsCount":185,"url":"http://www.thecirclelounge.com","tier":"","message":"","currency":"","rating":6.7},{"name":"Jubilee Refreshment Rooms","phone":"+441422648285","address":"Sowerby Bridge Station","lat":53.70768854943814,"lng":-1.9074638636007093,"city_fetched":"Keighley,UK","country":"United Kingdom","canonicalUrl":"https://foursquare.com/v/jubilee-refreshment-rooms/4c92009f2626a1cd5094366b","categoryId":"4bf58dd8d48988d116941735","category":"Bar","checkinsCount":164,"usersCount":56,"tipCount":4,"visitsCount":174,"url":"http://www.jubileerefreshmentrooms.co.uk","tier":"","message":"","currency":"","rating":6.7},{"name":"Suburban Bar","phone":"+441274569108","address":"Old Fire Station","lat":53.848907601424465,"lng":-1.8388902357542949,"neighborhood":"Bingley","city_fetched":"Keighley,UK","country":"United Kingdom","canonicalUrl":"https://foursquare.com/v/suburban-bar/4b392b41f964a5207a5725e3","categoryId":"4bf58dd8d48988d116941735","category":"Bar","checkinsCount":409,"usersCount":99,"tipCount":3,"visitsCount":412,"url":"http://www.suburbanbars.co.uk","tier":"","message":"","currency":"","rating":6.6},{"name":"The Pack Horse","phone":"+441132453980","address":"208 Woodhouse Ln.","lat":53.81037056652584,"lng":-1.555925634876346,"neighborhood":"Woodhouse","city_fetched":"Keighley,UK","country":"United Kingdom","canonicalUrl":"https://foursquare.com/v/the-pack-horse/4b47a2b9f964a520653826e3","categoryId":"4bf58dd8d48988d11b941735","category":"Pub","checkinsCount":516,"usersCount":242,"tipCount":5,"visitsCount":519,"tier":"","message":"","currency":"","rating":6.6},{"name":"The White House","phone":"+441132656446","address":"55 Wetherby Rd","lat":53.83037601451577,"lng":-1.496839317614781,"neighborhood":"Roundhay","city_fetched":"Keighley,UK","country":"United Kingdom","canonicalUrl":"https://foursquare.com/v/the-white-house/4b93cd43f964a520635234e3","categoryId":"4bf58dd8d48988d11b941735","category":"Pub","checkinsCount":660,"usersCount":186,"tipCount":6,"visitsCount":761,"tier":"","message":"","currency":"","rating":6.6},{"name":"The Red Lion Hotel & Manor House","phone":"+441756720204","twitter":"redlion.co.uk","address":"Burnsall","lat":54.04672364544128,"lng":-1.952017800251757,"city_fetched":"Keighley,UK","state":"North Yorkshire","country":"United Kingdom","canonicalUrl":"https://foursquare.com/v/the-red-lion-hotel--manor-house/4c4c4d12f7b49c7422c086c2","categoryId":"4bf58dd8d48988d11b941735","category":"Pub","checkinsCount":133,"usersCount":119,"tipCount":8,"visitsCount":158,"tier":"","message":"","currency":"","rating":6.6},{"name":"The Viper Rooms","phone":"+441423520567","address":"Unit 1, The Royal Baths","lat":53.99461187417422,"lng":-1.5441299078954105,"city_fetched":"Keighley,UK","country":"United Kingdom","canonicalUrl":"https://foursquare.com/v/the-viper-rooms/4c02ea05f56c2d7f2c2b1c66","categoryId":"4bf58dd8d48988d116941735","category":"Bar","checkinsCount":342,"usersCount":131,"tipCount":2,"visitsCount":344,"tier":"","message":"","currency":"","rating":6.6},{"name":"The Lister's Arms (Wetherspoon)","phone":"+441943811240","twitter":"jdwtweet","address":"The Moors Shopping Centre","lat":53.925638748674054,"lng":-1.8258422620998402,"neighborhood":"Ilkley","city_fetched":"Keighley,UK","country":"United Kingdom","canonicalUrl":"https://foursquare.com/v/the-listers-arms-wetherspoon/4deb9e4552b11677f0598a7e","categoryId":"4bf58dd8d48988d11b941735","category":"Pub","checkinsCount":264,"usersCount":122,"tipCount":2,"visitsCount":270,"url":"http://www.jdwetherspoon.co.uk","tier":"","message":"","currency":"","rating":6.6},{"name":"Lawnswood Arms","phone":"+441132671823","address":"Otley Rd.","lat":53.85662955,"lng":-1.5914754796976183,"neighborhood":"Cookridge","city_fetched":"Keighley,UK","country":"United Kingdom","canonicalUrl":"https://foursquare.com/v/lawnswood-arms/4b786127f964a520d5c92ee3","categoryId":"4bf58dd8d48988d11b941735","category":"Pub","checkinsCount":533,"usersCount":290,"tipCount":4,"visitsCount":641,"tier":"","message":"","currency":"","rating":6.6},{"name":"The Wallace Hartley (Wetherspoon)","phone":"+441282857990","address":"35-37 Church St.","lat":53.8567129,"lng":-2.1706092000000003,"city_fetched":"Keighley,UK","state":"Lancashire","country":"United Kingdom","canonicalUrl":"https://foursquare.com/v/the-wallace-hartley-wetherspoon/4b6dd9daf964a520a8952ce3","categoryId":"4bf58dd8d48988d11b941735","category":"Pub","checkinsCount":488,"usersCount":102,"tipCount":0,"visitsCount":506,"url":"http://www.jdwetherspoon.co.uk","tier":"","message":"","currency":"","rating":6.6},{"name":"The Pheonix","phone":"+441132424434","address":"88 Wellington St","lat":53.79679811022695,"lng":-1.5551233291625977,"neighborhood":"Financial Quarter","city_fetched":"Keighley,UK","country":"United Kingdom","canonicalUrl":"https://foursquare.com/v/the-pheonix/4b4ca634f964a520dbb826e3","categoryId":"4bf58dd8d48988d11b941735","category":"Pub","checkinsCount":482,"usersCount":254,"tipCount":9,"visitsCount":545,"tier":"","message":"","currency":"","rating":6.6},{"name":"The Owl","phone":"+441133455080","address":"Rodley lane","lat":53.82291429,"lng":-1.662848,"neighborhood":"Rodley","city_fetched":"Keighley,UK","country":"United Kingdom","canonicalUrl":"https://foursquare.com/v/the-owl/4be5434678e895219ba364ce","categoryId":"4bf58dd8d48988d11b941735","category":"Pub","checkinsCount":240,"usersCount":80,"tipCount":2,"visitsCount":281,"tier":"","message":"","currency":"","rating":6.5},{"name":"The Three Hulats (Wetherspoon)","phone":"+441132620524","address":"13 Harrogate Rd","lat":53.826103849999996,"lng":-1.5352874,"neighborhood":"Chapel Allerton","city_fetched":"Keighley,UK","country":"United Kingdom","canonicalUrl":"https://foursquare.com/v/the-three-hulats-wetherspoon/4b5b17a6f964a52048e328e3","categoryId":"4bf58dd8d48988d11b941735","category":"Pub","checkinsCount":1172,"usersCount":212,"tipCount":12,"visitsCount":1271,"url":"http://www.jdwetherspoon.co.uk","tier":"","message":"","currency":"","rating":6.5},{"name":"Off The Tap","phone":"+447960995267","address":"Burrage St","lat":53.84750709727695,"lng":-1.8372255287047399,"neighborhood":"Bingley","city_fetched":"Keighley,UK","country":"United Kingdom","canonicalUrl":"https://foursquare.com/v/off-the-tap/50103dede4b0871c8a78958c","categoryId":"4bf58dd8d48988d11b941735","category":"Pub","checkinsCount":366,"usersCount":36,"tipCount":9,"visitsCount":408,"url":"http://www.offthetap.co.uk","tier":"","message":"","currency":"","rating":6.5},{"name":"The Commercial Inn (Wetherspoon)","phone":"+441422317350","twitter":"jdwtweet","address":"31 Wharf St","lat":53.709574447455985,"lng":-1.9076788131028832,"city_fetched":"Keighley,UK","state":"Calderdale","country":"United Kingdom","canonicalUrl":"https://foursquare.com/v/the-commercial-inn-wetherspoon/52acabba11d248afff1d3f7b","categoryId":"4bf58dd8d48988d11b941735","category":"Pub","checkinsCount":262,"usersCount":106,"tipCount":2,"visitsCount":348,"url":"http://www.jdwetherspoon.co.uk","tier":"","message":"","currency":"","rating":6.5},{"name":"Old Spring Well Inn","phone":"+441423567035","address":"Otley Rd, Killinghall","lat":54.0074448551447,"lng":-1.5787949309833513,"city_fetched":"Keighley,UK","state":"North Yorkshire","country":"United Kingdom","canonicalUrl":"https://foursquare.com/v/old-spring-well-inn/51cd77b1498e7d6ae05403bf","categoryId":"4bf58dd8d48988d11b941735","category":"Pub","checkinsCount":81,"usersCount":100,"tipCount":4,"visitsCount":187,"tier":"","message":"","currency":"","rating":6.5},{"name":"The Picture House (Wetherspoon)","phone":"+441132528681","address":"117 Queen St","lat":53.744181565550186,"lng":-1.5996993203138086,"neighborhood":"South Morley","city_fetched":"Keighley,UK","state":"Leeds","country":"United Kingdom","canonicalUrl":"https://foursquare.com/v/the-picture-house-wetherspoon/547e357f498e0698c573457a","categoryId":"4bf58dd8d48988d11b941735","category":"Pub","checkinsCount":177,"usersCount":69,"tipCount":4,"visitsCount":266,"url":"http://www.jdwetherspoon.co.uk","tier":"","message":"","currency":"","rating":6.4},{"name":"The New Beehive Inn","phone":"+441274721784","address":"169-171 Westgate","lat":53.79717908178179,"lng":-1.7615657468981736,"neighborhood":"City","city_fetched":"Keighley,UK","country":"United Kingdom","canonicalUrl":"https://foursquare.com/v/the-new-beehive-inn/4bd1bccf5e0cce72d8e9a184","categoryId":"4bf58dd8d48988d11b941735","category":"Pub","checkinsCount":116,"usersCount":78,"tipCount":5,"visitsCount":137,"url":"http://www.newbeehiveinn.co.uk","tier":"","message":"","currency":"","rating":6.4},{"name":"Anchor Inn (Brewers Fayre)","phone":"+441756749666","address":"Hellifield Road","lat":53.98415171200518,"lng":-2.116363442491699,"city_fetched":"Keighley,UK","state":"North Yorkshire","country":"United Kingdom","canonicalUrl":"https://foursquare.com/v/anchor-inn-brewers-fayre/4bc9db9368f976b0a5f85d83","categoryId":"4bf58dd8d48988d11b941735","category":"Pub","checkinsCount":64,"usersCount":60,"tipCount":3,"visitsCount":83,"tier":"","message":"","currency":"","rating":6.3},{"name":"The Chemic Tavern","phone":"+441132457977","address":"9 Johnston Street","lat":53.814506,"lng":-1.55272,"neighborhood":"Woodhouse","city_fetched":"Keighley,UK","country":"United Kingdom","canonicalUrl":"https://foursquare.com/v/the-chemic-tavern/4b646f95f964a520f3b22ae3","categoryId":"4bf58dd8d48988d11b941735","category":"Pub","checkinsCount":101,"usersCount":71,"tipCount":3,"visitsCount":111,"tier":"","message":"","currency":"","rating":6.3},{"name":"The Fleece Inn","phone":"+441535642172","address":"67 Main St.","lat":53.8299387,"lng":-1.9544571,"neighborhood":"Keighley","city_fetched":"Keighley,UK","country":"United Kingdom","canonicalUrl":"https://foursquare.com/v/the-fleece-inn/4bcf69470ffdce723d72b2c0","categoryId":"4bf58dd8d48988d11b941735","category":"Pub","checkinsCount":200,"usersCount":133,"tipCount":3,"visitsCount":241,"url":"http://www.fleece-inn.co.uk","tier":"","message":"","currency":"","rating":6.3},{"name":"The Lord Darcy","lat":53.85624996660654,"lng":-1.5302591191893773,"neighborhood":"Alwoodley","city_fetched":"Keighley,UK","country":"United Kingdom","canonicalUrl":"https://foursquare.com/v/the-lord-darcy/4bed83e63372c92814be1114","categoryId":"4bf58dd8d48988d11b941735","category":"Pub","checkinsCount":394,"usersCount":196,"tipCount":4,"visitsCount":694,"tier":"","message":"","currency":"","rating":6.3},{"name":"The Box","phone":"+441132249266","twitter":"theboxbar","address":"8 Otley Rd","lat":53.82055699825287,"lng":-1.57677955,"neighborhood":"Headingley","city_fetched":"Keighley,UK","country":"United Kingdom","canonicalUrl":"https://foursquare.com/v/the-box/4b412ec5f964a520c8c225e3","categoryId":"4bf58dd8d48988d116941735","category":"Bar","checkinsCount":1127,"usersCount":720,"tipCount":12,"visitsCount":1374,"tier":"","message":"","currency":"","rating":6.3},{"name":"The Faversham","phone":"+441132431481","twitter":"thefaversham","address":"1-5 Springfield Mount","lat":53.80423461577882,"lng":-1.5573794130644807,"neighborhood":"Woodhouse","city_fetched":"Keighley,UK","country":"United Kingdom","canonicalUrl":"https://foursquare.com/v/the-faversham/4bd7760d09ecb713f5f5467c","categoryId":"4bf58dd8d48988d11f941735","category":"Nightclub","checkinsCount":522,"usersCount":416,"tipCount":6,"visitsCount":687,"url":"http://www.thefaversham.com","tier":"","message":"","currency":"","rating":6.3},{"name":"The Original Oak","phone":"+441132751322","twitter":"originaloak","address":"2 Otley Rd.","lat":53.81968109125171,"lng":-1.5758943557739258,"neighborhood":"Headingley","city_fetched":"Keighley,UK","country":"United Kingdom","canonicalUrl":"https://foursquare.com/v/the-original-oak/4b4118b1f964a5200fc125e3","categoryId":"4bf58dd8d48988d11b941735","category":"Pub","checkinsCount":1610,"usersCount":803,"tipCount":11,"visitsCount":1821,"url":"http://www.theoriginaloakleeds.co.uk","tier":"","message":"","currency":"","rating":6.3},{"name":"Banyan Bar","phone":"+441423538871","twitter":"banyanharrogate","address":"3-4 John Street","lat":53.991921092844855,"lng":-1.5408378839492798,"city_fetched":"Keighley,UK","state":"North Yorkshire","country":"United Kingdom","canonicalUrl":"https://foursquare.com/v/banyan-bar/4b9cd614f964a520ff7d36e3","categoryId":"4bf58dd8d48988d116941735","category":"Bar","checkinsCount":732,"usersCount":320,"tipCount":6,"visitsCount":763,"url":"http://arcinspirations.com/banyan-harrogate","tier":"","message":"","currency":"","rating":6.2},{"name":"The Duke Of Wellington","phone":"+441422360105","address":"30 Commercial St.","lat":53.721793710233605,"lng":-1.861119780852122,"city_fetched":"Keighley,UK","country":"United Kingdom","canonicalUrl":"https://foursquare.com/v/the-duke-of-wellington/50c37acfe4b0bde4a93a0002","categoryId":"4bf58dd8d48988d116941735","category":"Bar","checkinsCount":131,"usersCount":51,"tipCount":2,"visitsCount":132,"url":"http://www.thedukeofwellingtonhalifax.co.uk","tier":"","message":"","currency":"","rating":6.2},{"name":"The Silver Birch","phone":"+441274877632","address":"Centurion Way","lat":53.73576020455435,"lng":-1.72355243298359,"neighborhood":"Cleckheaton","city_fetched":"Keighley,UK","country":"United Kingdom","canonicalUrl":"https://foursquare.com/v/the-silver-birch/4f9ecb6ae4b008dde3728099","categoryId":"4bf58dd8d48988d11b941735","category":"Pub","checkinsCount":277,"usersCount":180,"tipCount":7,"visitsCount":424,"url":"http://www.silverbirchpubcleckheaton.co.uk","tier":"","message":"","currency":"","rating":6.2},{"name":"The Moorings","phone":"+441422833940","twitter":"themooringspub","address":"No.1 Warehouse","lat":53.70971017057406,"lng":-1.9039495836498572,"city_fetched":"Keighley,UK","country":"United Kingdom","canonicalUrl":"https://foursquare.com/v/the-moorings/4b9d24d9f964a5209e9336e3","categoryId":"4bf58dd8d48988d11b941735","category":"Pub","checkinsCount":570,"usersCount":197,"tipCount":7,"visitsCount":612,"url":"http://www.themooringspub.co.uk","tier":"","message":"","currency":"","rating":6.1},{"name":"The Station","phone":"+441943872061","address":"70 Otley Rd.","lat":53.87427091598511,"lng":-1.7135292291641235,"neighborhood":"Guiseley","city_fetched":"Keighley,UK","country":"United Kingdom","canonicalUrl":"https://foursquare.com/v/the-station/4c0027baf61ea5932a6beb13","categoryId":"4bf58dd8d48988d11b941735","category":"Pub","checkinsCount":188,"usersCount":103,"tipCount":0,"visitsCount":209,"tier":"","message":"","currency":"","rating":6},{"name":"VM Lounge","address":"Victoria Mills","lat":53.83851080624407,"lng":-1.7775016179548795,"neighborhood":"Shipley","city_fetched":"Keighley,UK","country":"United Kingdom","canonicalUrl":"https://foursquare.com/v/vm-lounge/4bc89ea414d79521d17169e9","categoryId":"4bf58dd8d48988d116941735","category":"Bar","checkinsCount":910,"usersCount":73,"tipCount":5,"visitsCount":910,"tier":"","message":"","currency":"","rating":6},{"name":"Stone Trough","phone":"+441133910933","address":"Harrogate Road","lat":53.85747525087714,"lng":-1.6793417930603027,"neighborhood":"Rawdon","city_fetched":"Keighley,UK","country":"United Kingdom","canonicalUrl":"https://foursquare.com/v/stone-trough/4bbb23d4935e9521dcca2890","categoryId":"4bf58dd8d48988d11b941735","category":"Pub","checkinsCount":303,"usersCount":74,"tipCount":6,"visitsCount":321,"tier":"","message":"","currency":"","rating":6},{"name":"The Devonshire (Wetherspoon)","phone":"+441756692590","address":"Newmarket St.","lat":53.960322527727214,"lng":-2.0155898391478346,"city_fetched":"Keighley,UK","state":"North Yorkshire","country":"United Kingdom","canonicalUrl":"https://foursquare.com/v/the-devonshire-wetherspoon/4c212fe3aa8e9c74b02df4d4","categoryId":"4bf58dd8d48988d11b941735","category":"Pub","checkinsCount":551,"usersCount":178,"tipCount":2,"visitsCount":575,"url":"http://www.jdwetherspoon.co.uk","tier":"","message":"","currency":"","rating":6},{"name":"The Richard Oastler (Wetherspoon)","phone":"+441484401756","twitter":"jdwbrighouse","address":"Bethel St.","lat":53.701515,"lng":-1.77989385,"city_fetched":"Keighley,UK","country":"United Kingdom","canonicalUrl":"https://foursquare.com/v/the-richard-oastler-wetherspoon/4c2cf20db34ad13a6421ecce","categoryId":"4bf58dd8d48988d11b941735","category":"Pub","checkinsCount":432,"usersCount":177,"tipCount":6,"visitsCount":478,"url":"http://www.jdwetherspoon.co.uk","tier":"","message":"","currency":"","rating":6},{"name":"The Cherry Tree (Wetherspoon)","phone":"+441484448190","address":"Pearl Assurance House","lat":53.647467913979796,"lng":-1.7825102806091309,"neighborhood":"Huddersfield Town Centre","city_fetched":"Keighley,UK","country":"United Kingdom","canonicalUrl":"https://foursquare.com/v/the-cherry-tree-wetherspoon/4b9beb77f964a520d63536e3","categoryId":"4bf58dd8d48988d11b941735","category":"Pub","checkinsCount":1048,"usersCount":366,"tipCount":5,"visitsCount":1075,"url":"http://www.jdwetherspoon.co.uk","tier":"","message":"","currency":"","rating":6},{"name":"Lord Rodney","phone":"+441535603053","address":"Church Green","lat":53.86503631655882,"lng":-1.9098293781280518,"neighborhood":"Keighley Central","city_fetched":"Keighley,UK","country":"United Kingdom","canonicalUrl":"https://foursquare.com/v/lord-rodney/4c698e9ecff29521892a185e","categoryId":"4bf58dd8d48988d11b941735","category":"Pub","checkinsCount":142,"usersCount":65,"tipCount":6,"visitsCount":142,"url":"http://www.lordrodney.co.uk","tier":"","message":"","currency":"","rating":6},{"name":"The Noble Comb (Fayre & Square)","phone":"+441274585770","address":"Otley Rd.","lat":53.835917133888245,"lng":-1.7751717567443848,"neighborhood":"Shipley","city_fetched":"Keighley,UK","country":"United Kingdom","canonicalUrl":"https://foursquare.com/v/the-noble-comb-fayre--square/4c0f8d35c6cf76b0236c8251","categoryId":"4bf58dd8d48988d11b941735","category":"Pub","checkinsCount":293,"usersCount":163,"tipCount":5,"visitsCount":310,"tier":"","message":"","currency":"","rating":5.9},{"name":"Britannia Hotel","lat":53.82220262676529,"lng":-1.4555202039606157,"neighborhood":"Swarcliffe","city_fetched":"Keighley,UK","country":"United Kingdom","canonicalUrl":"https://foursquare.com/v/britannia-hotel/4fe0d998e4b0a9a2af4442a7","categoryId":"4bf58dd8d48988d1d5941735","category":"Hotel Bar","checkinsCount":124,"usersCount":65,"tipCount":1,"visitsCount":149,"tier":"","message":"","currency":"","rating":5.9},{"name":"Napa","phone":"+441132371838","twitter":"napabarkitchen","address":"62 Street Ln","lat":53.84410875380143,"lng":-1.507798433303833,"neighborhood":"Roundhay","city_fetched":"Keighley,UK","country":"United Kingdom","canonicalUrl":"https://foursquare.com/v/napa/4b560ebdf964a52031fe27e3","categoryId":"4bf58dd8d48988d116941735","category":"Bar","checkinsCount":632,"usersCount":241,"tipCount":10,"visitsCount":681,"url":"http://arcinspirations.com/napa","tier":"","message":"","currency":"","rating":5.9},{"name":"Vesper Gate","lat":53.822906613349915,"lng":-1.6113102436065674,"neighborhood":"Kirkstall","city_fetched":"Keighley,UK","state":"Leeds","country":"United Kingdom","canonicalUrl":"https://foursquare.com/v/vesper-gate/4baf7b6cf964a5207b033ce3","categoryId":"4bf58dd8d48988d116941735","category":"Bar","checkinsCount":112,"usersCount":84,"tipCount":4,"visitsCount":141,"tier":"","message":"","currency":"","rating":5.9},{"name":"The Turls Green (Lloyds No. 1 Bar)","phone":"+441274718330","address":"Unit D Centenary Square","lat":53.79315417969535,"lng":-1.7546796798706055,"neighborhood":"City","city_fetched":"Keighley,UK","country":"United Kingdom","canonicalUrl":"https://foursquare.com/v/the-turls-green-lloyds-no-1-bar/4bd9b8b4d2cbc928128cd1ad","categoryId":"4bf58dd8d48988d11b941735","category":"Pub","checkinsCount":1128,"usersCount":454,"tipCount":8,"visitsCount":1142,"url":"http://www.jdwetherspoon.co.uk","tier":"","message":"","currency":"","rating":5.9},{"name":"Fox and Hounds","phone":"+441132678415","address":"Tinshill Road","lat":53.847611,"lng":-1.629531,"neighborhood":"Cookridge","city_fetched":"Keighley,UK","country":"United Kingdom","canonicalUrl":"https://foursquare.com/v/fox-and-hounds/4bd744d3e914a59387de50fa","categoryId":"4bf58dd8d48988d11b941735","category":"Pub","checkinsCount":405,"usersCount":118,"tipCount":4,"visitsCount":457,"tier":"","message":"","currency":"","rating":5.9},{"name":"Kith & Kin","phone":"+441132668618","address":"16 Stainbeck Lane","lat":53.8290030207571,"lng":-1.5392017364501953,"neighborhood":"Chapel Allerton","city_fetched":"Keighley,UK","state":"Leeds","country":"United Kingdom","canonicalUrl":"https://foursquare.com/v/kith--kin/4b771ef6f964a5207a7f2ee3","categoryId":"4bf58dd8d48988d116941735","category":"Bar","checkinsCount":584,"usersCount":196,"tipCount":10,"visitsCount":606,"tier":"","message":"","currency":"","rating":5.9},{"name":"The Dexter","lat":53.857437,"lng":-1.500994,"neighborhood":"Alwoodley","city_fetched":"Keighley,UK","country":"United Kingdom","canonicalUrl":"https://foursquare.com/v/the-dexter/4c7fdfced34ca143e91f1480","categoryId":"4bf58dd8d48988d11b941735","category":"Pub","checkinsCount":295,"usersCount":113,"tipCount":1,"visitsCount":473,"tier":"","message":"","currency":"","rating":5.9},{"name":"The Calverley Arms","phone":"+441132557771","address":"Calverley Lane","lat":53.82593258631064,"lng":-1.6800978250153773,"neighborhood":"Calverley","city_fetched":"Keighley,UK","country":"United Kingdom","canonicalUrl":"https://foursquare.com/v/the-calverley-arms/4c0f531ecd8eb713b2c7ef94","categoryId":"4bf58dd8d48988d11b941735","category":"Pub","checkinsCount":315,"usersCount":189,"tipCount":5,"visitsCount":377,"tier":"","message":"","currency":"","rating":5.9},{"name":"The Percy Shaw (Wetherspoon)","phone":"+441422339500","twitter":"jdwtweet","address":"Broad Street Plaza","lat":53.72492728591027,"lng":-1.8603807237385221,"city_fetched":"Keighley,UK","country":"United Kingdom","canonicalUrl":"https://foursquare.com/v/the-percy-shaw-wetherspoon/50cb67aee4b0af4455f0931e","categoryId":"4bf58dd8d48988d11b941735","category":"Pub","checkinsCount":557,"usersCount":165,"tipCount":3,"visitsCount":590,"url":"http://www.jdwetherspoon.co.uk","tier":"","message":"","currency":"","rating":5.9},{"name":"Brewers Fayre","phone":"+448701977038","address":"502 Bradford Road","lat":53.865398218669725,"lng":-1.855200859101433,"neighborhood":"Keighley","city_fetched":"Keighley,UK","country":"United Kingdom","canonicalUrl":"https://foursquare.com/v/brewers-fayre/4b768ca9f964a52074512ee3","categoryId":"4bf58dd8d48988d11b941735","category":"Pub","checkinsCount":198,"usersCount":81,"tipCount":7,"visitsCount":217,"tier":"","message":"","currency":"","rating":5.8},{"name":"The Lord Wilson (Lloyds No. 1 Bar)","phone":"+441484411020","address":"Unit 27 Kingsgate Centre","lat":53.645473041521264,"lng":-1.779366294888776,"neighborhood":"Huddersfield Town Centre","city_fetched":"Keighley,UK","country":"United Kingdom","canonicalUrl":"https://foursquare.com/v/the-lord-wilson-lloyds-no-1-bar/4c87ab3b821e9eb02ccd8d89","categoryId":"4bf58dd8d48988d11b941735","category":"Pub","checkinsCount":740,"usersCount":286,"tipCount":12,"visitsCount":789,"url":"http://www.jdwetherspoon.co.uk","tier":"","message":"","currency":"","rating":5.8},{"name":"The Livery Rooms (Wetherspoon)","phone":"+441535682950","address":"89-97 North St.","lat":53.86859,"lng":-1.9096298217773438,"neighborhood":"Keighley Central","city_fetched":"Keighley,UK","country":"United Kingdom","canonicalUrl":"https://foursquare.com/v/the-livery-rooms-wetherspoon/4c263336f1272d7f121486c5","categoryId":"4bf58dd8d48988d11b941735","category":"Pub","checkinsCount":1148,"usersCount":192,"tipCount":7,"visitsCount":1228,"url":"http://www.jdwetherspoon.co.uk","tier":"","message":"","currency":"","rating":5.8},{"name":"Black Swan","phone":"+441423871031","address":"Burn Bridge Road, Burn Bridge","lat":53.95758197309719,"lng":-1.5455984921823955,"city_fetched":"Keighley,UK","state":"North Yorkshire","country":"United Kingdom","canonicalUrl":"https://foursquare.com/v/black-swan/4b5b1144f964a520dee128e3","categoryId":"4bf58dd8d48988d11b941735","category":"Pub","checkinsCount":227,"usersCount":73,"tipCount":7,"visitsCount":258,"tier":"","message":"","currency":"","rating":5.8},{"name":"High Park","phone":"+441484534226","address":"Bradley Rd","lat":53.6811251982247,"lng":-1.7607220322073618,"neighborhood":"Bradley","city_fetched":"Keighley,UK","state":"Kirklees","country":"United Kingdom","canonicalUrl":"https://foursquare.com/v/high-park/4c1766f759cc2d7f5e875287","categoryId":"4bf58dd8d48988d11b941735","category":"Pub","checkinsCount":143,"usersCount":97,"tipCount":2,"visitsCount":210,"tier":"","message":"","currency":"","rating":5.7},{"name":"don't tell Titus","phone":"+441274595633","address":"6 Victoria Rd","lat":53.838004,"lng":-1.789934,"neighborhood":"Shipley","city_fetched":"Keighley,UK","country":"United Kingdom","canonicalUrl":"https://foursquare.com/v/dont-tell-titus/4ba23074f964a52077e237e3","categoryId":"4bf58dd8d48988d116941735","category":"Bar","checkinsCount":480,"usersCount":237,"tipCount":16,"visitsCount":513,"url":"http://www.donttelltitus.co.uk","tier":"","message":"","currency":"","rating":5.7},{"name":"The Fleece Inn","phone":"+441756792898","address":"The Fleece Inn","lat":53.95903986464635,"lng":-2.0181691646575928,"city_fetched":"Keighley,UK","state":"North Yorkshire","country":"United Kingdom","canonicalUrl":"https://foursquare.com/v/the-fleece-inn/4baa8a29f964a520de723ae3","categoryId":"4bf58dd8d48988d11b941735","category":"Pub","checkinsCount":74,"usersCount":23,"tipCount":4,"visitsCount":77,"tier":"","message":"","currency":"","rating":5.7},{"name":"New Inn","phone":"+441132249131","address":"68 Otley Rd","lat":53.826628,"lng":-1.58196,"neighborhood":"Meanwood","city_fetched":"Keighley,UK","country":"United Kingdom","canonicalUrl":"https://foursquare.com/v/new-inn/4ba4f1a5f964a52078c638e3","categoryId":"4bf58dd8d48988d11b941735","category":"Pub","checkinsCount":411,"usersCount":288,"tipCount":2,"visitsCount":483,"tier":"","message":"","currency":"","rating":5.6},{"name":"The Headingley Taps","phone":"+441132307168","address":"Bennett Rd.","lat":53.820654,"lng":-1.579753,"neighborhood":"Headingley","city_fetched":"Keighley,UK","country":"United Kingdom","canonicalUrl":"https://foursquare.com/v/the-headingley-taps/4bb12038f964a520817c3ce3","categoryId":"4bf58dd8d48988d11b941735","category":"Pub","checkinsCount":674,"usersCount":524,"tipCount":2,"visitsCount":804,"tier":"","message":"","currency":"","rating":5.4},{"name":"Black Bull","phone":"+441535642249","address":"119 Main St","lat":53.831229,"lng":-1.95572,"neighborhood":"Keighley","city_fetched":"Keighley,UK","country":"United Kingdom","canonicalUrl":"https://foursquare.com/v/black-bull/4e4fb0a3fa7626401eac9c40","categoryId":"4bf58dd8d48988d11b941735","category":"Pub","checkinsCount":67,"usersCount":58,"tipCount":1,"visitsCount":67,"tier":"","message":"","currency":"","rating":5.4},{"name":"Rehab","phone":"+441423528321","twitter":"rehabharrogate","address":"18-20 Parliament St","lat":53.993655612461524,"lng":-1.5428495407104492,"city_fetched":"Keighley,UK","state":"North Yorkshire","country":"United Kingdom","canonicalUrl":"https://foursquare.com/v/rehab/4ba28922f964a520ef0138e3","categoryId":"4bf58dd8d48988d116941735","category":"Bar","checkinsCount":694,"usersCount":120,"tipCount":3,"visitsCount":698,"url":"http://www.rehabharrogate.co.uk","tier":"","message":"","currency":"","rating":5.3},{"name":"The Watermill (Brewers Fayre)","phone":"+448709906308","address":"Salterhebble Hill","lat":53.70201876891609,"lng":-1.85415931353017,"city_fetched":"Keighley,UK","country":"United Kingdom","canonicalUrl":"https://foursquare.com/v/the-watermill-brewers-fayre/4c76a15dff1fb60cd57af9a7","categoryId":"4bf58dd8d48988d11b941735","category":"Pub","checkinsCount":295,"usersCount":154,"tipCount":7,"visitsCount":361,"tier":"","message":"","currency":"","rating":5.1}]