[{"name":"Queen and Castle","phone":"+441926852661","address":"Castle Green","lat":52.34898208022439,"lng":-1.5905601030843568,"city_fetched":"Kenilworth,UK","state":"West Midlands","country":"United Kingdom","canonicalUrl":"https://foursquare.com/v/queen-and-castle/4b9d1846f964a520208f36e3","categoryId":"4bf58dd8d48988d11b941735","category":"Pub","checkinsCount":461,"usersCount":346,"tipCount":9,"visitsCount":590,"url":"http://www.queenandcastlekenilworth.co.uk/home/","tier":"","message":"","currency":"","rating":8.8},{"name":"The Saxon Mill","phone":"+441926492255","address":"Coventry Rd.","lat":52.300959534998334,"lng":-1.5740198842114967,"city_fetched":"Kenilworth,UK","state":"Warwickshire","country":"United Kingdom","canonicalUrl":"https://foursquare.com/v/the-saxon-mill/4b489fdcf964a520cf5026e3","categoryId":"4bf58dd8d48988d11b941735","category":"Pub","checkinsCount":967,"usersCount":874,"tipCount":35,"visitsCount":1387,"tier":"","message":"","currency":"","rating":8.6},{"name":"The Cape of Good Hope","phone":"+441926498138","twitter":"capewarwick","address":"66 Lower Cape","lat":52.2921025418582,"lng":-1.595442295074463,"city_fetched":"Kenilworth,UK","state":"Warwickshire","country":"United Kingdom","canonicalUrl":"https://foursquare.com/v/the-cape-of-good-hope/4b5c41cff964a520cc2829e3","categoryId":"4bf58dd8d48988d11b941735","category":"Pub","checkinsCount":226,"usersCount":149,"tipCount":9,"visitsCount":337,"url":"http://thecapeofgoodhopepub.com","tier":"","message":"","currency":"","rating":8.3},{"name":"The Kenilworth","phone":"+441926779473","address":"61 Warwick Road","lat":52.34081932786115,"lng":-1.5771174430847168,"city_fetched":"Kenilworth,UK","state":"Warwickshire","country":"United Kingdom","canonicalUrl":"https://foursquare.com/v/the-kenilworth/4b919378f964a520e9c633e3","categoryId":"4bf58dd8d48988d11e941735","category":"Cocktail Bar","checkinsCount":234,"usersCount":127,"tipCount":10,"visitsCount":242,"tier":"","message":"","currency":"","rating":8.3},{"name":"The Wild Boar","phone":"+441926499968","twitter":"wildboarwarwick","address":"27 Lakin Rd","lat":52.2874956776647,"lng":-1.5808296203613281,"city_fetched":"Kenilworth,UK","state":"Warwickshire","country":"United Kingdom","canonicalUrl":"https://foursquare.com/v/the-wild-boar/4caabcd0f47ea143fac08521","categoryId":"4bf58dd8d48988d11b941735","category":"Pub","checkinsCount":301,"usersCount":137,"tipCount":5,"visitsCount":390,"url":"http://thewildboarwarwick.co.uk","tier":"","message":"","currency":"","rating":8},{"name":"The Fat Pug","twitter":"thefatpugleam","address":"23 Guys Cliffe Rd","lat":52.292364259265234,"lng":-1.5482463325406732,"city_fetched":"Kenilworth,UK","state":"Warwickshire","country":"United Kingdom","canonicalUrl":"https://foursquare.com/v/the-fat-pug/4b6da409f964a52088822ce3","categoryId":"4bf58dd8d48988d11b941735","category":"Pub","checkinsCount":244,"usersCount":140,"tipCount":4,"visitsCount":352,"tier":"","message":"","currency":"","rating":7.7},{"name":"The Famous Virgins and Castle","phone":"+441926853737","address":"7 High Street","lat":52.349864197648344,"lng":-1.5814518928527832,"city_fetched":"Kenilworth,UK","state":"Warwickshire","country":"United Kingdom","canonicalUrl":"https://foursquare.com/v/the-famous-virgins-and-castle/4c3e10c0db3b1b8d22e56495","categoryId":"4bf58dd8d48988d11b941735","category":"Pub","checkinsCount":489,"usersCount":201,"tipCount":9,"visitsCount":555,"tier":"","message":"","currency":"","rating":7.7},{"name":"The White Horse","address":"Kenilworth Road","lat":52.38766836090084,"lng":-1.64685325722757,"city_fetched":"Kenilworth,UK","state":"Solihull","country":"United Kingdom","canonicalUrl":"https://foursquare.com/v/the-white-horse/4b3a0ef1f964a5209e6025e3","categoryId":"4bf58dd8d48988d11b941735","category":"Pub","checkinsCount":128,"usersCount":102,"tipCount":3,"visitsCount":209,"tier":"","message":"","currency":"","rating":7.3},{"name":"The Cross","lat":52.35076182720938,"lng":-1.5792031293300617,"city_fetched":"Kenilworth,UK","country":"United Kingdom","canonicalUrl":"https://foursquare.com/v/the-cross/4cb9ff8b4352a1cd3b3f90f5","categoryId":"4bf58dd8d48988d11b941735","category":"Pub","checkinsCount":227,"usersCount":133,"tipCount":8,"visitsCount":265,"tier":"","message":"","currency":"","rating":7},{"name":"The Clarendon Arms","phone":"+441926852017","address":"44 Castle Hill","lat":52.34878612009404,"lng":-1.5897506475448608,"city_fetched":"Kenilworth,UK","state":"Warwickshire","country":"United Kingdom","canonicalUrl":"https://foursquare.com/v/the-clarendon-arms/4c2b2a4bd1a10f47ff72f764","categoryId":"4bf58dd8d48988d11b941735","category":"Pub","checkinsCount":160,"usersCount":110,"tipCount":4,"visitsCount":162,"tier":"","message":"","currency":"","rating":6.5},{"name":"The Green Man","phone":"+441926863061","address":"168 Warwick Road","lat":52.33743685775091,"lng":-1.5744781494140625,"city_fetched":"Kenilworth,UK","state":"Warwickshire","country":"United Kingdom","canonicalUrl":"https://foursquare.com/v/the-green-man/4b9170e6f964a520bcbc33e3","categoryId":"4bf58dd8d48988d11b941735","category":"Pub","checkinsCount":462,"usersCount":240,"tipCount":7,"visitsCount":625,"tier":"","message":"","currency":"","rating":6.4},{"name":"Varsity","phone":"+442476695998","address":"Gibbet Hill Rd","lat":52.3841130528509,"lng":-1.5666139125823975,"neighborhood":"South Coventry","city_fetched":"Kenilworth,UK","state":"West Midlands","country":"United Kingdom","canonicalUrl":"https://foursquare.com/v/varsity/4b6ae7b6f964a5202ce62be3","categoryId":"4bf58dd8d48988d11b941735","category":"Pub","checkinsCount":1903,"usersCount":889,"tipCount":27,"visitsCount":2766,"url":"http://www.varsitycoventry.co.uk","tier":"","message":"","currency":"","rating":6.3},{"name":"Penny Farthing","phone":"+442476460475","address":"2 Gramercy Park","lat":52.41188246718978,"lng":-1.5986889804195192,"neighborhood":"Woodlands","city_fetched":"Kenilworth,UK","state":"Coventry","country":"United Kingdom","canonicalUrl":"https://foursquare.com/v/penny-farthing/51d56cd5498ebeb9c1c9fb54","categoryId":"4bf58dd8d48988d11b941735","category":"Pub","checkinsCount":196,"usersCount":79,"tipCount":4,"visitsCount":280,"url":"http://www.marstonstaverns.co.uk/coventry/penny-farthing","tier":"","message":"","currency":"","rating":6.1},{"name":"The Copper Rooms","phone":"+442476572777","twitter":"warwicksu","address":"Warwick SU, Gibbet Hill Rd","lat":52.378814995127385,"lng":-1.560332179069519,"neighborhood":"South Coventry","city_fetched":"Kenilworth,UK","state":"West Midlands","country":"United Kingdom","canonicalUrl":"https://foursquare.com/v/the-copper-rooms/4b05882bf964a5200db622e3","categoryId":"4bf58dd8d48988d11f941735","category":"Nightclub","checkinsCount":571,"usersCount":192,"tipCount":1,"visitsCount":580,"url":"https://www.facebook.com/warwicksu","tier":"","message":"","currency":"","rating":5.9},{"name":"The Terrace Bar","phone":"+442476572777","twitter":"warwicksu","address":"Warwick SU, Gibbet Hill Road","lat":52.37876260077649,"lng":-1.5607398748397827,"neighborhood":"South Coventry","city_fetched":"Kenilworth,UK","state":"West Midlands","country":"United Kingdom","canonicalUrl":"https://foursquare.com/v/the-terrace-bar/4bd366ba41b9ef3b4e1a00e6","categoryId":"4bf58dd8d48988d11e941735","category":"Cocktail Bar","checkinsCount":713,"usersCount":269,"tipCount":3,"visitsCount":740,"url":"https://www.facebook.com/warwicksu","tier":"","message":"","currency":"","rating":5.8},{"name":"The Bear and Ragged Staff","phone":"+441926857980","address":"68 Warwick Road","lat":52.34059645988594,"lng":-1.5772461891174316,"city_fetched":"Kenilworth,UK","state":"Warwickshire","country":"United Kingdom","canonicalUrl":"https://foursquare.com/v/the-bear-and-ragged-staff/4b917953f964a52044bf33e3","categoryId":"4bf58dd8d48988d11b941735","category":"Pub","checkinsCount":199,"usersCount":104,"tipCount":6,"visitsCount":205,"tier":"","message":"","currency":"","rating":5.5},{"name":"The Dirty Duck","phone":"+442476572754","twitter":"warwicksu","address":"Warwick SU, Gibbet Hill Road","lat":52.37889358653713,"lng":-1.5601176023483276,"neighborhood":"South Coventry","city_fetched":"Kenilworth,UK","state":"West Midlands","country":"United Kingdom","canonicalUrl":"https://foursquare.com/v/the-dirty-duck/4bad3f50f964a520bb3d3be3","categoryId":"4bf58dd8d48988d11b941735","category":"Pub","checkinsCount":1696,"usersCount":622,"tipCount":12,"visitsCount":1863,"url":"https://www.facebook.com/warwicksu","tier":2,"message":"Moderate","currency":"Â£","rating":5.3},{"name":"Bar Fusion","address":"Warwick SU","lat":52.378662493452886,"lng":-1.5611817361453113,"neighborhood":"South Coventry","city_fetched":"Kenilworth,UK","state":"Coventry","country":"United Kingdom","canonicalUrl":"https://foursquare.com/v/bar-fusion/4bd070e5b221c9b6ada3d3d0","categoryId":"4bf58dd8d48988d116941735","category":"Bar","checkinsCount":715,"usersCount":260,"tipCount":4,"visitsCount":761,"tier":"","message":"","currency":"","rating":5.3},{"name":"The Burnt Post","phone":"+442476692671","twitter":"emberinns","address":"Kenpas Highway","lat":52.38502792225652,"lng":-1.530440778915605,"neighborhood":"Earlsdon","city_fetched":"Kenilworth,UK","state":"West Midlands","country":"United Kingdom","canonicalUrl":"https://foursquare.com/v/the-burnt-post/4c5ff45f3986e21e2e05934f","categoryId":"4bf58dd8d48988d11b941735","category":"Pub","checkinsCount":318,"usersCount":151,"tipCount":10,"visitsCount":343,"url":"http://www.emberinns.co.uk/the-burnt-post-coventry/","tier":"","message":"","currency":"","rating":5.2}]