[{"name":"Thornhill Arms","address":"4 High St","lat":52.437848064645245,"lng":-0.7630533153436504,"city_fetched":"Kettering,UK","state":"Northamptonshire","country":"United Kingdom","canonicalUrl":"https://foursquare.com/v/thornhill-arms/4c55b36672cf0f47de87b1d6","categoryId":"4bf58dd8d48988d11b941735","category":"Pub","checkinsCount":61,"usersCount":48,"tipCount":4,"visitsCount":72,"tier":"","message":"","currency":"","rating":7.8},{"name":"The Earl of Dalkeith (Wetherspoon)","phone":"+441536312589","address":"13-15 Dalkeith Place","lat":52.39945926005527,"lng":-0.7258245348930359,"city_fetched":"Kettering,UK","state":"Northamptonshire","country":"United Kingdom","canonicalUrl":"https://foursquare.com/v/the-earl-of-dalkeith-wetherspoon/4bb72471941ad13a595120e3","categoryId":"4bf58dd8d48988d11b941735","category":"Pub","checkinsCount":691,"usersCount":227,"tipCount":6,"visitsCount":730,"url":"http://www.jdwetherspoon.co.uk","tier":"","message":"","currency":"","rating":7.3},{"name":"The Trading Post","phone":"+441536525333","address":"10 Bignal Ct.","lat":52.39197055850334,"lng":-0.7462978363037109,"city_fetched":"Kettering,UK","state":"Northamptonshire","country":"United Kingdom","canonicalUrl":"https://foursquare.com/v/the-trading-post/4bfd434eee20ef3b38533c5e","categoryId":"4bf58dd8d48988d11b941735","category":"Pub","checkinsCount":280,"usersCount":175,"tipCount":7,"visitsCount":346,"url":"http://www.tradingpostpub.co.uk","tier":"","message":"","currency":"","rating":7},{"name":"Oakley Hay (Beefeater)","phone":"+441536462792","twitter":"beefeater","address":"1 Little Colliers Field","lat":52.45930433810308,"lng":-0.7348394393920898,"city_fetched":"Kettering,UK","state":"Northamptonshire","country":"United Kingdom","canonicalUrl":"https://foursquare.com/v/oakley-hay-beefeater/4ba9ced3f964a520d1383ae3","categoryId":"4bf58dd8d48988d11b941735","category":"Pub","checkinsCount":379,"usersCount":156,"tipCount":5,"visitsCount":416,"url":"http://www.beefeater.co.uk/steak-restaurant/Northamptonshire/Oakley-Hay-Corby.html","tier":"","message":"","currency":"","rating":6.9},{"name":"Park House","phone":"+441536523377","address":"Pytchley Rd","lat":52.37711869644344,"lng":-0.7181882858276367,"city_fetched":"Kettering,UK","state":"Northamptonshire","country":"United Kingdom","canonicalUrl":"https://foursquare.com/v/park-house/4bb775912f70c9b6c0b28630","categoryId":"4bf58dd8d48988d11b941735","category":"Pub","checkinsCount":136,"usersCount":82,"tipCount":2,"visitsCount":139,"url":"http://www.parkhousepub.co.uk","tier":"","message":"","currency":"","rating":6.6},{"name":"The Wayfarers","phone":"+441536512216","address":"296 London Rd","lat":52.38880925130246,"lng":-0.7161712487174362,"city_fetched":"Kettering,UK","state":"Northamptonshire","country":"United Kingdom","canonicalUrl":"https://foursquare.com/v/the-wayfarers/4cd5d634dfb4a1cd25b95b5c","categoryId":"4bf58dd8d48988d11b941735","category":"Pub","checkinsCount":162,"usersCount":27,"tipCount":3,"visitsCount":170,"tier":"","message":"","currency":"","rating":6},{"name":"Abacus","address":"19 Dalkeith Place","lat":52.39926532763468,"lng":-0.7260525226593018,"city_fetched":"Kettering,UK","state":"Northamptonshire","country":"United Kingdom","canonicalUrl":"https://foursquare.com/v/abacus/4c02f7b10d0e0f47faf3019a","categoryId":"4bf58dd8d48988d11b941735","category":"Pub","checkinsCount":155,"usersCount":50,"tipCount":5,"visitsCount":157,"url":"http://www.abacuskettering.co.uk","tier":"","message":"","currency":"","rating":5.9},{"name":"Telford Lodge","phone":"+448701977147","address":"Rothwell Rd","lat":52.40751120357084,"lng":-0.7514047622680664,"city_fetched":"Kettering,UK","state":"Northamptonshire","country":"United Kingdom","canonicalUrl":"https://foursquare.com/v/telford-lodge/4c1394b1b7b9c92848b9a937","categoryId":"4bf58dd8d48988d11b941735","category":"Pub","checkinsCount":216,"usersCount":122,"tipCount":3,"visitsCount":218,"tier":"","message":"","currency":"","rating":5.9},{"name":"The Peacock Inn","phone":"+441536518245","address":"7 Lower St","lat":52.400034,"lng":-0.728787,"city_fetched":"Kettering,UK","state":"Northamptonshire","country":"United Kingdom","canonicalUrl":"https://foursquare.com/v/the-peacock-inn/4c953751533aa093620dc745","categoryId":"4bf58dd8d48988d11b941735","category":"Pub","checkinsCount":103,"usersCount":57,"tipCount":4,"visitsCount":103,"tier":"","message":"","currency":"","rating":5.7},{"name":"The Spread Eagle","phone":"+441536743368","address":"Oakley Road","lat":52.4634975,"lng":-0.731498,"city_fetched":"Kettering,UK","state":"Northamptonshire","country":"United Kingdom","canonicalUrl":"https://foursquare.com/v/the-spread-eagle/4baf5dc8f964a52095fa3be3","categoryId":"4bf58dd8d48988d11b941735","category":"Pub","checkinsCount":344,"usersCount":135,"tipCount":5,"visitsCount":423,"tier":"","message":"","currency":"","rating":5.4}]