[{"name":"The Hare & Hounds","phone":"+441803873119","address":"Torquay Rd","lat":50.492081114131175,"lng":-3.575448989868164,"city_fetched":"Kingskerswell,UK","state":"Devon","country":"United Kingdom","canonicalUrl":"https://foursquare.com/v/the-hare--hounds/4decc16a1f6e3ddebe05d7d4","categoryId":"4bf58dd8d48988d11b941735","category":"Pub","checkinsCount":135,"usersCount":92,"tipCount":5,"visitsCount":171,"url":"http://www.hare-and-hounds-kingskerswell.co.uk","tier":"","message":"","currency":"","rating":6.7},{"name":"The Sloop Inn (Hungry Horse)","phone":"+441803872979","address":"Newton Rd","lat":50.49988886726742,"lng":-3.578495979309082,"city_fetched":"Kingskerswell,UK","state":"Devon","country":"United Kingdom","canonicalUrl":"https://foursquare.com/v/the-sloop-inn-hungry-horse/4c29afbefe6e2d7fce30553c","categoryId":"4bf58dd8d48988d11b941735","category":"Pub","checkinsCount":380,"usersCount":172,"tipCount":9,"visitsCount":450,"tier":"","message":"","currency":"","rating":6.3},{"name":"The Barn Owl","phone":"+441803872130","address":"Aller Rd","lat":50.509978959042506,"lng":-3.5852604459904787,"city_fetched":"Kingskerswell,UK","state":"Devon","country":"United Kingdom","canonicalUrl":"https://foursquare.com/v/the-barn-owl/4c29b396ce3fc9280b1f6f88","categoryId":"4bf58dd8d48988d11b941735","category":"Pub","checkinsCount":146,"usersCount":126,"tipCount":8,"visitsCount":304,"url":"http://thebarnowl.co.uk","tier":"","message":"","currency":"","rating":6.3},{"name":"The Willow Tree","phone":"+441803615245","address":"Condor Dr.","lat":50.49003341283337,"lng":-3.557145595550537,"city_fetched":"Kingskerswell,UK","state":"Devon","country":"United Kingdom","canonicalUrl":"https://foursquare.com/v/the-willow-tree/4c5af15dec2520a1a7bc5212","categoryId":"4bf58dd8d48988d116941735","category":"Bar","checkinsCount":165,"usersCount":69,"tipCount":3,"visitsCount":169,"tier":"","message":"","currency":"","rating":6.2}]