[{"name":"The Eagle & Child","phone":"+441253836230","address":"Singleton Road","lat":53.804953647895786,"lng":-2.9364459896377095,"city_fetched":"Kirkham,UK","state":"Lancashire","country":"United Kingdom","canonicalUrl":"https://foursquare.com/v/the-eagle--child/4b76b280f964a5201a592ee3","categoryId":"4bf58dd8d48988d11b941735","category":"Pub","checkinsCount":91,"usersCount":59,"tipCount":3,"visitsCount":124,"tier":"","message":"","currency":"","rating":8},{"name":"The Grapes","address":"Station Road","lat":53.77708542420751,"lng":-2.915797233581543,"city_fetched":"Kirkham,UK","country":"United Kingdom","canonicalUrl":"https://foursquare.com/v/the-grapes/4c715031932aef3b15242877","categoryId":"4bf58dd8d48988d11b941735","category":"Pub","checkinsCount":135,"usersCount":81,"tipCount":1,"visitsCount":160,"tier":"","message":"","currency":"","rating":6.9},{"name":"The Windmill Tavern","phone":"+441772687203","address":"Clifton La","lat":53.77488229466748,"lng":-2.813931893069247,"city_fetched":"Kirkham,UK","state":"Blackpool","country":"United Kingdom","canonicalUrl":"https://foursquare.com/v/the-windmill-tavern/4b9261a4f964a520a6f533e3","categoryId":"4bf58dd8d48988d11b941735","category":"Pub","checkinsCount":462,"usersCount":44,"tipCount":5,"visitsCount":465,"tier":"","message":"","currency":"","rating":6.8},{"name":"The Birley Arms","phone":"+441772679988","address":"Bryning Lane","lat":53.75600606122173,"lng":-2.9044032096862793,"city_fetched":"Kirkham,UK","country":"United Kingdom","canonicalUrl":"https://foursquare.com/v/the-birley-arms/4bd578805631c9b66212a430","categoryId":"4bf58dd8d48988d11b941735","category":"Pub","checkinsCount":176,"usersCount":68,"tipCount":4,"visitsCount":220,"tier":"","message":"","currency":"","rating":6.4}]