[{"name":"Blind Jacks","lat":54.00780659236548,"lng":-1.466996669769287,"city_fetched":"Knaresborough","state":"North Yorkshire","country":"United Kingdom","canonicalUrl":"https://foursquare.com/v/blind-jacks/4b93d319f964a520895334e3","category":"Pub","checkinsCount":554,"usersCount":107,"tipCount":7,"visitsCount":558,"tier":"","message":"","currency":"","rating":8},{"name":"The Mitre","phone":"+441423868948","twitter":"markettowntavs","address":"4 Station Rd.","lat":54.00895409908818,"lng":-1.4705371856689453,"city_fetched":"Knaresborough","state":"North Yorkshire","country":"United Kingdom","canonicalUrl":"https://foursquare.com/v/the-mitre/4bca13aa937ca593440da792","category":"Bar","checkinsCount":268,"usersCount":132,"tipCount":1,"visitsCount":272,"tier":"","message":"","currency":"","rating":7.2},{"name":"The Crown (Wetherspoon)","phone":"+441423862122","address":"71-75 High Street","lat":54.00899827480316,"lng":-1.468696575527405,"city_fetched":"Knaresborough","state":"North Yorkshire","country":"United Kingdom","canonicalUrl":"https://foursquare.com/v/the-crown-wetherspoon/4d73ccefd976236a99601979","category":"Pub","checkinsCount":133,"usersCount":78,"tipCount":2,"visitsCount":181,"tier":"","message":"","currency":"","rating":6.9},{"name":"SO! Bar and Eats","phone":"+441423863202","twitter":"sobarandeats","address":"1 Silver Street","lat":54.00774984670651,"lng":-1.4657628536224365,"city_fetched":"Knaresborough","state":"North Yorkshire","country":"United Kingdom","canonicalUrl":"https://foursquare.com/v/so-bar-and-eats/4bba14d453649c74e39648fb","category":"Bar","checkinsCount":443,"usersCount":152,"tipCount":8,"visitsCount":483,"tier":"","message":"","currency":"","rating":6.4},{"name":"The Cross Keys Inn","phone":"+441423863562","address":"2 Brewerton St","lat":54.00678121790038,"lng":-1.4671428501605988,"city_fetched":"Knaresborough","state":"North Yorkshire","country":"United Kingdom","canonicalUrl":"https://foursquare.com/v/the-cross-keys-inn/4ce69d54e1eeb60c31e497ae","category":"Pub","checkinsCount":209,"usersCount":71,"tipCount":4,"visitsCount":242,"tier":"","message":"","currency":"","rating":6.3}]