[{"name":"The Bulls Head","address":"Mill Ln","lat":53.31288456916809,"lng":-2.317057,"city_fetched":"Knutsford,UK","state":"Cheshire","country":"United Kingdom","canonicalUrl":"https://foursquare.com/v/the-bulls-head/4cc1a22f67a3b1f7eebac90e","categoryId":"4bf58dd8d48988d11b941735","category":"Pub","checkinsCount":151,"usersCount":150,"tipCount":7,"visitsCount":239,"url":"http://www.thebullsheadpub.co.uk","tier":"","message":"","currency":"","rating":8.2},{"name":"The Lord Eldon","phone":"+441565625261","address":"27 Tatton Street","lat":53.305662,"lng":-2.375172,"city_fetched":"Knutsford,UK","state":"Cheshire","country":"United Kingdom","canonicalUrl":"https://foursquare.com/v/the-lord-eldon/4bb91a18cf2fc9b6b23ea002","categoryId":"4bf58dd8d48988d11b941735","category":"Pub","checkinsCount":371,"usersCount":66,"tipCount":1,"visitsCount":398,"tier":"","message":"","currency":"","rating":7.4},{"name":"The Knutsford Wine Bar","phone":"+441565750459","address":"41 King Street","lat":53.303536,"lng":-2.372133,"city_fetched":"Knutsford,UK","state":"Cheshire","country":"United Kingdom","canonicalUrl":"https://foursquare.com/v/the-knutsford-wine-bar/4b2bc439f964a52081ba24e3","categoryId":"4bf58dd8d48988d123941735","category":"Wine Bar","checkinsCount":396,"usersCount":199,"tipCount":8,"visitsCount":420,"tier":"","message":"","currency":"","rating":7.4},{"name":"The Golden Pheasant","phone":"+441565722125","address":"Plumley Moor Road","lat":53.27409173250469,"lng":-2.4184753166427826,"city_fetched":"Knutsford,UK","state":"Cheshire","country":"United Kingdom","canonicalUrl":"https://foursquare.com/v/the-golden-pheasant/4ce14d87825e721ecdf47a45","categoryId":"4bf58dd8d48988d11b941735","category":"Pub","checkinsCount":137,"usersCount":84,"tipCount":2,"visitsCount":206,"tier":"","message":"","currency":"","rating":7.3},{"name":"The Legh Arms","phone":"+441565651226","twitter":"legharmsknuts","address":"Brook St","lat":53.30016527382836,"lng":-2.3655519819851034,"city_fetched":"Knutsford,UK","state":"Cheshire","country":"United Kingdom","canonicalUrl":"https://foursquare.com/v/the-legh-arms/4c2238d49085d13a11f485cc","categoryId":"4bf58dd8d48988d11b941735","category":"Pub","checkinsCount":179,"usersCount":105,"tipCount":6,"visitsCount":375,"url":"http://www.thelegharms.co.uk","tier":"","message":"","currency":"","rating":7.1},{"name":"The Whipping Stocks","lat":53.26890496368661,"lng":-2.350093708244947,"city_fetched":"Knutsford,UK","country":"United Kingdom","canonicalUrl":"https://foursquare.com/v/the-whipping-stocks/4bd03d08caff95218766cef0","categoryId":"4bf58dd8d48988d11b941735","category":"Pub","checkinsCount":659,"usersCount":97,"tipCount":4,"visitsCount":769,"tier":"","message":"","currency":"","rating":7},{"name":"The Kilton","lat":53.340633,"lng":-2.423092,"city_fetched":"Knutsford,UK","country":"United Kingdom","canonicalUrl":"https://foursquare.com/v/the-kilton/4bfc4caeda7120a164d949fd","categoryId":"4bf58dd8d48988d11b941735","category":"Pub","checkinsCount":127,"usersCount":72,"tipCount":3,"visitsCount":135,"tier":"","message":"","currency":"","rating":6.3},{"name":"The Swan","address":"Mereside Rd","lat":53.34513700459543,"lng":-2.4047366721344923,"city_fetched":"Knutsford,UK","state":"Cheshire","country":"United Kingdom","canonicalUrl":"https://foursquare.com/v/the-swan/4c07cc7bda13c9289bff6b02","categoryId":"4bf58dd8d48988d116941735","category":"Bar","checkinsCount":159,"usersCount":158,"tipCount":1,"visitsCount":224,"tier":"","message":"","currency":"","rating":6.2},{"name":"Cross Keys","phone":"+441565750404","address":"52 King St.","lat":53.30401611328125,"lng":-2.372790813446045,"city_fetched":"Knutsford,UK","state":"Cheshire","country":"United Kingdom","canonicalUrl":"https://foursquare.com/v/cross-keys/4b4e2d8df964a52035e426e3","categoryId":"4bf58dd8d48988d11b941735","category":"Pub","checkinsCount":1573,"usersCount":199,"tipCount":4,"visitsCount":1648,"tier":"","message":"","currency":"","rating":6.1},{"name":"The Windmill","address":"Chester Rd, Tabley","lat":53.31012363397962,"lng":-2.418020157822289,"city_fetched":"Knutsford,UK","state":"Cheshire","country":"United Kingdom","canonicalUrl":"https://foursquare.com/v/the-windmill/4c029cc49a7920a1eeaace79","categoryId":"4bf58dd8d48988d11b941735","category":"Pub","checkinsCount":165,"usersCount":143,"tipCount":1,"visitsCount":212,"tier":"","message":"","currency":"","rating":6},{"name":"Rose & Crown","phone":"+441565652366","address":"62 King St.","lat":53.30424602244305,"lng":-2.3730576038360596,"city_fetched":"Knutsford,UK","state":"Cheshire","country":"United Kingdom","canonicalUrl":"https://foursquare.com/v/rose--crown/4c5ac3cff54376b0c5d9848b","categoryId":"4bf58dd8d48988d11b941735","category":"Pub","checkinsCount":368,"usersCount":191,"tipCount":4,"visitsCount":374,"tier":"","message":"","currency":"","rating":5.4}]