[{"name":"Bedford Street","phone":"+441926332506","address":"4 Bedford Street","lat":52.29147745306383,"lng":-1.5369542837043435,"city_fetched":"Leamington","state":"Warwickshire","country":"United Kingdom","canonicalUrl":"https://foursquare.com/v/bedford-street/55282d3d498e0ad634fd707c","category":"Bar","checkinsCount":154,"usersCount":127,"tipCount":2,"visitsCount":262,"tier":"","message":"","currency":"","rating":8.7},{"name":"The Saxon Mill","phone":"+441926492255","address":"Coventry Rd.","lat":52.300959534998334,"lng":-1.5740198842114967,"city_fetched":"Leamington","state":"Warwickshire","country":"United Kingdom","canonicalUrl":"https://foursquare.com/v/the-saxon-mill/4b489fdcf964a520cf5026e3","category":"Pub","checkinsCount":967,"usersCount":874,"tipCount":35,"visitsCount":1387,"tier":"","message":"","currency":"","rating":8.6},{"name":"Leif Tearooms & Piano Bar","phone":"+441926336457","address":"116 Warwick St","lat":52.29202379606766,"lng":-1.5328609943389893,"city_fetched":"Leamington","state":"Warwickshire","country":"United Kingdom","canonicalUrl":"https://foursquare.com/v/leif-tearooms--piano-bar/502586dce4b059829fb39822","category":"Cocktail Bar","checkinsCount":682,"usersCount":221,"tipCount":17,"visitsCount":797,"tier":"","message":"","currency":"","rating":8.5},{"name":"The Cape of Good Hope","phone":"+441926498138","twitter":"capewarwick","address":"66 Lower Cape","lat":52.2921025418582,"lng":-1.595442295074463,"city_fetched":"Leamington","state":"Warwickshire","country":"United Kingdom","canonicalUrl":"https://foursquare.com/v/the-cape-of-good-hope/4b5c41cff964a520cc2829e3","category":"Pub","checkinsCount":226,"usersCount":148,"tipCount":9,"visitsCount":334,"url":"http://thecapeofgoodhopepub.com","tier":"","message":"","currency":"","rating":8.3},{"name":"The Wild Boar","phone":"+441926499968","twitter":"wildboarwarwick","address":"27 Lakin Rd","lat":52.2874956776647,"lng":-1.5808296203613281,"city_fetched":"Leamington","state":"Warwickshire","country":"United Kingdom","canonicalUrl":"https://foursquare.com/v/the-wild-boar/4caabcd0f47ea143fac08521","category":"Pub","checkinsCount":301,"usersCount":137,"tipCount":5,"visitsCount":390,"url":"http://thewildboarwarwick.co.uk","tier":"","message":"","currency":"","rating":8.1},{"name":"The Cricketers Arms","phone":"+441926881293","address":"19 Archery Rd","lat":52.287363,"lng":-1.541301,"city_fetched":"Leamington","state":"Warwickshire","country":"United Kingdom","canonicalUrl":"https://foursquare.com/v/the-cricketers-arms/4bb0ee1cf964a520476b3ce3","category":"Pub","checkinsCount":439,"usersCount":242,"tipCount":16,"visitsCount":592,"url":"http://www.crickspubs.co.uk","tier":"","message":"","currency":"","rating":8},{"name":"Vine Inn","phone":"+447873219005","address":"86 - 88 West Street","lat":52.2772,"lng":-1.5932,"city_fetched":"Leamington","state":"Warwickshire","country":"United Kingdom","canonicalUrl":"https://foursquare.com/v/vine-inn/5159a218e4b0d20cdfb73702","category":"Gastropub","checkinsCount":91,"usersCount":44,"tipCount":3,"visitsCount":112,"tier":"","message":"","currency":"","rating":7.9},{"name":"The Drawing Board","phone":"+441926330636","twitter":"thedbleamington","address":"18 newbold street","lat":52.289513,"lng":-1.531415,"city_fetched":"Leamington","state":"Warwickshire","country":"United Kingdom","canonicalUrl":"https://foursquare.com/v/the-drawing-board/553800fb498e74621c06e960","category":"Gastropub","checkinsCount":81,"usersCount":113,"tipCount":0,"visitsCount":245,"url":"http://www.thedrawingboard.pub","tier":"","message":"","currency":"","rating":7.9},{"name":"The White Horse","phone":"+441926426892","address":"4-6 Clarendon Ave","lat":52.29345300188708,"lng":-1.5379085922687359,"city_fetched":"Leamington","country":"United Kingdom","canonicalUrl":"https://foursquare.com/v/the-white-horse/4b6d9f46f964a5200f812ce3","category":"Bar","checkinsCount":1740,"usersCount":832,"tipCount":18,"visitsCount":2206,"tier":2,"message":"Moderate","currency":"£","rating":7.7},{"name":"The Clarendon","phone":"+441926460036","address":"44-46 Clarendon Ave","lat":52.293606,"lng":-1.53298,"city_fetched":"Leamington","state":"Warwickshire","country":"United Kingdom","canonicalUrl":"https://foursquare.com/v/the-clarendon/4ba53e08f964a520a8f038e3","category":"Pub","checkinsCount":1033,"usersCount":432,"tipCount":22,"visitsCount":1255,"url":"http://theclarendonpub.com","tier":"","message":"","currency":"","rating":7.7},{"name":"The Moorings at Myton","phone":"+441926425043","twitter":"mooringsmyton","address":"Myton Rd","lat":52.282227,"lng":-1.547939,"city_fetched":"Leamington","state":"Warwickshire","country":"United Kingdom","canonicalUrl":"https://foursquare.com/v/the-moorings-at-myton/4be310e01dd22d7fa89d95bd","category":"Gastropub","checkinsCount":639,"usersCount":382,"tipCount":6,"visitsCount":797,"url":"http://www.themoorings.co.uk","tier":2,"message":"Moderate","currency":"£","rating":7.6},{"name":"The Fat Pug","twitter":"thefatpugleam","address":"23 Guys Cliffe Rd","lat":52.292364259265234,"lng":-1.5482463325406732,"city_fetched":"Leamington","state":"Warwickshire","country":"United Kingdom","canonicalUrl":"https://foursquare.com/v/the-fat-pug/4b6da409f964a52088822ce3","category":"Pub","checkinsCount":244,"usersCount":140,"tipCount":4,"visitsCount":352,"tier":"","message":"","currency":"","rating":7.6},{"name":"The Star & Garter","twitter":"star_leamington","address":"5-6 Warwick St","lat":52.291603816153746,"lng":-1.5419912338256836,"city_fetched":"Leamington","state":"Warwickshire","country":"United Kingdom","canonicalUrl":"https://foursquare.com/v/the-star--garter/4b757f92f964a52000102ee3","category":"Pub","checkinsCount":544,"usersCount":292,"tipCount":7,"visitsCount":724,"url":"http://www.starandgarterleamington.co.uk","tier":"","message":"","currency":"","rating":7.5},{"name":"The Roebuck","phone":"+441926494900","address":"57 Smith St","lat":52.283221347101595,"lng":-1.5822599852823975,"city_fetched":"Leamington","state":"Warwickshire","country":"United Kingdom","canonicalUrl":"https://foursquare.com/v/the-roebuck/4bb6421446d4a59398f1c5c0","category":"Pub","checkinsCount":240,"usersCount":156,"tipCount":4,"visitsCount":245,"url":"http://www.theroebuckwarwick.co.uk","tier":"","message":"","currency":"","rating":7.2},{"name":"Rose & Crown","phone":"+441926411117","twitter":"therosewarwick","address":"30 Market Pl","lat":52.28204083,"lng":-1.591118574142456,"city_fetched":"Leamington","country":"United Kingdom","canonicalUrl":"https://foursquare.com/v/rose--crown/4b0d9e5bf964a520604c23e3","category":"Pub","checkinsCount":1335,"usersCount":484,"tipCount":15,"visitsCount":1459,"url":"http://www.roseandcrownwarwick.co.uk","tier":"","message":"","currency":"","rating":7.2},{"name":"Wildes Wine Bar","phone":"+441926336732","twitter":"wildeswinebar","address":"7 Parade","lat":52.29317307472229,"lng":-1.53578395,"city_fetched":"Leamington","state":"Warwickshire","country":"United Kingdom","canonicalUrl":"https://foursquare.com/v/wildes-wine-bar/4c4744261ddec928b2d09c32","category":"Bistro","checkinsCount":200,"usersCount":104,"tipCount":7,"visitsCount":201,"url":"http://www.wildes.uk.com","tier":2,"message":"Moderate","currency":"£","rating":7.2},{"name":"The Duke","phone":"+441926886636","address":"44-46 Warwick St","lat":52.29174275736581,"lng":-1.537378176660603,"city_fetched":"Leamington","state":"Warwickshire","country":"United Kingdom","canonicalUrl":"https://foursquare.com/v/the-duke/4b59fb2df964a52082a528e3","category":"Pub","checkinsCount":1382,"usersCount":540,"tipCount":12,"visitsCount":1513,"tier":"","message":"","currency":"","rating":7.1},{"name":"The Assembly","twitter":"leamassembly","address":"Spencer St","lat":52.28545708212919,"lng":-1.5340192663889294,"city_fetched":"Leamington","state":"Warwickshire","country":"United Kingdom","canonicalUrl":"https://foursquare.com/v/the-assembly/4b0e5ce8f964a520165723e3","category":"Concert Hall","checkinsCount":584,"usersCount":367,"tipCount":8,"visitsCount":615,"tier":"","message":"","currency":"","rating":7.1},{"name":"Fox And Vivian","lat":52.293651,"lng":-1.533822,"city_fetched":"Leamington","state":"Warwickshire","country":"United Kingdom","canonicalUrl":"https://foursquare.com/v/fox-and-vivian/4e31a7c3b0fb3ee646756763","category":"Pub","checkinsCount":85,"usersCount":79,"tipCount":1,"visitsCount":103,"tier":"","message":"","currency":"","rating":7},{"name":"Merchants Bar & Brasserie","phone":"+441926403833","twitter":"merchantsofwar","address":"Swan Street","lat":52.28102097691337,"lng":-1.5889835357666016,"city_fetched":"Leamington","state":"Warwickshire","country":"United Kingdom","canonicalUrl":"https://foursquare.com/v/merchants-bar--brasserie/4b76fc3df964a52080712ee3","category":"Wine Bar","checkinsCount":112,"usersCount":72,"tipCount":4,"visitsCount":113,"url":"http://www.merchantswarwick.co.uk","tier":"","message":"","currency":"","rating":7},{"name":"Newbold Comyn Arms","lat":52.29116977609385,"lng":-1.5179260945050927,"city_fetched":"Leamington","state":"Warwickshire","country":"United Kingdom","canonicalUrl":"https://foursquare.com/v/newbold-comyn-arms/4bffdcc692a6c9288f3043e2","category":"Gastropub","checkinsCount":169,"usersCount":113,"tipCount":4,"visitsCount":207,"tier":1,"message":"Cheap","currency":"£","rating":6.8},{"name":"Copper Pot","phone":"+441926339885","address":"41-43 Warwick St","lat":52.29185332133713,"lng":-1.5371604979913893,"city_fetched":"Leamington","state":"Warwickshire","country":"United Kingdom","canonicalUrl":"https://foursquare.com/v/copper-pot/4ba141c3f964a520a6a637e3","category":"Pub","checkinsCount":467,"usersCount":158,"tipCount":2,"visitsCount":473,"tier":2,"message":"Moderate","currency":"£","rating":6.8},{"name":"The Tilted Wig","phone":"+441926400110","twitter":"wigwarwick","address":"11 Market Pl","lat":52.28210070637833,"lng":-1.590571403503418,"city_fetched":"Leamington","state":"Warwickshire","country":"United Kingdom","canonicalUrl":"https://foursquare.com/v/the-tilted-wig/4b6da0abf964a52085812ce3","category":"Pub","checkinsCount":428,"usersCount":215,"tipCount":8,"visitsCount":441,"url":"http://www.tiltedwigwarwick.co.uk","tier":"","message":"","currency":"","rating":6.7},{"name":"The Royal Pug","phone":"+441926883817","address":"141 Regent St","lat":52.29063302074068,"lng":-1.532456172196715,"city_fetched":"Leamington","state":"Warwickshire","country":"United Kingdom","canonicalUrl":"https://foursquare.com/v/the-royal-pug/535bb952498e603f3039721a","category":"Pub","checkinsCount":244,"usersCount":199,"tipCount":3,"visitsCount":385,"url":"http://www.theroyalpug.com","tier":"","message":"","currency":"","rating":6.5},{"name":"The Thomas Lloyd (Wetherspoon)","phone":"+441926475690","address":"3-7 Market Place","lat":52.2822617183325,"lng":-1.590257837168313,"city_fetched":"Leamington","state":"Warwickshire","country":"United Kingdom","canonicalUrl":"https://foursquare.com/v/the-thomas-lloyd-wetherspoon/4c092b166071a5936c67dd32","category":"Pub","checkinsCount":607,"usersCount":341,"tipCount":5,"visitsCount":661,"url":"http://www.jdwetherspoon.co.uk","tier":"","message":"","currency":"","rating":6.5},{"name":"The New Bowling Green","phone":"+441926411470","address":"13 St Nicholas St","lat":52.282563,"lng":-1.581448,"city_fetched":"Leamington","state":"Warwickshire","country":"United Kingdom","canonicalUrl":"https://foursquare.com/v/the-new-bowling-green/4b992799f964a520466535e3","category":"Pub","checkinsCount":161,"usersCount":92,"tipCount":2,"visitsCount":164,"url":"http://www.thenewbowlinggreenwarwick.co.uk","tier":"","message":"","currency":"","rating":6.5},{"name":"Jug and Jester (Wetherspoon)","phone":"+441926425727","twitter":"jdwtweet","address":"11-13 Bath St.","lat":52.28567086537104,"lng":-1.5329214524642982,"city_fetched":"Leamington","state":"Warwickshire","country":"United Kingdom","canonicalUrl":"https://foursquare.com/v/jug-and-jester-wetherspoon/4b631524f964a520b0612ae3","category":"Pub","checkinsCount":1495,"usersCount":550,"tipCount":10,"visitsCount":1790,"url":"http://www.jdwetherspoon.co.uk","tier":"","message":"","currency":"","rating":6.4},{"name":"The Lounge","address":"The Parade","lat":52.289176117424105,"lng":-1.5354591281811054,"city_fetched":"Leamington","state":"Warwickshire","country":"United Kingdom","canonicalUrl":"https://foursquare.com/v/the-lounge/4b450f72f964a520ef0226e3","category":"Bar","checkinsCount":478,"usersCount":207,"tipCount":4,"visitsCount":493,"tier":"","message":"","currency":"","rating":6.2},{"name":"The Zetland Arms","phone":"+441926491974","address":"11 Church St","lat":52.281689,"lng":-1.588005,"city_fetched":"Leamington","state":"Warwickshire","country":"United Kingdom","canonicalUrl":"https://foursquare.com/v/the-zetland-arms/4c079cd50e0a2d7f348aed0c","category":"Pub","checkinsCount":177,"usersCount":110,"tipCount":2,"visitsCount":181,"tier":"","message":"","currency":"","rating":6.1},{"name":"The White Lion","phone":"+441926425770","twitter":"chefandbrewer","address":"60 Southam Road","lat":52.277794759190954,"lng":-1.497187614440918,"city_fetched":"Leamington","state":"Warwickshire","country":"United Kingdom","canonicalUrl":"https://foursquare.com/v/the-white-lion/4bf96d86b182c9b693e7785a","category":"Pub","checkinsCount":197,"usersCount":124,"tipCount":7,"visitsCount":288,"tier":"","message":"","currency":"","rating":6},{"name":"Moo Bar","address":"Russell Street","lat":52.292049,"lng":-1.538144,"city_fetched":"Leamington","state":"Warwickshire","country":"United Kingdom","canonicalUrl":"https://foursquare.com/v/moo-bar/4b5b9180f964a520be0729e3","category":"Bar","checkinsCount":362,"usersCount":142,"tipCount":1,"visitsCount":366,"tier":"","message":"","currency":"","rating":5.9},{"name":"The Benjamin Satchwell (Wetherspoon)","phone":"+441926883733","address":"112-114 The Parade","lat":52.28973762705069,"lng":-1.535777296624795,"city_fetched":"Leamington","state":"Warwickshire","country":"United Kingdom","canonicalUrl":"https://foursquare.com/v/the-benjamin-satchwell-wetherspoon/4b5200fef964a520a16027e3","category":"Pub","checkinsCount":1512,"usersCount":592,"tipCount":7,"visitsCount":1660,"url":"http://www.jdwetherspoon.co.uk","tier":1,"message":"Cheap","currency":"£","rating":5.9},{"name":"The Loose Box","address":"4 Bedford St","lat":52.291461,"lng":-1.536921,"city_fetched":"Leamington","state":"Warwickshire","country":"United Kingdom","canonicalUrl":"https://foursquare.com/v/the-loose-box/4d7a904679e6721ea5c95c8b","category":"Bar","checkinsCount":259,"usersCount":139,"tipCount":2,"visitsCount":260,"tier":"","message":"","currency":"","rating":5.7},{"name":"Voodoo Bar","address":"35 Regent Street","lat":52.290289,"lng":-1.537965,"city_fetched":"Leamington","state":"Warwickshire","country":"United Kingdom","canonicalUrl":"https://foursquare.com/v/voodoo-bar/4b58c8f3f964a520176b28e3","category":"Bar","checkinsCount":356,"usersCount":185,"tipCount":4,"visitsCount":372,"tier":"","message":"","currency":"","rating":5.6},{"name":"Altoria","lat":52.291953663121426,"lng":-1.5367625983254278,"city_fetched":"Leamington","country":"United Kingdom","canonicalUrl":"https://foursquare.com/v/altoria/50899c76e4b07f1e61eb2603","category":"Bar","checkinsCount":221,"usersCount":132,"tipCount":3,"visitsCount":221,"tier":"","message":"","currency":"","rating":5.6},{"name":"The Royal Horse (Hungry Horse)","phone":"+441926882247","address":"Poseidon Way","lat":52.26915397928316,"lng":-1.5372920789796387,"city_fetched":"Leamington","state":"Warwickshire","country":"United Kingdom","canonicalUrl":"https://foursquare.com/v/the-royal-horse-hungry-horse/518d662a498e5f6934aa740e","category":"Pub","checkinsCount":150,"usersCount":80,"tipCount":6,"visitsCount":204,"tier":"","message":"","currency":"","rating":5.1},{"name":"Kelseys Bar","phone":"+441926424410","address":"15-17 High Street","lat":52.2841124117709,"lng":-1.533316969871521,"city_fetched":"Leamington","state":"Warwickshire","country":"United Kingdom","canonicalUrl":"https://foursquare.com/v/kelseys-bar/4b5b914ef964a520b00729e3","category":"Bar","checkinsCount":307,"usersCount":128,"tipCount":10,"visitsCount":314,"tier":"","message":"","currency":"","rating":5.1},{"name":"Robbins' Well","phone":"+441926453881","address":"2 Victoria Terrace","lat":52.28640199,"lng":-1.533695,"city_fetched":"Leamington","state":"Warwickshire","country":"United Kingdom","canonicalUrl":"https://foursquare.com/v/robbins-well/4b6314a7f964a52091612ae3","category":"Pub","checkinsCount":469,"usersCount":177,"tipCount":8,"visitsCount":487,"tier":"","message":"","currency":"","rating":5}]