[{"name":"Headrow House","twitter":"headrowhouse","address":"Bramley's Yard","lat":53.798786963854994,"lng":-1.541144540331491,"neighborhood":"Leeds City Centre","city_fetched":"Leeds,UK","state":"Leeds","country":"United Kingdom","canonicalUrl":"https://foursquare.com/v/headrow-house/560ec28e498eed61ffddcd0a","categoryId":"4bf58dd8d48988d116941735","category":"Bar","checkinsCount":359,"usersCount":319,"tipCount":5,"visitsCount":566,"url":"http://headrowhouse.com","tier":"","message":"","currency":"","rating":9.2},{"name":"North Bar","phone":"+441132424540","twitter":"northbardrinks","address":"24 New Briggate","lat":53.79983540029694,"lng":-1.5417442532400847,"neighborhood":"City and Holbeck","city_fetched":"Leeds,UK","state":"Leeds","country":"United Kingdom","canonicalUrl":"https://foursquare.com/v/north-bar/4b34f196f964a520442925e3","categoryId":"4bf58dd8d48988d116941735","category":"Bar","checkinsCount":2587,"usersCount":995,"tipCount":43,"visitsCount":2884,"url":"http://www.northbar.com","tier":3,"message":"Expensive","currency":"£","rating":9.1},{"name":"Friends of Ham","phone":"+441132420275","twitter":"friendsofham","address":"4 New Station St.","lat":53.79560988870198,"lng":-1.544928356626443,"neighborhood":"Trinity Quarter","city_fetched":"Leeds,UK","country":"United Kingdom","canonicalUrl":"https://foursquare.com/v/friends-of-ham/4ffca25de4b0c14fdb0f56fd","categoryId":"4bf58dd8d48988d116941735","category":"Bar","checkinsCount":2227,"usersCount":960,"tipCount":49,"visitsCount":2463,"url":"http://www.friendsofham.com","tier":2,"message":"Moderate","currency":"£","rating":9.1},{"name":"Bundobust","phone":"+441132431248","twitter":"bundobust","address":"6 Mill Hill","lat":53.79544912798762,"lng":-1.545654621903777,"neighborhood":"Trinity Quarter","city_fetched":"Leeds,UK","state":"Leeds","country":"United Kingdom","canonicalUrl":"https://foursquare.com/v/bundobust/53b43841498ed75afc84c265","categoryId":"4bf58dd8d48988d116941735","category":"Bar","checkinsCount":825,"usersCount":376,"tipCount":27,"visitsCount":980,"url":"http://www.bundobust.com","tier":"","message":"","currency":"","rating":9.1},{"name":"Kirkstall Bridge Inn","phone":"+441132784044","twitter":"kirkstallbridge","address":"12 Bridge Rd","lat":53.81589253469875,"lng":-1.6066187048712235,"neighborhood":"Kirkstall","city_fetched":"Leeds,UK","state":"Leeds","country":"United Kingdom","canonicalUrl":"https://foursquare.com/v/kirkstall-bridge-inn/4bdc7343fed22d7f6b3758c9","categoryId":"4bf58dd8d48988d11b941735","category":"Pub","checkinsCount":586,"usersCount":218,"tipCount":7,"visitsCount":762,"url":"http://www.kirkstallbridge.co.uk","tier":"","message":"","currency":"","rating":9},{"name":"Crowd Of Favours","address":"Harper Street","lat":53.796141,"lng":-1.537815,"neighborhood":"City and Holbeck","city_fetched":"Leeds,UK","state":"Leeds","country":"United Kingdom","canonicalUrl":"https://foursquare.com/v/crowd-of-favours/51c4d34a498e5d270fe14e69","categoryId":"4bf58dd8d48988d116941735","category":"Bar","checkinsCount":656,"usersCount":330,"tipCount":20,"visitsCount":789,"tier":2,"message":"Moderate","currency":"£","rating":8.9},{"name":"Midnight Bell","phone":"+441132445044","twitter":"themidnightbell","address":"101 Water Ln","lat":53.79155203,"lng":-1.551722,"neighborhood":"Holbeck Urban Village","city_fetched":"Leeds,UK","country":"United Kingdom","canonicalUrl":"https://foursquare.com/v/midnight-bell/4b7c14e0f964a520ca7b2fe3","categoryId":"4bf58dd8d48988d11b941735","category":"Pub","checkinsCount":1873,"usersCount":652,"tipCount":30,"visitsCount":2037,"url":"http://www.midnightbell.co.uk","tier":"","message":"","currency":"","rating":8.8},{"name":"Northern Monk Refectory","phone":"+441132436430","twitter":"nmbcorefectory","address":"The Old Flax Store","lat":53.79070484624726,"lng":-1.5538726518097101,"neighborhood":"Holbeck Urban Village","city_fetched":"Leeds,UK","country":"United Kingdom","canonicalUrl":"https://foursquare.com/v/northern-monk-refectory/5447c9bd498e934ca672814a","categoryId":"50327c8591d4c4b30a586d5d","category":"Brewery","checkinsCount":462,"usersCount":270,"tipCount":8,"visitsCount":644,"tier":"","message":"","currency":"","rating":8.8},{"name":"BrewDog Leeds","phone":"+441132461611","twitter":"brewdog","address":"White Cloth Hall","lat":53.79549900609114,"lng":-1.5398132801055908,"neighborhood":"City and Holbeck","city_fetched":"Leeds,UK","state":"Leeds","country":"United Kingdom","canonicalUrl":"https://foursquare.com/v/brewdog-leeds/511e3ced3950037a0b3139a0","categoryId":"56aa371ce4b08b9a8d57356c","category":"Beer Bar","checkinsCount":1932,"usersCount":705,"tipCount":25,"visitsCount":2145,"url":"http://www.brewdog.com","tier":3,"message":"Expensive","currency":"£","rating":8.7},{"name":"The Head Of Steam","phone":"+441132436618","twitter":"hos_leeds","address":"12 Mill Hill","lat":53.79531039979002,"lng":-1.5460259120058664,"neighborhood":"Trinity Quarter","city_fetched":"Leeds,UK","state":"Leeds","country":"United Kingdom","canonicalUrl":"https://foursquare.com/v/the-head-of-steam/54a8082b498ea5a4461c47b8","categoryId":"4bf58dd8d48988d11b941735","category":"Pub","checkinsCount":425,"usersCount":201,"tipCount":16,"visitsCount":445,"url":"http://www.theheadofsteam.co.uk/pub?pub=14","tier":"","message":"","currency":"","rating":8.7},{"name":"Lamb and Flag","lat":53.7953166574003,"lng":-1.536984477185446,"neighborhood":"The Calls","city_fetched":"Leeds,UK","country":"United Kingdom","canonicalUrl":"https://foursquare.com/v/lamb-and-flag/5597e751498e92f3846d0b3b","categoryId":"4bf58dd8d48988d11b941735","category":"Pub","checkinsCount":349,"usersCount":271,"tipCount":4,"visitsCount":566,"tier":"","message":"","currency":"","rating":8.7},{"name":"Whitelocks Ale House","phone":"+441132453950","twitter":"whitelocksleeds","address":"4 Turks Head Yard","lat":53.79725437139939,"lng":-1.542978286743164,"neighborhood":"Trinity Quarter","city_fetched":"Leeds,UK","country":"United Kingdom","canonicalUrl":"https://foursquare.com/v/whitelocks-ale-house/4b5b05a6f964a52056df28e3","categoryId":"4bf58dd8d48988d11b941735","category":"Pub","checkinsCount":1799,"usersCount":888,"tipCount":25,"visitsCount":2021,"url":"http://www.whitelocksleeds.com","tier":2,"message":"Moderate","currency":"£","rating":8.6},{"name":"The Mustard Pot","phone":"+441132695699","address":"20 Stainbeck Lane","lat":53.828952363702165,"lng":-1.5398025512695312,"neighborhood":"Chapel Allerton","city_fetched":"Leeds,UK","state":"Leeds","country":"United Kingdom","canonicalUrl":"https://foursquare.com/v/the-mustard-pot/4b9132abf964a5206ea933e3","categoryId":"4bf58dd8d48988d11b941735","category":"Pub","checkinsCount":925,"usersCount":394,"tipCount":7,"visitsCount":1131,"tier":"","message":"","currency":"","rating":8.6},{"name":"The Adelphi","phone":"+441132456377","twitter":"adelphileeds","address":"1-5 Hunslet Rd","lat":53.79331314347584,"lng":-1.5413444365010904,"city_fetched":"Leeds,UK","country":"United Kingdom","canonicalUrl":"https://foursquare.com/v/the-adelphi/4b32777af964a520720c25e3","categoryId":"4bf58dd8d48988d11b941735","category":"Pub","checkinsCount":3596,"usersCount":1309,"tipCount":56,"visitsCount":4202,"url":"http://www.theadelphileeds.co.uk","tier":2,"message":"Moderate","currency":"£","rating":8.6},{"name":"The Fleece","phone":"+441132565564","address":"116 Town St.","lat":53.81502875900979,"lng":-1.6702299955537117,"neighborhood":"Stanningley","city_fetched":"Leeds,UK","country":"United Kingdom","canonicalUrl":"https://foursquare.com/v/the-fleece/4c889d42a0ffb60c767d23c5","categoryId":"4bf58dd8d48988d11b941735","category":"Pub","checkinsCount":243,"usersCount":89,"tipCount":4,"visitsCount":386,"tier":"","message":"","currency":"","rating":8.5},{"name":"Further North","phone":"+441133200202","address":"94 Harrogate Road","lat":53.83153579539846,"lng":-1.538558006286621,"neighborhood":"Chapel Allerton","city_fetched":"Leeds,UK","country":"United Kingdom","canonicalUrl":"https://foursquare.com/v/further-north/4b5b3038f964a520c2e928e3","categoryId":"4bf58dd8d48988d116941735","category":"Bar","checkinsCount":347,"usersCount":192,"tipCount":6,"visitsCount":449,"tier":"","message":"","currency":"","rating":8.4},{"name":"The Turk's Head","phone":"+441132423368","twitter":"turksheadleeds","address":"Turk's Head Yard","lat":53.79731292140717,"lng":-1.5433388887072417,"neighborhood":"Trinity Quarter","city_fetched":"Leeds,UK","country":"United Kingdom","canonicalUrl":"https://foursquare.com/v/the-turks-head/56accd33498e3861fab818ba","categoryId":"4bf58dd8d48988d11b941735","category":"Pub","checkinsCount":86,"usersCount":59,"tipCount":4,"visitsCount":94,"tier":"","message":"","currency":"","rating":8.4},{"name":"Black Swan","twitter":"blackswanleeds","address":"37 Call Lane","lat":53.79550879082964,"lng":-1.5412387852458265,"neighborhood":"City and Holbeck","city_fetched":"Leeds,UK","state":"Leeds","country":"United Kingdom","canonicalUrl":"https://foursquare.com/v/black-swan/544ff790498e62026ec945e1","categoryId":"4bf58dd8d48988d116941735","category":"Bar","checkinsCount":156,"usersCount":100,"tipCount":5,"visitsCount":158,"tier":"","message":"","currency":"","rating":8.4},{"name":"Al's Dime Bar","twitter":"alsdimebar","address":"10 North Parade","lat":53.796659,"lng":-1.755789,"neighborhood":"City","city_fetched":"Leeds,UK","state":"Bradford","country":"United Kingdom","canonicalUrl":"https://foursquare.com/alsdimebar","categoryId":"4bf58dd8d48988d118941735","category":"Dive Bar","checkinsCount":94,"usersCount":54,"tipCount":10,"visitsCount":105,"url":"http://www.alsdimebar.com","tier":"","message":"","currency":"","rating":8.3},{"name":"Blind Tyger Drinking Den","lat":53.800841322753584,"lng":-1.5407070976776367,"neighborhood":"City and Holbeck","city_fetched":"Leeds,UK","country":"United Kingdom","canonicalUrl":"https://foursquare.com/v/blind-tyger-drinking-den/528fdd65498e077afbc70c70","categoryId":"4bf58dd8d48988d11e941735","category":"Cocktail Bar","checkinsCount":89,"usersCount":56,"tipCount":1,"visitsCount":89,"tier":"","message":"","currency":"","rating":8.3},{"name":"The Reliance","phone":"+441132956060","twitter":"the_reliance","address":"76-78 North St","lat":53.80171533020895,"lng":-1.5379142761230469,"city_fetched":"Leeds,UK","state":"Leeds","country":"United Kingdom","canonicalUrl":"https://foursquare.com/v/the-reliance/4b76d27df964a520c4612ee3","categoryId":"4bf58dd8d48988d116941735","category":"Bar","checkinsCount":1307,"usersCount":583,"tipCount":18,"visitsCount":1498,"url":"http://www.the-reliance.co.uk","tier":"","message":"","currency":"","rating":8.3},{"name":"The Brewery Tap","phone":"+441132434414","twitter":"brewerytapleeds","address":"18 New Station St","lat":53.79510609837827,"lng":-1.5452420711517334,"neighborhood":"Trinity Quarter","city_fetched":"Leeds,UK","country":"United Kingdom","canonicalUrl":"https://foursquare.com/v/the-brewery-tap/4b2fa3c8f964a52050ed24e3","categoryId":"4bf58dd8d48988d11b941735","category":"Pub","checkinsCount":2110,"usersCount":981,"tipCount":31,"visitsCount":2180,"url":"http://www.brewerytapleeds.co.uk","tier":3,"message":"Expensive","currency":"£","rating":8.3},{"name":"Sela","phone":"+441132429422","twitter":"selabar","address":"20 New Briggate","lat":53.799446,"lng":-1.541847,"neighborhood":"City and Holbeck","city_fetched":"Leeds,UK","country":"United Kingdom","canonicalUrl":"https://foursquare.com/v/sela/4b59e016f964a520989d28e3","categoryId":"4bf58dd8d48988d116941735","category":"Bar","checkinsCount":778,"usersCount":391,"tipCount":19,"visitsCount":789,"url":"http://www.selabar.com/index.html","tier":"","message":"","currency":"","rating":8.3},{"name":"The Cross Keys","phone":"+441132433711","address":"107 Water Lane","lat":53.791692720000114,"lng":-1.5525124341536305,"neighborhood":"Holbeck Urban Village","city_fetched":"Leeds,UK","country":"United Kingdom","canonicalUrl":"https://foursquare.com/v/the-cross-keys/4b47a5dcf964a520f03826e3","categoryId":"4bf58dd8d48988d11b941735","category":"Pub","checkinsCount":1095,"usersCount":550,"tipCount":26,"visitsCount":1270,"tier":"","message":"","currency":"","rating":8.2},{"name":"The Maven","phone":"+441132436047","address":"First Floor, 1 Call Lane","lat":53.79644957404276,"lng":-1.5396523475646973,"neighborhood":"City and Holbeck","city_fetched":"Leeds,UK","country":"United Kingdom","canonicalUrl":"https://foursquare.com/v/the-maven/4e88d0a361afa8c25f5a18d5","categoryId":"4bf58dd8d48988d116941735","category":"Bar","checkinsCount":560,"usersCount":407,"tipCount":14,"visitsCount":711,"url":"http://www.themavenbar.com","tier":"","message":"","currency":"","rating":8.2},{"name":"Candlebar","phone":"+441132446655","twitter":"candlebarleeds","address":"Candle House, Granary Wharf","lat":53.79315071310481,"lng":-1.5505791615771531,"neighborhood":"Holbeck Urban Village","city_fetched":"Leeds,UK","state":"Leeds","country":"United Kingdom","canonicalUrl":"https://foursquare.com/v/candlebar/553cd3a9498e53f7c32def55","categoryId":"4bf58dd8d48988d116941735","category":"Bar","checkinsCount":122,"usersCount":74,"tipCount":4,"visitsCount":132,"tier":"","message":"","currency":"","rating":8.1},{"name":"The Alchemist","phone":"+441132460540","twitter":"thealchemisttl","address":"Level 1.117 Trinity Leeds Shopping Centre","lat":53.79613503628118,"lng":-1.5438759620867166,"neighborhood":"Trinity Quarter","city_fetched":"Leeds,UK","country":"United Kingdom","canonicalUrl":"https://foursquare.com/v/the-alchemist/514c5f8ee4b08183ec35b0fe","categoryId":"4bf58dd8d48988d116941735","category":"Bar","checkinsCount":1252,"usersCount":752,"tipCount":32,"visitsCount":1265,"url":"http://www.thealchemist.uk.com","tier":3,"message":"Expensive","currency":"£","rating":8.1},{"name":"The Mews","phone":"+441937580201","twitter":"markettowntavs","address":"16 Bank St.","lat":53.92903228525748,"lng":-1.3863801956176758,"neighborhood":"Wetherby","city_fetched":"Leeds,UK","country":"United Kingdom","canonicalUrl":"https://foursquare.com/v/the-mews/4c237239fbe5c9b6e06b9b21","categoryId":"4bf58dd8d48988d11b941735","category":"Pub","checkinsCount":858,"usersCount":94,"tipCount":7,"visitsCount":891,"url":"http://www.mewswetherby.co.uk","tier":"","message":"","currency":"","rating":8.1},{"name":"Calls Landing | Stew & Oyster","phone":"+441132425299","twitter":"callslanding","address":"36-38 Calls Landing","lat":53.79472434294799,"lng":-1.5385029330564293,"neighborhood":"The Calls","city_fetched":"Leeds,UK","country":"United Kingdom","canonicalUrl":"https://foursquare.com/v/calls-landing--stew--oyster/4b982150f964a520842e35e3","categoryId":"4bf58dd8d48988d116941735","category":"Bar","checkinsCount":1371,"usersCount":611,"tipCount":24,"visitsCount":1478,"url":"http://stewandoyster.com/locations/calls-landing/","tier":"","message":"","currency":"","rating":8},{"name":"Angelica","phone":"+441138970099","twitter":"angelicaleeds","address":"Level 6 Trinity Leeds, 70 Boar Lane","lat":53.796351349685864,"lng":-1.5435254573822021,"neighborhood":"Trinity Quarter","city_fetched":"Leeds,UK","country":"United Kingdom","canonicalUrl":"https://foursquare.com/v/angelica/5151807bd86c8e3732743735","categoryId":"4bf58dd8d48988d11e941735","category":"Cocktail Bar","checkinsCount":793,"usersCount":496,"tipCount":14,"visitsCount":812,"url":"http://www.danddlondon.com","tier":3,"message":"Expensive","currency":"£","rating":8},{"name":"Phantom Lounge","address":"Unit 5, Roseville Road Insustrial Estate","lat":53.806247,"lng":-1.528891,"neighborhood":"University","city_fetched":"Leeds,UK","country":"United Kingdom","canonicalUrl":"https://foursquare.com/v/phantom-lounge/4d1bc7134ff98cfad570b53e","categoryId":"4bf58dd8d48988d121941735","category":"Lounge","checkinsCount":533,"usersCount":286,"tipCount":9,"visitsCount":1208,"tier":"","message":"","currency":"","rating":8},{"name":"Dry Dock","phone":"+441132031840","address":"Woodhouse Ln","lat":53.80462990491459,"lng":-1.5477848052978516,"neighborhood":"Leeds City Centre","city_fetched":"Leeds,UK","country":"United Kingdom","canonicalUrl":"https://foursquare.com/v/dry-dock/4b479efef964a520be3726e3","categoryId":"4bf58dd8d48988d11b941735","category":"Pub","checkinsCount":2343,"usersCount":989,"tipCount":22,"visitsCount":2515,"url":"http://www.screampubs.co.uk/dry-dock-leeds","tier":"","message":"","currency":"","rating":8},{"name":"Roxy Ballroom","address":"1st Floor Trinity Square","lat":53.79588410356923,"lng":-1.544368270740085,"neighborhood":"Trinity Quarter","city_fetched":"Leeds,UK","country":"United Kingdom","canonicalUrl":"https://foursquare.com/v/roxy-ballroom/52a22d1711d25d62d2c4c329","categoryId":"4bf58dd8d48988d116941735","category":"Bar","checkinsCount":483,"usersCount":298,"tipCount":8,"visitsCount":503,"tier":"","message":"","currency":"","rating":8},{"name":"Town Hall Tavern","phone":"+441132440765","address":"17 Westgate","lat":53.799646,"lng":-1.551402,"neighborhood":"Leeds City Centre","city_fetched":"Leeds,UK","country":"United Kingdom","canonicalUrl":"https://foursquare.com/v/town-hall-tavern/4bad09a0f964a52022273be3","categoryId":"4bf58dd8d48988d11b941735","category":"Pub","checkinsCount":559,"usersCount":423,"tipCount":20,"visitsCount":712,"url":"http://www.townhalltavernleeds.co.uk","tier":"","message":"","currency":"","rating":8},{"name":"The Hop","phone":"+441132439854","twitter":"thehopleeds","address":"Neville St","lat":53.79360414303248,"lng":-1.5492010116577148,"neighborhood":"Holbeck Urban Village","city_fetched":"Leeds,UK","country":"United Kingdom","canonicalUrl":"https://foursquare.com/v/the-hop/4babcc59f964a520dbca3ae3","categoryId":"4bf58dd8d48988d116941735","category":"Bar","checkinsCount":1902,"usersCount":957,"tipCount":25,"visitsCount":1964,"url":"http://thehopleeds.co.uk","tier":2,"message":"Moderate","currency":"£","rating":8},{"name":"Tapped","phone":"+441132441953","twitter":"tappedleeds","address":"Trinity Shopping Centre","lat":53.795930944140544,"lng":-1.546059812737511,"neighborhood":"Trinity Quarter","city_fetched":"Leeds,UK","state":"Leeds","country":"United Kingdom","canonicalUrl":"https://foursquare.com/v/tapped/52a74ff3498e1771bc591208","categoryId":"4bf58dd8d48988d116941735","category":"Bar","checkinsCount":1395,"usersCount":719,"tipCount":22,"visitsCount":1761,"url":"http://tappedleeds.co.uk","tier":2,"message":"Moderate","currency":"£","rating":8},{"name":"Coopers","phone":"+441943878835","twitter":"markettowntavs","address":"4-6 Otley Rd","lat":53.872504,"lng":-1.709326,"neighborhood":"Guiseley","city_fetched":"Leeds,UK","country":"United Kingdom","canonicalUrl":"https://foursquare.com/v/coopers/4bf2e4276991c9b6cea029e9","categoryId":"4bf58dd8d48988d11b941735","category":"Pub","checkinsCount":538,"usersCount":151,"tipCount":9,"visitsCount":629,"url":"http://www.mttcoopers.co.uk","tier":"","message":"","currency":"","rating":8},{"name":"Alfred","phone":"+441132780779","twitter":"alfred_bar","address":"6 Stonegate Road","lat":53.82814184249203,"lng":-1.5664315223693848,"neighborhood":"Meanwood","city_fetched":"Leeds,UK","country":"United Kingdom","canonicalUrl":"https://foursquare.com/v/alfred/4d4575622e326ea8ca63eea6","categoryId":"4bf58dd8d48988d116941735","category":"Bar","checkinsCount":467,"usersCount":151,"tipCount":2,"visitsCount":523,"tier":"","message":"","currency":"","rating":7.9},{"name":"The Windmill Inn","address":"Main Street","lat":53.915843249972255,"lng":-1.4080733976528899,"neighborhood":"Linton","city_fetched":"Leeds,UK","state":"Leeds","country":"United Kingdom","canonicalUrl":"https://foursquare.com/v/the-windmill-inn/4ce6eec0b9975481e52af344","categoryId":"4bf58dd8d48988d11b941735","category":"Pub","checkinsCount":118,"usersCount":48,"tipCount":3,"visitsCount":138,"tier":"","message":"","currency":"","rating":7.9},{"name":"Stew & Oyster (Oakwood)","twitter":"stewoysteroakwd","address":"488 Roundhay Road","lat":53.82702735022139,"lng":-1.5054917335510254,"neighborhood":"Roundhay","city_fetched":"Leeds,UK","country":"United Kingdom","canonicalUrl":"https://foursquare.com/v/stew--oyster-oakwood/4f9ecd961081e4cc15310c1f","categoryId":"4bf58dd8d48988d116941735","category":"Bar","checkinsCount":399,"usersCount":108,"tipCount":11,"visitsCount":442,"tier":"","message":"","currency":"","rating":7.9},{"name":"Smokestack","phone":"+441132452222","twitter":"smokestackleeds","address":"159a Lower Briggate","lat":53.7955560407758,"lng":-1.5424096584320068,"neighborhood":"City and Holbeck","city_fetched":"Leeds,UK","country":"United Kingdom","canonicalUrl":"https://foursquare.com/v/smokestack/4b560442f964a52024fc27e3","categoryId":"4bf58dd8d48988d116941735","category":"Bar","checkinsCount":1109,"usersCount":572,"tipCount":17,"visitsCount":1174,"tier":"","message":"","currency":"","rating":7.9},{"name":"Nation of Shopkeepers","phone":"+441132031831","twitter":"shopkeepers","address":"27-37 Cookridge St","lat":53.80071419041275,"lng":-1.5475380420684814,"neighborhood":"Leeds City Centre","city_fetched":"Leeds,UK","state":"Leeds","country":"United Kingdom","canonicalUrl":"https://foursquare.com/v/nation-of-shopkeepers/4b327cc4f964a520e60c25e3","categoryId":"4bf58dd8d48988d11b941735","category":"Pub","checkinsCount":2991,"usersCount":1342,"tipCount":48,"visitsCount":3082,"url":"http://anationofshopkeepers.com","tier":2,"message":"Moderate","currency":"£","rating":7.9},{"name":"Viaduct Showbar","phone":"+441132454863","address":"11 Briggate","lat":53.79499836497529,"lng":-1.5427422523498535,"neighborhood":"Trinity Quarter","city_fetched":"Leeds,UK","country":"United Kingdom","canonicalUrl":"https://foursquare.com/v/viaduct-showbar/4b64daf2f964a5204dd52ae3","categoryId":"4bf58dd8d48988d1d8941735","category":"Gay Bar","checkinsCount":1190,"usersCount":442,"tipCount":11,"visitsCount":1289,"tier":"","message":"","currency":"","rating":7.8},{"name":"ShuffleDog","phone":"+441133912950","twitter":"shuffledogleeds","address":"Crispin House","lat":53.801072137607335,"lng":-1.538889399606132,"neighborhood":"University","city_fetched":"Leeds,UK","country":"United Kingdom","canonicalUrl":"https://foursquare.com/v/shuffledog/55a6543f498e19902d98d647","categoryId":"56aa371ce4b08b9a8d57356c","category":"Beer Bar","checkinsCount":450,"usersCount":284,"tipCount":4,"visitsCount":623,"url":"https://www.brewdog.com/bars/uk/shuffledogleeds","tier":"","message":"","currency":"","rating":7.8},{"name":"Arcadia","phone":"+441132745599","twitter":"arcadiabar","address":"34 Arndale Centre","lat":53.8227717433612,"lng":-1.5788984298706055,"neighborhood":"Headingley","city_fetched":"Leeds,UK","country":"United Kingdom","canonicalUrl":"https://foursquare.com/v/arcadia/4b8855f1f964a52022f031e3","categoryId":"4bf58dd8d48988d116941735","category":"Bar","checkinsCount":1360,"usersCount":485,"tipCount":14,"visitsCount":1735,"tier":"","message":"","currency":"","rating":7.7},{"name":"Revolution","phone":"+441133804992","twitter":"revolutionbars","address":"Electric Press","lat":53.80130980810831,"lng":-1.5477848052978516,"neighborhood":"Leeds City Centre","city_fetched":"Leeds,UK","country":"United Kingdom","canonicalUrl":"https://foursquare.com/v/revolution/4b6c7510f964a520b73b2ce3","categoryId":"4bf58dd8d48988d11e941735","category":"Cocktail Bar","checkinsCount":1645,"usersCount":904,"tipCount":14,"visitsCount":1681,"url":"https://www.revolution-bars.co.uk/electricpress","tier":"","message":"","currency":"","rating":7.7},{"name":"Brooklyn Bar","phone":"+441132443932","address":"50 Call Lane","lat":53.795087086621386,"lng":-1.5413475036621094,"neighborhood":"City and Holbeck","city_fetched":"Leeds,UK","country":"United Kingdom","canonicalUrl":"https://foursquare.com/v/brooklyn-bar/4c0bf650bbc676b004564cd5","categoryId":"4bf58dd8d48988d116941735","category":"Bar","checkinsCount":566,"usersCount":323,"tipCount":4,"visitsCount":575,"tier":"","message":"","currency":"","rating":7.7},{"name":"The Library","phone":"+441132440794","address":"229 Woodhouse Ln.","lat":53.81079759022744,"lng":-1.5566765769553168,"neighborhood":"Hyde Park","city_fetched":"Leeds,UK","country":"United Kingdom","canonicalUrl":"https://foursquare.com/v/the-library/4b47a012f964a520e83726e3","categoryId":"4bf58dd8d48988d11b941735","category":"Pub","checkinsCount":1203,"usersCount":864,"tipCount":12,"visitsCount":1665,"tier":"","message":"","currency":"","rating":7.7},{"name":"Canal Mills","lat":53.79637491229179,"lng":-1.5677820014064034,"city_fetched":"Leeds,UK","state":"Leeds","country":"United Kingdom","canonicalUrl":"https://foursquare.com/v/canal-mills/504959eaf470ab1aca7acdf4","categoryId":"4bf58dd8d48988d11f941735","category":"Nightclub","checkinsCount":99,"usersCount":142,"tipCount":1,"visitsCount":212,"tier":"","message":"","currency":"","rating":7.6},{"name":"Manahatta","phone":"+441132456275","twitter":"manahattaleeds","address":"11 Merrion Street","lat":53.80054738408871,"lng":-1.5407289416293968,"neighborhood":"City and Holbeck","city_fetched":"Leeds,UK","state":"Leeds","country":"United Kingdom","canonicalUrl":"https://foursquare.com/v/manahatta/5444e415498ed34e0146f128","categoryId":"4bf58dd8d48988d116941735","category":"Bar","checkinsCount":136,"usersCount":73,"tipCount":0,"visitsCount":136,"url":"http://arcinspirations.com/manahatta","tier":3,"message":"Expensive","currency":"£","rating":7.6},{"name":"The Pit","phone":"+441132470601","twitter":"thepitleeds","address":"9 Merrion St","lat":53.800305490397584,"lng":-1.5400385856628418,"city_fetched":"Leeds,UK","state":"Leeds","country":"United Kingdom","canonicalUrl":"https://foursquare.com/v/the-pit/521fa1b811d2f85030f17b1f","categoryId":"4bf58dd8d48988d116941735","category":"Bar","checkinsCount":401,"usersCount":283,"tipCount":20,"visitsCount":414,"url":"http://arcinspirations.com/pit","tier":"","message":"","currency":"","rating":7.6},{"name":"Cuvee","phone":"+441133182808","twitter":"cuveeleeds","address":"Waterman's Place","lat":53.79311952195383,"lng":-1.5486291587224126,"neighborhood":"Holbeck Urban Village","city_fetched":"Leeds,UK","country":"United Kingdom","canonicalUrl":"https://foursquare.com/v/cuvee/502fe9cbe4b01a9d9f0554c2","categoryId":"4bf58dd8d48988d123941735","category":"Wine Bar","checkinsCount":95,"usersCount":57,"tipCount":3,"visitsCount":95,"url":"http://cuveeleeds.com","tier":"","message":"","currency":"","rating":7.6},{"name":"The Old Unicorn (Wetherspoon)","phone":"+441132564465","address":"Stocks Hill, Town St","lat":53.81078786166617,"lng":-1.6272211074829102,"neighborhood":"Bramley","city_fetched":"Leeds,UK","country":"United Kingdom","canonicalUrl":"https://foursquare.com/v/the-old-unicorn-wetherspoon/4bb723ccf562ef3b9c0d3197","categoryId":"4bf58dd8d48988d11b941735","category":"Pub","checkinsCount":321,"usersCount":98,"tipCount":4,"visitsCount":409,"tier":"","message":"","currency":"","rating":7.6},{"name":"Veeno","phone":"+441132433401","twitter":"veeno_uk","address":"7 Duncan Street","lat":53.796082,"lng":-1.541903,"neighborhood":"Leeds City Centre","city_fetched":"Leeds,UK","country":"United Kingdom","canonicalUrl":"https://foursquare.com/v/veeno/53dbc251498eeb368e8c8d78","categoryId":"4bf58dd8d48988d123941735","category":"Wine Bar","checkinsCount":36,"usersCount":31,"tipCount":2,"visitsCount":36,"url":"http://www.theveenocompany.com","tier":"","message":"","currency":"","rating":7.6},{"name":"Revolucion de Cuba","lat":53.794690120596044,"lng":-1.542112105399663,"neighborhood":"The Calls","city_fetched":"Leeds,UK","country":"United Kingdom","canonicalUrl":"https://foursquare.com/v/revolucion-de-cuba/562fd599498e08f2c67d6abe","categoryId":"4bf58dd8d48988d11e941735","category":"Cocktail Bar","checkinsCount":146,"usersCount":113,"tipCount":2,"visitsCount":196,"tier":"","message":"","currency":"","rating":7.6},{"name":"Browns Bar & Brasserie","phone":"+441132439353","address":"The Light, The Headrow","lat":53.79976414117059,"lng":-1.546980921149765,"neighborhood":"Leeds City Centre","city_fetched":"Leeds,UK","state":"Leeds","country":"United Kingdom","canonicalUrl":"https://foursquare.com/v/browns-bar--brasserie/4b45b386f964a5206b0f26e3","categoryId":"4bf58dd8d48988d123941735","category":"Wine Bar","checkinsCount":1223,"usersCount":802,"tipCount":29,"visitsCount":1229,"url":"http://www.browns-restaurants.co.uk/locations/leeds/","tier":"","message":"","currency":"","rating":7.5},{"name":"The Rodley Barge","phone":"+441132574606","twitter":"therodleybarge","address":"182-184 Town St.","lat":53.823173,"lng":-1.662487,"neighborhood":"Rodley","city_fetched":"Leeds,UK","country":"United Kingdom","canonicalUrl":"https://foursquare.com/therodleybarge","categoryId":"4bf58dd8d48988d11b941735","category":"Pub","checkinsCount":837,"usersCount":121,"tipCount":3,"visitsCount":844,"url":"http://www.therodley-barge.co.uk","tier":"","message":"","currency":"","rating":7.5},{"name":"Roland's","address":"Call Lane","lat":53.79526901245117,"lng":-1.5412503480911255,"neighborhood":"City and Holbeck","city_fetched":"Leeds,UK","state":"Leeds","country":"United Kingdom","canonicalUrl":"https://foursquare.com/v/rolands/535e9e3c498e5ed7d7020236","categoryId":"4bf58dd8d48988d116941735","category":"Bar","checkinsCount":146,"usersCount":72,"tipCount":4,"visitsCount":148,"tier":"","message":"","currency":"","rating":7.5},{"name":"MOJO","phone":"+448456118643","address":"18 Merrion Street","lat":53.800584,"lng":-1.540395,"neighborhood":"Northern Quarter","city_fetched":"Leeds,UK","state":"Leeds","country":"United Kingdom","canonicalUrl":"https://foursquare.com/v/mojo/4b47a329f964a5207c3826e3","categoryId":"4bf58dd8d48988d11e941735","category":"Cocktail Bar","checkinsCount":1271,"usersCount":538,"tipCount":22,"visitsCount":1292,"url":"http://www.mojobar.co.uk","tier":"","message":"","currency":"","rating":7.5},{"name":"The Clothiers' Arms (Wetherspoon)","twitter":"jdwtweet","address":"56 High St.","lat":53.86600999061442,"lng":-1.6817982743051678,"neighborhood":"Yeadon","city_fetched":"Leeds,UK","country":"United Kingdom","canonicalUrl":"https://foursquare.com/v/the-clothiers-arms-wetherspoon/4c09909f6071a5932d2ede32","categoryId":"4bf58dd8d48988d11b941735","category":"Pub","checkinsCount":256,"usersCount":79,"tipCount":4,"visitsCount":260,"url":"http://www.jdwetherspoon.co.uk","tier":"","message":"","currency":"","rating":7.5},{"name":"Stylus","phone":"+441133801342","address":"Leeds University Union","lat":53.806340539190344,"lng":-1.5561962127685547,"neighborhood":"Woodhouse","city_fetched":"Leeds,UK","country":"United Kingdom","canonicalUrl":"https://foursquare.com/v/stylus/4b6201baf964a52020302ae3","categoryId":"4bf58dd8d48988d11f941735","category":"Nightclub","checkinsCount":552,"usersCount":228,"tipCount":1,"visitsCount":557,"tier":"","message":"","currency":"","rating":7.5},{"name":"The Restaurant, Bar & Grill","phone":"+441132449625","address":"3 City Square","lat":53.796510457790774,"lng":-1.547691438386632,"neighborhood":"Financial Quarter","city_fetched":"Leeds,UK","state":"Leeds","country":"United Kingdom","canonicalUrl":"https://foursquare.com/v/the-restaurant-bar--grill/4b4ce730f964a52094c326e3","categoryId":"4bf58dd8d48988d116941735","category":"Bar","checkinsCount":1382,"usersCount":569,"tipCount":18,"visitsCount":1387,"url":"http://www.individualrestaurants.com/bar-and-grill/leeds/","tier":"","message":"","currency":"","rating":7.5},{"name":"Lazy Lounge","address":"Wellington Street","lat":53.79580752925341,"lng":-1.552948097474863,"neighborhood":"Leeds City Centre","city_fetched":"Leeds,UK","country":"United Kingdom","canonicalUrl":"https://foursquare.com/v/lazy-lounge/4b744436f964a5202dd12de3","categoryId":"4bf58dd8d48988d123941735","category":"Wine Bar","checkinsCount":453,"usersCount":232,"tipCount":7,"visitsCount":470,"tier":"","message":"","currency":"","rating":7.4},{"name":"Trio's Bar and Grill","phone":"+441132036090","address":"44-46 North Ln, Headingley","lat":53.82006601975598,"lng":-1.5810400917579501,"neighborhood":"Headingley","city_fetched":"Leeds,UK","country":"United Kingdom","canonicalUrl":"https://foursquare.com/v/trios-bar-and-grill/4b80824cf964a520a87830e3","categoryId":"4bf58dd8d48988d116941735","category":"Bar","checkinsCount":508,"usersCount":319,"tipCount":1,"visitsCount":537,"url":"http://www.arcinspirations.com/trio/","tier":"","message":"","currency":"","rating":7.4},{"name":"West End House","phone":"+441132786332","lat":53.81715230125699,"lng":-1.6020575937575283,"neighborhood":"Kirkstall","city_fetched":"Leeds,UK","state":"Leeds","country":"United Kingdom","canonicalUrl":"https://foursquare.com/v/west-end-house/4c08ed64bbc676b0ee3d47d5","categoryId":"4bf58dd8d48988d11b941735","category":"Pub","checkinsCount":492,"usersCount":161,"tipCount":9,"visitsCount":583,"url":"http://www.westendleeds.co.uk","tier":"","message":"","currency":"","rating":7.4},{"name":"The Templar Hotel","phone":"+441132430318","twitter":"templarhotel","address":"Templar Street","lat":53.80009952525839,"lng":-1.5392961483431078,"neighborhood":"City and Holbeck","city_fetched":"Leeds,UK","state":"Leeds","country":"United Kingdom","canonicalUrl":"https://foursquare.com/v/the-templar-hotel/4dd942c67d8b3226641be635","categoryId":"4bf58dd8d48988d11b941735","category":"Pub","checkinsCount":353,"usersCount":81,"tipCount":7,"visitsCount":355,"tier":"","message":"","currency":"","rating":7.4},{"name":"The Fleece","address":"61 Westgate","lat":53.904146908581374,"lng":-1.7004332137904044,"neighborhood":"Otley and Wharfedale","city_fetched":"Leeds,UK","state":"Leeds","country":"United Kingdom","canonicalUrl":"https://foursquare.com/v/the-fleece/4d83d49599b78cfa95dea91f","categoryId":"4bf58dd8d48988d11b941735","category":"Pub","checkinsCount":438,"usersCount":119,"tipCount":11,"visitsCount":471,"tier":"","message":"","currency":"","rating":7.4},{"name":"Town Street Tavern","phone":"+441132819996","twitter":"markettowntavs","address":"16-18 Town St","lat":53.837335272432504,"lng":-1.6414690017700195,"neighborhood":"Horsforth","city_fetched":"Leeds,UK","country":"United Kingdom","canonicalUrl":"https://foursquare.com/v/town-street-tavern/4bcb6b29b6c49c74592e9291","categoryId":"4bf58dd8d48988d116941735","category":"Bar","checkinsCount":409,"usersCount":149,"tipCount":9,"visitsCount":436,"tier":"","message":"","currency":"","rating":7.4},{"name":"East Of Arcadia","phone":"+441132755488","twitter":"markettowntavs","address":"607 Meanwood Road","lat":53.8277798,"lng":-1.5666987333333333,"neighborhood":"Meanwood","city_fetched":"Leeds,UK","country":"United Kingdom","canonicalUrl":"https://foursquare.com/v/east-of-arcadia/4ce303f64df7a35dec6de079","categoryId":"4bf58dd8d48988d11b941735","category":"Pub","checkinsCount":366,"usersCount":147,"tipCount":12,"visitsCount":370,"tier":"","message":"","currency":"","rating":7.4},{"name":"The Ship","phone":"+441132468031","address":"71A Briggate","lat":53.79814153169186,"lng":-1.5427637100219727,"neighborhood":"Leeds City Centre","city_fetched":"Leeds,UK","country":"United Kingdom","canonicalUrl":"https://foursquare.com/v/the-ship/4c47143b76d72d7f76f93b4d","categoryId":"4bf58dd8d48988d11b941735","category":"Pub","checkinsCount":486,"usersCount":263,"tipCount":3,"visitsCount":509,"tier":"","message":"","currency":"","rating":7.4},{"name":"The Botanist","phone":"+441132053240","twitter":"thebotanisttl","address":"67 Boar Ln","lat":53.79616982655554,"lng":-1.5433864787923957,"neighborhood":"Trinity Quarter","city_fetched":"Leeds,UK","country":"United Kingdom","canonicalUrl":"https://foursquare.com/v/the-botanist/5155b921e4b076976b4956fa","categoryId":"4bf58dd8d48988d116941735","category":"Bar","checkinsCount":1186,"usersCount":626,"tipCount":31,"visitsCount":1234,"url":"http://www.thebotanist.uk.com","tier":2,"message":"Moderate","currency":"£","rating":7.4},{"name":"Santiago","phone":"+441132444472","twitter":"santiagosleeds","address":"Grand Arcade","lat":53.80013398830143,"lng":-1.5397021687161092,"city_fetched":"Leeds,UK","state":"Leeds","country":"United Kingdom","canonicalUrl":"https://foursquare.com/v/santiago/4b8ebb00f964a5209f3333e3","categoryId":"4bf58dd8d48988d116941735","category":"Bar","checkinsCount":1057,"usersCount":250,"tipCount":14,"visitsCount":1069,"url":"http://www.santiagobarleeds.com","tier":"","message":"","currency":"","rating":7.3},{"name":"The Old Peacock","phone":"+441132710997","address":"Elland Rd","lat":53.77698041598112,"lng":-1.5706323880042605,"neighborhood":"Elland Road","city_fetched":"Leeds,UK","country":"United Kingdom","canonicalUrl":"https://foursquare.com/v/the-old-peacock/4bc368b5f8219c74e20bb610","categoryId":"4bf58dd8d48988d11b941735","category":"Pub","checkinsCount":389,"usersCount":134,"tipCount":3,"visitsCount":401,"tier":"","message":"","currency":"","rating":7.3},{"name":"Preston (North Bar)","twitter":"northbardrinks","address":"468 Roundhay Road","lat":53.82670756145351,"lng":-1.5061354637145996,"neighborhood":"Roundhay","city_fetched":"Leeds,UK","country":"United Kingdom","canonicalUrl":"https://foursquare.com/v/preston-north-bar/51603e2b8acab7c0ec7afa9d","categoryId":"4bf58dd8d48988d116941735","category":"Bar","checkinsCount":189,"usersCount":70,"tipCount":3,"visitsCount":214,"tier":"","message":"","currency":"","rating":7.3},{"name":"SkyLounge","phone":"+441132411007","twitter":"skyloungeleeds","address":"13th Floor, Granary Wharf, 2 Wharf Approach","lat":53.792970390464966,"lng":-1.5494585037231445,"neighborhood":"Holbeck Urban Village","city_fetched":"Leeds,UK","state":"Leeds","country":"United Kingdom","canonicalUrl":"https://foursquare.com/v/skylounge/4b3282e0f964a520760d25e3","categoryId":"4bf58dd8d48988d121941735","category":"Lounge","checkinsCount":1444,"usersCount":946,"tipCount":25,"visitsCount":1455,"url":"http://doubletree3.hilton.com/en/hotels/united-kingdom/doubletree-by-hilton-hotel-leeds-city-centre-LBACCDI/dining/index.html","tier":3,"message":"Expensive","currency":"£","rating":7.3},{"name":"Mr Foleys","phone":"+441132429674","twitter":"mrfoleys","address":"159 The Headrow","lat":53.79968892268168,"lng":-1.5490805385539748,"neighborhood":"Financial Quarter","city_fetched":"Leeds,UK","country":"United Kingdom","canonicalUrl":"https://foursquare.com/v/mr-foleys/4b4cb3e9f964a520e4ba26e3","categoryId":"4bf58dd8d48988d11b941735","category":"Pub","checkinsCount":1534,"usersCount":633,"tipCount":26,"visitsCount":1643,"tier":"","message":"","currency":"","rating":7.3},{"name":"The Pour House","phone":"+447816481492","twitter":"pourhouseleeds","address":"Canal Wharf","lat":53.79286964910599,"lng":-1.5490385173159533,"neighborhood":"Holbeck Urban Village","city_fetched":"Leeds,UK","country":"United Kingdom","canonicalUrl":"https://foursquare.com/v/the-pour-house/50956a8ee4b09d8b5ead299f","categoryId":"4bf58dd8d48988d11b941735","category":"Pub","checkinsCount":641,"usersCount":420,"tipCount":15,"visitsCount":805,"url":"http://thepourhouseleeds.co.uk","tier":"","message":"","currency":"","rating":7.3},{"name":"Veritas","phone":"+441132428094","twitter":"markettowntavs","address":"43 Great George St.","lat":53.80099488141362,"lng":-1.55113375334263,"neighborhood":"Leeds City Centre","city_fetched":"Leeds,UK","country":"United Kingdom","canonicalUrl":"https://foursquare.com/v/veritas/4cbb6322f796ef3bab970080","categoryId":"4bf58dd8d48988d123941735","category":"Wine Bar","checkinsCount":821,"usersCount":453,"tipCount":16,"visitsCount":979,"tier":"","message":"","currency":"","rating":7.3},{"name":"HiFi Club","phone":"+441132427353","twitter":"hificlubleeds","address":"2 Central Rd.","lat":53.7960376639089,"lng":-1.5414762496948242,"neighborhood":"Leeds City Centre","city_fetched":"Leeds,UK","country":"United Kingdom","canonicalUrl":"https://foursquare.com/v/hifi-club/4b770204f964a520fc732ee3","categoryId":"4bf58dd8d48988d11f941735","category":"Nightclub","checkinsCount":373,"usersCount":270,"tipCount":5,"visitsCount":373,"url":"http://www.thehificlub.co.uk","tier":"","message":"","currency":"","rating":7.2},{"name":"Harvey Nichols Fourth Floor Bar","twitter":"harveynichols","address":"107 Briggate","lat":53.79768528017116,"lng":-1.5421628952026367,"neighborhood":"Leeds City Centre","city_fetched":"Leeds,UK","state":"Leeds","country":"United Kingdom","canonicalUrl":"https://foursquare.com/v/harvey-nichols-fourth-floor-bar/504505b7183fcb060e8d6acd","categoryId":"4bf58dd8d48988d116941735","category":"Bar","checkinsCount":113,"usersCount":72,"tipCount":3,"visitsCount":113,"url":"http://www.harveynichols.com","tier":"","message":"","currency":"","rating":7.2},{"name":"The Warehouse","phone":"+441132343535","address":"19 - 21 Somers Street","lat":53.79883473746455,"lng":-1.553614964737341,"neighborhood":"Financial Quarter","city_fetched":"Leeds,UK","country":"United Kingdom","canonicalUrl":"https://foursquare.com/v/the-warehouse/4bbf2b4bba9776b030a3fec8","categoryId":"4bf58dd8d48988d11f941735","category":"Nightclub","checkinsCount":156,"usersCount":102,"tipCount":0,"visitsCount":160,"tier":"","message":"","currency":"","rating":7.2},{"name":"The Brotherhood of Pursuits and Pastimes","phone":"+441132434060","twitter":"brotherhoodlds","address":"54 New Briggate","lat":53.800429,"lng":-1.540679,"city_fetched":"Leeds,UK","state":"Leeds","country":"United Kingdom","canonicalUrl":"https://foursquare.com/v/the-brotherhood-of-pursuits-and-pastimes/545eac5c498e128ccabb67fe","categoryId":"4bf58dd8d48988d116941735","category":"Bar","checkinsCount":183,"usersCount":82,"tipCount":4,"visitsCount":191,"url":"http://thisisthebrotherhood.com","tier":"","message":"","currency":"","rating":7.2},{"name":"Épernay Champagne Bar","address":"41 Cookridge St","lat":53.801083,"lng":-1.547937,"neighborhood":"Leeds City Centre","city_fetched":"Leeds,UK","state":"Leeds","country":"United Kingdom","canonicalUrl":"https://foursquare.com/v/%C3%A9pernay-champagne-bar/4b328119f964a520580d25e3","categoryId":"4bf58dd8d48988d121941735","category":"Lounge","checkinsCount":387,"usersCount":260,"tipCount":11,"visitsCount":388,"tier":"","message":"","currency":"","rating":7.2},{"name":"Horse and Farrier","address":"7 Bridge St","lat":53.90674959103531,"lng":-1.6934596937825035,"neighborhood":"Otley and Wharfedale","city_fetched":"Leeds,UK","country":"United Kingdom","canonicalUrl":"https://foursquare.com/v/horse-and-farrier/4db0912ef7b1bd003acbafbd","categoryId":"4bf58dd8d48988d11b941735","category":"Pub","checkinsCount":381,"usersCount":83,"tipCount":7,"visitsCount":411,"tier":"","message":"","currency":"","rating":7.2},{"name":"The Tetley","phone":"+441133202323","twitter":"the_tetley","address":"Hunslet Road","lat":53.7922447013917,"lng":-1.5401003159133335,"city_fetched":"Leeds,UK","state":"Leeds","country":"United Kingdom","canonicalUrl":"https://foursquare.com/v/the-tetley/4c8dd615b3bcb60c1b7f5427","categoryId":"50327c8591d4c4b30a586d5d","category":"Brewery","checkinsCount":623,"usersCount":515,"tipCount":9,"visitsCount":972,"url":"http://thetetley.org","tier":"","message":"","currency":"","rating":7.2},{"name":"The White Swan","phone":"+441132420187","twitter":"whiteswanleeds","address":"Swan St","lat":53.798778,"lng":-1.542912,"neighborhood":"Leeds City Centre","city_fetched":"Leeds,UK","country":"United Kingdom","canonicalUrl":"https://foursquare.com/v/the-white-swan/4e63d09dd22d509a3a381356","categoryId":"4bf58dd8d48988d11b941735","category":"Pub","checkinsCount":1081,"usersCount":392,"tipCount":9,"visitsCount":1189,"url":"http://www.whiteswanleeds.co.uk","tier":"","message":"","currency":"","rating":7.2},{"name":"IT Bar","twitter":"itbarleeds","address":"57 - 59 Merrion  St","lat":53.80049276211744,"lng":-1.5410536215239994,"neighborhood":"City and Holbeck","city_fetched":"Leeds,UK","country":"United Kingdom","canonicalUrl":"https://foursquare.com/v/it-bar/515eb0ad498ec295ab6923f7","categoryId":"4bf58dd8d48988d116941735","category":"Bar","checkinsCount":179,"usersCount":119,"tipCount":5,"visitsCount":181,"tier":"","message":"","currency":"","rating":7.2},{"name":"The Reform","phone":"+441132444080","twitter":"thereformleeds","address":"12-14 Merrion St","lat":53.80044806062272,"lng":-1.5398240089416504,"neighborhood":"City and Holbeck","city_fetched":"Leeds,UK","country":"United Kingdom","canonicalUrl":"https://foursquare.com/v/the-reform/4b6dc3b7f964a520aa8d2ce3","categoryId":"4bf58dd8d48988d116941735","category":"Bar","checkinsCount":372,"usersCount":147,"tipCount":9,"visitsCount":372,"url":"http://reformbar.co.uk","tier":"","message":"","currency":"","rating":7.2},{"name":"The New Conservatory","phone":"+441132461853","twitter":"newconservator1","address":"Albion Place","lat":53.797648,"lng":-1.545064,"neighborhood":"Trinity Quarter","city_fetched":"Leeds,UK","country":"United Kingdom","canonicalUrl":"https://foursquare.com/v/the-new-conservatory/4cae2d101463a14382718aa9","categoryId":"4bf58dd8d48988d116941735","category":"Bar","checkinsCount":428,"usersCount":251,"tipCount":7,"visitsCount":433,"url":"http://www.thenewconservatory-cafebar.co.uk","tier":"","message":"","currency":"","rating":7.1},{"name":"Distrikt Bar","phone":"+441132433674","twitter":"distrikt_leeds","address":"7 Duncan St","lat":53.79611370916119,"lng":-1.5418624877929688,"neighborhood":"Leeds City Centre","city_fetched":"Leeds,UK","country":"United Kingdom","canonicalUrl":"https://foursquare.com/v/distrikt-bar/4b7afc0ef964a520224a2fe3","categoryId":"4bf58dd8d48988d116941735","category":"Bar","checkinsCount":346,"usersCount":220,"tipCount":12,"visitsCount":347,"url":"http://distrikt.co.uk","tier":"","message":"","currency":"","rating":7.1},{"name":"Terrace","phone":"+441133801318","address":"Leeds University Union","lat":53.80648625666187,"lng":-1.5563571453094482,"neighborhood":"Woodhouse","city_fetched":"Leeds,UK","country":"United Kingdom","canonicalUrl":"https://foursquare.com/v/terrace/4b5ec1dcf964a520bf9729e3","categoryId":"4bf58dd8d48988d116941735","category":"Bar","checkinsCount":1891,"usersCount":508,"tipCount":20,"visitsCount":1902,"url":"http://www.leedsuniversityunion.org.uk/terrace/","tier":"","message":"","currency":"","rating":7.1},{"name":"The Deer Park","phone":"+441132463211","twitter":"deerparkleeds","address":"68 Street Lane","lat":53.84435,"lng":-1.508961,"neighborhood":"Roundhay","city_fetched":"Leeds,UK","country":"United Kingdom","canonicalUrl":"https://foursquare.com/v/the-deer-park/4b6888b9f964a520637e2be3","categoryId":"4bf58dd8d48988d11b941735","category":"Pub","checkinsCount":493,"usersCount":180,"tipCount":12,"visitsCount":525,"url":"http://www.deerparkleeds.co.uk","tier":"","message":"","currency":"","rating":7.1},{"name":"The Picture House","phone":"+441132469297","address":"Merrion St.","lat":53.800923291205734,"lng":-1.544426679611206,"neighborhood":"City and Holbeck","city_fetched":"Leeds,UK","country":"United Kingdom","canonicalUrl":"https://foursquare.com/v/the-picture-house/4b4c7c95f964a5203ab426e3","categoryId":"4bf58dd8d48988d11b941735","category":"Pub","checkinsCount":507,"usersCount":279,"tipCount":3,"visitsCount":523,"url":"http://www.crowncarveries.co.uk/find-us/picture-house.html","tier":"","message":"","currency":"","rating":7.1},{"name":"The Regent","phone":"+441132939395","address":"15-17 Regent Street","lat":53.83035807423972,"lng":-1.5365731716156006,"neighborhood":"Chapel Allerton","city_fetched":"Leeds,UK","country":"United Kingdom","canonicalUrl":"https://foursquare.com/v/the-regent/4b75b233f964a520af1d2ee3","categoryId":"4bf58dd8d48988d11b941735","category":"Pub","checkinsCount":653,"usersCount":182,"tipCount":10,"visitsCount":766,"tier":"","message":"","currency":"","rating":7.1},{"name":"The Grove","phone":"+441132439254","address":"Back Row","lat":53.791044457473,"lng":-1.5478036271632825,"neighborhood":"Holbeck Urban Village","city_fetched":"Leeds,UK","country":"United Kingdom","canonicalUrl":"https://foursquare.com/v/the-grove/4ba116aef964a520ab9637e3","categoryId":"4bf58dd8d48988d11b941735","category":"Pub","checkinsCount":831,"usersCount":281,"tipCount":12,"visitsCount":892,"url":"http://thegroveinn.com","tier":"","message":"","currency":"","rating":7.1},{"name":"Hirst's Yard","address":"11-15 Hirst's Yard","lat":53.79572428171122,"lng":-1.5415152133428818,"neighborhood":"City and Holbeck","city_fetched":"Leeds,UK","state":"Leeds","country":"United Kingdom","canonicalUrl":"https://foursquare.com/v/hirsts-yard/4fa23770e4b0857bbd44d158","categoryId":"4bf58dd8d48988d116941735","category":"Bar","checkinsCount":175,"usersCount":120,"tipCount":4,"visitsCount":180,"tier":"","message":"","currency":"","rating":7.1},{"name":"The Alchemist","address":"Greek Street","lat":53.79837,"lng":-1.548806,"neighborhood":"Financial Quarter","city_fetched":"Leeds,UK","state":"Leeds","country":"United Kingdom","canonicalUrl":"https://foursquare.com/v/the-alchemist/5622beeb498ed81e9fd51bb5","categoryId":"4bf58dd8d48988d121941735","category":"Lounge","checkinsCount":98,"usersCount":102,"tipCount":3,"visitsCount":154,"tier":"","message":"","currency":"","rating":7},{"name":"The Roundhay Fox","phone":"+441132693352","address":"Princes Ave.","lat":53.839625,"lng":-1.5043155,"neighborhood":"Roundhay","city_fetched":"Leeds,UK","state":"Leeds","country":"United Kingdom","canonicalUrl":"https://foursquare.com/v/the-roundhay-fox/4b812f59f964a520b79930e3","categoryId":"4bf58dd8d48988d11b941735","category":"Pub","checkinsCount":736,"usersCount":452,"tipCount":12,"visitsCount":854,"url":"http://www.vintageinn.co.uk/theroundhayfoxleeds","tier":"","message":"","currency":"","rating":7},{"name":"Victoria Hotel","phone":"+441132451386","address":"28 Great George St","lat":53.800801344804114,"lng":-1.549363333738593,"neighborhood":"Leeds City Centre","city_fetched":"Leeds,UK","country":"United Kingdom","canonicalUrl":"https://foursquare.com/v/victoria-hotel/4b47a420f964a520a53826e3","categoryId":"4bf58dd8d48988d11b941735","category":"Pub","checkinsCount":774,"usersCount":405,"tipCount":11,"visitsCount":829,"tier":"","message":"","currency":"","rating":7},{"name":"Outlaws Yacht Club","phone":"+441132456869","twitter":"outlawyachtclub","address":"38 New York Street","lat":53.796546435654534,"lng":-1.537338482352489,"neighborhood":"City and Holbeck","city_fetched":"Leeds,UK","country":"United Kingdom","canonicalUrl":"https://foursquare.com/v/outlaws-yacht-club/508e7b59e4b066b588fb91a6","categoryId":"4bf58dd8d48988d116941735","category":"Bar","checkinsCount":490,"usersCount":261,"tipCount":9,"visitsCount":585,"url":"http://outlawsyachtclub.com","tier":"","message":"","currency":"","rating":7},{"name":"Duck and Drake","address":"Kirkgate","lat":53.796043,"lng":-1.53784396,"neighborhood":"City and Holbeck","city_fetched":"Leeds,UK","state":"Leeds","country":"United Kingdom","canonicalUrl":"https://foursquare.com/v/duck-and-drake/4c0e975398102d7f74e9e306","categoryId":"4bf58dd8d48988d11b941735","category":"Pub","checkinsCount":473,"usersCount":257,"tipCount":14,"visitsCount":493,"tier":"","message":"","currency":"","rating":7},{"name":"The Junction","phone":"+441943463233","address":"44 Bondgate","lat":53.90400947677477,"lng":-1.6912508010864258,"neighborhood":"Otley and Wharfedale","city_fetched":"Leeds,UK","country":"United Kingdom","canonicalUrl":"https://foursquare.com/v/the-junction/4ba56465f964a520950239e3","categoryId":"4bf58dd8d48988d11b941735","category":"Pub","checkinsCount":717,"usersCount":109,"tipCount":13,"visitsCount":758,"tier":"","message":"","currency":"","rating":7},{"name":"Woodies Craft Ale House","phone":"+441132784393","address":"104 Otley Rd.","lat":53.828058,"lng":-1.583077,"city_fetched":"Leeds,UK","country":"United Kingdom","canonicalUrl":"https://foursquare.com/v/woodies-craft-ale-house/4b76993df964a520ca532ee3","categoryId":"4bf58dd8d48988d11b941735","category":"Pub","checkinsCount":695,"usersCount":437,"tipCount":3,"visitsCount":1000,"tier":"","message":"","currency":"","rating":7},{"name":"Al Qaza Shisha Lounge","phone":"+447920524628","twitter":"al_qaza_shisha","address":"Roseville Road","lat":53.8054725594101,"lng":-1.5308547019958496,"neighborhood":"University","city_fetched":"Leeds,UK","state":"Leeds","country":"United Kingdom","canonicalUrl":"https://foursquare.com/v/al-qaza-shisha-lounge/5272bb1f498e381f38e868d7","categoryId":"4bf58dd8d48988d119941735","category":"Hookah Bar","checkinsCount":81,"usersCount":94,"tipCount":3,"visitsCount":161,"tier":"","message":"","currency":"","rating":7},{"name":"The Crossed Shuttle (Wetherspoon)","phone":"+441132909620","twitter":"jdwtweet","address":"11 Manor House St.","lat":53.79651117381642,"lng":-1.6616597406490825,"neighborhood":"South Pudsey","city_fetched":"Leeds,UK","country":"United Kingdom","canonicalUrl":"https://foursquare.com/v/the-crossed-shuttle-wetherspoon/4dc290dbfa7608e86fdbbc65","categoryId":"4bf58dd8d48988d11b941735","category":"Pub","checkinsCount":384,"usersCount":128,"tipCount":3,"visitsCount":452,"url":"http://www.jdwetherspoon.co.uk","tier":"","message":"","currency":"","rating":6.9},{"name":"All Bar One","phone":"+441132452485","address":"27 East Parade","lat":53.79835235425952,"lng":-1.5490415989937605,"neighborhood":"Financial Quarter","city_fetched":"Leeds,UK","country":"United Kingdom","canonicalUrl":"https://foursquare.com/v/all-bar-one/4b47a22af964a520463826e3","categoryId":"4bf58dd8d48988d123941735","category":"Wine Bar","checkinsCount":442,"usersCount":308,"tipCount":4,"visitsCount":443,"url":"http://www.allbarone.co.uk","tier":"","message":"","currency":"","rating":6.8},{"name":"Mook","phone":"+441132459967","address":"Hirst's Yard","lat":53.795790515886715,"lng":-1.541808843612671,"neighborhood":"City and Holbeck","city_fetched":"Leeds,UK","country":"United Kingdom","canonicalUrl":"https://foursquare.com/v/mook/4b6368c8f964a520c3772ae3","categoryId":"4bf58dd8d48988d11e941735","category":"Cocktail Bar","checkinsCount":612,"usersCount":357,"tipCount":9,"visitsCount":620,"tier":"","message":"","currency":"","rating":6.8},{"name":"The Old Ball","address":"Horsforth","lat":53.84626181648476,"lng":-1.63462,"neighborhood":"Horsforth","city_fetched":"Leeds,UK","state":"Leeds","country":"United Kingdom","canonicalUrl":"https://foursquare.com/v/the-old-ball/4ba626aef964a5205b3739e3","categoryId":"4bf58dd8d48988d11b941735","category":"Pub","checkinsCount":414,"usersCount":192,"tipCount":5,"visitsCount":498,"tier":"","message":"","currency":"","rating":6.8},{"name":"The Bowling Green (Wetherspoon)","phone":"+441943858980","address":"18 Bondgate","lat":53.904218062141844,"lng":-1.6928789019584656,"neighborhood":"Otley and Wharfedale","city_fetched":"Leeds,UK","state":"Leeds","country":"United Kingdom","canonicalUrl":"https://foursquare.com/v/the-bowling-green-wetherspoon/4c54320b72cf0f4700bc20d4","categoryId":"4bf58dd8d48988d11b941735","category":"Pub","checkinsCount":836,"usersCount":210,"tipCount":7,"visitsCount":869,"url":"http://www.jdwetherspoon.co.uk","tier":"","message":"","currency":"","rating":6.8},{"name":"Kobe","phone":"+441132588439","address":"106-108 New Road Side","lat":53.83226714195705,"lng":-1.6421132234505038,"neighborhood":"Horsforth","city_fetched":"Leeds,UK","state":"Leeds","country":"United Kingdom","canonicalUrl":"https://foursquare.com/v/kobe/4bdd7067645e0f47767b6b19","categoryId":"4bf58dd8d48988d116941735","category":"Bar","checkinsCount":484,"usersCount":283,"tipCount":8,"visitsCount":650,"url":"http://www.arcinspirations.com/kobe/","tier":"","message":"","currency":"","rating":6.8},{"name":"The Fox & Newt","address":"9 Burley Street","lat":53.800249,"lng":-1.559538,"neighborhood":"Hyde Park","city_fetched":"Leeds,UK","state":"Leeds","country":"United Kingdom","canonicalUrl":"https://foursquare.com/v/the-fox--newt/4b56b734f964a5205f1928e3","categoryId":"4bf58dd8d48988d11b941735","category":"Pub","checkinsCount":554,"usersCount":184,"tipCount":11,"visitsCount":592,"tier":"","message":"","currency":"","rating":6.8},{"name":"The Old Cock","phone":"+441943464424","twitter":"theoldcockotley","address":"11-13 Crossgate","lat":53.90454041929697,"lng":-1.6921734809875488,"neighborhood":"Otley and Wharfedale","city_fetched":"Leeds,UK","state":"Leeds","country":"United Kingdom","canonicalUrl":"https://foursquare.com/v/the-old-cock/4c8bf46455fba0934d145bab","categoryId":"4bf58dd8d48988d11b941735","category":"Pub","checkinsCount":1075,"usersCount":114,"tipCount":5,"visitsCount":1080,"url":"http://theoldcockotley.co.uk","tier":"","message":"","currency":"","rating":6.8},{"name":"Bad Apples","address":"7 Call Lane","lat":53.79639694889322,"lng":-1.5400539498599979,"neighborhood":"City and Holbeck","city_fetched":"Leeds,UK","state":"Leeds","country":"United Kingdom","canonicalUrl":"https://foursquare.com/v/bad-apples/4f6b80b1e4b0a4e00f064e94","categoryId":"4bf58dd8d48988d116941735","category":"Bar","checkinsCount":292,"usersCount":122,"tipCount":4,"visitsCount":295,"tier":"","message":"","currency":"","rating":6.8},{"name":"The Hedley Verity (Lloyd's No. 1 Bar)","phone":"+441133907590","address":"43a Woodhouse Lane","lat":53.80201946921078,"lng":-1.545875072479248,"neighborhood":"City and Holbeck","city_fetched":"Leeds,UK","country":"United Kingdom","canonicalUrl":"https://foursquare.com/v/the-hedley-verity-lloyds-no-1-bar/4c1b53f3b4e62d7fc125d993","categoryId":"4bf58dd8d48988d11b941735","category":"Pub","checkinsCount":1959,"usersCount":733,"tipCount":6,"visitsCount":2218,"url":"http://www.jdwetherspoon.co.uk","tier":2,"message":"Moderate","currency":"£","rating":6.7},{"name":"Slate","lat":53.80038027824542,"lng":-1.541981796998721,"neighborhood":"City and Holbeck","city_fetched":"Leeds,UK","country":"United Kingdom","canonicalUrl":"https://foursquare.com/v/slate/558d8244498eed1e93afb312","categoryId":"4bf58dd8d48988d116941735","category":"Bar","checkinsCount":70,"usersCount":46,"tipCount":0,"visitsCount":71,"tier":"","message":"","currency":"","rating":6.7},{"name":"The Old Steps","address":"26 York Place","lat":53.797317740614105,"lng":-1.5541791915893555,"neighborhood":"Financial Quarter","city_fetched":"Leeds,UK","country":"United Kingdom","canonicalUrl":"https://foursquare.com/v/the-old-steps/4b582761f964a5205c4c28e3","categoryId":"4bf58dd8d48988d116941735","category":"Bar","checkinsCount":171,"usersCount":57,"tipCount":7,"visitsCount":188,"tier":"","message":"","currency":"","rating":6.7},{"name":"The Pit","phone":"+441132698666","address":"8 Stainbeck Lane","lat":53.82907900622463,"lng":-1.5386009216308594,"neighborhood":"Chapel Allerton","city_fetched":"Leeds,UK","country":"United Kingdom","canonicalUrl":"https://foursquare.com/v/the-pit/4b64796df964a5202bb62ae3","categoryId":"4bf58dd8d48988d116941735","category":"Bar","checkinsCount":578,"usersCount":197,"tipCount":9,"visitsCount":615,"tier":"","message":"","currency":"","rating":6.7},{"name":"Stick or Twist (Wetherspoon)","phone":"+441132349748","twitter":"stickortwistjdw","address":"Merrion Way","lat":53.80243132059282,"lng":-1.542978286743164,"neighborhood":"City and Holbeck","city_fetched":"Leeds,UK","country":"United Kingdom","canonicalUrl":"https://foursquare.com/v/stick-or-twist-wetherspoon/4bc8600314d7952181e468e9","categoryId":"4bf58dd8d48988d11b941735","category":"Pub","checkinsCount":1458,"usersCount":529,"tipCount":11,"visitsCount":1622,"tier":"","message":"","currency":"","rating":6.7},{"name":"The Decanter","address":"17 Park Row","lat":53.79868649228079,"lng":-1.546926498413086,"neighborhood":"Leeds City Centre","city_fetched":"Leeds,UK","country":"United Kingdom","canonicalUrl":"https://foursquare.com/v/the-decanter/53186402498e05d1b9ffb8a1","categoryId":"4bf58dd8d48988d123941735","category":"Wine Bar","checkinsCount":116,"usersCount":81,"tipCount":6,"visitsCount":116,"tier":"","message":"","currency":"","rating":6.7},{"name":"Verve Bar","phone":"+441132442272","address":"16 Merrion St.","lat":53.800479742829154,"lng":-1.5403014421463013,"neighborhood":"City and Holbeck","city_fetched":"Leeds,UK","country":"United Kingdom","canonicalUrl":"https://foursquare.com/v/verve-bar/4b5f3d49f964a52064af29e3","categoryId":"4bf58dd8d48988d116941735","category":"Bar","checkinsCount":420,"usersCount":202,"tipCount":9,"visitsCount":422,"tier":"","message":"","currency":"","rating":6.7},{"name":"Travellers Rest","lat":53.799288,"lng":-1.6092932224273682,"city_fetched":"Leeds,UK","country":"United Kingdom","canonicalUrl":"https://foursquare.com/v/travellers-rest/4ba381caf964a520d84238e3","categoryId":"4bf58dd8d48988d11b941735","category":"Pub","checkinsCount":164,"usersCount":83,"tipCount":2,"visitsCount":196,"tier":"","message":"","currency":"","rating":6.7},{"name":"The White House","phone":"+441132656446","address":"55 Wetherby Rd","lat":53.83037601451577,"lng":-1.496839317614781,"neighborhood":"Roundhay","city_fetched":"Leeds,UK","country":"United Kingdom","canonicalUrl":"https://foursquare.com/v/the-white-house/4b93cd43f964a520635234e3","categoryId":"4bf58dd8d48988d11b941735","category":"Pub","checkinsCount":660,"usersCount":186,"tipCount":6,"visitsCount":761,"tier":"","message":"","currency":"","rating":6.6},{"name":"The Barley Mow","phone":"+441132394104","address":"Lower Town St.","lat":53.80748584057367,"lng":-1.6242960176180472,"neighborhood":"Bramley","city_fetched":"Leeds,UK","country":"United Kingdom","canonicalUrl":"https://foursquare.com/v/the-barley-mow/4d13ae26dc59721eedd583e4","categoryId":"4bf58dd8d48988d11b941735","category":"Pub","checkinsCount":75,"usersCount":42,"tipCount":5,"visitsCount":88,"tier":"","message":"","currency":"","rating":6.6},{"name":"Chilli White","phone":"+441132194001","twitter":"chilliwhitelds","address":"25 Crown Street","lat":53.795784178738785,"lng":-1.5396308898925781,"neighborhood":"City and Holbeck","city_fetched":"Leeds,UK","country":"United Kingdom","canonicalUrl":"https://foursquare.com/v/chilli-white/4c04114f39d476b099f930a7","categoryId":"4bf58dd8d48988d116941735","category":"Bar","checkinsCount":190,"usersCount":137,"tipCount":4,"visitsCount":190,"tier":"","message":"","currency":"","rating":6.6},{"name":"The Pack Horse","phone":"+441132453980","address":"208 Woodhouse Ln.","lat":53.81037056652584,"lng":-1.555925634876346,"neighborhood":"Woodhouse","city_fetched":"Leeds,UK","country":"United Kingdom","canonicalUrl":"https://foursquare.com/v/the-pack-horse/4b47a2b9f964a520653826e3","categoryId":"4bf58dd8d48988d11b941735","category":"Pub","checkinsCount":516,"usersCount":242,"tipCount":5,"visitsCount":519,"tier":"","message":"","currency":"","rating":6.6},{"name":"Lawnswood Arms","phone":"+441132671823","address":"Otley Rd.","lat":53.85662955,"lng":-1.5914754796976183,"neighborhood":"Cookridge","city_fetched":"Leeds,UK","country":"United Kingdom","canonicalUrl":"https://foursquare.com/v/lawnswood-arms/4b786127f964a520d5c92ee3","categoryId":"4bf58dd8d48988d11b941735","category":"Pub","checkinsCount":533,"usersCount":290,"tipCount":4,"visitsCount":641,"tier":"","message":"","currency":"","rating":6.6},{"name":"The Pheonix","phone":"+441132424434","address":"88 Wellington St","lat":53.79679811022695,"lng":-1.5551233291625977,"neighborhood":"Financial Quarter","city_fetched":"Leeds,UK","country":"United Kingdom","canonicalUrl":"https://foursquare.com/v/the-pheonix/4b4ca634f964a520dbb826e3","categoryId":"4bf58dd8d48988d11b941735","category":"Pub","checkinsCount":482,"usersCount":254,"tipCount":9,"visitsCount":545,"tier":"","message":"","currency":"","rating":6.6},{"name":"Fox & Hounds, Bramhope","lat":53.885357,"lng":-1.623675,"neighborhood":"Bramhope","city_fetched":"Leeds,UK","country":"United Kingdom","canonicalUrl":"https://foursquare.com/v/fox--hounds-bramhope/4bdd5cc54ffaa5934f496ff7","categoryId":"4bf58dd8d48988d11b941735","category":"Pub","checkinsCount":190,"usersCount":90,"tipCount":5,"visitsCount":225,"tier":"","message":"","currency":"","rating":6.5},{"name":"The Owl","phone":"+441133455080","address":"Rodley lane","lat":53.82291429,"lng":-1.662848,"neighborhood":"Rodley","city_fetched":"Leeds,UK","country":"United Kingdom","canonicalUrl":"https://foursquare.com/v/the-owl/4be5434678e895219ba364ce","categoryId":"4bf58dd8d48988d11b941735","category":"Pub","checkinsCount":240,"usersCount":80,"tipCount":2,"visitsCount":281,"tier":"","message":"","currency":"","rating":6.5},{"name":"The Three Hulats (Wetherspoon)","phone":"+441132620524","address":"13 Harrogate Rd","lat":53.826103849999996,"lng":-1.5352874,"neighborhood":"Chapel Allerton","city_fetched":"Leeds,UK","country":"United Kingdom","canonicalUrl":"https://foursquare.com/v/the-three-hulats-wetherspoon/4b5b17a6f964a52048e328e3","categoryId":"4bf58dd8d48988d11b941735","category":"Pub","checkinsCount":1172,"usersCount":212,"tipCount":12,"visitsCount":1271,"url":"http://www.jdwetherspoon.co.uk","tier":"","message":"","currency":"","rating":6.5},{"name":"The Devon","address":"Kingswear Parade","lat":53.802475673577284,"lng":-1.4443588256835938,"neighborhood":"Whitkirk","city_fetched":"Leeds,UK","country":"United Kingdom","canonicalUrl":"https://foursquare.com/v/the-devon/4baa9719f964a5208e773ae3","categoryId":"4bf58dd8d48988d11b941735","category":"Pub","checkinsCount":220,"usersCount":68,"tipCount":2,"visitsCount":253,"tier":"","message":"","currency":"","rating":6.4},{"name":"The Picture House (Wetherspoon)","phone":"+441132528681","address":"117 Queen St","lat":53.744181565550186,"lng":-1.5996993203138086,"neighborhood":"South Morley","city_fetched":"Leeds,UK","state":"Leeds","country":"United Kingdom","canonicalUrl":"https://foursquare.com/v/the-picture-house-wetherspoon/547e357f498e0698c573457a","categoryId":"4bf58dd8d48988d11b941735","category":"Pub","checkinsCount":177,"usersCount":69,"tipCount":4,"visitsCount":266,"url":"http://www.jdwetherspoon.co.uk","tier":"","message":"","currency":"","rating":6.4},{"name":"Hyde Park Pub","phone":"+441132745597","twitter":"hydeparkleeds","address":"2 Headingley Ln.","lat":53.814817,"lng":-1.5617055,"neighborhood":"Headingley","city_fetched":"Leeds,UK","country":"United Kingdom","canonicalUrl":"https://foursquare.com/v/hyde-park-pub/4b8039b6f964a520635e30e3","categoryId":"4bf58dd8d48988d11b941735","category":"Pub","checkinsCount":618,"usersCount":439,"tipCount":5,"visitsCount":696,"tier":"","message":"","currency":"","rating":6.4},{"name":"The Fenton","phone":"+441132431382","twitter":"fentonleeds","address":"161 Woodhouse Ln.","lat":53.805755200837645,"lng":-1.549412733489024,"neighborhood":"Woodhouse","city_fetched":"Leeds,UK","country":"United Kingdom","canonicalUrl":"https://foursquare.com/v/the-fenton/4b47a1a1f964a520343826e3","categoryId":"4bf58dd8d48988d11b941735","category":"Pub","checkinsCount":358,"usersCount":212,"tipCount":2,"visitsCount":372,"tier":"","message":"","currency":"","rating":6.4},{"name":"Unit One Bar & Grill","phone":"+441132451350","address":"2, The Triangle","lat":53.80186458306211,"lng":-1.5645164334814616,"neighborhood":"Hyde Park","city_fetched":"Leeds,UK","country":"United Kingdom","canonicalUrl":"https://foursquare.com/v/unit-one-bar--grill/4b98347ff964a520083435e3","categoryId":"4bf58dd8d48988d116941735","category":"Bar","checkinsCount":259,"usersCount":115,"tipCount":11,"visitsCount":259,"tier":"","message":"","currency":"","rating":6.4},{"name":"All Bar One","phone":"+441132448835","twitter":"allbaronenews","address":"Electric Press","lat":53.801319447947144,"lng":-1.548390478725372,"neighborhood":"Leeds City Centre","city_fetched":"Leeds,UK","country":"United Kingdom","canonicalUrl":"https://foursquare.com/v/all-bar-one/4d794662c1d56ea8c88add2b","categoryId":"4bf58dd8d48988d123941735","category":"Wine Bar","checkinsCount":546,"usersCount":346,"tipCount":7,"visitsCount":549,"url":"http://www.allbarone.co.uk/all-bar-one-millennium-square-leeds/","tier":"","message":"","currency":"","rating":6.4},{"name":"Yates's","phone":"+441132448566","twitter":"top_yates_leeds","address":"24-28 Boar Ln","lat":53.79575883013752,"lng":-1.5451133251190186,"neighborhood":"Trinity Quarter","city_fetched":"Leeds,UK","country":"United Kingdom","canonicalUrl":"https://foursquare.com/v/yatess/4b7f0edef964a520601330e3","categoryId":"4bf58dd8d48988d11b941735","category":"Pub","checkinsCount":721,"usersCount":554,"tipCount":10,"visitsCount":723,"url":"http://www.weareyates.co.uk","tier":"","message":"","currency":"","rating":6.4},{"name":"The Faversham","phone":"+441132431481","twitter":"thefaversham","address":"1-5 Springfield Mount","lat":53.80423461577882,"lng":-1.5573794130644807,"neighborhood":"Woodhouse","city_fetched":"Leeds,UK","country":"United Kingdom","canonicalUrl":"https://foursquare.com/v/the-faversham/4bd7760d09ecb713f5f5467c","categoryId":"4bf58dd8d48988d11f941735","category":"Nightclub","checkinsCount":522,"usersCount":416,"tipCount":6,"visitsCount":687,"url":"http://www.thefaversham.com","tier":"","message":"","currency":"","rating":6.3},{"name":"Shooters Sports Bar","phone":"+441132432300","twitter":"shooters_sports","address":"123 The Headrow","lat":53.7994747,"lng":-1.547145,"neighborhood":"Financial Quarter","city_fetched":"Leeds,UK","state":"Leeds","country":"United Kingdom","canonicalUrl":"https://foursquare.com/v/shooters-sports-bar/4d05f56a9b7f60fc3bb90aab","categoryId":"4bf58dd8d48988d11d941735","category":"Sports Bar","checkinsCount":856,"usersCount":497,"tipCount":14,"visitsCount":881,"url":"http://www.shootersportsbar.co.uk","tier":"","message":"","currency":"","rating":6.3},{"name":"The Box","phone":"+441132249266","twitter":"theboxbar","address":"8 Otley Rd","lat":53.82055699825287,"lng":-1.57677955,"neighborhood":"Headingley","city_fetched":"Leeds,UK","country":"United Kingdom","canonicalUrl":"https://foursquare.com/v/the-box/4b412ec5f964a520c8c225e3","categoryId":"4bf58dd8d48988d116941735","category":"Bar","checkinsCount":1127,"usersCount":720,"tipCount":12,"visitsCount":1374,"tier":"","message":"","currency":"","rating":6.3},{"name":"The Angel Inn","phone":"+441132451428","address":"1 Angel Inn Yard","lat":53.79821757312942,"lng":-1.5428495407104492,"neighborhood":"Leeds City Centre","city_fetched":"Leeds,UK","country":"United Kingdom","canonicalUrl":"https://foursquare.com/v/the-angel-inn/4bca13030687ef3b5033dbcc","categoryId":"4bf58dd8d48988d11b941735","category":"Pub","checkinsCount":773,"usersCount":305,"tipCount":11,"visitsCount":778,"tier":"","message":"","currency":"","rating":6.3},{"name":"The Black Prince","address":"40 Boar Lane","lat":53.79592633671606,"lng":-1.547058110817013,"neighborhood":"Leeds City Centre","city_fetched":"Leeds,UK","state":"Leeds","country":"United Kingdom","canonicalUrl":"https://foursquare.com/v/the-black-prince/543830b5498ea44ee266d222","categoryId":"4bf58dd8d48988d11b941735","category":"Pub","checkinsCount":101,"usersCount":79,"tipCount":3,"visitsCount":106,"tier":"","message":"","currency":"","rating":6.3},{"name":"Leeds United Pavillion","lat":53.77864502868766,"lng":-1.5701007843017578,"neighborhood":"Elland Road","city_fetched":"Leeds,UK","country":"United Kingdom","canonicalUrl":"https://foursquare.com/v/leeds-united-pavillion/4cde929bf8a4a143a400d8bc","categoryId":"4bf58dd8d48988d116941735","category":"Bar","checkinsCount":386,"usersCount":139,"tipCount":1,"visitsCount":388,"tier":"","message":"","currency":"","rating":6.3},{"name":"Wax Bar","twitter":"waxbarleeds","address":"20 New Briggate","lat":53.79945373535156,"lng":-1.541654348373413,"neighborhood":"City and Holbeck","city_fetched":"Leeds,UK","country":"United Kingdom","canonicalUrl":"https://foursquare.com/v/wax-bar/4ea0a8d130f82432efa2d45f","categoryId":"4bf58dd8d48988d11e941735","category":"Cocktail Bar","checkinsCount":262,"usersCount":95,"tipCount":5,"visitsCount":262,"tier":"","message":"","currency":"","rating":6.3},{"name":"1871 Bar and Lounge","phone":"+441132366366","address":"4 Trevelyan Sq","lat":53.796037,"lng":-1.543068,"neighborhood":"Trinity Quarter","city_fetched":"Leeds,UK","state":"Leeds","country":"United Kingdom","canonicalUrl":"https://foursquare.com/v/1871-bar-and-lounge/4f60e0eae4b0f492adc37c9f","categoryId":"4bf58dd8d48988d121941735","category":"Lounge","checkinsCount":580,"usersCount":329,"tipCount":10,"visitsCount":588,"tier":"","message":"","currency":"","rating":6.3},{"name":"The Chemic Tavern","phone":"+441132457977","address":"9 Johnston Street","lat":53.814506,"lng":-1.55272,"neighborhood":"Woodhouse","city_fetched":"Leeds,UK","country":"United Kingdom","canonicalUrl":"https://foursquare.com/v/the-chemic-tavern/4b646f95f964a520f3b22ae3","categoryId":"4bf58dd8d48988d11b941735","category":"Pub","checkinsCount":101,"usersCount":71,"tipCount":3,"visitsCount":111,"tier":"","message":"","currency":"","rating":6.3},{"name":"Oporto","phone":"+441132454444","twitter":"oportobar","address":"31-33 Call Ln","lat":53.79560267310776,"lng":-1.5409954949062843,"neighborhood":"City and Holbeck","city_fetched":"Leeds,UK","country":"United Kingdom","canonicalUrl":"https://foursquare.com/v/oporto/4b1d43a2f964a520da0d24e3","categoryId":"4bf58dd8d48988d116941735","category":"Bar","checkinsCount":1013,"usersCount":549,"tipCount":8,"visitsCount":1019,"url":"http://oportobar.co.uk","tier":"","message":"","currency":"","rating":6.3},{"name":"The Lord Darcy","lat":53.85624996660654,"lng":-1.5302591191893773,"neighborhood":"Alwoodley","city_fetched":"Leeds,UK","country":"United Kingdom","canonicalUrl":"https://foursquare.com/v/the-lord-darcy/4bed83e63372c92814be1114","categoryId":"4bf58dd8d48988d11b941735","category":"Pub","checkinsCount":394,"usersCount":196,"tipCount":4,"visitsCount":694,"tier":"","message":"","currency":"","rating":6.3},{"name":"The Original Oak","phone":"+441132751322","twitter":"originaloak","address":"2 Otley Rd.","lat":53.81968109125171,"lng":-1.5758943557739258,"neighborhood":"Headingley","city_fetched":"Leeds,UK","country":"United Kingdom","canonicalUrl":"https://foursquare.com/v/the-original-oak/4b4118b1f964a5200fc125e3","categoryId":"4bf58dd8d48988d11b941735","category":"Pub","checkinsCount":1610,"usersCount":803,"tipCount":11,"visitsCount":1821,"url":"http://www.theoriginaloakleeds.co.uk","tier":"","message":"","currency":"","rating":6.3},{"name":"Queens Arms","address":"Harrogate Rd.","lat":53.83386237847665,"lng":-1.539233040235858,"neighborhood":"Chapel Allerton","city_fetched":"Leeds,UK","country":"United Kingdom","canonicalUrl":"https://foursquare.com/v/queens-arms/4bd4355b9854d13a7c30ff4d","categoryId":"4bf58dd8d48988d11b941735","category":"Pub","checkinsCount":236,"usersCount":123,"tipCount":5,"visitsCount":277,"tier":"","message":"","currency":"","rating":6.3},{"name":"Tiger Tiger","phone":"+441132366999","twitter":"tigerleeds","address":"17 Albion St.","lat":53.80023137530249,"lng":-1.544879167113013,"neighborhood":"Leeds City Centre","city_fetched":"Leeds,UK","country":"United Kingdom","canonicalUrl":"https://foursquare.com/v/tiger-tiger/4b635e4bf964a520f4742ae3","categoryId":"4bf58dd8d48988d116941735","category":"Bar","checkinsCount":966,"usersCount":646,"tipCount":5,"visitsCount":970,"url":"http://www.tigertiger.co.uk/leeds/","tier":"","message":"","currency":"","rating":6.1},{"name":"The Social","phone":"+441132441635","twitter":"thesocialleeds","address":"21 Merrion St","lat":53.80056694247779,"lng":-1.541846556039887,"neighborhood":"City and Holbeck","city_fetched":"Leeds,UK","state":"Leeds","country":"United Kingdom","canonicalUrl":"https://foursquare.com/v/the-social/52f54d83498e87c072cfc5d7","categoryId":"4bf58dd8d48988d116941735","category":"Bar","checkinsCount":259,"usersCount":148,"tipCount":1,"visitsCount":266,"tier":"","message":"","currency":"","rating":6.1},{"name":"Queen's Court (QC)","phone":"+441132459449","address":"167 Briggate","lat":53.795099761126934,"lng":-1.5423774719238281,"neighborhood":"City and Holbeck","city_fetched":"Leeds,UK","country":"United Kingdom","canonicalUrl":"https://foursquare.com/v/queens-court-qc/4ba3cb13f964a520fb5f38e3","categoryId":"4bf58dd8d48988d1d8941735","category":"Gay Bar","checkinsCount":1353,"usersCount":533,"tipCount":11,"visitsCount":1407,"tier":2,"message":"Moderate","currency":"£","rating":6.1},{"name":"Engine House Cafe","phone":"+441133912980","address":"2 Foundry Sq.","lat":53.79118949449125,"lng":-1.5517973899841309,"neighborhood":"Holbeck Urban Village","city_fetched":"Leeds,UK","country":"United Kingdom","canonicalUrl":"https://foursquare.com/v/engine-house-cafe/4bf844bc8d30d13a4d730018","categoryId":"4bf58dd8d48988d116941735","category":"Bar","checkinsCount":419,"usersCount":88,"tipCount":10,"visitsCount":422,"tier":"","message":"","currency":"","rating":6.1},{"name":"51% Bourbon Lounge","phone":"+441133229919","twitter":"51_bourbon","address":"11-13 Hirst's Yard","lat":53.795663992751095,"lng":-1.5415470284473758,"neighborhood":"City and Holbeck","city_fetched":"Leeds,UK","state":"Leeds","country":"United Kingdom","canonicalUrl":"https://foursquare.com/v/51-bourbon-lounge/4f343b3fe4b0faf08de46e2e","categoryId":"4bf58dd8d48988d121941735","category":"Lounge","checkinsCount":169,"usersCount":113,"tipCount":6,"visitsCount":170,"url":"http://www.51percentbourbon.co.uk","tier":"","message":"","currency":"","rating":6.1},{"name":"Revolution","phone":"+441132432778","twitter":"revolutionbars","address":"48 Call Lane","lat":53.795378599279964,"lng":-1.5412616729736328,"neighborhood":"City and Holbeck","city_fetched":"Leeds,UK","country":"United Kingdom","canonicalUrl":"https://foursquare.com/v/revolution/4b64d8e6f964a520abd42ae3","categoryId":"4bf58dd8d48988d11e941735","category":"Cocktail Bar","checkinsCount":1063,"usersCount":658,"tipCount":6,"visitsCount":1075,"url":"http://www.revolution-bars.co.uk","tier":"","message":"","currency":"","rating":6.1},{"name":"Bierkeller","phone":"+448455333000","twitter":"leedsbierkeller","address":"1 South Parade","lat":53.79918075273724,"lng":-1.5473341941833496,"neighborhood":"Financial Quarter","city_fetched":"Leeds,UK","country":"United Kingdom","canonicalUrl":"https://foursquare.com/v/bierkeller/4cefdabe62ef6dcbffdd005a","categoryId":"4bf58dd8d48988d11b941735","category":"Pub","checkinsCount":535,"usersCount":399,"tipCount":8,"visitsCount":540,"url":"http://www.thebierkeller.com","tier":"","message":"","currency":"","rating":6.1},{"name":"Jake's Bar & Grill","phone":"+441132431110","address":"29 Call Lane","lat":53.795745,"lng":-1.540963,"neighborhood":"City and Holbeck","city_fetched":"Leeds,UK","country":"United Kingdom","canonicalUrl":"https://foursquare.com/v/jakes-bar--grill/4b769292f964a5208f522ee3","categoryId":"4bf58dd8d48988d116941735","category":"Bar","checkinsCount":442,"usersCount":289,"tipCount":5,"visitsCount":443,"tier":"","message":"","currency":"","rating":6.1},{"name":"Baa Bar","phone":"+441132444213","address":"43-51 Cookridge St.","lat":53.80158667747737,"lng":-1.5471479237461971,"neighborhood":"City and Holbeck","city_fetched":"Leeds,UK","country":"United Kingdom","canonicalUrl":"https://foursquare.com/v/baa-bar/5091b4e3e4b094895633b077","categoryId":"4bf58dd8d48988d11e941735","category":"Cocktail Bar","checkinsCount":455,"usersCount":210,"tipCount":6,"visitsCount":470,"tier":"","message":"","currency":"","rating":6},{"name":"The Station","phone":"+441943872061","address":"70 Otley Rd.","lat":53.87427091598511,"lng":-1.7135292291641235,"neighborhood":"Guiseley","city_fetched":"Leeds,UK","country":"United Kingdom","canonicalUrl":"https://foursquare.com/v/the-station/4c0027baf61ea5932a6beb13","categoryId":"4bf58dd8d48988d11b941735","category":"Pub","checkinsCount":188,"usersCount":103,"tipCount":0,"visitsCount":209,"tier":"","message":"","currency":"","rating":6},{"name":"The Cuthbert Broderick (Wetherspoon)","phone":"+441132048570","address":"99 Portland Crescent","lat":53.801929,"lng":-1.54785,"neighborhood":"Leeds City Centre","city_fetched":"Leeds,UK","country":"United Kingdom","canonicalUrl":"https://foursquare.com/v/the-cuthbert-broderick-wetherspoon/4b6ab913f964a52097dd2be3","categoryId":"4bf58dd8d48988d11b941735","category":"Pub","checkinsCount":2459,"usersCount":960,"tipCount":15,"visitsCount":2476,"url":"http://www.jdwetherspoon.co.uk","tier":1,"message":"Cheap","currency":"£","rating":6},{"name":"Soba Bar & Kitchen","phone":"+441132425128","address":"9a Merrion St","lat":53.80037692944669,"lng":-1.5401681111194576,"neighborhood":"City and Holbeck","city_fetched":"Leeds,UK","state":"Leeds","country":"United Kingdom","canonicalUrl":"https://foursquare.com/v/soba-bar--kitchen/552944e9498e0306f17d2eae","categoryId":"4bf58dd8d48988d116941735","category":"Bar","checkinsCount":79,"usersCount":57,"tipCount":1,"visitsCount":81,"url":"http://www.barsoba.co.uk","tier":"","message":"","currency":"","rating":6},{"name":"The Horse and Trumpet","phone":"+441132430338","address":"51-53 The Headrow","lat":53.79938888549805,"lng":-1.5424950122833252,"neighborhood":"City and Holbeck","city_fetched":"Leeds,UK","country":"United Kingdom","canonicalUrl":"https://foursquare.com/v/the-horse-and-trumpet/50c5d1a2e4b09269c6b97c04","categoryId":"4bf58dd8d48988d116941735","category":"Bar","checkinsCount":161,"usersCount":91,"tipCount":7,"visitsCount":161,"url":"http://www.horseandtrumpetleeds.co.uk","tier":"","message":"","currency":"","rating":6},{"name":"The Stables","address":"Otley Road","lat":53.8381076312607,"lng":-1.5911990404129028,"city_fetched":"Leeds,UK","country":"United Kingdom","canonicalUrl":"https://foursquare.com/v/the-stables/4b4a1badf964a520db7a26e3","categoryId":"4bf58dd8d48988d11b941735","category":"Pub","checkinsCount":255,"usersCount":124,"tipCount":8,"visitsCount":262,"tier":"","message":"","currency":"","rating":6},{"name":"Stone Trough","phone":"+441133910933","address":"Harrogate Road","lat":53.85747525087714,"lng":-1.6793417930603027,"neighborhood":"Rawdon","city_fetched":"Leeds,UK","country":"United Kingdom","canonicalUrl":"https://foursquare.com/v/stone-trough/4bbb23d4935e9521dcca2890","categoryId":"4bf58dd8d48988d11b941735","category":"Pub","checkinsCount":303,"usersCount":74,"tipCount":6,"visitsCount":321,"tier":"","message":"","currency":"","rating":6},{"name":"The Public House","phone":"+441132781000","address":"Village Urban Resort","lat":53.733118,"lng":-1.586201,"neighborhood":"South Morley","city_fetched":"Leeds,UK","state":"Leeds","country":"United Kingdom","canonicalUrl":"https://foursquare.com/v/the-public-house/4dc1462422713750ba7872f0","categoryId":"4bf58dd8d48988d11b941735","category":"Pub","checkinsCount":132,"usersCount":66,"tipCount":3,"visitsCount":134,"url":"https://www.village-hotels.co.uk/eat-drink/the-public-house","tier":"","message":"","currency":"","rating":6},{"name":"The Arc","phone":"+441132752225","twitter":"arcleeds","address":"North Ln","lat":53.820694035298494,"lng":-1.5805645152729921,"neighborhood":"Headingley","city_fetched":"Leeds,UK","country":"United Kingdom","canonicalUrl":"https://foursquare.com/v/the-arc/4b436693f964a5209ddf25e3","categoryId":"4bf58dd8d48988d116941735","category":"Bar","checkinsCount":1181,"usersCount":726,"tipCount":20,"visitsCount":1429,"url":"http://www.arcinspirations.com/arc/","tier":"","message":"","currency":"","rating":6},{"name":"Halo","address":"Woodhouse Hall","lat":53.8065525803804,"lng":-1.5509370536301992,"neighborhood":"Woodhouse","city_fetched":"Leeds,UK","country":"United Kingdom","canonicalUrl":"https://foursquare.com/v/halo/4bc8f82a3740b7136eda5d65","categoryId":"4bf58dd8d48988d11f941735","category":"Nightclub","checkinsCount":403,"usersCount":232,"tipCount":6,"visitsCount":407,"tier":"","message":"","currency":"","rating":6},{"name":"The Lord Gascoigne","address":"6 Aberford Road","lat":53.79634184409071,"lng":-1.3860368728637695,"neighborhood":"Garforth","city_fetched":"Leeds,UK","country":"United Kingdom","canonicalUrl":"https://foursquare.com/v/the-lord-gascoigne/4ba68437f964a520185a39e3","categoryId":"4bf58dd8d48988d11b941735","category":"Pub","checkinsCount":259,"usersCount":90,"tipCount":2,"visitsCount":264,"tier":2,"message":"Moderate","currency":"£","rating":6},{"name":"The Calverley Arms","phone":"+441132557771","address":"Calverley Lane","lat":53.82593258631064,"lng":-1.6800978250153773,"neighborhood":"Calverley","city_fetched":"Leeds,UK","country":"United Kingdom","canonicalUrl":"https://foursquare.com/v/the-calverley-arms/4c0f531ecd8eb713b2c7ef94","categoryId":"4bf58dd8d48988d11b941735","category":"Pub","checkinsCount":315,"usersCount":189,"tipCount":5,"visitsCount":377,"tier":"","message":"","currency":"","rating":5.9},{"name":"The Atlas Pub","phone":"+441132442906","twitter":"atlaspubleeds","address":"Atlas House","lat":53.797794342041016,"lng":-1.5497981309890747,"neighborhood":"Financial Quarter","city_fetched":"Leeds,UK","state":"Leeds","country":"United Kingdom","canonicalUrl":"https://foursquare.com/v/the-atlas-pub/5299e68f11d20e5cef1a61f1","categoryId":"4bf58dd8d48988d11b941735","category":"Pub","checkinsCount":184,"usersCount":113,"tipCount":4,"visitsCount":193,"url":"http://atlaspubleeds.com","tier":"","message":"","currency":"","rating":5.9},{"name":"Vesper Gate","lat":53.822906613349915,"lng":-1.6113102436065674,"neighborhood":"Kirkstall","city_fetched":"Leeds,UK","state":"Leeds","country":"United Kingdom","canonicalUrl":"https://foursquare.com/v/vesper-gate/4baf7b6cf964a5207b033ce3","categoryId":"4bf58dd8d48988d116941735","category":"Bar","checkinsCount":112,"usersCount":84,"tipCount":4,"visitsCount":141,"tier":"","message":"","currency":"","rating":5.9},{"name":"Fox and Hounds","phone":"+441132678415","address":"Tinshill Road","lat":53.847611,"lng":-1.629531,"neighborhood":"Cookridge","city_fetched":"Leeds,UK","country":"United Kingdom","canonicalUrl":"https://foursquare.com/v/fox-and-hounds/4bd744d3e914a59387de50fa","categoryId":"4bf58dd8d48988d11b941735","category":"Pub","checkinsCount":405,"usersCount":118,"tipCount":4,"visitsCount":457,"tier":"","message":"","currency":"","rating":5.9},{"name":"Yeadon Stoops (Beefeater)","phone":"+441132504284","twitter":"beefeater","address":"Victoria Ave","lat":53.863516716069974,"lng":-1.671677983989614,"neighborhood":"Otley and Wharfedale","city_fetched":"Leeds,UK","state":"Leeds","country":"United Kingdom","canonicalUrl":"https://foursquare.com/v/yeadon-stoops-beefeater/4c4e9302fa9d9521ef78550a","categoryId":"4bf58dd8d48988d11b941735","category":"Pub","checkinsCount":332,"usersCount":142,"tipCount":5,"visitsCount":360,"url":"http://www.beefeater.co.uk/steak-restaurant/West-Yorkshire/Yeadon-Stoops-Yeadon.html","tier":"","message":"","currency":"","rating":5.9},{"name":"The Dexter","lat":53.857437,"lng":-1.500994,"neighborhood":"Alwoodley","city_fetched":"Leeds,UK","country":"United Kingdom","canonicalUrl":"https://foursquare.com/v/the-dexter/4c7fdfced34ca143e91f1480","categoryId":"4bf58dd8d48988d11b941735","category":"Pub","checkinsCount":295,"usersCount":113,"tipCount":1,"visitsCount":473,"tier":"","message":"","currency":"","rating":5.9},{"name":"Britannia Hotel","lat":53.82220262676529,"lng":-1.4555202039606157,"neighborhood":"Swarcliffe","city_fetched":"Leeds,UK","country":"United Kingdom","canonicalUrl":"https://foursquare.com/v/britannia-hotel/4fe0d998e4b0a9a2af4442a7","categoryId":"4bf58dd8d48988d1d5941735","category":"Hotel Bar","checkinsCount":124,"usersCount":65,"tipCount":1,"visitsCount":149,"tier":"","message":"","currency":"","rating":5.9},{"name":"Quebecs Hotel","phone":"+441132448989","lat":53.79672302736113,"lng":-1.5492766412968955,"neighborhood":"Financial Quarter","city_fetched":"Leeds,UK","state":"Leeds","country":"United Kingdom","canonicalUrl":"https://foursquare.com/v/quebecs-hotel/51a98123498e6daa65ebeadf","categoryId":"4bf58dd8d48988d1d5941735","category":"Hotel Bar","checkinsCount":48,"usersCount":32,"tipCount":1,"visitsCount":49,"tier":"","message":"","currency":"","rating":5.9},{"name":"The Queens Arms","phone":"+441132819823","address":"Long row","lat":53.84589373187029,"lng":-1.63421630859375,"neighborhood":"Horsforth","city_fetched":"Leeds,UK","state":"Leeds","country":"United Kingdom","canonicalUrl":"https://foursquare.com/v/the-queens-arms/4bfd773ce529c92869f8ba8c","categoryId":"4bf58dd8d48988d11b941735","category":"Pub","checkinsCount":357,"usersCount":95,"tipCount":1,"visitsCount":399,"tier":"","message":"","currency":"","rating":5.9},{"name":"Kith & Kin","phone":"+441132668618","address":"16 Stainbeck Lane","lat":53.8290030207571,"lng":-1.5392017364501953,"neighborhood":"Chapel Allerton","city_fetched":"Leeds,UK","state":"Leeds","country":"United Kingdom","canonicalUrl":"https://foursquare.com/v/kith--kin/4b771ef6f964a5207a7f2ee3","categoryId":"4bf58dd8d48988d116941735","category":"Bar","checkinsCount":584,"usersCount":196,"tipCount":10,"visitsCount":606,"tier":"","message":"","currency":"","rating":5.9},{"name":"TJ's Woodhouse Club","phone":"+441132256999","address":"121 Woodhouse Street","lat":53.81446193171079,"lng":-1.5564537048339844,"neighborhood":"Woodhouse","city_fetched":"Leeds,UK","country":"United Kingdom","canonicalUrl":"https://foursquare.com/v/tjs-woodhouse-club/4b79d1bcf964a5202d142fe3","categoryId":"4bf58dd8d48988d11a941735","category":"Other Nightlife","checkinsCount":121,"usersCount":67,"tipCount":5,"visitsCount":122,"tier":"","message":"","currency":"","rating":5.9},{"name":"Sant Angelo","lat":53.92848857160778,"lng":-1.3851512100772188,"neighborhood":"Wetherby","city_fetched":"Leeds,UK","country":"United Kingdom","canonicalUrl":"https://foursquare.com/v/sant-angelo/4c59c49c2091a59334ba5dd0","categoryId":"4bf58dd8d48988d123941735","category":"Wine Bar","checkinsCount":267,"usersCount":139,"tipCount":2,"visitsCount":300,"tier":"","message":"","currency":"","rating":5.9},{"name":"Napa","phone":"+441132371838","twitter":"napabarkitchen","address":"62 Street Ln","lat":53.84410875380143,"lng":-1.507798433303833,"neighborhood":"Roundhay","city_fetched":"Leeds,UK","country":"United Kingdom","canonicalUrl":"https://foursquare.com/v/napa/4b560ebdf964a52031fe27e3","categoryId":"4bf58dd8d48988d116941735","category":"Bar","checkinsCount":632,"usersCount":241,"tipCount":10,"visitsCount":681,"url":"http://arcinspirations.com/napa","tier":"","message":"","currency":"","rating":5.9},{"name":"The Slug and Lettuce","phone":"+441132449209","address":"14 Park Row","lat":53.798460183084885,"lng":-1.5470267960040436,"neighborhood":"Leeds City Centre","city_fetched":"Leeds,UK","country":"United Kingdom","canonicalUrl":"https://foursquare.com/v/the-slug-and-lettuce/4b818f9af964a5202faf30e3","categoryId":"4bf58dd8d48988d116941735","category":"Bar","checkinsCount":1040,"usersCount":650,"tipCount":23,"visitsCount":1051,"tier":"","message":"","currency":"","rating":5.8},{"name":"Baracoa Luxe Bar","phone":"+441132452324","address":"64-68 Call Lane","lat":53.79458644058855,"lng":-1.542205810546875,"neighborhood":"The Calls","city_fetched":"Leeds,UK","country":"United Kingdom","canonicalUrl":"https://foursquare.com/v/baracoa-luxe-bar/4d8933fd033fcbff5f0b5c2c","categoryId":"4bf58dd8d48988d116941735","category":"Bar","checkinsCount":282,"usersCount":83,"tipCount":4,"visitsCount":290,"url":"http://www.baracoaluxebar.com","tier":"","message":"","currency":"","rating":5.8},{"name":"White Cross","lat":53.87807303492076,"lng":-1.725616585183572,"neighborhood":"Guiseley","city_fetched":"Leeds,UK","country":"United Kingdom","canonicalUrl":"https://foursquare.com/v/white-cross/4c645255d646be9a35ac09fd","categoryId":"4bf58dd8d48988d11b941735","category":"Pub","checkinsCount":112,"usersCount":69,"tipCount":1,"visitsCount":127,"tier":"","message":"","currency":"","rating":5.8},{"name":"The Palace","phone":"+441132445882","address":"Kirkgate","lat":53.79510819911957,"lng":-1.53499303,"neighborhood":"The Calls","city_fetched":"Leeds,UK","country":"United Kingdom","canonicalUrl":"https://foursquare.com/v/the-palace/4b5b069cf964a5208fdf28e3","categoryId":"4bf58dd8d48988d11b941735","category":"Pub","checkinsCount":1049,"usersCount":545,"tipCount":19,"visitsCount":1235,"tier":"","message":"","currency":"","rating":5.7},{"name":"Fox & Grapes","lat":53.8510979769659,"lng":-1.391819103487683,"neighborhood":"Barwick and Kippax","city_fetched":"Leeds,UK","country":"United Kingdom","canonicalUrl":"https://foursquare.com/v/fox--grapes/4cb06f03cbab236a491ea073","categoryId":"4bf58dd8d48988d11b941735","category":"Pub","checkinsCount":137,"usersCount":108,"tipCount":4,"visitsCount":165,"tier":"","message":"","currency":"","rating":5.7},{"name":"Becketts Bank (Wetherspoon)","phone":"+441133945900","address":"28-30 Park Row","lat":53.79844598,"lng":-1.547162,"neighborhood":"Financial Quarter","city_fetched":"Leeds,UK","country":"United Kingdom","canonicalUrl":"https://foursquare.com/v/becketts-bank-wetherspoon/4b83cadff964a520b51031e3","categoryId":"4bf58dd8d48988d11b941735","category":"Pub","checkinsCount":2142,"usersCount":1185,"tipCount":16,"visitsCount":2228,"url":"http://www.jdwetherspoon.co.uk","tier":1,"message":"Cheap","currency":"£","rating":5.7},{"name":"New Inn","phone":"+441132249131","address":"68 Otley Rd","lat":53.826628,"lng":-1.58196,"neighborhood":"Meanwood","city_fetched":"Leeds,UK","country":"United Kingdom","canonicalUrl":"https://foursquare.com/v/new-inn/4ba4f1a5f964a52078c638e3","categoryId":"4bf58dd8d48988d11b941735","category":"Pub","checkinsCount":411,"usersCount":288,"tipCount":2,"visitsCount":483,"tier":"","message":"","currency":"","rating":5.6},{"name":"The Packhorse","phone":"+441132424810","address":"Packhorse Yard","lat":53.79759656402127,"lng":-1.5427207946777344,"neighborhood":"Trinity Quarter","city_fetched":"Leeds,UK","country":"United Kingdom","canonicalUrl":"https://foursquare.com/v/the-packhorse/4bf9b8cd8f32ef3b5cbf04aa","categoryId":"4bf58dd8d48988d11b941735","category":"Pub","checkinsCount":695,"usersCount":331,"tipCount":9,"visitsCount":701,"url":"http://packhorseleeds.co.uk","tier":"","message":"","currency":"","rating":5.6},{"name":"Strawberry Fields","phone":"+441132431515","twitter":"strawbsbar","address":"159 Woodhouse Ln.","lat":53.805875000903555,"lng":-1.5496898478151104,"neighborhood":"Woodhouse","city_fetched":"Leeds,UK","country":"United Kingdom","canonicalUrl":"https://foursquare.com/v/strawberry-fields/4beddda54daaa593105d8f61","categoryId":"4bf58dd8d48988d116941735","category":"Bar","checkinsCount":554,"usersCount":135,"tipCount":4,"visitsCount":569,"url":"http://www.strawbs.com","tier":"","message":"","currency":"","rating":5.6},{"name":"Bar Fibre","phone":"+448701200888","address":"167-168 Briggate","lat":53.79511243562864,"lng":-1.5422916412353516,"neighborhood":"City and Holbeck","city_fetched":"Leeds,UK","country":"United Kingdom","canonicalUrl":"https://foursquare.com/v/bar-fibre/4b8e9e1cf964a5203e2c33e3","categoryId":"4bf58dd8d48988d1d8941735","category":"Gay Bar","checkinsCount":619,"usersCount":313,"tipCount":8,"visitsCount":632,"tier":"","message":"","currency":"","rating":5.5},{"name":"Norman","phone":"+441132343988","twitter":"normanbar","address":"36 Call Ln.","lat":53.79559606236255,"lng":-1.5410588892478436,"neighborhood":"City and Holbeck","city_fetched":"Leeds,UK","country":"United Kingdom","canonicalUrl":"https://foursquare.com/v/norman/4b8280c4f964a5209ed530e3","categoryId":"4bf58dd8d48988d116941735","category":"Bar","checkinsCount":422,"usersCount":275,"tipCount":14,"visitsCount":423,"tier":"","message":"","currency":"","rating":5.5},{"name":"Tyke Bar","phone":"+447508476928","twitter":"tykebar","address":"The Gateway","lat":53.794928409181054,"lng":-1.5330589130415706,"neighborhood":"Richmond Hill","city_fetched":"Leeds,UK","country":"United Kingdom","canonicalUrl":"https://foursquare.com/v/tyke-bar/4da4ade8c6e96ea8d14d025e","categoryId":"4bf58dd8d48988d11b941735","category":"Pub","checkinsCount":315,"usersCount":89,"tipCount":9,"visitsCount":326,"tier":"","message":"","currency":"","rating":5.5},{"name":"The Space","phone":"+441132461030","address":"11 Hirsts Yard","lat":53.795759,"lng":-1.541943,"neighborhood":"City and Holbeck","city_fetched":"Leeds,UK","state":"Leeds","country":"United Kingdom","canonicalUrl":"https://foursquare.com/v/the-space/4bde099d0ee3a59365b62fb0","categoryId":"4bf58dd8d48988d11f941735","category":"Nightclub","checkinsCount":168,"usersCount":119,"tipCount":3,"visitsCount":168,"tier":"","message":"","currency":"","rating":5.5},{"name":"The New Penny","phone":"+441132438055","address":"51 Call Lane","lat":53.794605,"lng":-1.541734,"neighborhood":"The Calls","city_fetched":"Leeds,UK","country":"United Kingdom","canonicalUrl":"https://foursquare.com/v/the-new-penny/4c06ebbe0ed3c9286dcf787d","categoryId":"4bf58dd8d48988d1d8941735","category":"Gay Bar","checkinsCount":264,"usersCount":137,"tipCount":5,"visitsCount":269,"tier":"","message":"","currency":"","rating":5.4},{"name":"The Headingley Taps","phone":"+441132307168","address":"Bennett Rd.","lat":53.820654,"lng":-1.579753,"neighborhood":"Headingley","city_fetched":"Leeds,UK","country":"United Kingdom","canonicalUrl":"https://foursquare.com/v/the-headingley-taps/4bb12038f964a520817c3ce3","categoryId":"4bf58dd8d48988d11b941735","category":"Pub","checkinsCount":674,"usersCount":524,"tipCount":2,"visitsCount":804,"tier":"","message":"","currency":"","rating":5.4},{"name":"The Station (Wetherspoons)","phone":"+441132471676","address":"Leeds Railway Station (LDS)","lat":53.79550534328217,"lng":-1.5483856201171875,"neighborhood":"Leeds City Centre","city_fetched":"Leeds,UK","country":"United Kingdom","canonicalUrl":"https://foursquare.com/v/the-station-wetherspoons/4bca059f3740b713a2d35f65","categoryId":"4bf58dd8d48988d11b941735","category":"Pub","checkinsCount":3067,"usersCount":1229,"tipCount":16,"visitsCount":3150,"url":"http://www.jdwetherspoon.co.uk","tier":"","message":"","currency":"","rating":5.4},{"name":"Mix Karaoke Bar","phone":"+441132469997","twitter":"mix_karaoke","address":"28 New Briggate","lat":53.79967,"lng":-1.541503,"neighborhood":"City and Holbeck","city_fetched":"Leeds,UK","country":"United Kingdom","canonicalUrl":"https://foursquare.com/v/mix-karaoke-bar/523cc97f11d2f75809b7f1ae","categoryId":"4bf58dd8d48988d120941735","category":"Karaoke Bar","checkinsCount":89,"usersCount":62,"tipCount":2,"visitsCount":89,"url":"http://mixkaraoke.co.uk","tier":"","message":"","currency":"","rating":5.4},{"name":"Oracle","phone":"+441132469912","address":"3 Brewery Pl","lat":53.793918411630074,"lng":-1.5379900367420596,"city_fetched":"Leeds,UK","country":"United Kingdom","canonicalUrl":"https://foursquare.com/v/oracle/4b82e5e3f964a520d7eb30e3","categoryId":"4bf58dd8d48988d116941735","category":"Bar","checkinsCount":645,"usersCount":400,"tipCount":10,"visitsCount":661,"url":"http://www.oraclebar.com","tier":"","message":"","currency":"","rating":5.4},{"name":"The Wrens Hotel","phone":"+441132458888","address":"59-61 New Briggate","lat":53.80067740990548,"lng":-1.5407051909307947,"neighborhood":"City and Holbeck","city_fetched":"Leeds,UK","state":"Leeds","country":"United Kingdom","canonicalUrl":"https://foursquare.com/v/the-wrens-hotel/4b47a957f964a5207f3926e3","categoryId":"4bf58dd8d48988d11b941735","category":"Pub","checkinsCount":603,"usersCount":170,"tipCount":11,"visitsCount":630,"tier":"","message":"","currency":"","rating":5.3},{"name":"OK Karaoke","phone":"+441132468115","address":"9 East Parade","lat":53.79843439798644,"lng":-1.5493197523256506,"neighborhood":"Financial Quarter","city_fetched":"Leeds,UK","country":"United Kingdom","canonicalUrl":"https://foursquare.com/v/ok-karaoke/4b5488fdf964a520edbe27e3","categoryId":"4bf58dd8d48988d120941735","category":"Karaoke Bar","checkinsCount":262,"usersCount":201,"tipCount":3,"visitsCount":262,"tier":"","message":"","currency":"","rating":5.3},{"name":"Aire Bar","phone":"+441132455500","address":"32-34 The Calls","lat":53.79466986362329,"lng":-1.5390737875861928,"neighborhood":"The Calls","city_fetched":"Leeds,UK","country":"United Kingdom","canonicalUrl":"https://foursquare.com/v/aire-bar/4b479f6ff964a520d03726e3","categoryId":"4bf58dd8d48988d116941735","category":"Bar","checkinsCount":800,"usersCount":476,"tipCount":18,"visitsCount":888,"url":"http://www.airebar.co.uk","tier":"","message":"","currency":"","rating":5.3}]