[{"name":"BrewDog Leicester","phone":"+441358724924","twitter":"brewdogleics","address":"8 Friar Ln","lat":52.63356246328161,"lng":-1.1351431565903962,"neighborhood":"City Centre","city_fetched":"Leicester,UK","state":"Leicester","country":"United Kingdom","canonicalUrl":"https://foursquare.com/v/brewdog-leicester/552d82ab498e6e3a1eb125c3","categoryId":"56aa371ce4b08b9a8d57356c","category":"Beer Bar","checkinsCount":208,"usersCount":145,"tipCount":5,"visitsCount":292,"url":"http://www.brewdog.com","tier":"","message":"","currency":"","rating":8.4},{"name":"The Organ Grinder","address":"4 Woodgate","lat":52.77036590207713,"lng":-1.2046174902424303,"city_fetched":"Leicester,UK","state":"Leicestershire","country":"United Kingdom","canonicalUrl":"https://foursquare.com/v/the-organ-grinder/50426c55e4b09c6ce4e5926a","categoryId":"4bf58dd8d48988d11b941735","category":"Pub","checkinsCount":318,"usersCount":86,"tipCount":8,"visitsCount":345,"tier":"","message":"","currency":"","rating":8.3},{"name":"The Orange Tree","phone":"+441162235256","twitter":"orangetreeleics","address":"99 High St","lat":52.63558209514918,"lng":-1.138094967563454,"neighborhood":"City Centre","city_fetched":"Leicester,UK","state":"Leicester","country":"United Kingdom","canonicalUrl":"https://foursquare.com/v/the-orange-tree/4b55a801f964a520a3ea27e3","categoryId":"4bf58dd8d48988d11b941735","category":"Pub","checkinsCount":1900,"usersCount":619,"tipCount":22,"visitsCount":1996,"url":"http://www.orangetree.co.uk/leicester/","tier":"","message":"","currency":"","rating":8.3},{"name":"Bar Dos Hermanos","address":"Queens Rd","lat":52.618613,"lng":-1.11740798,"neighborhood":"Leicester South","city_fetched":"Leicester,UK","state":"Leicester","country":"United Kingdom","canonicalUrl":"https://foursquare.com/v/bar-dos-hermanos/4b9ff4ccf964a5207f4d37e3","categoryId":"4bf58dd8d48988d116941735","category":"Bar","checkinsCount":314,"usersCount":131,"tipCount":15,"visitsCount":322,"tier":"","message":"","currency":"","rating":8.3},{"name":"Exchange Bar","phone":"+441162513434","twitter":"exchangeleics","address":"50 Rutland St","lat":52.635042,"lng":-1.12778,"neighborhood":"City Centre","city_fetched":"Leicester,UK","state":"Leicester","country":"United Kingdom","canonicalUrl":"https://foursquare.com/v/exchange-bar/4d372f264d8a6dcb6d35683f","categoryId":"4bf58dd8d48988d11b941735","category":"Pub","checkinsCount":514,"usersCount":307,"tipCount":11,"visitsCount":597,"url":"http://www.exchangeleicester.com","tier":"","message":"","currency":"","rating":8.2},{"name":"The Old Horse","phone":"+441162548384","address":"198 London Rd","lat":52.62463355765627,"lng":-1.1159229078888362,"neighborhood":"Leicester South","city_fetched":"Leicester,UK","state":"Leicestershire","country":"United Kingdom","canonicalUrl":"https://foursquare.com/v/the-old-horse/4b781d18f964a52064b62ee3","categoryId":"4bf58dd8d48988d11b941735","category":"Pub","checkinsCount":768,"usersCount":318,"tipCount":14,"visitsCount":910,"url":"http://www.oldhorseleicester.co.uk","tier":"","message":"","currency":"","rating":8},{"name":"Ale Wagon","address":"Charles St","lat":52.634196,"lng":-1.129083,"neighborhood":"City Centre","city_fetched":"Leicester,UK","state":"Leicester","country":"United Kingdom","canonicalUrl":"https://foursquare.com/v/ale-wagon/4b58ab89f964a520d26428e3","categoryId":"4bf58dd8d48988d11b941735","category":"Pub","checkinsCount":212,"usersCount":114,"tipCount":3,"visitsCount":252,"tier":"","message":"","currency":"","rating":8},{"name":"Cosy Club","phone":"+441164080008","twitter":"cosyleicester","address":"62-68 Highcross St","lat":52.63584810307738,"lng":-1.1391153931617735,"neighborhood":"City Centre","city_fetched":"Leicester,UK","state":"Leicester","country":"United Kingdom","canonicalUrl":"https://foursquare.com/v/cosy-club/5441340b498e45559da25bd0","categoryId":"4bf58dd8d48988d116941735","category":"Bar","checkinsCount":212,"usersCount":123,"tipCount":10,"visitsCount":227,"url":"http://www.cosyclub.co.uk","tier":"","message":"","currency":"","rating":7.8},{"name":"Taps","phone":"+441162530904","twitter":"taps_leicester","address":"10 Guildhall Ln","lat":52.63508352404581,"lng":-1.1366477757038922,"neighborhood":"City Centre","city_fetched":"Leicester,UK","state":"Leicestershire","country":"United Kingdom","canonicalUrl":"https://foursquare.com/v/taps/4c77df99a5676dcb37f61921","categoryId":"4bf58dd8d48988d116941735","category":"Bar","checkinsCount":374,"usersCount":155,"tipCount":7,"visitsCount":384,"url":"http://www.taps-leicester.com","tier":"","message":"","currency":"","rating":7.8},{"name":"Swan & Rushes","phone":"+441162339167","address":"19 Infirmary Square","lat":52.629071966666665,"lng":-1.1352225596559995,"neighborhood":"Leicester South","city_fetched":"Leicester,UK","state":"Leicester","country":"United Kingdom","canonicalUrl":"https://foursquare.com/v/swan--rushes/4b6c5dabf964a5200f342ce3","categoryId":"4bf58dd8d48988d11b941735","category":"Pub","checkinsCount":259,"usersCount":142,"tipCount":12,"visitsCount":273,"url":"http://www.swanandrushes.co.uk","tier":"","message":"","currency":"","rating":7.8},{"name":"Soar Point","phone":"+441162044911","twitter":"soarpointporker","address":"25 The Newarke","lat":52.630811475879156,"lng":-1.1420229077339172,"neighborhood":"Leicester South","city_fetched":"Leicester,UK","state":"Leicestershire","country":"United Kingdom","canonicalUrl":"https://foursquare.com/v/soar-point/4b597f0cf964a520268a28e3","categoryId":"4bf58dd8d48988d11b941735","category":"Pub","checkinsCount":1253,"usersCount":559,"tipCount":16,"visitsCount":1564,"url":"http://www.screampubs.co.uk/soarpointleicester/","tier":1,"message":"Cheap","currency":"£","rating":7.7},{"name":"The Western","phone":"+441162545287","address":"70 Western Rd","lat":52.628144,"lng":-1.147247,"neighborhood":"West End","city_fetched":"Leicester,UK","state":"Leicestershire","country":"United Kingdom","canonicalUrl":"https://foursquare.com/v/the-western/4c0ff131ce57c928531481d2","categoryId":"4bf58dd8d48988d11b941735","category":"Pub","checkinsCount":328,"usersCount":125,"tipCount":7,"visitsCount":391,"url":"http://www.steamin-billy.co.uk","tier":"","message":"","currency":"","rating":7.7},{"name":"The Musician","address":"Clyde Street","lat":52.63883521998097,"lng":-1.125758549629193,"neighborhood":"City Centre","city_fetched":"Leicester,UK","state":"Leicester","country":"United Kingdom","canonicalUrl":"https://foursquare.com/v/the-musician/4b58b76cf964a5202a6728e3","categoryId":"4bf58dd8d48988d11b941735","category":"Pub","checkinsCount":195,"usersCount":139,"tipCount":9,"visitsCount":223,"tier":"","message":"","currency":"","rating":7.7},{"name":"The Cookie","phone":"+441162531212","twitter":"_thecookie","address":"68 High St","lat":52.63558861354096,"lng":-1.1370611042768077,"neighborhood":"City Centre","city_fetched":"Leicester,UK","state":"Leicestershire","country":"United Kingdom","canonicalUrl":"https://foursquare.com/v/the-cookie/4c6bcf1c6af58cfa8f358517","categoryId":"4bf58dd8d48988d121941735","category":"Lounge","checkinsCount":516,"usersCount":213,"tipCount":10,"visitsCount":540,"url":"http://www.thecookieleicester.co.uk","tier":"","message":"","currency":"","rating":7.6},{"name":"Bruxelles Leicester","phone":"+441162243013","address":"90-92 High St","lat":52.63538433618327,"lng":-1.1378900582303182,"neighborhood":"City Centre","city_fetched":"Leicester,UK","state":"Leicestershire","country":"United Kingdom","canonicalUrl":"https://foursquare.com/v/bruxelles-leicester/4b524645f964a5202e7427e3","categoryId":"4bf58dd8d48988d116941735","category":"Bar","checkinsCount":371,"usersCount":211,"tipCount":10,"visitsCount":375,"tier":"","message":"","currency":"","rating":7.6},{"name":"Rutland & Derby Arms","address":"23, millstone Lane","lat":52.632675,"lng":-1.135762,"neighborhood":"City Centre","city_fetched":"Leicester,UK","state":"Leicestershire","country":"United Kingdom","canonicalUrl":"https://foursquare.com/v/rutland--derby-arms/4b574f2ef964a5208d3028e3","categoryId":"4bf58dd8d48988d11b941735","category":"Pub","checkinsCount":452,"usersCount":217,"tipCount":4,"visitsCount":533,"tier":"","message":"","currency":"","rating":7.6},{"name":"Babelas","phone":"+441162707744","address":"77 Queens Rd","lat":52.618092,"lng":-1.11738,"neighborhood":"Leicester South","city_fetched":"Leicester,UK","state":"Leicester","country":"United Kingdom","canonicalUrl":"https://foursquare.com/v/babelas/4b54e421f964a520a5d127e3","categoryId":"4bf58dd8d48988d11b941735","category":"Pub","checkinsCount":355,"usersCount":79,"tipCount":11,"visitsCount":377,"tier":"","message":"","currency":"","rating":7.5},{"name":"The Black Horse","address":"65 Narrow Lane, Aylestone","lat":52.603125013331194,"lng":-1.1594793171902806,"neighborhood":"Aylestone","city_fetched":"Leicester,UK","state":"Leicester","country":"United Kingdom","canonicalUrl":"https://foursquare.com/v/the-black-horse/4b954c0cf964a520d59a34e3","categoryId":"4bf58dd8d48988d11b941735","category":"Pub","checkinsCount":196,"usersCount":54,"tipCount":2,"visitsCount":213,"tier":"","message":"","currency":"","rating":7.4},{"name":"The Swan In The Rushes","phone":"+441509217014","twitter":"swanrushes","address":"21 The Rushes","lat":52.773761,"lng":-1.209945,"city_fetched":"Leicester,UK","state":"Leicestershire","country":"United Kingdom","canonicalUrl":"https://foursquare.com/v/the-swan-in-the-rushes/4bbc88f5afe1b713267a304b","categoryId":"4bf58dd8d48988d11b941735","category":"Pub","checkinsCount":330,"usersCount":100,"tipCount":7,"visitsCount":330,"url":"http://www.castlerockbrewery.co.uk","tier":"","message":"","currency":"","rating":7.4},{"name":"The Paget Arms","phone":"+441509266216","address":"41 Oxford St","lat":52.77453937402593,"lng":-1.2167851374501386,"city_fetched":"Leicester,UK","state":"Leicestershire","country":"United Kingdom","canonicalUrl":"https://foursquare.com/v/the-paget-arms/4deccbc418386283a41fca77","categoryId":"4bf58dd8d48988d11b941735","category":"Pub","checkinsCount":160,"usersCount":95,"tipCount":3,"visitsCount":211,"url":"http://www.steamin-billy.co.uk","tier":"","message":"","currency":"","rating":7.4},{"name":"Queen of Bradgate","phone":"+441162623990","twitter":"qobpub","address":"97 High St","lat":52.63542650719915,"lng":-1.1377501487731934,"neighborhood":"City Centre","city_fetched":"Leicester,UK","state":"Leicester","country":"United Kingdom","canonicalUrl":"https://foursquare.com/v/queen-of-bradgate/4b5249def964a5201c7527e3","categoryId":"4bf58dd8d48988d11b941735","category":"Pub","checkinsCount":329,"usersCount":109,"tipCount":6,"visitsCount":337,"url":"http://www.queenofbradgate.co.uk","tier":"","message":"","currency":"","rating":7.4},{"name":"The Cradock Arms","phone":"+441162706680","address":"201 Knighton Rd","lat":52.609314,"lng":-1.116977,"neighborhood":"Knighton","city_fetched":"Leicester,UK","state":"Leicestershire","country":"United Kingdom","canonicalUrl":"https://foursquare.com/v/the-cradock-arms/4ba51289f964a52029d938e3","categoryId":"4bf58dd8d48988d11b941735","category":"Pub","checkinsCount":340,"usersCount":149,"tipCount":2,"visitsCount":461,"tier":"","message":"","currency":"","rating":7.4},{"name":"The Parcel Yard","address":"48A London Rd","lat":52.631581160520454,"lng":-1.1254555372147965,"neighborhood":"Leicester South","city_fetched":"Leicester,UK","state":"Leicester","country":"United Kingdom","canonicalUrl":"https://foursquare.com/v/the-parcel-yard/51324475e4b0eacbc546e65b","categoryId":"4bf58dd8d48988d116941735","category":"Bar","checkinsCount":413,"usersCount":196,"tipCount":11,"visitsCount":421,"url":"http://www.steamin-billy.co.uk","tier":"","message":"","currency":"","rating":7.4},{"name":"Manhattan34","phone":"+441162628855","twitter":"manhattan_34","address":"34 Rutland St","lat":52.634738,"lng":-1.128237,"neighborhood":"City Centre","city_fetched":"Leicester,UK","state":"Leicestershire","country":"United Kingdom","canonicalUrl":"https://foursquare.com/v/manhattan34/4e0205adaeb76b610989c069","categoryId":"4bf58dd8d48988d11e941735","category":"Cocktail Bar","checkinsCount":496,"usersCount":175,"tipCount":7,"visitsCount":525,"url":"http://www.manhattan34.com","tier":"","message":"","currency":"","rating":7.4},{"name":"Orange Tree","phone":"+441509238852","address":"Bedford Square","lat":52.76885764068364,"lng":-1.2081044912338257,"city_fetched":"Leicester,UK","state":"Leicestershire","country":"United Kingdom","canonicalUrl":"https://foursquare.com/v/orange-tree/4b50c002f964a520c53027e3","categoryId":"4bf58dd8d48988d116941735","category":"Bar","checkinsCount":779,"usersCount":372,"tipCount":12,"visitsCount":952,"tier":"","message":"","currency":"","rating":7.3},{"name":"The Lansdowne","phone":"+441162854131","address":"123 London Rd","lat":52.628165956259444,"lng":-1.121506690979004,"neighborhood":"Leicester South","city_fetched":"Leicester,UK","country":"United Kingdom","canonicalUrl":"https://foursquare.com/v/the-lansdowne/4b5b9bdff964a520b00a29e3","categoryId":"4bf58dd8d48988d116941735","category":"Bar","checkinsCount":681,"usersCount":422,"tipCount":14,"visitsCount":913,"tier":"","message":"","currency":"","rating":7.3},{"name":"Pi","phone":"+441162545200","address":"1 Norman St.","lat":52.6275611182344,"lng":-1.1498913306620253,"neighborhood":"West End","city_fetched":"Leicester,UK","state":"Leicestershire","country":"United Kingdom","canonicalUrl":"https://foursquare.com/v/pi/4bb283f3a32876b03eb700fe","categoryId":"4bf58dd8d48988d116941735","category":"Bar","checkinsCount":204,"usersCount":80,"tipCount":3,"visitsCount":204,"tier":"","message":"","currency":"","rating":7.3},{"name":"Revolution Bar and Restaurant","address":"6B New Walk","lat":52.630951,"lng":-1.131464,"neighborhood":"City Centre","city_fetched":"Leicester,UK","state":"Leicestershire","country":"United Kingdom","canonicalUrl":"https://foursquare.com/v/revolution-bar-and-restaurant/4b51dd5ef964a520905827e3","categoryId":"4bf58dd8d48988d116941735","category":"Bar","checkinsCount":288,"usersCount":211,"tipCount":4,"visitsCount":315,"tier":"","message":"","currency":"","rating":7.2},{"name":"Red Cow","lat":52.624675,"lng":-1.219818,"city_fetched":"Leicester,UK","country":"United Kingdom","canonicalUrl":"https://foursquare.com/v/red-cow/4be315c7d27a20a1ca31915b","categoryId":"4bf58dd8d48988d11b941735","category":"Pub","checkinsCount":174,"usersCount":131,"tipCount":4,"visitsCount":237,"tier":"","message":"","currency":"","rating":7.2},{"name":"The Font","phone":"+448719511000","twitter":"thefont","address":"52½ Gateway St","lat":52.628739,"lng":-1.137868,"neighborhood":"Leicester South","city_fetched":"Leicester,UK","state":"Leicester","country":"United Kingdom","canonicalUrl":"https://foursquare.com/v/the-font/4cd34720baf2f04d9a1daea3","categoryId":"4bf58dd8d48988d11b941735","category":"Pub","checkinsCount":260,"usersCount":119,"tipCount":7,"visitsCount":260,"url":"http://www.thefontpub.co.uk","tier":"","message":"","currency":"","rating":7.1},{"name":"Platinum Lace Bar and Gentleman's Club","phone":"+441162624445","twitter":"platinumlacele1","address":"1 Abbey Street","lat":52.63992549061111,"lng":-1.1328577995300293,"neighborhood":"City Centre","city_fetched":"Leicester,UK","state":"Leicestershire","country":"United Kingdom","canonicalUrl":"https://foursquare.com/v/platinum-lace-bar-and-gentlemans-club/4c363f750a71c9b69fcd3cc9","categoryId":"4bf58dd8d48988d1d6941735","category":"Strip Club","checkinsCount":2580,"usersCount":75,"tipCount":7,"visitsCount":2588,"url":"http://www.platinumlace.co.uk","tier":"","message":"","currency":"","rating":7.1},{"name":"Nine Bar","phone":"+441162551355","address":"74 Narborough Rd.","lat":52.62844994589942,"lng":-1.1493142799307863,"neighborhood":"West End","city_fetched":"Leicester,UK","state":"Leicestershire","country":"United Kingdom","canonicalUrl":"https://foursquare.com/v/nine-bar/4b6d8e55f964a5205e7c2ce3","categoryId":"4bf58dd8d48988d116941735","category":"Bar","checkinsCount":159,"usersCount":98,"tipCount":4,"visitsCount":159,"url":"http://www.ninebar.net","tier":"","message":"","currency":"","rating":7.1},{"name":"The Kings Head","phone":"+441162548240","address":"New Walk","lat":52.63069868860569,"lng":-1.1318633152667847,"neighborhood":"City Centre","city_fetched":"Leicester,UK","country":"United Kingdom","canonicalUrl":"https://foursquare.com/v/the-kings-head/5020193de4b0480419b619d6","categoryId":"4bf58dd8d48988d11b941735","category":"Pub","checkinsCount":166,"usersCount":93,"tipCount":5,"visitsCount":188,"url":"http://www.thekingsleicester.co.uk","tier":"","message":"","currency":"","rating":7.1},{"name":"The Criterion","phone":"+441162625418","address":"44 Millstone Ln","lat":52.632332,"lng":-1.1375033855438232,"neighborhood":"City Centre","city_fetched":"Leicester,UK","state":"Leicester","country":"United Kingdom","canonicalUrl":"https://foursquare.com/v/the-criterion/4b7dae78f964a52035ce2fe3","categoryId":"4bf58dd8d48988d11b941735","category":"Pub","checkinsCount":560,"usersCount":207,"tipCount":11,"visitsCount":658,"tier":"","message":"","currency":"","rating":7.1},{"name":"Firebug","phone":"+441162551228","twitter":"firebugbar","address":"1 Millstone Ln","lat":52.63307591362523,"lng":-1.1344671249389648,"neighborhood":"City Centre","city_fetched":"Leicester,UK","state":"Leicestershire","country":"United Kingdom","canonicalUrl":"https://foursquare.com/v/firebug/4b5b851cf964a5204a0429e3","categoryId":"4bf58dd8d48988d116941735","category":"Bar","checkinsCount":1969,"usersCount":654,"tipCount":20,"visitsCount":2129,"url":"http://www.firebugbar.co.uk","tier":"","message":"","currency":"","rating":7},{"name":"The Railway","phone":"+441455251311","address":"Station Rd","lat":52.53623871927168,"lng":-1.3725274882005996,"city_fetched":"Leicester,UK","state":"Leicestershire","country":"United Kingdom","canonicalUrl":"https://foursquare.com/v/the-railway/4bf911ba8d30d13a8da70118","categoryId":"4bf58dd8d48988d11b941735","category":"Pub","checkinsCount":51,"usersCount":30,"tipCount":3,"visitsCount":56,"url":"http://www.steamin-billy.co.uk","tier":"","message":"","currency":"","rating":7},{"name":"Rileys","phone":"+441162549944","twitter":"rileysleicester","address":"Deacon St","lat":52.62931535243227,"lng":-1.1362051963806152,"neighborhood":"Leicester South","city_fetched":"Leicester,UK","state":"Leicestershire","country":"United Kingdom","canonicalUrl":"https://foursquare.com/rileysleicester","categoryId":"4bf58dd8d48988d11d941735","category":"Sports Bar","checkinsCount":137,"usersCount":80,"tipCount":3,"visitsCount":138,"tier":"","message":"","currency":"","rating":7},{"name":"Al Feena Lounge & Grill","phone":"+448452576473","twitter":"alfeenaofficial","address":"1 St Georges Way","lat":52.6330234874862,"lng":-1.1261735702857498,"neighborhood":"City Centre","city_fetched":"Leicester,UK","state":"Leicester","country":"United Kingdom","canonicalUrl":"https://foursquare.com/v/al-feena-lounge--grill/4e6940e5d164c813d9dbf266","categoryId":"4bf58dd8d48988d121941735","category":"Lounge","checkinsCount":235,"usersCount":100,"tipCount":4,"visitsCount":250,"url":"http://www.alfeena.com","tier":"","message":"","currency":"","rating":6.9},{"name":"Revolution","phone":"+441509808010","twitter":"revolutionbars","address":"13-14 Baxter Gate","lat":52.772589971759054,"lng":-1.2043547630310059,"city_fetched":"Leicester,UK","state":"Leicestershire","country":"United Kingdom","canonicalUrl":"https://foursquare.com/v/revolution/4b87c249f964a52094ca31e3","categoryId":"4bf58dd8d48988d123941735","category":"Wine Bar","checkinsCount":608,"usersCount":315,"tipCount":10,"visitsCount":770,"tier":"","message":"","currency":"","rating":6.9},{"name":"The Twisted Spoon","phone":"+441162558223","address":"59 Braunstone Gate","lat":52.63079051667248,"lng":-1.1463789375608848,"neighborhood":"West End","city_fetched":"Leicester,UK","country":"United Kingdom","canonicalUrl":"https://foursquare.com/v/the-twisted-spoon/4c48bd693013a5937c96cee1","categoryId":"4bf58dd8d48988d11e941735","category":"Cocktail Bar","checkinsCount":333,"usersCount":174,"tipCount":4,"visitsCount":333,"tier":"","message":"","currency":"","rating":6.9},{"name":"Foxton Locks Inn","phone":"+441162791515","address":"Foxton Locks","lat":52.50130144672264,"lng":-0.9822450578212738,"city_fetched":"Leicester,UK","country":"United Kingdom","canonicalUrl":"https://foursquare.com/v/foxton-locks-inn/4bb63a3a1344b7139c2c9d04","categoryId":"4bf58dd8d48988d11b941735","category":"Pub","checkinsCount":233,"usersCount":233,"tipCount":5,"visitsCount":292,"tier":"","message":"","currency":"","rating":6.8},{"name":"The Terrace","phone":"+441162554150","address":"1 Albion Street","lat":52.632307548173024,"lng":-1.1313343048095703,"neighborhood":"City Centre","city_fetched":"Leicester,UK","state":"Leicester","country":"United Kingdom","canonicalUrl":"https://foursquare.com/v/the-terrace/4baa9651f964a52038773ae3","categoryId":"4bf58dd8d48988d116941735","category":"Bar","checkinsCount":187,"usersCount":115,"tipCount":6,"visitsCount":195,"url":"http://www.theterrace-leicester.co.uk","tier":"","message":"","currency":"","rating":6.7},{"name":"Helsinki","address":"94 Rutland Street","lat":52.636266439373195,"lng":-1.1269569396972656,"neighborhood":"City Centre","city_fetched":"Leicester,UK","country":"United Kingdom","canonicalUrl":"https://foursquare.com/v/helsinki/4b9a2e2af964a52010a335e3","categoryId":"4bf58dd8d48988d11f941735","category":"Nightclub","checkinsCount":336,"usersCount":82,"tipCount":1,"visitsCount":354,"tier":"","message":"","currency":"","rating":6.6},{"name":"Black Horse","address":"Braunstone Gate","lat":52.631317,"lng":-1.145508,"neighborhood":"West End","city_fetched":"Leicester,UK","state":"Leicester","country":"United Kingdom","canonicalUrl":"https://foursquare.com/v/black-horse/4cc888d57151721e7a8e6137","categoryId":"4bf58dd8d48988d11b941735","category":"Pub","checkinsCount":120,"usersCount":57,"tipCount":2,"visitsCount":123,"tier":"","message":"","currency":"","rating":6.5},{"name":"Natterjacks","address":"Braunstone Gate","lat":52.63087,"lng":-1.145992,"neighborhood":"West End","city_fetched":"Leicester,UK","state":"Leicestershire","country":"United Kingdom","canonicalUrl":"https://foursquare.com/v/natterjacks/4c250ba5f1272d7f641984c5","categoryId":"4bf58dd8d48988d116941735","category":"Bar","checkinsCount":350,"usersCount":131,"tipCount":5,"visitsCount":358,"tier":"","message":"","currency":"","rating":6.5},{"name":"The Globe","phone":"+441162539492","address":"43 Silver Street","lat":52.635322,"lng":-1.136245,"neighborhood":"City Centre","city_fetched":"Leicester,UK","state":"Leicestershire","country":"United Kingdom","canonicalUrl":"https://foursquare.com/v/the-globe/4b75e942f964a520162e2ee3","categoryId":"4bf58dd8d48988d11b941735","category":"Pub","checkinsCount":481,"usersCount":195,"tipCount":11,"visitsCount":497,"tier":"","message":"","currency":"","rating":6.4},{"name":"Rainbow & Dove","phone":"+441162555916","address":"185 Charles St","lat":52.633037,"lng":-1.126962,"neighborhood":"City Centre","city_fetched":"Leicester,UK","state":"Leicestershire","country":"United Kingdom","canonicalUrl":"https://foursquare.com/v/rainbow--dove/4b92a3fcf964a520ad0c34e3","categoryId":"4bf58dd8d48988d11e941735","category":"Cocktail Bar","checkinsCount":738,"usersCount":204,"tipCount":8,"visitsCount":797,"tier":"","message":"","currency":"","rating":6.4},{"name":"The Basement","phone":"+441162546580","twitter":"thebasementleic","address":"1 Wellington St,","lat":52.63176058237319,"lng":-1.1320734950144944,"neighborhood":"City Centre","city_fetched":"Leicester,UK","state":"Leicester","country":"United Kingdom","canonicalUrl":"https://foursquare.com/v/the-basement/4c14247c82a3c9b6c3d2fcf8","categoryId":"4bf58dd8d48988d11f941735","category":"Nightclub","checkinsCount":209,"usersCount":89,"tipCount":0,"visitsCount":210,"url":"http://www.thebasementbar.co.uk","tier":"","message":"","currency":"","rating":6.4},{"name":"The Cow And Plough","address":"Gartree Road","lat":52.61321646587996,"lng":-1.0718055973508036,"city_fetched":"Leicester,UK","state":"Leicester","country":"United Kingdom","canonicalUrl":"https://foursquare.com/v/the-cow-and-plough/4b5b5fa6f964a520bef828e3","categoryId":"4bf58dd8d48988d11b941735","category":"Pub","checkinsCount":269,"usersCount":139,"tipCount":5,"visitsCount":348,"url":"http://www.steamin-billy.co.uk","tier":"","message":"","currency":"","rating":6.3},{"name":"The Donkey","address":"203 Welford Road","lat":52.616451,"lng":-1.126417,"neighborhood":"Leicester South","city_fetched":"Leicester,UK","state":"Leicester","country":"United Kingdom","canonicalUrl":"https://foursquare.com/v/the-donkey/4b60a738f964a52074f229e3","categoryId":"4bf58dd8d48988d11b941735","category":"Pub","checkinsCount":214,"usersCount":97,"tipCount":2,"visitsCount":219,"tier":"","message":"","currency":"","rating":6.3},{"name":"Dover Castle","address":"34 Dover St","lat":52.63179123401642,"lng":-1.128881,"neighborhood":"City Centre","city_fetched":"Leicester,UK","state":"Leicestershire","country":"United Kingdom","canonicalUrl":"https://foursquare.com/v/dover-castle/4bbcb9ce0780952149a7d991","categoryId":"4bf58dd8d48988d1d8941735","category":"Gay Bar","checkinsCount":657,"usersCount":119,"tipCount":11,"visitsCount":673,"tier":"","message":"","currency":"","rating":6.2},{"name":"The Dry Dock","phone":"+441162559596","address":"Putney Road East","lat":52.61761484742561,"lng":-1.1292636394500732,"neighborhood":"Leicester South","city_fetched":"Leicester,UK","state":"Leicestershire","country":"United Kingdom","canonicalUrl":"https://foursquare.com/v/the-dry-dock/4b891c4ef964a520521d32e3","categoryId":"4bf58dd8d48988d11b941735","category":"Pub","checkinsCount":400,"usersCount":243,"tipCount":6,"visitsCount":490,"tier":"","message":"","currency":"","rating":6.2},{"name":"The Salmon","phone":"+441162532301","twitter":"salmonpubleic","address":"Butt Close Lane","lat":52.6382397561408,"lng":-1.1358224519126774,"neighborhood":"City Centre","city_fetched":"Leicester,UK","state":"Leicester","country":"United Kingdom","canonicalUrl":"https://foursquare.com/v/the-salmon/4b5a075df964a520bda828e3","categoryId":"4bf58dd8d48988d11b941735","category":"Pub","checkinsCount":170,"usersCount":72,"tipCount":3,"visitsCount":174,"url":"http://www.thesalmon.org.uk","tier":"","message":"","currency":"","rating":6.2},{"name":"Loaded Dog","address":"London Rd","lat":52.627273853741784,"lng":-1.1190108654060524,"neighborhood":"Leicester South","city_fetched":"Leicester,UK","state":"Leicester","country":"United Kingdom","canonicalUrl":"https://foursquare.com/v/loaded-dog/4b705a9cf964a520c8142de3","categoryId":"4bf58dd8d48988d11b941735","category":"Pub","checkinsCount":278,"usersCount":150,"tipCount":8,"visitsCount":293,"tier":"","message":"","currency":"","rating":6.1},{"name":"The Slug and Lettuce","address":"27 Market St","lat":52.63253063615869,"lng":-1.1335822604215657,"neighborhood":"City Centre","city_fetched":"Leicester,UK","state":"Leicestershire","country":"United Kingdom","canonicalUrl":"https://foursquare.com/v/the-slug-and-lettuce/4b64c7d9f964a5209acf2ae3","categoryId":"4bf58dd8d48988d11b941735","category":"Pub","checkinsCount":647,"usersCount":344,"tipCount":10,"visitsCount":713,"tier":"","message":"","currency":"","rating":6.1},{"name":"Counting House","phone":"+441162755527","address":"40 Almond Rd.","lat":52.621243,"lng":-1.1332623,"neighborhood":"Leicester South","city_fetched":"Leicester,UK","state":"Leicestershire","country":"United Kingdom","canonicalUrl":"https://foursquare.com/v/counting-house/4c12a2dba5eb76b0278bbeb7","categoryId":"4bf58dd8d48988d11b941735","category":"Pub","checkinsCount":378,"usersCount":175,"tipCount":4,"visitsCount":431,"tier":"","message":"","currency":"","rating":6},{"name":"The Last Plantagenet (Wetherspoon)","phone":"+441162555492","address":"107 Granby St.","lat":52.63260518144805,"lng":-1.1284979664205002,"neighborhood":"City Centre","city_fetched":"Leicester,UK","state":"Leicestershire","country":"United Kingdom","canonicalUrl":"https://foursquare.com/v/the-last-plantagenet-wetherspoon/4c87ab58821e9eb047cd8d89","categoryId":"4bf58dd8d48988d11b941735","category":"Pub","checkinsCount":900,"usersCount":489,"tipCount":17,"visitsCount":1064,"url":"http://www.jdwetherspoon.co.uk","tier":"","message":"","currency":"","rating":6},{"name":"Hakamou","phone":"+441162549650","address":"8 Bowling Green St.","lat":52.63277050267101,"lng":-1.132412326201998,"neighborhood":"City Centre","city_fetched":"Leicester,UK","state":"Leicestershire","country":"United Kingdom","canonicalUrl":"https://foursquare.com/v/hakamou/4dbc81e40cb691071ca57146","categoryId":"4bf58dd8d48988d11e941735","category":"Cocktail Bar","checkinsCount":270,"usersCount":160,"tipCount":5,"visitsCount":279,"url":"http://www.hakamou.co.uk","tier":"","message":"","currency":"","rating":5.9},{"name":"The Looking Glass","phone":"+441162559002","address":"68-70 Braunstone Gate","lat":52.63072209657537,"lng":-1.1470510759452792,"neighborhood":"West End","city_fetched":"Leicester,UK","state":"Leicestershire","country":"United Kingdom","canonicalUrl":"https://foursquare.com/v/the-looking-glass/4c2e740eed37a59360a26503","categoryId":"4bf58dd8d48988d116941735","category":"Bar","checkinsCount":197,"usersCount":74,"tipCount":1,"visitsCount":198,"tier":"","message":"","currency":"","rating":5.9},{"name":"Club Republic","phone":"+441162511442","address":"Sandacre St.","lat":52.63907745642128,"lng":-1.1339624234182217,"neighborhood":"City Centre","city_fetched":"Leicester,UK","state":"Leicestershire","country":"United Kingdom","canonicalUrl":"https://foursquare.com/v/club-republic/4d155e0dcc216ea8c50363d3","categoryId":"4bf58dd8d48988d11f941735","category":"Nightclub","checkinsCount":352,"usersCount":175,"tipCount":4,"visitsCount":352,"tier":"","message":"","currency":"","rating":5.8},{"name":"The High Cross (Wetherspoon)","phone":"+441162519218","address":"103-105 High St.","lat":52.63535488432962,"lng":-1.1384636163711548,"neighborhood":"City Centre","city_fetched":"Leicester,UK","state":"Leicestershire","country":"United Kingdom","canonicalUrl":"https://foursquare.com/v/the-high-cross-wetherspoon/4b55baa8f964a52079ed27e3","categoryId":"4bf58dd8d48988d11b941735","category":"Pub","checkinsCount":1360,"usersCount":545,"tipCount":14,"visitsCount":1421,"url":"http://www.jdwetherspoon.co.uk","tier":"","message":"","currency":"","rating":5.8},{"name":"The Pub","address":"New Walk","lat":52.631012307068886,"lng":-1.1311689496885153,"neighborhood":"City Centre","city_fetched":"Leicester,UK","state":"Leicester","country":"United Kingdom","canonicalUrl":"https://foursquare.com/v/the-pub/4bd8adc02e6f0f47b9190808","categoryId":"4bf58dd8d48988d11b941735","category":"Pub","checkinsCount":270,"usersCount":124,"tipCount":10,"visitsCount":270,"tier":"","message":"","currency":"","rating":5.7},{"name":"Yates","address":"Belvoir street","lat":52.633029,"lng":-1.130985,"neighborhood":"City Centre","city_fetched":"Leicester,UK","state":"Leicester","country":"United Kingdom","canonicalUrl":"https://foursquare.com/v/yates/4bfe96764cf820a11017eef4","categoryId":"4bf58dd8d48988d11b941735","category":"Pub","checkinsCount":293,"usersCount":158,"tipCount":6,"visitsCount":295,"tier":"","message":"","currency":"","rating":5.5},{"name":"The Corn Exchange (Wetherspoon)","phone":"+441162538533","address":"1 Corn Exchange","lat":52.63466819656825,"lng":-1.133217642580674,"neighborhood":"City Centre","city_fetched":"Leicester,UK","state":"Leicestershire","country":"United Kingdom","canonicalUrl":"https://foursquare.com/v/the-corn-exchange-wetherspoon/4bd469d229eb9c74f97d91e1","categoryId":"4bf58dd8d48988d11b941735","category":"Pub","checkinsCount":944,"usersCount":286,"tipCount":2,"visitsCount":945,"url":"http://www.jdwetherspoon.co.uk","tier":"","message":"","currency":"","rating":5.5},{"name":"The Clarendon Pub","lat":52.61797950332052,"lng":-1.1157529093976766,"neighborhood":"Leicester South","city_fetched":"Leicester,UK","country":"United Kingdom","canonicalUrl":"https://foursquare.com/v/the-clarendon-pub/4bce0535c564ef3bd081edf0","categoryId":"4bf58dd8d48988d11b941735","category":"Pub","checkinsCount":257,"usersCount":68,"tipCount":4,"visitsCount":283,"tier":"","message":"","currency":"","rating":5.4},{"name":"Local Hero","phone":"+441162755330","address":"Aylestone Road","lat":52.620848508582924,"lng":-1.1351716166919217,"neighborhood":"Leicester South","city_fetched":"Leicester,UK","state":"Leicestershire","country":"United Kingdom","canonicalUrl":"https://foursquare.com/v/local-hero/4be4510a2468c9283398fe42","categoryId":"4bf58dd8d48988d11b941735","category":"Pub","checkinsCount":322,"usersCount":135,"tipCount":5,"visitsCount":324,"tier":"","message":"","currency":"","rating":5.4},{"name":"The Fan Club","phone":"+441162425765","address":"40 Abbey St.","lat":52.63973597558421,"lng":-1.1327634286573929,"neighborhood":"City Centre","city_fetched":"Leicester,UK","state":"Leicestershire","country":"United Kingdom","canonicalUrl":"https://foursquare.com/v/the-fan-club/4b525922f964a520b17827e3","categoryId":"4bf58dd8d48988d11f941735","category":"Nightclub","checkinsCount":219,"usersCount":110,"tipCount":5,"visitsCount":220,"url":"http://www.fanclubnightclub.co.uk","tier":"","message":"","currency":"","rating":5.3},{"name":"Fat Cat Cafe Bar","phone":"+441162553610","twitter":"leicesterfatcat","address":"41 Belvoir St.","lat":52.632812,"lng":-1.131825,"neighborhood":"City Centre","city_fetched":"Leicester,UK","state":"Leicestershire","country":"United Kingdom","canonicalUrl":"https://foursquare.com/v/fat-cat-cafe-bar/4b51dba5f964a5204d5827e3","categoryId":"4bf58dd8d48988d11e941735","category":"Cocktail Bar","checkinsCount":313,"usersCount":183,"tipCount":1,"visitsCount":313,"url":"http://www.fatcatcafebars.co.uk","tier":"","message":"","currency":"","rating":5.2},{"name":"Heathley Park Pub & Restaurant","phone":"+441162322001","address":"Groby Rd","lat":52.6506103,"lng":-1.168278,"neighborhood":"Beaumont Leys","city_fetched":"Leicester,UK","state":"Leicestershire","country":"United Kingdom","canonicalUrl":"https://foursquare.com/v/heathley-park-pub--restaurant/4c49f57d712ac9286af9c16a","categoryId":"4bf58dd8d48988d11b941735","category":"Pub","checkinsCount":180,"usersCount":114,"tipCount":4,"visitsCount":183,"url":"http://www.fayre-square.com/pub/heathley-park-leicester/s5047/","tier":"","message":"","currency":"","rating":4.8}]