[{"name":"The Grove Lock","address":"B488","lat":51.89820431457208,"lng":-0.6719416379928589,"city_fetched":"Leighton Buzzard,UK","country":"United Kingdom","canonicalUrl":"https://foursquare.com/v/the-grove-lock/4c065225517d0f471dc1f515","categoryId":"4bf58dd8d48988d117941735","category":"Beer Garden","checkinsCount":586,"usersCount":240,"tipCount":11,"visitsCount":721,"tier":"","message":"","currency":"","rating":7},{"name":"The Globe Inn","phone":"+441525373338","address":"Globe Lane","lat":51.92758071704377,"lng":-0.6735013220619464,"city_fetched":"Leighton Buzzard,UK","country":"United Kingdom","canonicalUrl":"https://foursquare.com/v/the-globe-inn/4c0a6fba009a0f477b55e9bf","categoryId":"4bf58dd8d48988d11b941735","category":"Pub","checkinsCount":309,"usersCount":213,"tipCount":9,"visitsCount":405,"tier":"","message":"","currency":"","rating":6.9},{"name":"Grand Union at The Three Locks","phone":"+441525270214","twitter":"grandunionbars","address":"Leighton Road","lat":51.94710058967606,"lng":-0.7053171743574633,"city_fetched":"Leighton Buzzard,UK","state":"Buckinghamshire","country":"United Kingdom","canonicalUrl":"https://foursquare.com/v/grand-union-at-the-three-locks/4bf335326a31d13a6170942e","categoryId":"4bf58dd8d48988d11b941735","category":"Pub","checkinsCount":197,"usersCount":180,"tipCount":4,"visitsCount":257,"url":"http://www.threelocks.co.uk","tier":"","message":"","currency":"","rating":6.5},{"name":"The Five Bells","phone":"+441525210224","address":"Station Road","lat":51.906861,"lng":-0.60137,"city_fetched":"Leighton Buzzard,UK","country":"United Kingdom","canonicalUrl":"https://foursquare.com/v/the-five-bells/4d20b88f5c4ca1cda992a33d","categoryId":"4bf58dd8d48988d11b941735","category":"Pub","checkinsCount":115,"usersCount":100,"tipCount":3,"visitsCount":167,"tier":"","message":"","currency":"","rating":6.5},{"name":"The Lancer","address":"10 Lake St","lat":51.915823729006206,"lng":-0.6601606904689045,"city_fetched":"Leighton Buzzard,UK","state":"Central Bedfordshire","country":"United Kingdom","canonicalUrl":"https://foursquare.com/v/the-lancer/4bb64f382ea195216978ab2f","categoryId":"4bf58dd8d48988d11b941735","category":"Pub","checkinsCount":260,"usersCount":81,"tipCount":4,"visitsCount":263,"tier":"","message":"","currency":"","rating":5.9},{"name":"The Flying Fox","address":"Sheep Lane","lat":51.964023113249226,"lng":-0.6430006027221493,"city_fetched":"Leighton Buzzard,UK","state":"Central Bedfordshire","country":"United Kingdom","canonicalUrl":"https://foursquare.com/v/the-flying-fox/4aec7c2cf964a520b5c721e3","categoryId":"4bf58dd8d48988d11b941735","category":"Pub","checkinsCount":139,"usersCount":139,"tipCount":5,"visitsCount":191,"tier":"","message":"","currency":"","rating":5.8},{"name":"The Swan Hotel (Wetherspoon)","phone":"+441525380170","twitter":"jdwtweet","address":"50 High St.","lat":51.91630729977769,"lng":-0.6616902351379395,"city_fetched":"Leighton Buzzard,UK","country":"United Kingdom","canonicalUrl":"https://foursquare.com/v/the-swan-hotel-wetherspoon/4e3d4306c65b4ec275df9287","categoryId":"4bf58dd8d48988d11b941735","category":"Pub","checkinsCount":384,"usersCount":176,"tipCount":10,"visitsCount":449,"url":"http://www.jdwetherspoon.co.uk","tier":"","message":"","currency":"","rating":5.3}]