[{"name":"Hub","phone":"+441736799099","twitter":"hubstives","address":"4 Wharf Rd","lat":50.2131080654689,"lng":-5.47992467880249,"city_fetched":"Leonards and St Ives,UK","state":"Cornwall","country":"United Kingdom","canonicalUrl":"https://foursquare.com/v/hub/4be58690bcef2d7f7be003e5","categoryId":"4bf58dd8d48988d116941735","category":"Bar","checkinsCount":566,"usersCount":323,"tipCount":32,"visitsCount":581,"url":"http://www.hub-stives.co.uk","tier":"","message":"","currency":"","rating":8.7},{"name":"The Gurnards Head","phone":"+441736796928","twitter":"gurnardshead","address":"St. Ives","lat":50.18266167180809,"lng":-5.59303538003437,"city_fetched":"Leonards and St Ives,UK","state":"Cornwall","country":"United Kingdom","canonicalUrl":"https://foursquare.com/v/the-gurnards-head/4bd7a053304fce72fac433ab","categoryId":"4bf58dd8d48988d11b941735","category":"Pub","checkinsCount":46,"usersCount":60,"tipCount":3,"visitsCount":73,"url":"http://www.gurnardshead.co.uk","tier":"","message":"","currency":"","rating":8.4},{"name":"The Castle Inn","address":"16 Fore Street","lat":50.21323263645172,"lng":-5.48042,"city_fetched":"Leonards and St Ives,UK","state":"Cornwall","country":"United Kingdom","canonicalUrl":"https://foursquare.com/v/the-castle-inn/4c582e102308be9a62c25a6c","categoryId":"4bf58dd8d48988d116941735","category":"Bar","checkinsCount":147,"usersCount":86,"tipCount":6,"visitsCount":150,"tier":"","message":"","currency":"","rating":8},{"name":"Badger Inn, Lelant","lat":50.183849,"lng":-5.439683,"city_fetched":"Leonards and St Ives,UK","state":"Cornwall","country":"United Kingdom","canonicalUrl":"https://foursquare.com/v/badger-inn-lelant/4e314bb7628430b0810beb1e","categoryId":"4bf58dd8d48988d11b941735","category":"Pub","checkinsCount":118,"usersCount":76,"tipCount":5,"visitsCount":162,"tier":"","message":"","currency":"","rating":7.9},{"name":"The Sloop Inn","phone":"+441736796584","address":"Back La","lat":50.215140283027054,"lng":-5.479152202606201,"city_fetched":"Leonards and St Ives,UK","state":"Cornwall","country":"United Kingdom","canonicalUrl":"https://foursquare.com/v/the-sloop-inn/4be9bfa8415e20a15536e4bb","categoryId":"4bf58dd8d48988d11b941735","category":"Pub","checkinsCount":742,"usersCount":525,"tipCount":24,"visitsCount":804,"url":"http://www.sloop-inn.co.uk","tier":"","message":"","currency":"","rating":7.4},{"name":"Balcony Bar","lat":50.21397857352383,"lng":-5.479924025903079,"city_fetched":"Leonards and St Ives,UK","country":"United Kingdom","canonicalUrl":"https://foursquare.com/v/balcony-bar/4e1b11862271aba9379b3fee","categoryId":"4bf58dd8d48988d116941735","category":"Bar","checkinsCount":187,"usersCount":148,"tipCount":7,"visitsCount":192,"tier":"","message":"","currency":"","rating":7.1},{"name":"The Lifeboat Inn","phone":"+441736794123","address":"Wharf Rd","lat":50.213069,"lng":-5.479596,"city_fetched":"Leonards and St Ives,UK","state":"Cornwall","country":"United Kingdom","canonicalUrl":"https://foursquare.com/v/the-lifeboat-inn/4bddedb20ee3a593f2352fb0","categoryId":"4bf58dd8d48988d11b941735","category":"Pub","checkinsCount":370,"usersCount":275,"tipCount":10,"visitsCount":383,"tier":"","message":"","currency":"","rating":6.6},{"name":"The Hain Line (Wetherspoon)","phone":"+441736792920","twitter":"jdwtweet","address":"Tregenna Place","lat":50.21133184335432,"lng":-5.480868306633309,"city_fetched":"Leonards and St Ives,UK","state":"Cornwall","country":"United Kingdom","canonicalUrl":"https://foursquare.com/v/the-hain-line-wetherspoon/4fca3478e4b0dbc78226b0ac","categoryId":"4bf58dd8d48988d11b941735","category":"Pub","checkinsCount":158,"usersCount":103,"tipCount":4,"visitsCount":164,"url":"http://www.jdwetherspoon.co.uk","tier":"","message":"","currency":"","rating":5.5}]