[{"name":"Hermitage Rd Bar and Restaurant","phone":"+441462433603","twitter":"hermitagerd","address":"20-21 Hermitage Rd","lat":51.949461811856814,"lng":-0.27549945335688836,"city_fetched":"Letchworth,UK","state":"Hertfordshire","country":"United Kingdom","canonicalUrl":"https://foursquare.com/v/hermitage-rd-bar-and-restaurant/4e5f4ee11f6e3022a730836b","categoryId":"4bf58dd8d48988d116941735","category":"Bar","checkinsCount":608,"usersCount":411,"tipCount":17,"visitsCount":907,"url":"http://www.hermitagerd.co.uk","tier":"","message":"","currency":"","rating":8.5},{"name":"The Victoria","phone":"+441462432682","twitter":"hitchinvic","address":"1 Ickleford Rd","lat":51.953593816666675,"lng":-0.2753180265426636,"city_fetched":"Letchworth,UK","state":"Hertfordshire","country":"United Kingdom","canonicalUrl":"https://foursquare.com/v/the-victoria/4bc898466501c9b6f36f4029","categoryId":"4bf58dd8d48988d11b941735","category":"Pub","checkinsCount":405,"usersCount":201,"tipCount":6,"visitsCount":659,"url":"http://www.thevictoriahitchin.com","tier":"","message":"","currency":"","rating":8.2},{"name":"The Highlander","phone":"+441462454612","address":"Upper Tilehouse Street","lat":51.94715046072169,"lng":-0.28464993025761254,"city_fetched":"Letchworth,UK","state":"Hertfordshire","country":"United Kingdom","canonicalUrl":"https://foursquare.com/v/the-highlander/4c2900d197d00f4742c240ea","categoryId":"4bf58dd8d48988d11b941735","category":"Pub","checkinsCount":92,"usersCount":53,"tipCount":3,"visitsCount":114,"tier":"","message":"","currency":"","rating":8.1},{"name":"The Half Moon","phone":"+441462452448","twitter":"halfmoonhitchin","address":"57 Queen St.","lat":51.9450783385559,"lng":-0.2766752243041992,"city_fetched":"Letchworth,UK","state":"Hertfordshire","country":"United Kingdom","canonicalUrl":"https://foursquare.com/v/the-half-moon/4c5eab3f2815c9286227b867","categoryId":"4bf58dd8d48988d11b941735","category":"Pub","checkinsCount":233,"usersCount":109,"tipCount":6,"visitsCount":276,"url":"http://thehalfmoonhitchin.co.uk","tier":"","message":"","currency":"","rating":7.8},{"name":"George IV","lat":51.975566,"lng":-0.188029,"city_fetched":"Letchworth,UK","country":"United Kingdom","canonicalUrl":"https://foursquare.com/v/george-iv/4bf7f5965ec320a183c887d3","categoryId":"50327c8591d4c4b30a586d5d","category":"Brewery","checkinsCount":349,"usersCount":128,"tipCount":4,"visitsCount":407,"tier":"","message":"","currency":"","rating":7.6},{"name":"Pitcher & Piano","twitter":"pandphitchin","address":"31 Market Place","lat":51.94750005283988,"lng":-0.279383336885694,"city_fetched":"Letchworth,UK","state":"Hertfordshire","country":"United Kingdom","canonicalUrl":"https://foursquare.com/v/pitcher--piano/51f956e5498eebe3855006ec","categoryId":"4bf58dd8d48988d116941735","category":"Bar","checkinsCount":353,"usersCount":132,"tipCount":7,"visitsCount":405,"tier":"","message":"","currency":"","rating":7.4},{"name":"The Fisherman","phone":"+441438725778","address":"Fishers Green","lat":51.91912231,"lng":-0.2240234613418579,"city_fetched":"Letchworth,UK","state":"Hertfordshire","country":"United Kingdom","canonicalUrl":"https://foursquare.com/v/the-fisherman/4bfe61294cf820a10abfedf4","categoryId":"4bf58dd8d48988d11b941735","category":"Pub","checkinsCount":126,"usersCount":111,"tipCount":0,"visitsCount":164,"url":"http://www.fishermanstevenage.co.uk","tier":"","message":"","currency":"","rating":7.1},{"name":"The Orange Tree","phone":"+441462892341","twitter":"orange_tree_bdk","address":"Norton Rd.","lat":51.99063013857865,"lng":-0.1930264462161306,"city_fetched":"Letchworth,UK","state":"Hertfordshire","country":"United Kingdom","canonicalUrl":"https://foursquare.com/v/the-orange-tree/4c6fc0189c6d6dcbfc5bd07a","categoryId":"4bf58dd8d48988d11b941735","category":"Pub","checkinsCount":214,"usersCount":97,"tipCount":3,"visitsCount":241,"url":"http://www.theorangetreebaldock.com","tier":"","message":"","currency":"","rating":6.9},{"name":"The Gardeners Arms","address":"Wilbury Hills Road","lat":51.97955846786499,"lng":-0.2529376745223999,"city_fetched":"Letchworth,UK","state":"Hertfordshire","country":"United Kingdom","canonicalUrl":"https://foursquare.com/v/the-gardeners-arms/4cdaf007930af04d65de8797","categoryId":"4bf58dd8d48988d11b941735","category":"Pub","checkinsCount":108,"usersCount":59,"tipCount":1,"visitsCount":137,"tier":"","message":"","currency":"","rating":6.9},{"name":"The Three Horseshoes","phone":"+441462473050","address":"102 Norton Road","lat":51.99396756131543,"lng":-0.20912109337894355,"city_fetched":"Letchworth,UK","state":"Hertfordshire","country":"United Kingdom","canonicalUrl":"https://foursquare.com/v/the-three-horseshoes/4bb74042f562ef3bff263197","categoryId":"4bf58dd8d48988d11b941735","category":"Pub","checkinsCount":109,"usersCount":70,"tipCount":4,"visitsCount":124,"url":"http://thethreehorseshoesatnorton.co.uk","tier":"","message":"","currency":"","rating":6.6},{"name":"The Angel Vaults Inn (Wetherspoon)","address":"Sun Street","lat":51.94652475767294,"lng":-0.2782261453916631,"city_fetched":"Letchworth,UK","state":"Hertfordshire","country":"United Kingdom","canonicalUrl":"https://foursquare.com/v/the-angel-vaults-inn-wetherspoon/54faede0498e954a0550ead6","categoryId":"4bf58dd8d48988d11b941735","category":"Pub","checkinsCount":106,"usersCount":56,"tipCount":1,"visitsCount":116,"tier":"","message":"","currency":"","rating":6.3},{"name":"The Three Magnets (Wetherspoon)","phone":"+441462681093","address":"18-20 Leys Avenue","lat":51.97924851026189,"lng":-0.22692229593087437,"city_fetched":"Letchworth,UK","state":"Hertfordshire","country":"United Kingdom","canonicalUrl":"https://foursquare.com/v/the-three-magnets-wetherspoon/4b51dc70f964a520665827e3","categoryId":"4bf58dd8d48988d11b941735","category":"Pub","checkinsCount":442,"usersCount":132,"tipCount":4,"visitsCount":466,"url":"http://www.jdwetherspoon.co.uk","tier":"","message":"","currency":"","rating":6.2},{"name":"Osinsky's","address":"Market Square","lat":51.94757221645577,"lng":-0.2790208783582516,"city_fetched":"Letchworth,UK","state":"Hertfordshire","country":"United Kingdom","canonicalUrl":"https://foursquare.com/v/osinskys/4f2520b2e4b01b0c60304b06","categoryId":"4bf58dd8d48988d116941735","category":"Bar","checkinsCount":279,"usersCount":81,"tipCount":3,"visitsCount":280,"tier":"","message":"","currency":"","rating":6.1},{"name":"The Old White Horse","lat":51.99144063317517,"lng":-0.18690914236253775,"city_fetched":"Letchworth,UK","state":"Hertfordshire","country":"United Kingdom","canonicalUrl":"https://foursquare.com/v/the-old-white-horse/4b8fa9c9f964a520fe5b33e3","categoryId":"4bf58dd8d48988d11b941735","category":"Pub","checkinsCount":197,"usersCount":93,"tipCount":8,"visitsCount":215,"tier":"","message":"","currency":"","rating":6},{"name":"The Sunrunnner","address":"24 Bancroft","lat":51.95039383124249,"lng":-0.27665084981126536,"city_fetched":"Letchworth,UK","state":"Hertfordshire","country":"United Kingdom","canonicalUrl":"https://foursquare.com/v/the-sunrunnner/4be569e62457a5939d6aab15","categoryId":"4bf58dd8d48988d11b941735","category":"Pub","checkinsCount":178,"usersCount":94,"tipCount":5,"visitsCount":178,"tier":"","message":"","currency":"","rating":5.7},{"name":"The Three Moorhens","lat":51.941338544572595,"lng":-0.2759174707761648,"city_fetched":"Letchworth,UK","country":"United Kingdom","canonicalUrl":"https://foursquare.com/v/the-three-moorhens/4ca2314ab0ff8cfa0ebeac5e","categoryId":"4bf58dd8d48988d11b941735","category":"Pub","checkinsCount":165,"usersCount":101,"tipCount":2,"visitsCount":225,"tier":"","message":"","currency":"","rating":5.6},{"name":"Coreys Mill (Beefeater)","phone":"+441438351318","twitter":"beefeatergrill","address":"Coreys Mill Ln","lat":51.923657,"lng":-0.21613325,"city_fetched":"Letchworth,UK","state":"Hertfordshire","country":"United Kingdom","canonicalUrl":"https://foursquare.com/v/coreys-mill-beefeater/4c4d6df014b7b7139f0d5978","categoryId":"4bf58dd8d48988d11b941735","category":"Pub","checkinsCount":236,"usersCount":150,"tipCount":1,"visitsCount":256,"url":"http://www.beefeater.co.uk","tier":"","message":"","currency":"","rating":5.4}]