[{"name":"Snowdrop Inn","phone":"+441273471018","address":"119 South Street","lat":50.872092,"lng":0.023001,"city_fetched":"Lewes,UK","state":"East Sussex","country":"United Kingdom","canonicalUrl":"https://foursquare.com/v/snowdrop-inn/4b0a8114f964a520902423e3","categoryId":"4bf58dd8d48988d11b941735","category":"Pub","checkinsCount":586,"usersCount":320,"tipCount":19,"visitsCount":712,"tier":"","message":"","currency":"","rating":8.3},{"name":"The Lewes Arms","phone":"+441273473152","address":"1 Mount Pl","lat":50.87400482270145,"lng":0.009576085968031924,"city_fetched":"Lewes,UK","state":"East Sussex","country":"United Kingdom","canonicalUrl":"https://foursquare.com/v/the-lewes-arms/4b422feef964a5207dce25e3","categoryId":"4bf58dd8d48988d11b941735","category":"Pub","checkinsCount":292,"usersCount":175,"tipCount":3,"visitsCount":302,"tier":"","message":"","currency":"","rating":7.9},{"name":"Elephant & Castle","address":"Whitehill","lat":50.8749,"lng":0.00873,"city_fetched":"Lewes,UK","state":"East Sussex","country":"United Kingdom","canonicalUrl":"https://foursquare.com/v/elephant--castle/4bd0a1f3caff95215f39cff0","categoryId":"4bf58dd8d48988d11b941735","category":"Pub","checkinsCount":512,"usersCount":148,"tipCount":8,"visitsCount":579,"tier":"","message":"","currency":"","rating":7.7},{"name":"Harveys Brewery Shop","phone":"+441273480217","address":"6 Cliffe High Street","lat":50.87421746673258,"lng":0.01645224555915861,"city_fetched":"Lewes,UK","state":"East Sussex","country":"United Kingdom","canonicalUrl":"https://foursquare.com/v/harveys-brewery-shop/4b3b5015f964a520607225e3","categoryId":"50327c8591d4c4b30a586d5d","category":"Brewery","checkinsCount":283,"usersCount":160,"tipCount":12,"visitsCount":285,"tier":"","message":"","currency":"","rating":7.1},{"name":"The Anchor Inn","phone":"+441273400414","address":"Anchor Lane, Barcombe","lat":50.925545,"lng":0.050707,"city_fetched":"Lewes,UK","state":"East Sussex","country":"United Kingdom","canonicalUrl":"https://foursquare.com/v/the-anchor-inn/4b63f6b0f964a520fa982ae3","categoryId":"4bf58dd8d48988d11b941735","category":"Pub","checkinsCount":80,"usersCount":93,"tipCount":3,"visitsCount":100,"tier":"","message":"","currency":"","rating":7},{"name":"The Dorset","address":"22 Malling St.","lat":50.875039,"lng":0.018952,"city_fetched":"Lewes,UK","state":"East Sussex","country":"United Kingdom","canonicalUrl":"https://foursquare.com/v/the-dorset/4bb4cf6a6ebfc9b69569edfa","categoryId":"4bf58dd8d48988d11b941735","category":"Pub","checkinsCount":260,"usersCount":128,"tipCount":2,"visitsCount":278,"tier":"","message":"","currency":"","rating":7},{"name":"The Brewers Arms","phone":"+441273475524","address":"91 High St","lat":50.871971947337165,"lng":0.006960905939897347,"city_fetched":"Lewes,UK","state":"East Sussex","country":"United Kingdom","canonicalUrl":"https://foursquare.com/v/the-brewers-arms/4b7b0369f964a520254c2fe3","categoryId":"4bf58dd8d48988d11b941735","category":"Pub","checkinsCount":268,"usersCount":106,"tipCount":3,"visitsCount":276,"tier":"","message":"","currency":"","rating":7},{"name":"The Black Horse","address":"55 Western Rd","lat":50.87297342427722,"lng":-0.00003078699532389408,"city_fetched":"Lewes,UK","state":"East Sussex","country":"United Kingdom","canonicalUrl":"https://foursquare.com/v/the-black-horse/4fc90660e4b0799db1e1c4b6","categoryId":"4bf58dd8d48988d11b941735","category":"Pub","checkinsCount":80,"usersCount":66,"tipCount":1,"visitsCount":153,"tier":"","message":"","currency":"","rating":6.8},{"name":"Pelham Arms","address":"124-126 High St","lat":50.872354,"lng":0.002531,"city_fetched":"Lewes,UK","state":"East Sussex","country":"United Kingdom","canonicalUrl":"https://foursquare.com/v/pelham-arms/4afefd97f964a5209c3222e3","categoryId":"4bf58dd8d48988d11b941735","category":"Pub","checkinsCount":317,"usersCount":196,"tipCount":7,"visitsCount":390,"tier":"","message":"","currency":"","rating":6.7},{"name":"The Cock Inn","phone":"+441273812040","address":"Uckfield Rd","lat":50.90419656454554,"lng":0.04649341106414795,"city_fetched":"Lewes,UK","state":"East Sussex","country":"United Kingdom","canonicalUrl":"https://foursquare.com/v/the-cock-inn/4bac7e15f964a52082f73ae3","categoryId":"4bf58dd8d48988d11b941735","category":"Pub","checkinsCount":127,"usersCount":131,"tipCount":8,"visitsCount":162,"tier":"","message":"","currency":"","rating":6.7},{"name":"John Harvey Tavern","address":"Foundry Ln.","lat":50.873836320803704,"lng":0.0165751778439639,"city_fetched":"Lewes,UK","state":"East Sussex","country":"United Kingdom","canonicalUrl":"https://foursquare.com/v/john-harvey-tavern/4bc5b2e46c26b7132e93ebf3","categoryId":"4bf58dd8d48988d11b941735","category":"Pub","checkinsCount":476,"usersCount":270,"tipCount":7,"visitsCount":484,"tier":"","message":"","currency":"","rating":6.6},{"name":"The Gardeners Arms","address":"Cliffe High St.","lat":50.8741616922168,"lng":0.017432240163956406,"city_fetched":"Lewes,UK","state":"East Sussex","country":"United Kingdom","canonicalUrl":"https://foursquare.com/v/the-gardeners-arms/4b0ef1c9f964a520155d23e3","categoryId":"4bf58dd8d48988d11b941735","category":"Pub","checkinsCount":160,"usersCount":77,"tipCount":6,"visitsCount":165,"tier":"","message":"","currency":"","rating":6.5},{"name":"The Kings Head","phone":"+441273474628","twitter":"kingsheadlewes","address":"9 Southover High St.","lat":50.86852620197345,"lng":0.004586757562704671,"city_fetched":"Lewes,UK","state":"East Sussex","country":"United Kingdom","canonicalUrl":"https://foursquare.com/v/the-kings-head/4c891e26944e224b63fb2185","categoryId":"4bf58dd8d48988d11b941735","category":"Pub","checkinsCount":649,"usersCount":98,"tipCount":3,"visitsCount":650,"tier":"","message":"","currency":"","rating":6.3},{"name":"The Lansdown Arms","address":"36 Lansdown Pl","lat":50.871692072742036,"lng":0.011444785921207465,"city_fetched":"Lewes,UK","state":"East Sussex","country":"United Kingdom","canonicalUrl":"https://foursquare.com/v/the-lansdown-arms/4bb669c81344b713ce779d04","categoryId":"4bf58dd8d48988d11b941735","category":"Pub","checkinsCount":448,"usersCount":142,"tipCount":4,"visitsCount":455,"tier":"","message":"","currency":"","rating":6.1}]