[{"name":"Dressers Arms","lat":53.685407,"lng":-2.600621,"city_fetched":"Leyland,UK","state":"Lancashire","country":"United Kingdom","canonicalUrl":"https://foursquare.com/v/dressers-arms/4c89334c944e224b01ba2285","categoryId":"4bf58dd8d48988d11b941735","category":"Pub","checkinsCount":135,"usersCount":59,"tipCount":4,"visitsCount":162,"tier":"","message":"","currency":"","rating":7.8},{"name":"Hospital Inn","phone":"+441772335151","address":"333 Brindle Road","lat":53.72597944378005,"lng":-2.638426684137245,"city_fetched":"Leyland,UK","state":"Lancashire","country":"United Kingdom","canonicalUrl":"https://foursquare.com/v/hospital-inn/4cab30f6a6e08cfa075da394","categoryId":"4bf58dd8d48988d11b941735","category":"Pub","checkinsCount":131,"usersCount":67,"tipCount":5,"visitsCount":170,"tier":"","message":"","currency":"","rating":7.8},{"name":"Top Lock","phone":"+441257263376","address":"Copthurst Ln","lat":53.686862035372684,"lng":-2.6132202741085284,"city_fetched":"Leyland,UK","state":"Lancashire","country":"United Kingdom","canonicalUrl":"https://foursquare.com/v/top-lock/4c7d470f8da18cfa83e39ece","categoryId":"4bf58dd8d48988d11b941735","category":"Pub","checkinsCount":119,"usersCount":88,"tipCount":6,"visitsCount":171,"tier":"","message":"","currency":"","rating":7.7},{"name":"The Sea View","phone":"+441257270262","address":"Preston Rd","lat":53.67362038362018,"lng":-2.6341795416524736,"city_fetched":"Leyland,UK","state":"Lancashire","country":"United Kingdom","canonicalUrl":"https://foursquare.com/v/the-sea-view/4d84e215f9f3a1cd8056bf64","categoryId":"4bf58dd8d48988d11b941735","category":"Pub","checkinsCount":87,"usersCount":56,"tipCount":2,"visitsCount":107,"tier":"","message":"","currency":"","rating":7.1},{"name":"The Sir Henry Tate (Lloyds No. 1 Bar)","phone":"+441257248470","address":"1 New Market St.","lat":53.65392552973512,"lng":-2.6306623220443726,"city_fetched":"Leyland,UK","state":"Lancashire","country":"United Kingdom","canonicalUrl":"https://foursquare.com/v/the-sir-henry-tate-lloyds-no-1-bar/4b444764f964a5205ff325e3","categoryId":"4bf58dd8d48988d11b941735","category":"Pub","checkinsCount":599,"usersCount":231,"tipCount":3,"visitsCount":695,"url":"http://www.jdwetherspoon.co.uk","tier":"","message":"","currency":"","rating":6.9},{"name":"The Leyland Lion (Wetherspoon)","phone":"+441772643990","twitter":"jdwtweet","address":"60 Hough Lane","lat":53.695424529185075,"lng":-2.6927416946214002,"city_fetched":"Leyland,UK","state":"Lancashire","country":"United Kingdom","canonicalUrl":"https://foursquare.com/v/the-leyland-lion-wetherspoon/4ea2b97c77c8d0ce5e0d8931","categoryId":"4bf58dd8d48988d11b941735","category":"Pub","checkinsCount":209,"usersCount":120,"tipCount":4,"visitsCount":220,"url":"http://www.jdwetherspoon.co.uk","tier":"","message":"","currency":"","rating":6.9},{"name":"Woodsman","lat":53.69616264457249,"lng":-2.6726765795102216,"city_fetched":"Leyland,UK","state":"Lancashire","country":"United Kingdom","canonicalUrl":"https://foursquare.com/v/woodsman/532dc56f498ebfa430492ebb","categoryId":"50327c8591d4c4b30a586d5d","category":"Brewery","checkinsCount":36,"usersCount":44,"tipCount":1,"visitsCount":79,"tier":"","message":"","currency":"","rating":6.6},{"name":"The Pear Tree","phone":"+441772330080","address":"Station Rd","lat":53.73553548153594,"lng":-2.6631582144521775,"city_fetched":"Leyland,UK","state":"Lancashire","country":"United Kingdom","canonicalUrl":"https://foursquare.com/v/the-pear-tree/4b76edc8f964a5207f6b2ee3","categoryId":"4bf58dd8d48988d11b941735","category":"Pub","checkinsCount":109,"usersCount":59,"tipCount":3,"visitsCount":128,"tier":"","message":"","currency":"","rating":6.5},{"name":"The Fieldfare","phone":"+441257267846","address":"Foxhole Rd","lat":53.655545024756485,"lng":-2.65718936920166,"city_fetched":"Leyland,UK","state":"Lancashire","country":"United Kingdom","canonicalUrl":"https://foursquare.com/v/the-fieldfare/4c8bb5893dc2a1cd61c2b832","categoryId":"4bf58dd8d48988d11b941735","category":"Pub","checkinsCount":281,"usersCount":119,"tipCount":2,"visitsCount":320,"tier":"","message":"","currency":"","rating":6.4},{"name":"The War Horse","address":"Buckshaw Village","lat":53.67700301880726,"lng":-2.6568880617526123,"city_fetched":"Leyland,UK","state":"Lancashire","country":"United Kingdom","canonicalUrl":"https://foursquare.com/v/the-war-horse/548f3482498ed29d2bcfaa56","categoryId":"4bf58dd8d48988d11b941735","category":"Pub","checkinsCount":77,"usersCount":54,"tipCount":2,"visitsCount":144,"tier":"","message":"","currency":"","rating":6.2},{"name":"Farington Lodge & Hotel Leyland","address":"Stanifield Ln Farington Lancashire PR25 4 UK","lat":53.70649528681363,"lng":-2.684650399552433,"city_fetched":"Leyland,UK","state":"Lancashire","country":"United Kingdom","canonicalUrl":"https://foursquare.com/v/farington-lodge--hotel-leyland/4bcf19a90ffdce72683cb2c0","categoryId":"4bf58dd8d48988d1d5941735","category":"Hotel Bar","checkinsCount":125,"usersCount":99,"tipCount":6,"visitsCount":154,"tier":"","message":"","currency":"","rating":6},{"name":"The Brown Hare","address":"Millbrook Way","lat":53.73643567236177,"lng":-2.730560783219127,"city_fetched":"Leyland,UK","state":"Lancashire","country":"United Kingdom","canonicalUrl":"https://foursquare.com/v/the-brown-hare/507c4850e4b0d3b80a4e0990","categoryId":"4bf58dd8d48988d11b941735","category":"Pub","checkinsCount":219,"usersCount":73,"tipCount":4,"visitsCount":241,"tier":"","message":"","currency":"","rating":5.9},{"name":"Poachers","phone":"+441772324100","address":"Lostock Lane, Bamber Bridge","lat":53.721454379860496,"lng":-2.670104475842832,"city_fetched":"Leyland,UK","state":"Lancashire","country":"United Kingdom","canonicalUrl":"https://foursquare.com/v/poachers/4dfe080862e1a52ce9161508","categoryId":"4bf58dd8d48988d11b941735","category":"Pub","checkinsCount":232,"usersCount":139,"tipCount":10,"visitsCount":252,"url":"http://www.fayre-square.com/pub/poachers-preston/s4610/","tier":"","message":"","currency":"","rating":5.5},{"name":"Farmers Arms (Whitestake)","lat":53.72296,"lng":-2.73828,"city_fetched":"Leyland,UK","country":"United Kingdom","canonicalUrl":"https://foursquare.com/v/farmers-arms-whitestake/4c7bf2fc794e224bdbd16c28","categoryId":"4bf58dd8d48988d11b941735","category":"Pub","checkinsCount":110,"usersCount":71,"tipCount":6,"visitsCount":129,"tier":"","message":"","currency":"","rating":5.4},{"name":"The Railway","lat":53.69974273885278,"lng":-2.6867430453084977,"city_fetched":"Leyland,UK","country":"United Kingdom","canonicalUrl":"https://foursquare.com/v/the-railway/4bae60c2f964a52066aa3be3","categoryId":"4bf58dd8d48988d116941735","category":"Bar","checkinsCount":247,"usersCount":120,"tipCount":2,"visitsCount":283,"tier":"","message":"","currency":"","rating":5.2}]