[{"name":"Duke of York","phone":"+441543255171","address":"Greenhill","lat":52.68389068665964,"lng":-1.8222456369586209,"city_fetched":"Lichfield,UK","state":"Staffordshire","country":"United Kingdom","canonicalUrl":"https://foursquare.com/v/duke-of-york/4b696867f964a52048a12be3","categoryId":"4bf58dd8d48988d11b941735","category":"Pub","checkinsCount":388,"usersCount":118,"tipCount":5,"visitsCount":403,"tier":"","message":"","currency":"","rating":8.3},{"name":"The Whittington Arms","phone":"+441543432340","address":"Tamworth Road","lat":52.663292,"lng":-1.78659,"city_fetched":"Lichfield,UK","state":"Staffordshire","country":"United Kingdom","canonicalUrl":"https://foursquare.com/v/the-whittington-arms/4b93fb86f964a520dc5e34e3","categoryId":"4bf58dd8d48988d11b941735","category":"Pub","checkinsCount":294,"usersCount":161,"tipCount":9,"visitsCount":382,"tier":"","message":"","currency":"","rating":8.2},{"name":"Netherstowe House","phone":"+441543254270","address":"Netherstowe Ln","lat":52.69608,"lng":-1.81693105,"city_fetched":"Lichfield,UK","state":"Staffordshire","country":"United Kingdom","canonicalUrl":"https://foursquare.com/v/netherstowe-house/4c87738d47cc224b1910b19f","categoryId":"4bf58dd8d48988d1d5941735","category":"Hotel Bar","checkinsCount":97,"usersCount":81,"tipCount":4,"visitsCount":114,"tier":"","message":"","currency":"","rating":8},{"name":"The Bowling Green","phone":"+441543257344","address":"Friary Road","lat":52.67897102104879,"lng":-1.834566593170166,"city_fetched":"Lichfield,UK","state":"Staffordshire","country":"United Kingdom","canonicalUrl":"https://foursquare.com/v/the-bowling-green/4b16792cf964a52078b923e3","categoryId":"4bf58dd8d48988d11b941735","category":"Pub","checkinsCount":917,"usersCount":298,"tipCount":17,"visitsCount":1096,"tier":"","message":"","currency":"","rating":7.4},{"name":"The Trooper Restaurant & Freehouse","phone":"+441543480413","address":"Watling St, Wall","lat":52.656334304876886,"lng":-1.8542936078640537,"city_fetched":"Lichfield,UK","state":"Staffordshire","country":"United Kingdom","canonicalUrl":"https://foursquare.com/v/the-trooper-restaurant--freehouse/4c41cc83cc410f47c2b0ab61","categoryId":"4bf58dd8d48988d11b941735","category":"Pub","checkinsCount":79,"usersCount":82,"tipCount":8,"visitsCount":113,"url":"http://www.thetrooperwall.co.uk","tier":"","message":"","currency":"","rating":7},{"name":"George IV","phone":"+441543523025","twitter":"georgeivmusic","address":"34 Bore St","lat":52.683155,"lng":-1.82707,"city_fetched":"Lichfield,UK","state":"Staffordshire","country":"United Kingdom","canonicalUrl":"https://foursquare.com/v/george-iv/4b098872f964a520ee1823e3","categoryId":"4bf58dd8d48988d11b941735","category":"Pub","checkinsCount":588,"usersCount":127,"tipCount":5,"visitsCount":588,"url":"http://thegeorgeivlichfield.co.uk","tier":"","message":"","currency":"","rating":6.9},{"name":"Horse & Jockey","address":"Sandford St","lat":52.68246196196351,"lng":-1.8307583794333235,"city_fetched":"Lichfield,UK","state":"Staffordshire","country":"United Kingdom","canonicalUrl":"https://foursquare.com/v/horse--jockey/4b22a3a7f964a520d54a24e3","categoryId":"4bf58dd8d48988d11b941735","category":"Pub","checkinsCount":208,"usersCount":84,"tipCount":3,"visitsCount":211,"tier":"","message":"","currency":"","rating":6.8},{"name":"Turnpike","phone":"+441543264604","address":"6 Boley Park Centre","lat":52.679967263032026,"lng":-1.8051169199494073,"city_fetched":"Lichfield,UK","state":"Staffordshire","country":"United Kingdom","canonicalUrl":"https://foursquare.com/v/turnpike/4c6c3662e13db60cf46ed5b1","categoryId":"4bf58dd8d48988d116941735","category":"Bar","checkinsCount":498,"usersCount":70,"tipCount":9,"visitsCount":544,"url":"http://www.turnpikepublichfield.co.uk","tier":"","message":"","currency":"","rating":6.6},{"name":"The Gatehouse (Wetherspoon)","phone":"+441543258525","address":"1 Bird St","lat":52.68224934060114,"lng":-1.8295746210410277,"city_fetched":"Lichfield,UK","state":"Staffordshire","country":"United Kingdom","canonicalUrl":"https://foursquare.com/v/the-gatehouse-wetherspoon/4c87ab5e821e9eb04fcd8d89","categoryId":"4bf58dd8d48988d11b941735","category":"Pub","checkinsCount":815,"usersCount":270,"tipCount":10,"visitsCount":912,"url":"http://www.jdwetherspoon.co.uk","tier":"","message":"","currency":"","rating":6.6},{"name":"Scales","address":"24 Market Street","lat":52.683164,"lng":-1.828414,"city_fetched":"Lichfield,UK","state":"Staffordshire","country":"United Kingdom","canonicalUrl":"https://foursquare.com/v/scales/4ba59328f964a520991339e3","categoryId":"4bf58dd8d48988d116941735","category":"Bar","checkinsCount":180,"usersCount":83,"tipCount":5,"visitsCount":184,"tier":"","message":"","currency":"","rating":6},{"name":"The Acorn Inn (Wetherspoon)","phone":"+441543263400","address":"16-18 Tamworth St.","lat":52.68364368561812,"lng":-1.8259052982871113,"city_fetched":"Lichfield,UK","state":"Staffordshire","country":"United Kingdom","canonicalUrl":"https://foursquare.com/v/the-acorn-inn-wetherspoon/4c87ab5d821e9eb04ecd8d89","categoryId":"4bf58dd8d48988d11b941735","category":"Pub","checkinsCount":745,"usersCount":213,"tipCount":9,"visitsCount":788,"url":"http://www.jdwetherspoon.co.uk","tier":"","message":"","currency":"","rating":6},{"name":"The Malt Bar","phone":"+441543415524","address":"55 Wade St","lat":52.68252413334788,"lng":-1.8267271426535068,"city_fetched":"Lichfield,UK","state":"Staffordshire","country":"United Kingdom","canonicalUrl":"https://foursquare.com/v/the-malt-bar/4c5967b72091a59346ba5cd0","categoryId":"4bf58dd8d48988d11b941735","category":"Pub","checkinsCount":206,"usersCount":80,"tipCount":6,"visitsCount":207,"tier":"","message":"","currency":"","rating":5.8},{"name":"The Crown","address":"Tamworth St","lat":52.683667149089445,"lng":-1.8257904052734375,"city_fetched":"Lichfield,UK","state":"Staffordshire","country":"United Kingdom","canonicalUrl":"https://foursquare.com/v/the-crown/4b8464cdf964a520df3231e3","categoryId":"4bf58dd8d48988d11b941735","category":"Pub","checkinsCount":259,"usersCount":100,"tipCount":1,"visitsCount":259,"tier":"","message":"","currency":"","rating":5.8}]