[{"name":"The West End Tap","twitter":"westtap","address":"108 Newland Street West","lat":53.23235507796329,"lng":-0.5504017054545779,"city_fetched":"Lincoln,UK","state":"Lincolnshire","country":"United Kingdom","canonicalUrl":"https://foursquare.com/v/the-west-end-tap/52a0e53011d25154e4681701","categoryId":"4bf58dd8d48988d11b941735","category":"Pub","checkinsCount":360,"usersCount":65,"tipCount":9,"visitsCount":440,"tier":"","message":"","currency":"","rating":8.6},{"name":"The Strait and Narrow","twitter":"straitandnarro","address":"29-31 The Strait","lat":53.231849,"lng":-0.539187,"city_fetched":"Lincoln,UK","state":"Lincolnshire","country":"United Kingdom","canonicalUrl":"https://foursquare.com/v/the-strait-and-narrow/5092e526e4b0a7ac6fb7de81","categoryId":"4bf58dd8d48988d116941735","category":"Bar","checkinsCount":594,"usersCount":347,"tipCount":14,"visitsCount":763,"url":"http://thestraitandnarrow.co.uk","tier":"","message":"","currency":"","rating":8.5},{"name":"The Five Bells","phone":"+441522788269","address":"17 High Street, Bassingham","lat":53.130416755055776,"lng":-0.6388376475553516,"city_fetched":"Lincoln,UK","state":"Lincolnshire","country":"United Kingdom","canonicalUrl":"https://foursquare.com/v/the-five-bells/4bd6989f5631c9b63321a630","categoryId":"4bf58dd8d48988d11b941735","category":"Pub","checkinsCount":65,"usersCount":52,"tipCount":6,"visitsCount":108,"tier":"","message":"","currency":"","rating":8.3},{"name":"The Jolly Brewer","phone":"+441522528583","address":"27 Broadgate","lat":53.230206,"lng":-0.53606935,"city_fetched":"Lincoln,UK","state":"Lincolnshire","country":"United Kingdom","canonicalUrl":"https://foursquare.com/v/the-jolly-brewer/4beb0e2262c0c92836a4e1d4","categoryId":"4bf58dd8d48988d11b941735","category":"Pub","checkinsCount":460,"usersCount":153,"tipCount":3,"visitsCount":474,"tier":"","message":"","currency":"","rating":8.2},{"name":"The Strugglers Inn","phone":"+441522535023","address":"83 Westgate","lat":53.236186817662855,"lng":-0.5424579977989197,"city_fetched":"Lincoln,UK","state":"Lincolnshire","country":"United Kingdom","canonicalUrl":"https://foursquare.com/v/the-strugglers-inn/4be38423cbdbef3bc69960d8","categoryId":"4bf58dd8d48988d11b941735","category":"Pub","checkinsCount":308,"usersCount":117,"tipCount":6,"visitsCount":336,"tier":"","message":"","currency":"","rating":7.9},{"name":"The Electric Bar","phone":"+441522565182","twitter":"electriclinc","address":"Brayford Wharf N.","lat":53.22977608869539,"lng":-0.5470960624614168,"city_fetched":"Lincoln,UK","state":"Lincolnshire","country":"United Kingdom","canonicalUrl":"https://foursquare.com/v/the-electric-bar/4eff68887ee5f14f39908097","categoryId":"4bf58dd8d48988d11e941735","category":"Cocktail Bar","checkinsCount":341,"usersCount":142,"tipCount":7,"visitsCount":353,"tier":"","message":"","currency":"","rating":7.9},{"name":"The Horse and Groom","phone":"+441522548866","address":"31 Carholme Rd.","lat":53.23043079719779,"lng":-0.5478053365259664,"city_fetched":"Lincoln,UK","state":"Lincolnshire","country":"United Kingdom","canonicalUrl":"https://foursquare.com/v/the-horse-and-groom/4ebd8ccc6c257f09ae05d511","categoryId":"4bf58dd8d48988d11b941735","category":"Pub","checkinsCount":449,"usersCount":242,"tipCount":12,"visitsCount":550,"url":"http://www.horseandgroomlincoln.com","tier":"","message":"","currency":"","rating":7.8},{"name":"Golden Eagle","phone":"+441522521058","address":"21 High St","lat":53.21648458,"lng":-0.54604511,"city_fetched":"Lincoln,UK","state":"Lincolnshire","country":"United Kingdom","canonicalUrl":"https://foursquare.com/v/golden-eagle/4b76e71cf964a520d4682ee3","categoryId":"4bf58dd8d48988d11b941735","category":"Pub","checkinsCount":154,"usersCount":65,"tipCount":3,"visitsCount":156,"tier":"","message":"","currency":"","rating":7.8},{"name":"Bar 67","phone":"+441522520348","address":"Northgate","lat":53.23552602798551,"lng":-0.5346232910608711,"city_fetched":"Lincoln,UK","state":"Lincolnshire","country":"United Kingdom","canonicalUrl":"https://foursquare.com/v/bar-67/4da6111681543f4ee960a760","categoryId":"4bf58dd8d48988d116941735","category":"Bar","checkinsCount":95,"usersCount":57,"tipCount":4,"visitsCount":95,"tier":"","message":"","currency":"","rating":7.8},{"name":"Tap & Spile","phone":"+441522534015","address":"21 Hungate","lat":53.231655,"lng":-0.540851,"city_fetched":"Lincoln,UK","state":"Lincolnshire","country":"United Kingdom","canonicalUrl":"https://foursquare.com/v/tap--spile/4be18c7e4ed5c9b6169accce","categoryId":"4bf58dd8d48988d11b941735","category":"Pub","checkinsCount":356,"usersCount":136,"tipCount":7,"visitsCount":365,"tier":"","message":"","currency":"","rating":7.8},{"name":"The Cardinal's Hat","address":"268 High St.","lat":53.23140903030221,"lng":-0.5394726991653442,"city_fetched":"Lincoln,UK","state":"Lincolnshire","country":"United Kingdom","canonicalUrl":"https://foursquare.com/v/the-cardinals-hat/4ed49d05d5fbb793dd571ec9","categoryId":"4bf58dd8d48988d11b941735","category":"Pub","checkinsCount":96,"usersCount":54,"tipCount":3,"visitsCount":105,"tier":"","message":"","currency":"","rating":7.7},{"name":"White Hart Hotel","phone":"+441522526222","address":"Bailgate","lat":53.234695,"lng":-0.538301,"city_fetched":"Lincoln,UK","state":"Lincolnshire","country":"United Kingdom","canonicalUrl":"https://foursquare.com/v/white-hart-hotel/4bf55da16a31d13a2ac6962e","categoryId":"4bf58dd8d48988d1d5941735","category":"Hotel Bar","checkinsCount":532,"usersCount":230,"tipCount":8,"visitsCount":546,"url":"http://www.whitehart-lincoln.co.uk","tier":"","message":"","currency":"","rating":7.7},{"name":"Magna Carta","phone":"+441522538884","address":"1 Exchequergate","lat":53.23440790086335,"lng":-0.5386284304737587,"city_fetched":"Lincoln,UK","state":"Lincolnshire","country":"United Kingdom","canonicalUrl":"https://foursquare.com/v/magna-carta/4b6df8d8f964a52019a02ce3","categoryId":"4bf58dd8d48988d11b941735","category":"Pub","checkinsCount":549,"usersCount":385,"tipCount":8,"visitsCount":578,"url":"http://www.magnacartapub.co.uk","tier":"","message":"","currency":"","rating":7.7},{"name":"Pyewipe Inn","phone":"+441522528708","address":"Saxilby Rd.","lat":53.2394343169426,"lng":-0.5798721313476562,"city_fetched":"Lincoln,UK","state":"Lincolnshire","country":"United Kingdom","canonicalUrl":"https://foursquare.com/v/pyewipe-inn/4bd730ae304fce72e93133ab","categoryId":"4bf58dd8d48988d11b941735","category":"Pub","checkinsCount":188,"usersCount":163,"tipCount":5,"visitsCount":253,"url":"http://www.pyewipe.co.uk","tier":"","message":"","currency":"","rating":7.5},{"name":"Widow Cullens Well","phone":"+441522523020","address":"29 Steep Hill","lat":53.23407894159104,"lng":-0.5388021469116211,"city_fetched":"Lincoln,UK","state":"Lincolnshire","country":"United Kingdom","canonicalUrl":"https://foursquare.com/v/widow-cullens-well/4be487e9d4f7c9b60b482420","categoryId":"4bf58dd8d48988d11b941735","category":"Pub","checkinsCount":595,"usersCount":218,"tipCount":11,"visitsCount":604,"tier":"","message":"","currency":"","rating":7.3},{"name":"The Peacock Inn","phone":"+441522524703","address":"23 Wragby Road","lat":53.23516098690349,"lng":-0.5295538902282715,"city_fetched":"Lincoln,UK","state":"Lincolnshire","country":"United Kingdom","canonicalUrl":"https://foursquare.com/v/the-peacock-inn/4be386ffcbdbef3b419a60d8","categoryId":"4bf58dd8d48988d11b941735","category":"Pub","checkinsCount":76,"usersCount":60,"tipCount":6,"visitsCount":133,"tier":"","message":"","currency":"","rating":7.2},{"name":"The Adam & Eve Tavern","phone":"+441522537108","address":"25 Lindum Road","lat":53.23285879834215,"lng":-0.5321931838989258,"city_fetched":"Lincoln,UK","state":"Lincolnshire","country":"United Kingdom","canonicalUrl":"https://foursquare.com/v/the-adam--eve-tavern/4ba885abf964a52068de39e3","categoryId":"4bf58dd8d48988d11b941735","category":"Pub","checkinsCount":328,"usersCount":103,"tipCount":6,"visitsCount":332,"tier":"","message":"","currency":"","rating":7.2},{"name":"The Victoria","phone":"+441522536048","address":"6 Union Road","lat":53.23593156629716,"lng":-0.5427208542823792,"city_fetched":"Lincoln,UK","state":"Lincolnshire","country":"United Kingdom","canonicalUrl":"https://foursquare.com/v/the-victoria/4be3847dcbdbef3bd79960d8","categoryId":"4bf58dd8d48988d11b941735","category":"Pub","checkinsCount":582,"usersCount":230,"tipCount":5,"visitsCount":730,"tier":"","message":"","currency":"","rating":7.1},{"name":"The Scene","twitter":"thescenelincoln","address":"Newland","lat":53.23034610681592,"lng":-0.5443981114727946,"city_fetched":"Lincoln,UK","state":"Lincolnshire","country":"United Kingdom","canonicalUrl":"https://foursquare.com/v/the-scene/5012dea9e4b0b9601781c965","categoryId":"4bf58dd8d48988d1d8941735","category":"Gay Bar","checkinsCount":234,"usersCount":53,"tipCount":5,"visitsCount":238,"tier":"","message":"","currency":"","rating":7},{"name":"BrewHaus","lat":53.230412,"lng":-0.536572,"city_fetched":"Lincoln,UK","country":"United Kingdom","canonicalUrl":"https://foursquare.com/v/brewhaus/54664f03498e43930e2f68a2","categoryId":"4bf58dd8d48988d11e941735","category":"Cocktail Bar","checkinsCount":71,"usersCount":55,"tipCount":3,"visitsCount":81,"tier":"","message":"","currency":"","rating":6.9},{"name":"Royal William IV","phone":"+441522528159","address":"1 Brayford Wharf North","lat":53.228748586277476,"lng":-0.5434370040893555,"city_fetched":"Lincoln,UK","state":"Lincolnshire","country":"United Kingdom","canonicalUrl":"https://foursquare.com/v/royal-william-iv/4bb89d6853649c74012347fb","categoryId":"4bf58dd8d48988d11b941735","category":"Pub","checkinsCount":257,"usersCount":177,"tipCount":7,"visitsCount":261,"tier":"","message":"","currency":"","rating":6.8},{"name":"Tower Bar","phone":"+441522837631","twitter":"unilincoln","address":"University of Lincoln","lat":53.22700764819077,"lng":-0.5441977298320684,"city_fetched":"Lincoln,UK","state":"Lincolnshire","country":"United Kingdom","canonicalUrl":"https://foursquare.com/v/tower-bar/4bd03438b221c9b6a835d3d0","categoryId":"4bf58dd8d48988d116941735","category":"Bar","checkinsCount":2342,"usersCount":493,"tipCount":12,"visitsCount":2396,"url":"http://www.lincoln.ac.uk","tier":1,"message":"Cheap","currency":"Â£","rating":6.8},{"name":"Home","phone":"+441522528621","twitter":"homelincoln","address":"Park St","lat":53.23034776255345,"lng":-0.5411195755004883,"city_fetched":"Lincoln,UK","state":"Lincolnshire","country":"United Kingdom","canonicalUrl":"https://foursquare.com/v/home/4ebb210b93ad649fc1eb4dd9","categoryId":"4bf58dd8d48988d11f941735","category":"Nightclub","checkinsCount":754,"usersCount":284,"tipCount":3,"visitsCount":772,"tier":"","message":"","currency":"","rating":6.7},{"name":"Ritz (Wetherspoon)","phone":"+441522512103","address":"143-147 High St.","lat":53.22384493483681,"lng":-0.5432644887375221,"city_fetched":"Lincoln,UK","state":"Lincolnshire","country":"United Kingdom","canonicalUrl":"https://foursquare.com/v/ritz-wetherspoon/4c87ab5e821e9eb050cd8d89","categoryId":"4bf58dd8d48988d11b941735","category":"Pub","checkinsCount":1828,"usersCount":418,"tipCount":10,"visitsCount":1998,"url":"http://www.jdwetherspoon.co.uk","tier":"","message":"","currency":"","rating":6.6},{"name":"The Square Sail (Wetherspoon)","phone":"+441522787231","address":"Brayford Wharf North","lat":53.22832761983982,"lng":-0.5441772303604124,"city_fetched":"Lincoln,UK","state":"Lincolnshire","country":"United Kingdom","canonicalUrl":"https://foursquare.com/v/the-square-sail-wetherspoon/4b853621f964a520035131e3","categoryId":"4bf58dd8d48988d11b941735","category":"Pub","checkinsCount":1317,"usersCount":545,"tipCount":9,"visitsCount":1383,"url":"http://www.jdwetherspoon.co.uk","tier":"","message":"","currency":"","rating":6.4},{"name":"The Lincolnshire Poacher","phone":"+441522511788","address":"Bunkers Hill","lat":53.24495594479496,"lng":-0.5027532577514648,"city_fetched":"Lincoln,UK","state":"Lincolnshire","country":"United Kingdom","canonicalUrl":"https://foursquare.com/v/the-lincolnshire-poacher/4b9fc881f964a5204a3e37e3","categoryId":"4bf58dd8d48988d11b941735","category":"Pub","checkinsCount":345,"usersCount":139,"tipCount":2,"visitsCount":386,"tier":"","message":"","currency":"","rating":6.4},{"name":"Kind Bar","phone":"+441522530111","address":"266 High Street","lat":53.23160972094297,"lng":-0.5394887924194336,"city_fetched":"Lincoln,UK","state":"Lincolnshire","country":"United Kingdom","canonicalUrl":"https://foursquare.com/v/kind-bar/4bda98ab3c4fef3b17a8f4bf","categoryId":"4bf58dd8d48988d116941735","category":"Bar","checkinsCount":309,"usersCount":147,"tipCount":4,"visitsCount":310,"tier":"","message":"","currency":"","rating":6.2},{"name":"Wig and Mitre","phone":"+441522535190","address":"30 Steep Hill","lat":53.234160977359636,"lng":-0.5388241110019526,"city_fetched":"Lincoln,UK","state":"Lincolnshire","country":"United Kingdom","canonicalUrl":"https://foursquare.com/v/wig-and-mitre/4bdfdadfea279c74c096e22b","categoryId":"4bf58dd8d48988d11b941735","category":"Pub","checkinsCount":286,"usersCount":217,"tipCount":11,"visitsCount":286,"url":"http://www.wigandmitre.com","tier":"","message":"","currency":"","rating":6.2},{"name":"Revolution","phone":"+441522531516","twitter":"revlincoln","address":"10 Park St","lat":53.23049547461781,"lng":-0.5410122871398926,"city_fetched":"Lincoln,UK","state":"Lincolnshire","country":"United Kingdom","canonicalUrl":"https://foursquare.com/v/revolution/4bda9a8b3c4fef3b86a8f4bf","categoryId":"4bf58dd8d48988d11e941735","category":"Cocktail Bar","checkinsCount":454,"usersCount":217,"tipCount":6,"visitsCount":459,"tier":"","message":"","currency":"","rating":6.2},{"name":"The Prince of Wales","phone":"+441522530474","address":"77a Bailgate","lat":53.235902669820234,"lng":-0.5382335186004639,"city_fetched":"Lincoln,UK","state":"Lincolnshire","country":"United Kingdom","canonicalUrl":"https://foursquare.com/v/the-prince-of-wales/4bda95d13c4fef3bb4a7f4bf","categoryId":"4bf58dd8d48988d116941735","category":"Bar","checkinsCount":257,"usersCount":120,"tipCount":4,"visitsCount":257,"tier":"","message":"","currency":"","rating":6.2},{"name":"Slug and Lettuce","phone":"+441522589478","twitter":"sluglettuce","address":"274 High Street","lat":53.23095145212363,"lng":-0.5396497249603271,"city_fetched":"Lincoln,UK","state":"Lincolnshire","country":"United Kingdom","canonicalUrl":"https://foursquare.com/v/slug-and-lettuce/4bda99a73c4fef3b53a8f4bf","categoryId":"4bf58dd8d48988d11b941735","category":"Pub","checkinsCount":757,"usersCount":436,"tipCount":17,"visitsCount":814,"tier":"","message":"","currency":"","rating":6.1},{"name":"The Forum (Wetherspoon)","phone":"+441522518630","address":"13-14 Silver St.","lat":53.230054,"lng":-0.538052,"city_fetched":"Lincoln,UK","state":"Lincolnshire","country":"United Kingdom","canonicalUrl":"https://foursquare.com/v/the-forum-wetherspoon/4c7fdf66d8086dcb43a65e52","categoryId":"4bf58dd8d48988d11b941735","category":"Pub","checkinsCount":1022,"usersCount":324,"tipCount":9,"visitsCount":1108,"url":"http://www.jdwetherspoon.co.uk","tier":"","message":"","currency":"","rating":6.1},{"name":"Sugarcubes","address":"1 West Parade","lat":53.23072667508682,"lng":-0.5412912368774414,"city_fetched":"Lincoln,UK","state":"Lincolnshire","country":"United Kingdom","canonicalUrl":"https://foursquare.com/v/sugarcubes/4c019c363ab80f47ba7090ff","categoryId":"4bf58dd8d48988d11f941735","category":"Nightclub","checkinsCount":593,"usersCount":133,"tipCount":6,"visitsCount":601,"tier":"","message":"","currency":"","rating":6.1},{"name":"Queen In The West","phone":"+441522827004","address":"14 Moor St.","lat":53.233355187323085,"lng":-0.5538092454734366,"city_fetched":"Lincoln,UK","state":"Lincolnshire","country":"United Kingdom","canonicalUrl":"https://foursquare.com/v/queen-in-the-west/4bdf1af77ea362b58f5443c4","categoryId":"4bf58dd8d48988d11b941735","category":"Pub","checkinsCount":131,"usersCount":62,"tipCount":7,"visitsCount":145,"tier":"","message":"","currency":"","rating":6},{"name":"Cloud Bar","phone":"+441522511284","twitter":"cloudbarlincoln","address":"1 St. Pauls Lane","lat":53.23557517505176,"lng":-0.5394887924194336,"city_fetched":"Lincoln,UK","state":"Lincolnshire","country":"United Kingdom","canonicalUrl":"https://foursquare.com/v/cloud-bar/4bda954d3c4fef3baaa7f4bf","categoryId":"4bf58dd8d48988d116941735","category":"Bar","checkinsCount":312,"usersCount":177,"tipCount":11,"visitsCount":315,"tier":"","message":"","currency":"","rating":6},{"name":"The Mailbox","phone":"+441522544938","address":"19-20 Guildhall St","lat":53.22935550960752,"lng":-0.5415058135986328,"city_fetched":"Lincoln,UK","state":"Lincolnshire","country":"United Kingdom","canonicalUrl":"https://foursquare.com/v/the-mailbox/4ba0f00af964a520728837e3","categoryId":"4bf58dd8d48988d116941735","category":"Bar","checkinsCount":658,"usersCount":371,"tipCount":7,"visitsCount":765,"url":"http://www.themailboxlincoln.co.uk","tier":"","message":"","currency":"","rating":6},{"name":"Lola Lo","phone":"+441522525828","address":"280 - 281 High Street","lat":53.23071383064907,"lng":-0.5397677421569824,"city_fetched":"Lincoln,UK","state":"Lincolnshire","country":"United Kingdom","canonicalUrl":"https://foursquare.com/v/lola-lo/4f7e0ec0e4b0bf87aa2a48a2","categoryId":"4bf58dd8d48988d11f941735","category":"Nightclub","checkinsCount":341,"usersCount":110,"tipCount":4,"visitsCount":341,"tier":"","message":"","currency":"","rating":6},{"name":"Game Keeper (Fayre & Square)","phone":"+441522696687","address":"Newark Rd","lat":53.177459810704484,"lng":-0.623624324798584,"city_fetched":"Lincoln,UK","state":"Lincolnshire","country":"United Kingdom","canonicalUrl":"https://foursquare.com/v/game-keeper-fayre--square/4d712e86a8df6dcb4cbc2ec1","categoryId":"4bf58dd8d48988d11b941735","category":"Pub","checkinsCount":220,"usersCount":103,"tipCount":6,"visitsCount":238,"url":"http://www.fayre-square.com/pub/game-keeper-south-hykeham-lincoln/m6861/","tier":"","message":"","currency":"","rating":5.9},{"name":"The Centurion","phone":"+441522509814","address":"Newark Road","lat":53.19036793132069,"lng":-0.5900563644179219,"city_fetched":"Lincoln,UK","state":"Lincolnshire","country":"United Kingdom","canonicalUrl":"https://foursquare.com/v/the-centurion/4b66096cf964a520fc0f2be3","categoryId":"4bf58dd8d48988d11b941735","category":"Pub","checkinsCount":267,"usersCount":115,"tipCount":2,"visitsCount":313,"tier":"","message":"","currency":"","rating":5.9},{"name":"The Woodcocks","phone":"+441522703460","address":"Burton Lane End","lat":53.25158868696045,"lng":-0.6016263729291585,"city_fetched":"Lincoln,UK","state":"Lincolnshire","country":"United Kingdom","canonicalUrl":"https://foursquare.com/v/the-woodcocks/4c39e0e8ae2da593e22903c6","categoryId":"4bf58dd8d48988d11b941735","category":"Pub","checkinsCount":255,"usersCount":156,"tipCount":7,"visitsCount":286,"tier":"","message":"","currency":"","rating":5.8},{"name":"Lion & Snake","phone":"+441522576667","address":"79 Bailgate","lat":53.23552450109108,"lng":-0.5384784874149199,"city_fetched":"Lincoln,UK","state":"Lincolnshire","country":"United Kingdom","canonicalUrl":"https://foursquare.com/v/lion--snake/4bba23d998c7ef3b93bf3202","categoryId":"4bf58dd8d48988d11b941735","category":"Pub","checkinsCount":433,"usersCount":277,"tipCount":2,"visitsCount":489,"url":"http://www.lionsnakepub.co.uk","tier":"","message":"","currency":"","rating":5.8},{"name":"Mill Lodge (Table Table)","phone":"+441522525216","twitter":"yourtabletable","address":"Lincoln Rd","lat":53.21149444935799,"lng":-0.5236618983435799,"city_fetched":"Lincoln,UK","state":"Lincolnshire","country":"United Kingdom","canonicalUrl":"https://foursquare.com/v/mill-lodge-table-table/4b781d01f964a52061b62ee3","categoryId":"4bf58dd8d48988d11b941735","category":"Pub","checkinsCount":595,"usersCount":49,"tipCount":3,"visitsCount":595,"url":"http://www.tabletable.co.uk/pub-restaurants/Lincolnshire/Mill-Lodge-Canwick.html","tier":"","message":"","currency":"","rating":5.8},{"name":"Nosey Parker","phone":"+441522524401","address":"1 Crusader Rd","lat":53.219926179512626,"lng":-0.5580698747319993,"city_fetched":"Lincoln,UK","state":"Lincolnshire","country":"United Kingdom","canonicalUrl":"https://foursquare.com/v/nosey-parker/4bdd64cdb0f5c92848454ce3","categoryId":"4bf58dd8d48988d11b941735","category":"Pub","checkinsCount":451,"usersCount":197,"tipCount":4,"visitsCount":580,"tier":"","message":"","currency":"","rating":5.8},{"name":"Walkabout","phone":"+441522538663","twitter":"walkielincoln","address":"233-237 High St","lat":53.23014224926834,"lng":-0.5402183532714844,"city_fetched":"Lincoln,UK","state":"Lincolnshire","country":"United Kingdom","canonicalUrl":"https://foursquare.com/v/walkabout/4bda99ff3c4fef3b68a8f4bf","categoryId":"4bf58dd8d48988d11d941735","category":"Sports Bar","checkinsCount":653,"usersCount":351,"tipCount":7,"visitsCount":796,"url":"http://walkaboutbars.co.uk/venues/lincoln","tier":"","message":"","currency":"","rating":5.7},{"name":"The Bull","phone":"+441522531215","address":"London Rd","lat":53.19617917983359,"lng":-0.5350316107467462,"city_fetched":"Lincoln,UK","state":"Lincolnshire","country":"United Kingdom","canonicalUrl":"https://foursquare.com/v/the-bull/4c94da39f7cfa1cd797db715","categoryId":"4bf58dd8d48988d116941735","category":"Bar","checkinsCount":425,"usersCount":81,"tipCount":4,"visitsCount":533,"tier":"","message":"","currency":"","rating":5.6},{"name":"Tokyo","phone":"+441522262903","address":"18 Silver St.","lat":53.23036313172711,"lng":-0.536562485701627,"city_fetched":"Lincoln,UK","state":"Lincolnshire","country":"United Kingdom","canonicalUrl":"https://foursquare.com/v/tokyo/4e5a1e572271886714fc892f","categoryId":"4bf58dd8d48988d11f941735","category":"Nightclub","checkinsCount":446,"usersCount":136,"tipCount":5,"visitsCount":448,"url":"http://www.tokyoindustries.com","tier":"","message":"","currency":"","rating":5.5}]