[{"name":"Livingston Inn","address":"5-8 Main St","lat":55.88586330413656,"lng":-3.5395073890685005,"city_fetched":"Linlithgow,UK","state":"West Lothian","country":"United Kingdom","canonicalUrl":"https://foursquare.com/v/livingston-inn/4ccb132f54f0b1f73e1d0dca","categoryId":"4bf58dd8d48988d1d5941735","category":"Hotel Bar","checkinsCount":215,"usersCount":71,"tipCount":5,"visitsCount":288,"tier":"","message":"","currency":"","rating":7.5},{"name":"The Four Marys","phone":"+441506842171","address":"65-67 High St.","lat":55.976982,"lng":-3.599867,"city_fetched":"Linlithgow,UK","state":"West Lothian","country":"United Kingdom","canonicalUrl":"https://foursquare.com/v/the-four-marys/4be4a0f6cf200f477440123c","categoryId":"4bf58dd8d48988d11b941735","category":"Pub","checkinsCount":204,"usersCount":145,"tipCount":10,"visitsCount":221,"url":"http://www.thefourmarys.co.uk","tier":"","message":"","currency":"","rating":7.4},{"name":"The Old Post Office","address":"29-31 High St.","lat":55.976739,"lng":-3.597835,"city_fetched":"Linlithgow,UK","state":"West Lothian","country":"United Kingdom","canonicalUrl":"https://foursquare.com/v/the-old-post-office/4b93a03ff964a520c64a34e3","categoryId":"4bf58dd8d48988d11b941735","category":"Pub","checkinsCount":179,"usersCount":88,"tipCount":5,"visitsCount":183,"tier":"","message":"","currency":"","rating":7},{"name":"Club Earth","phone":"+441506435222","address":"Almondside","lat":55.88691340894151,"lng":-3.510603904724121,"city_fetched":"Linlithgow,UK","state":"West Lothian","country":"United Kingdom","canonicalUrl":"https://foursquare.com/v/club-earth/4ba42880f964a520818738e3","categoryId":"4bf58dd8d48988d11f941735","category":"Nightclub","checkinsCount":103,"usersCount":43,"tipCount":3,"visitsCount":117,"tier":"","message":"","currency":"","rating":6.6},{"name":"The Earl of Zetland (Wetherspoon)","phone":"+441324499940","address":"Bo'ness Rd","lat":56.01932637046269,"lng":-3.722090721130371,"city_fetched":"Linlithgow,UK","state":"Falkirk","country":"United Kingdom","canonicalUrl":"https://foursquare.com/v/the-earl-of-zetland-wetherspoon/4c87ab0e821e9eb001cd8d89","categoryId":"4bf58dd8d48988d11b941735","category":"Pub","checkinsCount":201,"usersCount":86,"tipCount":4,"visitsCount":204,"url":"http://www.jdwetherspoon.co.uk","tier":"","message":"","currency":"","rating":6.5},{"name":"The James Young (Wetherspoon)","phone":"+441506651600","address":"36-40 Hopetoun St.","lat":55.90285996615047,"lng":-3.640519213625949,"city_fetched":"Linlithgow,UK","state":"West Lothian","country":"United Kingdom","canonicalUrl":"https://foursquare.com/v/the-james-young-wetherspoon/4bbc793eafe1b7135565304b","categoryId":"4bf58dd8d48988d11b941735","category":"Pub","checkinsCount":151,"usersCount":96,"tipCount":3,"visitsCount":173,"url":"http://www.jdwetherspoon.co.uk","tier":"","message":"","currency":"","rating":6.3},{"name":"Cadgers Brae","phone":"+448701977098","address":"Beancross Rd","lat":55.99643699060732,"lng":-3.723313808441162,"city_fetched":"Linlithgow,UK","state":"Falkirk","country":"United Kingdom","canonicalUrl":"https://foursquare.com/v/cadgers-brae/4b816f4df964a520d1a530e3","categoryId":"4bf58dd8d48988d11b941735","category":"Pub","checkinsCount":208,"usersCount":114,"tipCount":3,"visitsCount":250,"url":"https://www.brewersfayre.co.uk/pub-restaurant/Falkirk/Cadgers-Brae-Falkirk.html","tier":"","message":"","currency":"","rating":5.6},{"name":"Brewers Fayre","phone":"+448701977099","address":"Bowtrees Roundabout","lat":56.05377281556931,"lng":-3.758718967437744,"city_fetched":"Linlithgow,UK","country":"United Kingdom","canonicalUrl":"https://foursquare.com/v/brewers-fayre/4bfbc0e4565f76b0b3e405db","categoryId":"4bf58dd8d48988d11b941735","category":"Pub","checkinsCount":185,"usersCount":102,"tipCount":3,"visitsCount":220,"tier":"","message":"","currency":"","rating":5.6},{"name":"Deer Park Beefeater","phone":"+441506439202","twitter":"beefeatergrill","address":"Deer Park Av","lat":55.91522028114076,"lng":-3.5262361696605886,"city_fetched":"Linlithgow,UK","state":"West Lothian","country":"United Kingdom","canonicalUrl":"https://foursquare.com/v/deer-park-beefeater/4ba374cff964a520913e38e3","categoryId":"4bf58dd8d48988d11b941735","category":"Pub","checkinsCount":289,"usersCount":160,"tipCount":1,"visitsCount":326,"url":"http://www.beefeater.co.uk","tier":"","message":"","currency":"","rating":5.6}]