[{"name":"Livingston Inn","address":"5-8 Main St","lat":55.88586330413656,"lng":-3.5395073890685005,"city_fetched":"Livingston","state":"West Lothian","country":"United Kingdom","canonicalUrl":"https://foursquare.com/v/livingston-inn/4ccb132f54f0b1f73e1d0dca","category":"Hotel Bar","checkinsCount":215,"usersCount":71,"tipCount":5,"visitsCount":288,"tier":"","message":"","currency":"","rating":7.3},{"name":"The Newyearfield (Wetherspoon)","phone":"+441506420770","address":"Unit 1 Livingston Designer Outlet Village","lat":55.88254148757507,"lng":-3.517581890654761,"city_fetched":"Livingston","state":"West Lothian","country":"United Kingdom","canonicalUrl":"https://foursquare.com/v/the-newyearfield-wetherspoon/4b8e9f0ef964a520782c33e3","category":"Pub","checkinsCount":687,"usersCount":241,"tipCount":9,"visitsCount":694,"url":"http://www.jdwetherspoon.co.uk","tier":"","message":"","currency":"","rating":6.8},{"name":"The Almond Bank (Wetherspoon)","phone":"+441506424190","twitter":"jdwtweet","address":"Almondvale Boulevard","lat":55.882385327584565,"lng":-3.517996072769165,"city_fetched":"Livingston","state":"West Lothian","country":"United Kingdom","canonicalUrl":"https://foursquare.com/v/the-almond-bank-wetherspoon/4da8c3bdbf882cb7a94630d2","category":"Pub","checkinsCount":430,"usersCount":152,"tipCount":5,"visitsCount":443,"url":"http://www.jdwetherspoon.co.uk","tier":"","message":"","currency":"","rating":5.7},{"name":"Deer Park Beefeater","phone":"+441506439202","twitter":"beefeatergrill","address":"Deer Park Av","lat":55.91522028114076,"lng":-3.5262361696605886,"city_fetched":"Livingston","state":"West Lothian","country":"United Kingdom","canonicalUrl":"https://foursquare.com/v/deer-park-beefeater/4ba374cff964a520913e38e3","category":"Pub","checkinsCount":289,"usersCount":160,"tipCount":1,"visitsCount":326,"url":"http://www.beefeater.co.uk","tier":"","message":"","currency":"","rating":5.6},{"name":"The Lime Kiln","phone":"+441506410661","address":"Almondvale Parkway","lat":55.883850618366054,"lng":-3.52123886346817,"city_fetched":"Livingston","state":"West Lothian","country":"United Kingdom","canonicalUrl":"https://foursquare.com/v/the-lime-kiln/4c434115cc410f4711efad61","category":"Gastropub","checkinsCount":111,"usersCount":84,"tipCount":3,"visitsCount":116,"tier":2,"message":"Moderate","currency":"Â£","rating":5.6}]