[{"name":"The Pemberton (Beefeater)","phone":"+441554740092","twitter":"beefeatergrill","address":"Llandafen Rd","lat":51.68191804827571,"lng":-4.132979254263238,"city_fetched":"Llanelli,UK","state":"Carmarthenshire","country":"United Kingdom","canonicalUrl":"https://foursquare.com/v/the-pemberton-beefeater/4c4db2f1fa9d9521bfa21b0a","categoryId":"4bf58dd8d48988d11b941735","category":"Pub","checkinsCount":215,"usersCount":111,"tipCount":6,"visitsCount":228,"url":"http://www.beefeater.co.uk","tier":"","message":"","currency":"","rating":7.1},{"name":"Thomas Arms Hotel","address":"Thomas St.","lat":51.68552825847311,"lng":-4.16120957142247,"city_fetched":"Llanelli,UK","state":"Carmarthenshire","country":"United Kingdom","canonicalUrl":"https://foursquare.com/v/thomas-arms-hotel/4bd7ac1b304fce724add33ab","categoryId":"4bf58dd8d48988d1d5941735","category":"Hotel Bar","checkinsCount":102,"usersCount":57,"tipCount":3,"visitsCount":108,"tier":"","message":"","currency":"","rating":7},{"name":"Machynys Golf Club","phone":"015540744666","address":"Nicklaus Avenue","lat":51.66006459999738,"lng":-4.148448662873099,"city_fetched":"Llanelli,UK","state":"Carmarthenshire","country":"United Kingdom","canonicalUrl":"https://foursquare.com/v/machynys-golf-club/4bcdd1dcb6c49c74f3f59591","categoryId":"4bf58dd8d48988d121941735","category":"Lounge","checkinsCount":243,"usersCount":130,"tipCount":5,"visitsCount":316,"tier":"","message":"","currency":"","rating":6.8},{"name":"Brewers Fayre","phone":"+441554749347","address":"Sandpiper Road","lat":51.68253068725861,"lng":-4.17469553725941,"city_fetched":"Llanelli,UK","state":"Carmarthenshire","country":"United Kingdom","canonicalUrl":"https://foursquare.com/v/brewers-fayre/4baf639bf964a5203ffc3be3","categoryId":"4bf58dd8d48988d11b941735","category":"Pub","checkinsCount":130,"usersCount":75,"tipCount":6,"visitsCount":156,"tier":"","message":"","currency":"","rating":6.2},{"name":"The York Palace (Wetherspoon)","phone":"+441554758609","address":"51 Stepney St.","lat":51.68096444212171,"lng":-4.1631317138671875,"city_fetched":"Llanelli,UK","state":"Carmarthenshire","country":"United Kingdom","canonicalUrl":"https://foursquare.com/v/the-york-palace-wetherspoon/4c87ab6b821e9eb059cd8d89","categoryId":"4bf58dd8d48988d11b941735","category":"Pub","checkinsCount":398,"usersCount":109,"tipCount":2,"visitsCount":433,"url":"http://www.jdwetherspoon.co.uk","tier":"","message":"","currency":"","rating":6.1}]