[{"name":"Hops","address":"8-10 Prince Albert St","lat":53.096513031713265,"lng":-2.4407509513904544,"city_fetched":"Loggerheads,UK","state":"Cheshire","country":"United Kingdom","canonicalUrl":"https://foursquare.com/v/hops/4dbc1630a86e0e98a1d99ca4","categoryId":"4bf58dd8d48988d11b941735","category":"Pub","checkinsCount":415,"usersCount":97,"tipCount":11,"visitsCount":454,"tier":"","message":"","currency":"","rating":9},{"name":"Hop Inn","phone":"+441782711121","address":"102 Albert St","lat":53.014610391070725,"lng":-2.2164891884785534,"neighborhood":"Basford","city_fetched":"Loggerheads,UK","state":"Staffordshire","country":"United Kingdom","canonicalUrl":"https://foursquare.com/v/hop-inn/53027960498e0c3d35e823a8","categoryId":"4bf58dd8d48988d11b941735","category":"Pub","checkinsCount":118,"usersCount":52,"tipCount":4,"visitsCount":291,"tier":"","message":"","currency":"","rating":8.7},{"name":"The Dog and Doublet Inn","phone":"+441889508331","twitter":"dogandoublet","address":"Sandon Road","lat":52.8609663114895,"lng":-2.0784250935186916,"city_fetched":"Loggerheads,UK","state":"Staffordshire","country":"United Kingdom","canonicalUrl":"https://foursquare.com/v/the-dog-and-doublet-inn/4df13301b3ad984432d8cad9","categoryId":"4bf58dd8d48988d11b941735","category":"Pub","checkinsCount":158,"usersCount":142,"tipCount":10,"visitsCount":204,"tier":"","message":"","currency":"","rating":8.5},{"name":"The Lymestone Vaults","phone":"+441782615801","address":"Pepper St","lat":53.01138605317213,"lng":-2.2286067328052552,"city_fetched":"Loggerheads,UK","state":"Staffordshire","country":"United Kingdom","canonicalUrl":"https://foursquare.com/v/the-lymestone-vaults/50b6741fe4b089a278daa2e3","categoryId":"4bf58dd8d48988d11b941735","category":"Pub","checkinsCount":298,"usersCount":54,"tipCount":3,"visitsCount":310,"tier":"","message":"","currency":"","rating":8.4},{"name":"The LRV & Verve","phone":"+441782294118","twitter":"staffsunion","address":"Leek Road","lat":53.00794086592205,"lng":-2.1754109859466553,"city_fetched":"Loggerheads,UK","state":"Stoke-on-Trent","country":"United Kingdom","canonicalUrl":"https://foursquare.com/v/the-lrv--verve/4b69fc84f964a520e2bf2be3","categoryId":"4bf58dd8d48988d11f941735","category":"Nightclub","checkinsCount":941,"usersCount":173,"tipCount":6,"visitsCount":998,"url":"http://www.staffsunion.com","tier":"","message":"","currency":"","rating":8.2},{"name":"The Fox","phone":"+441952815940","address":"Pave Ln","lat":52.748410553887275,"lng":-2.3598519955633783,"city_fetched":"Loggerheads,UK","country":"United Kingdom","canonicalUrl":"https://foursquare.com/v/the-fox/4b603c2df964a5203fdb29e3","categoryId":"4bf58dd8d48988d11b941735","category":"Pub","checkinsCount":211,"usersCount":127,"tipCount":11,"visitsCount":305,"url":"http://www.brunningandprice.co.uk/fox/","tier":"","message":"","currency":"","rating":8},{"name":"The Market Vaults","phone":"+441785256126","twitter":"themarketvaults","address":"4 St.Martins Pl.","lat":52.80693186317862,"lng":-2.1167537569999695,"city_fetched":"Loggerheads,UK","state":"Staffordshire","country":"United Kingdom","canonicalUrl":"https://foursquare.com/v/the-market-vaults/4b9c229df964a520a24d36e3","categoryId":"4bf58dd8d48988d11b941735","category":"Pub","checkinsCount":466,"usersCount":65,"tipCount":11,"visitsCount":467,"tier":"","message":"","currency":"","rating":8},{"name":"The Black Lion","phone":"+441270628711","address":"29 Welsh Row","lat":53.06778136187373,"lng":-2.5258684158325195,"city_fetched":"Loggerheads,UK","state":"Cheshire","country":"United Kingdom","canonicalUrl":"https://foursquare.com/v/the-black-lion/4db315b20437fa536a0bc836","categoryId":"4bf58dd8d48988d11b941735","category":"Pub","checkinsCount":180,"usersCount":65,"tipCount":8,"visitsCount":186,"tier":"","message":"","currency":"","rating":7.9},{"name":"The Swan","phone":"+441785258142","twitter":"theswanstafford","address":"46-46a Greengate Street","lat":52.80587469576147,"lng":-2.116960287094116,"city_fetched":"Loggerheads,UK","state":"Staffordshire","country":"United Kingdom","canonicalUrl":"https://foursquare.com/v/the-swan/4b938643f964a520024734e3","categoryId":"4bf58dd8d48988d1d5941735","category":"Hotel Bar","checkinsCount":498,"usersCount":262,"tipCount":9,"visitsCount":618,"url":"http://theswanstafford.co.uk","tier":"","message":"","currency":"","rating":7.9},{"name":"The Sun Inn","address":"7 Lichfield Rd","lat":52.80361758973438,"lng":-2.1145248413085938,"city_fetched":"Loggerheads,UK","state":"Staffordshire","country":"United Kingdom","canonicalUrl":"https://foursquare.com/v/the-sun-inn/4c555bc3f5f3d13a4050a2fb","categoryId":"4bf58dd8d48988d11b941735","category":"Pub","checkinsCount":1063,"usersCount":251,"tipCount":13,"visitsCount":1258,"tier":"","message":"","currency":"","rating":7.9},{"name":"Offbeat Brewery","address":"Thomas Streets","lat":53.0995692076885,"lng":-2.4382771758146697,"city_fetched":"Loggerheads,UK","state":"Cheshire","country":"United Kingdom","canonicalUrl":"https://foursquare.com/v/offbeat-brewery/506ed2cce4b0d3e0a50f4ec0","categoryId":"50327c8591d4c4b30a586d5d","category":"Brewery","checkinsCount":72,"usersCount":32,"tipCount":3,"visitsCount":76,"tier":"","message":"","currency":"","rating":7.9},{"name":"The Wheatsheaf (Wetherspoon)","phone":"+441782747462","address":"84-92 Church St.","lat":53.00432159633403,"lng":-2.1857813352531172,"city_fetched":"Loggerheads,UK","state":"Stoke-on-Trent","country":"United Kingdom","canonicalUrl":"https://foursquare.com/v/the-wheatsheaf-wetherspoon/4c87ac14821e9eb0ebcd8d89","categoryId":"4bf58dd8d48988d11b941735","category":"Pub","checkinsCount":1582,"usersCount":294,"tipCount":3,"visitsCount":1806,"url":"http://www.jdwetherspoon.co.uk","tier":"","message":"","currency":"","rating":7.8},{"name":"The Combermere Arms","phone":"+441948871223","address":"Whitchurch Rd.","lat":52.98041127715431,"lng":-2.58977648143516,"city_fetched":"Loggerheads,UK","state":"Shropshire","country":"United Kingdom","canonicalUrl":"https://foursquare.com/v/the-combermere-arms/4bf2eb906a31d13a6110942e","categoryId":"4bf58dd8d48988d11b941735","category":"Pub","checkinsCount":89,"usersCount":77,"tipCount":3,"visitsCount":139,"tier":"","message":"","currency":"","rating":7.8},{"name":"Bulls Head","address":"14 St John's Square","lat":53.044619297456,"lng":-2.199447313295398,"city_fetched":"Loggerheads,UK","state":"Stoke-on-Trent","country":"United Kingdom","canonicalUrl":"https://foursquare.com/v/bulls-head/4c02c147f56c2d7fe1e61b66","categoryId":"4bf58dd8d48988d11b941735","category":"Pub","checkinsCount":549,"usersCount":118,"tipCount":8,"visitsCount":588,"tier":"","message":"","currency":"","rating":7.8},{"name":"The Glebe","lat":53.00476559022157,"lng":-2.18145918039687,"city_fetched":"Loggerheads,UK","state":"Stoke-on-Trent","country":"United Kingdom","canonicalUrl":"https://foursquare.com/v/the-glebe/4ccc16aeba79a1cdca8b38cb","categoryId":"4bf58dd8d48988d116941735","category":"Bar","checkinsCount":429,"usersCount":110,"tipCount":4,"visitsCount":439,"tier":"","message":"","currency":"","rating":7.8},{"name":"Titanic Royal Exchange","address":"Radford Street","lat":52.904734,"lng":-2.1487337350845337,"city_fetched":"Loggerheads,UK","country":"United Kingdom","canonicalUrl":"https://foursquare.com/v/titanic-royal-exchange/4cf63f181801a1434246e8d4","categoryId":"4bf58dd8d48988d11b941735","category":"Pub","checkinsCount":184,"usersCount":70,"tipCount":3,"visitsCount":186,"tier":"","message":"","currency":"","rating":7.7},{"name":"Ye Olde Rose & Crown","phone":"+441785251343","address":"10 Market St.","lat":52.80727472337875,"lng":-2.1161790588668286,"city_fetched":"Loggerheads,UK","state":"Staffordshire","country":"United Kingdom","canonicalUrl":"https://foursquare.com/v/ye-olde-rose--crown/4ec7eaad99115348d987bc1f","categoryId":"4bf58dd8d48988d116941735","category":"Bar","checkinsCount":223,"usersCount":68,"tipCount":4,"visitsCount":232,"tier":"","message":"","currency":"","rating":7.6},{"name":"The Greyhound","twitter":"greyhoundbeers","address":"67 George Street","lat":53.012307,"lng":-2.215203,"city_fetched":"Loggerheads,UK","state":"Staffordshire","country":"United Kingdom","canonicalUrl":"https://foursquare.com/v/the-greyhound/4b732726f964a5209d9e2de3","categoryId":"4bf58dd8d48988d11b941735","category":"Pub","checkinsCount":1552,"usersCount":137,"tipCount":5,"visitsCount":1637,"tier":"","message":"","currency":"","rating":7.6},{"name":"The Holy Inadequate","phone":"+447876071462","address":"67 Etruria Old Rd.","lat":53.02038068517807,"lng":-2.2006019804388033,"city_fetched":"Loggerheads,UK","state":"Stoke-on-Trent","country":"United Kingdom","canonicalUrl":"https://foursquare.com/v/the-holy-inadequate/4d7a27bc15958cfad3a51a25","categoryId":"4bf58dd8d48988d11b941735","category":"Pub","checkinsCount":405,"usersCount":104,"tipCount":4,"visitsCount":606,"tier":"","message":"","currency":"","rating":7.5},{"name":"The William Withering (Wetherspoon)","phone":"+441952642800","twitter":"jdwtweet","address":"43-45 New St.","lat":52.700651,"lng":-2.516707,"city_fetched":"Loggerheads,UK","state":"Shropshire","country":"United Kingdom","canonicalUrl":"https://foursquare.com/v/the-william-withering-wetherspoon/4e2ed56262e1fbac6104bc98","categoryId":"4bf58dd8d48988d11b941735","category":"Pub","checkinsCount":373,"usersCount":170,"tipCount":10,"visitsCount":461,"url":"http://www.jdwetherspoon.co.uk","tier":"","message":"","currency":"","rating":7.4},{"name":"Cheshire Cat","lat":53.067847,"lng":-2.525921,"city_fetched":"Loggerheads,UK","state":"Cheshire","country":"United Kingdom","canonicalUrl":"https://foursquare.com/v/cheshire-cat/4bdc6ab33904a593f7134e9e","categoryId":"4bf58dd8d48988d116941735","category":"Bar","checkinsCount":428,"usersCount":191,"tipCount":12,"visitsCount":486,"tier":"","message":"","currency":"","rating":7.2},{"name":"The Post House","phone":"+441785231450","twitter":"theposthousest","address":"35 Greengate St","lat":52.805142481168005,"lng":-2.1165212038859864,"city_fetched":"Loggerheads,UK","state":"Staffordshire","country":"United Kingdom","canonicalUrl":"https://foursquare.com/v/the-post-house/4ee12c9c6da1a1efed59e615","categoryId":"4bf58dd8d48988d11e941735","category":"Cocktail Bar","checkinsCount":231,"usersCount":120,"tipCount":6,"visitsCount":235,"url":"http://www.theposthousestafford.co.uk","tier":"","message":"","currency":"","rating":7.2},{"name":"Revolution & Revolucion De Cuba","phone":"+441782628920","twitter":"revs_nul","address":"7 Hassell Street","lat":53.01079414111838,"lng":-2.225375175476074,"city_fetched":"Loggerheads,UK","state":"Staffordshire","country":"United Kingdom","canonicalUrl":"https://foursquare.com/revs_nul","categoryId":"4bf58dd8d48988d116941735","category":"Bar","checkinsCount":1020,"usersCount":251,"tipCount":6,"visitsCount":1050,"url":"http://www.revolution-bars.co.uk","tier":"","message":"","currency":"","rating":7.1},{"name":"Fighting Cocks","lat":52.695107053675095,"lng":-2.4493955530960876,"city_fetched":"Loggerheads,UK","country":"United Kingdom","canonicalUrl":"https://foursquare.com/v/fighting-cocks/4ba3c4a7f964a520165d38e3","categoryId":"4bf58dd8d48988d11b941735","category":"Pub","checkinsCount":187,"usersCount":48,"tipCount":9,"visitsCount":210,"tier":"","message":"","currency":"","rating":7},{"name":"Plume Of Feathers","phone":"+441782373100","address":"Station Rd","lat":52.94223243459617,"lng":-2.1696007864957942,"city_fetched":"Loggerheads,UK","state":"Staffordshire","country":"United Kingdom","canonicalUrl":"https://foursquare.com/v/plume-of-feathers/4daa99f21e72c1ab9bf89cdb","categoryId":"4bf58dd8d48988d11b941735","category":"Pub","checkinsCount":83,"usersCount":62,"tipCount":0,"visitsCount":126,"url":"http://www.plumeoffeathersbarlaston.co.uk","tier":"","message":"","currency":"","rating":7},{"name":"The Swan Inn","phone":"+441785815570","address":"18 Stafford St.","lat":52.90081016045196,"lng":-2.1459019918528734,"city_fetched":"Loggerheads,UK","state":"Staffordshire","country":"United Kingdom","canonicalUrl":"https://foursquare.com/v/the-swan-inn/4ba52810f964a52027e538e3","categoryId":"4bf58dd8d48988d11b941735","category":"Pub","checkinsCount":280,"usersCount":89,"tipCount":7,"visitsCount":292,"tier":"","message":"","currency":"","rating":7},{"name":"The Orange Tree","address":"Newcastle Rd.","lat":52.996357988834156,"lng":-2.2108054161071777,"neighborhood":"Stoke and Trent Vale","city_fetched":"Loggerheads,UK","state":"Stoke-on-Trent","country":"United Kingdom","canonicalUrl":"https://foursquare.com/v/the-orange-tree/4c581972744a0f471164cacb","categoryId":"4bf58dd8d48988d11b941735","category":"Pub","checkinsCount":149,"usersCount":154,"tipCount":5,"visitsCount":256,"tier":"","message":"","currency":"","rating":6.9},{"name":"The Factory","address":"67 Bryan St.","lat":53.028325665367134,"lng":-2.1770983058872933,"city_fetched":"Loggerheads,UK","state":"Stoke-on-Trent","country":"United Kingdom","canonicalUrl":"https://foursquare.com/v/the-factory/4c7f89811415b7135106015d","categoryId":"4bf58dd8d48988d1d8941735","category":"Gay Bar","checkinsCount":384,"usersCount":107,"tipCount":5,"visitsCount":392,"tier":"","message":"","currency":"","rating":6.9},{"name":"Leopard Hotel","phone":"+441782819644","address":"21 Market Place","lat":53.045513944641556,"lng":-2.1977780547081363,"city_fetched":"Loggerheads,UK","state":"Stoke-on-Trent","country":"United Kingdom","canonicalUrl":"https://foursquare.com/v/leopard-hotel/4b5a2d66f964a52052b228e3","categoryId":"4bf58dd8d48988d11b941735","category":"Pub","checkinsCount":202,"usersCount":73,"tipCount":5,"visitsCount":208,"tier":"","message":"","currency":"","rating":6.9},{"name":"The Exchange","phone":"+441782206032","address":"Trinity St","lat":53.025435,"lng":-2.178993,"city_fetched":"Loggerheads,UK","state":"Stoke-on-Trent","country":"United Kingdom","canonicalUrl":"https://foursquare.com/v/the-exchange/4bad1920f964a520512d3be3","categoryId":"4bf58dd8d48988d116941735","category":"Bar","checkinsCount":263,"usersCount":128,"tipCount":5,"visitsCount":264,"url":"http://www.theexchangestoke.com","tier":"","message":"","currency":"","rating":6.9},{"name":"The Terrace","phone":"+441782848021","twitter":"theterracestoke","address":"185 Leek Road","lat":53.01014162115991,"lng":-2.1754041565124758,"city_fetched":"Loggerheads,UK","state":"Stoke-on-Trent","country":"United Kingdom","canonicalUrl":"https://foursquare.com/v/the-terrace/4d036ab3347da1cdf14d258f","categoryId":"4bf58dd8d48988d11b941735","category":"Pub","checkinsCount":765,"usersCount":191,"tipCount":5,"visitsCount":833,"url":"http://www.theterrace-stoke.co.uk","tier":"","message":"","currency":"","rating":6.8},{"name":"Duke William","address":"Newcastle St","lat":53.045091916910074,"lng":-2.199530858784558,"city_fetched":"Loggerheads,UK","state":"Stoke-on-Trent","country":"United Kingdom","canonicalUrl":"https://foursquare.com/v/duke-william/4bf4405f98ac0f4759c663a8","categoryId":"4bf58dd8d48988d116941735","category":"Bar","checkinsCount":235,"usersCount":57,"tipCount":3,"visitsCount":237,"tier":"","message":"","currency":"","rating":6.8},{"name":"The Weathervane | Hungry Horse","phone":"+441782388799","address":"Lysander Rd","lat":52.97134201515267,"lng":-2.0872609109384754,"city_fetched":"Loggerheads,UK","state":"Stoke-on-Trent","country":"United Kingdom","canonicalUrl":"https://foursquare.com/v/the-weathervane--hungry-horse/4ba87946f964a52067dc39e3","categoryId":"4bf58dd8d48988d11b941735","category":"Pub","checkinsCount":231,"usersCount":94,"tipCount":3,"visitsCount":237,"url":"http://www.hungryhorse.co.uk/pubs/weathervane-stoke-trent","tier":"","message":"","currency":"","rating":6.8},{"name":"Revolution","phone":"+441782214451","twitter":"revolutionbars","address":"Trinity Street","lat":53.02588366740303,"lng":-2.177588939666748,"city_fetched":"Loggerheads,UK","state":"Stoke-on-Trent","country":"United Kingdom","canonicalUrl":"https://foursquare.com/v/revolution/4b8c2a7af964a520bbc132e3","categoryId":"4bf58dd8d48988d11e941735","category":"Cocktail Bar","checkinsCount":222,"usersCount":131,"tipCount":8,"visitsCount":223,"url":"http://www.revolution-bars.co.uk","tier":"","message":"","currency":"","rating":6.7},{"name":"The Old Brown Jug","address":"41 Bridge St.","lat":53.012597,"lng":-2.230432,"city_fetched":"Loggerheads,UK","state":"Staffordshire","country":"United Kingdom","canonicalUrl":"https://foursquare.com/v/the-old-brown-jug/4b6350c8f964a520b1712ae3","categoryId":"4bf58dd8d48988d11b941735","category":"Pub","checkinsCount":225,"usersCount":130,"tipCount":7,"visitsCount":228,"tier":"","message":"","currency":"","rating":6.7},{"name":"Walkabout","phone":"+441782281543","twitter":"walkaboutalex","address":"38 Trinity St","lat":53.0256641,"lng":-2.1782889,"city_fetched":"Loggerheads,UK","state":"Stoke-on-Trent","country":"United Kingdom","canonicalUrl":"https://foursquare.com/walkaboutalex","categoryId":"4bf58dd8d48988d11d941735","category":"Sports Bar","checkinsCount":330,"usersCount":208,"tipCount":8,"visitsCount":346,"url":"http://walkaboutbars.com","tier":"","message":"","currency":"","rating":6.7},{"name":"Ten Green Bottles Co.","address":"46 Merrial Street","lat":53.01220134313769,"lng":-2.2281861305236816,"city_fetched":"Loggerheads,UK","state":"Staffordshire","country":"United Kingdom","canonicalUrl":"https://foursquare.com/v/ten-green-bottles-co/5633b80b498e1a42df0ec142","categoryId":"4bf58dd8d48988d116941735","category":"Bar","checkinsCount":39,"usersCount":30,"tipCount":1,"visitsCount":66,"tier":"","message":"","currency":"","rating":6.6},{"name":"Poste of Stone (Wetherspoon)","phone":"+441785827920","address":"1 Granville Sq.","lat":52.90338892469536,"lng":-2.1485137939453125,"city_fetched":"Loggerheads,UK","state":"Staffordshire","country":"United Kingdom","canonicalUrl":"https://foursquare.com/v/poste-of-stone-wetherspoon/4bd463659854d13a7475ff4d","categoryId":"4bf58dd8d48988d11b941735","category":"Pub","checkinsCount":1201,"usersCount":269,"tipCount":5,"visitsCount":1326,"url":"http://www.jdwetherspoon.co.uk","tier":"","message":"","currency":"","rating":6.6},{"name":"The Reginald Mitchell (Wetherspoon)","phone":"+441782281082","address":"The Tontine","lat":53.02540958010104,"lng":-2.1744440024579417,"city_fetched":"Loggerheads,UK","state":"Stoke-on-Trent","country":"United Kingdom","canonicalUrl":"https://foursquare.com/v/the-reginald-mitchell-wetherspoon/4ba4c4acf964a52018b338e3","categoryId":"4bf58dd8d48988d11b941735","category":"Pub","checkinsCount":1767,"usersCount":518,"tipCount":10,"visitsCount":1930,"url":"http://www.jdwetherspoon.co.uk","tier":"","message":"","currency":"","rating":6.6},{"name":"The White Star","phone":"+441782848732","twitter":"titanic_brewers","address":"63 Kingsway","lat":53.00391561773432,"lng":-2.1843301877117667,"city_fetched":"Loggerheads,UK","state":"Stoke-on-Trent","country":"United Kingdom","canonicalUrl":"https://foursquare.com/v/the-white-star/4bdc43c063c5c9b6bcf82a68","categoryId":"4bf58dd8d48988d11b941735","category":"Pub","checkinsCount":615,"usersCount":199,"tipCount":6,"visitsCount":669,"tier":"","message":"","currency":"","rating":6.4},{"name":"The Hippodrome (Wetherspoon)","phone":"+441630650820","address":"Queen St","lat":52.90625515892826,"lng":-2.485579472808901,"city_fetched":"Loggerheads,UK","state":"Shropshire","country":"United Kingdom","canonicalUrl":"https://foursquare.com/v/the-hippodrome-wetherspoon/4b694ea8f964a520619e2be3","categoryId":"4bf58dd8d48988d11b941735","category":"Pub","checkinsCount":425,"usersCount":92,"tipCount":3,"visitsCount":481,"url":"http://www.jdwetherspoon.co.uk","tier":"","message":"","currency":"","rating":6.4},{"name":"The Grazing Cow","phone":"+441952501562","address":"Gresham Drive","lat":52.67720154646206,"lng":-2.478749428257753,"neighborhood":"Lawley Village","city_fetched":"Loggerheads,UK","state":"Telford and Wrekin","country":"United Kingdom","canonicalUrl":"https://foursquare.com/v/the-grazing-cow/511022b8e4b00568407bb8b3","categoryId":"4bf58dd8d48988d11b941735","category":"Pub","checkinsCount":180,"usersCount":121,"tipCount":6,"visitsCount":254,"tier":"","message":"","currency":"","rating":6.4},{"name":"The Butler's Bell (Wetherspoon)","phone":"+441785785290","twitter":"jdwtweet","address":"27 Gaolgate St.","lat":52.808680647267906,"lng":-2.1180914480786814,"city_fetched":"Loggerheads,UK","state":"Staffordshire","country":"United Kingdom","canonicalUrl":"https://foursquare.com/v/the-butlers-bell-wetherspoon/4f15f8eee4b0297e5ac61794","categoryId":"4bf58dd8d48988d11b941735","category":"Pub","checkinsCount":542,"usersCount":234,"tipCount":4,"visitsCount":614,"url":"http://www.jdwetherspoon.co.uk","tier":1,"message":"Cheap","currency":"£","rating":6.3},{"name":"Granvilles","lat":52.903602255737475,"lng":-2.148691603757776,"city_fetched":"Loggerheads,UK","country":"United Kingdom","canonicalUrl":"https://foursquare.com/v/granvilles/4c1bf22cfcf8c9b66941a90b","categoryId":"4bf58dd8d48988d123941735","category":"Wine Bar","checkinsCount":181,"usersCount":54,"tipCount":2,"visitsCount":181,"tier":"","message":"","currency":"","rating":6.3},{"name":"The Farmhouse (Beefeater)","phone":"+441270251126","twitter":"beefeatergrill","address":"Coppenhall Ln","lat":53.095747,"lng":-2.485197,"city_fetched":"Loggerheads,UK","state":"Cheshire","country":"United Kingdom","canonicalUrl":"https://foursquare.com/v/the-farmhouse-beefeater/4c4daab2fa9d9521967b140a","categoryId":"4bf58dd8d48988d11b941735","category":"Pub","checkinsCount":160,"usersCount":113,"tipCount":6,"visitsCount":180,"url":"http://www.beefeater.co.uk","tier":"","message":"","currency":"","rating":6.3},{"name":"Reflex","phone":"+441782206170","address":"Brockley Square","lat":53.026101768413184,"lng":-2.1764872843377323,"city_fetched":"Loggerheads,UK","state":"Stoke-on-Trent","country":"United Kingdom","canonicalUrl":"https://foursquare.com/v/reflex/4bdf5f6be75c0f47d8f6ca03","categoryId":"4bf58dd8d48988d11f941735","category":"Nightclub","checkinsCount":197,"usersCount":92,"tipCount":4,"visitsCount":198,"tier":"","message":"","currency":"","rating":6.3},{"name":"The Star Inn","lat":52.900509,"lng":-2.146599,"city_fetched":"Loggerheads,UK","country":"United Kingdom","canonicalUrl":"https://foursquare.com/v/the-star-inn/4bd045f4046076b0fa9b6f71","categoryId":"4bf58dd8d48988d11b941735","category":"Pub","checkinsCount":164,"usersCount":103,"tipCount":12,"visitsCount":170,"tier":"","message":"","currency":"","rating":6.3},{"name":"Apley Arms","address":"Wellington","lat":52.717213,"lng":-2.524589,"city_fetched":"Loggerheads,UK","state":"Shropshire","country":"United Kingdom","canonicalUrl":"https://foursquare.com/v/apley-arms/4cd6cfe2a5b3468879b79550","categoryId":"4bf58dd8d48988d11b941735","category":"Pub","checkinsCount":204,"usersCount":129,"tipCount":8,"visitsCount":229,"tier":"","message":"","currency":"","rating":6.2},{"name":"The Arnold Machin (Wetherspoon)","phone":"+441782557840","address":"37 Ironmarket","lat":53.0123749769152,"lng":-2.2247817696996455,"city_fetched":"Loggerheads,UK","state":"Staffordshire","country":"United Kingdom","canonicalUrl":"https://foursquare.com/v/the-arnold-machin-wetherspoon/4bdeafd9ffdec928e73ee9a1","categoryId":"4bf58dd8d48988d11b941735","category":"Pub","checkinsCount":1861,"usersCount":385,"tipCount":9,"visitsCount":2053,"url":"http://www.jdwetherspoon.co.uk","tier":"","message":"","currency":"","rating":6.1},{"name":"The Victoria","address":"Brampton Rd","lat":53.023567012935764,"lng":-2.2178971767425537,"city_fetched":"Loggerheads,UK","state":"Staffordshire","country":"United Kingdom","canonicalUrl":"https://foursquare.com/v/the-victoria/4c0a4c2c009a0f479c19e9bf","categoryId":"4bf58dd8d48988d11b941735","category":"Pub","checkinsCount":197,"usersCount":62,"tipCount":3,"visitsCount":205,"tier":"","message":"","currency":"","rating":6.1},{"name":"The Shire Horse","address":"Hurricane Close","lat":52.832257279669925,"lng":-2.133450508117676,"city_fetched":"Loggerheads,UK","state":"Staffordshire","country":"United Kingdom","canonicalUrl":"https://foursquare.com/v/the-shire-horse/4bbdc4eaa0a0c9b68ff01b0f","categoryId":"4bf58dd8d48988d11b941735","category":"Pub","checkinsCount":306,"usersCount":229,"tipCount":8,"visitsCount":350,"tier":"","message":"","currency":"","rating":6},{"name":"The Beacon","phone":"+441952222417","address":"6-7 Market Sq","lat":52.701182,"lng":-2.518782,"city_fetched":"Loggerheads,UK","state":"Telford and Wrekin","country":"United Kingdom","canonicalUrl":"https://foursquare.com/v/the-beacon/4be55c14cf200f47d516133c","categoryId":"4bf58dd8d48988d11b941735","category":"Pub","checkinsCount":138,"usersCount":66,"tipCount":6,"visitsCount":139,"tier":"","message":"","currency":"","rating":5.9},{"name":"Beefeater","phone":"+441952201075","twitter":"beefeatergrill","address":"Euston Way","lat":52.68120343312317,"lng":-2.4396893302723,"city_fetched":"Loggerheads,UK","state":"Telford and Wrekin","country":"United Kingdom","canonicalUrl":"https://foursquare.com/v/beefeater/4dac968690a0773d6bfc6152","categoryId":"4bf58dd8d48988d11b941735","category":"Pub","checkinsCount":219,"usersCount":114,"tipCount":6,"visitsCount":223,"url":"http://www.beefeater.co.uk","tier":"","message":"","currency":"","rating":5.9},{"name":"Brocklebank (Brewers Fayre)","phone":"+441270212432","twitter":"brewersfayre","address":"Weston Rd","lat":53.089898770178806,"lng":-2.432820838697029,"city_fetched":"Loggerheads,UK","state":"Cheshire","country":"United Kingdom","canonicalUrl":"https://foursquare.com/v/brocklebank-brewers-fayre/4c4ef957960e76b0819823e7","categoryId":"4bf58dd8d48988d11b941735","category":"Pub","checkinsCount":466,"usersCount":87,"tipCount":2,"visitsCount":468,"url":"http://www.brewersfayre.co.uk/pub-restaurant/Cheshire/Brocklebank-Crewe.html","tier":"","message":"","currency":"","rating":5.9},{"name":"The Pepper Mill","address":"Phoenix Retail Park","lat":52.990925836736835,"lng":-2.1456086472307687,"neighborhood":"Fenton","city_fetched":"Loggerheads,UK","country":"United Kingdom","canonicalUrl":"https://foursquare.com/v/the-pepper-mill/4f96f51de4b0e750a20b2a9f","categoryId":"4bf58dd8d48988d11b941735","category":"Pub","checkinsCount":117,"usersCount":83,"tipCount":8,"visitsCount":148,"tier":"","message":"","currency":"","rating":5.9},{"name":"Liquid & Envy","phone":"+441782284333","address":"Brunswick St.","lat":53.02498025149043,"lng":-2.1777820587158203,"city_fetched":"Loggerheads,UK","state":"Stoke-on-Trent","country":"United Kingdom","canonicalUrl":"https://foursquare.com/v/liquid--envy/4b919e39f964a52048ca33e3","categoryId":"4bf58dd8d48988d11f941735","category":"Nightclub","checkinsCount":255,"usersCount":95,"tipCount":6,"visitsCount":255,"tier":"","message":"","currency":"","rating":5.9},{"name":"Horn And Trumpet","phone":"+441782274388","address":"Leek New Road","lat":53.04926503102764,"lng":-2.1599031237605177,"city_fetched":"Loggerheads,UK","state":"Stoke-on-Trent","country":"United Kingdom","canonicalUrl":"https://foursquare.com/v/horn-and-trumpet/4e30806a18383aa77b02a470","categoryId":"4bf58dd8d48988d11b941735","category":"Pub","checkinsCount":141,"usersCount":67,"tipCount":5,"visitsCount":146,"tier":"","message":"","currency":"","rating":5.9},{"name":"The Gaffers Row  (Wetherspoon)","phone":"+441270503820","address":"48 Victoria St.","lat":53.09870120466023,"lng":-2.4441146850585938,"city_fetched":"Loggerheads,UK","state":"Cheshire","country":"United Kingdom","canonicalUrl":"https://foursquare.com/v/the-gaffers-row--wetherspoon/4c87aac3821e9eb0bacc8d89","categoryId":"4bf58dd8d48988d11b941735","category":"Pub","checkinsCount":1579,"usersCount":167,"tipCount":6,"visitsCount":1740,"url":"http://www.jdwetherspoon.co.uk","tier":"","message":"","currency":"","rating":5.7},{"name":"The Plough","phone":"+441270882085","address":"Crewe Road","lat":53.09132812920743,"lng":-2.325530810067903,"city_fetched":"Loggerheads,UK","state":"Cheshire","country":"United Kingdom","canonicalUrl":"https://foursquare.com/v/the-plough/4bb7638a2f70c9b60a958630","categoryId":"4bf58dd8d48988d11b941735","category":"Pub","checkinsCount":174,"usersCount":93,"tipCount":6,"visitsCount":199,"tier":"","message":"","currency":"","rating":5.7},{"name":"Boot & Shoe","lat":53.06581703,"lng":-2.518422,"city_fetched":"Loggerheads,UK","state":"Cheshire","country":"United Kingdom","canonicalUrl":"https://foursquare.com/v/boot--shoe/4c838420d4e23704db627188","categoryId":"4bf58dd8d48988d11b941735","category":"Pub","checkinsCount":196,"usersCount":95,"tipCount":8,"visitsCount":200,"tier":"","message":"","currency":"","rating":5.7},{"name":"Man In Space","address":"New in lane","lat":52.970491,"lng":-2.19075578,"city_fetched":"Loggerheads,UK","state":"Stoke-on-Trent","country":"United Kingdom","canonicalUrl":"https://foursquare.com/v/man-in-space/4c52fc3b048b1b8d58d64b31","categoryId":"4bf58dd8d48988d11b941735","category":"Pub","checkinsCount":187,"usersCount":66,"tipCount":5,"visitsCount":194,"tier":"","message":"","currency":"","rating":5.7},{"name":"Couture & Noir-et-Blanc","phone":"+441785244755","twitter":"couturestafford","address":"139 Newport Road","lat":52.803677916526794,"lng":-2.116791,"city_fetched":"Loggerheads,UK","state":"Staffordshire","country":"United Kingdom","canonicalUrl":"https://foursquare.com/v/couture--noiretblanc/4b7c7374f964a52035942fe3","categoryId":"4bf58dd8d48988d11f941735","category":"Nightclub","checkinsCount":267,"usersCount":130,"tipCount":4,"visitsCount":269,"tier":"","message":"","currency":"","rating":5.6},{"name":"The Euston Way","address":"Euston Way","lat":52.68111751341264,"lng":-2.4396514892578125,"city_fetched":"Loggerheads,UK","state":"Shropshire","country":"United Kingdom","canonicalUrl":"https://foursquare.com/v/the-euston-way/4b45b6d6f964a520800f26e3","categoryId":"4bf58dd8d48988d11b941735","category":"Pub","checkinsCount":278,"usersCount":125,"tipCount":5,"visitsCount":293,"tier":"","message":"","currency":"","rating":5.5},{"name":"The Picture House (Wetherspoon)","phone":"+441785222941","address":"Bridge St.","lat":52.80433105545297,"lng":-2.1159732341766357,"city_fetched":"Loggerheads,UK","state":"Staffordshire","country":"United Kingdom","canonicalUrl":"https://foursquare.com/v/the-picture-house-wetherspoon/4b60bf6af964a52022f729e3","categoryId":"4bf58dd8d48988d11b941735","category":"Pub","checkinsCount":1611,"usersCount":490,"tipCount":13,"visitsCount":1782,"url":"http://www.jdwetherspoon.co.uk","tier":2,"message":"Moderate","currency":"£","rating":5.5},{"name":"Brewers Fayre","phone":"+448708500689","address":"1 Spitfire Close","lat":52.83178410332131,"lng":-2.1361541748046875,"city_fetched":"Loggerheads,UK","state":"Staffordshire","country":"United Kingdom","canonicalUrl":"https://foursquare.com/v/brewers-fayre/4bb5e2dbf562ef3b82562f97","categoryId":"4bf58dd8d48988d11b941735","category":"Pub","checkinsCount":177,"usersCount":113,"tipCount":5,"visitsCount":193,"tier":"","message":"","currency":"","rating":5.5},{"name":"Nakatcha","phone":"+441270629070","address":"20-24 Welsh Row","lat":53.067716,"lng":-2.525396,"city_fetched":"Loggerheads,UK","state":"Cheshire","country":"United Kingdom","canonicalUrl":"https://foursquare.com/v/nakatcha/4b6ca927f964a5202f4a2ce3","categoryId":"4bf58dd8d48988d116941735","category":"Bar","checkinsCount":104,"usersCount":65,"tipCount":5,"visitsCount":107,"tier":"","message":"","currency":"","rating":5.4},{"name":"The Bridge Builder (Fayre & Square)","phone":"+441952897517","address":"Wrekin Business Park","lat":52.69313991685968,"lng":-2.491609658924241,"city_fetched":"Loggerheads,UK","state":"Shropshire","country":"United Kingdom","canonicalUrl":"https://foursquare.com/v/the-bridge-builder-fayre--square/4c4c32e7bad7a593b4d8e7ac","categoryId":"4bf58dd8d48988d11b941735","category":"Pub","checkinsCount":161,"usersCount":98,"tipCount":5,"visitsCount":161,"tier":"","message":"","currency":"","rating":5.3},{"name":"Bank Corner","phone":"+441270876403","twitter":"thebankcorner","address":"12b Lawton Rd.","lat":53.096218,"lng":-2.3038789,"city_fetched":"Loggerheads,UK","state":"Stoke-on-Trent","country":"United Kingdom","canonicalUrl":"https://foursquare.com/v/bank-corner/4bd9e4e03904a5935a1d449e","categoryId":"4bf58dd8d48988d11b941735","category":"Pub","checkinsCount":257,"usersCount":78,"tipCount":2,"visitsCount":278,"tier":"","message":"","currency":"","rating":5.3},{"name":"Cronkinsons Farm","address":"Pear Tree Field","lat":53.05986373628716,"lng":-2.5049878044788874,"city_fetched":"Loggerheads,UK","state":"Cheshire","country":"United Kingdom","canonicalUrl":"https://foursquare.com/v/cronkinsons-farm/4c23b756c11dc9b6d94b2424","categoryId":"4bf58dd8d48988d11b941735","category":"Pub","checkinsCount":132,"usersCount":82,"tipCount":4,"visitsCount":171,"tier":"","message":"","currency":"","rating":5.3},{"name":"Missoula","phone":"+441782711998","twitter":"missoulanul1","address":"85 High St.","lat":53.01005561492587,"lng":-2.2252640157879715,"city_fetched":"Loggerheads,UK","state":"Staffordshire","country":"United Kingdom","canonicalUrl":"https://foursquare.com/v/missoula/4b887469f964a5201af931e3","categoryId":"4bf58dd8d48988d11e941735","category":"Cocktail Bar","checkinsCount":816,"usersCount":169,"tipCount":6,"visitsCount":820,"url":"http://www.missoulabars.co.uk/missoulanewcastleunderlyme/","tier":"","message":"","currency":"","rating":5.3}]