[{"name":"Duke of Wellington","phone":"+441954261622","address":"55 Church St","lat":52.31437914406941,"lng":0.0630322606245814,"city_fetched":"Longstanton,UK","state":"Cambridgeshire","country":"United Kingdom","canonicalUrl":"https://foursquare.com/v/duke-of-wellington/4b6bec69f964a520b11c2ce3","categoryId":"4bf58dd8d48988d11b941735","category":"Pub","checkinsCount":422,"usersCount":54,"tipCount":7,"visitsCount":465,"tier":"","message":"","currency":"","rating":8},{"name":"The Bank","twitter":"thebankmicropub","address":"High St","lat":52.312917,"lng":0.056834,"city_fetched":"Longstanton,UK","state":"Cambridgeshire","country":"United Kingdom","canonicalUrl":"https://foursquare.com/v/the-bank/50bfc8b2e4b0a80fdb8b7999","categoryId":"4bf58dd8d48988d11b941735","category":"Pub","checkinsCount":98,"usersCount":35,"tipCount":5,"visitsCount":175,"tier":"","message":"","currency":"","rating":7.5},{"name":"The Black Bull - Longstanton","phone":"+441954789589","address":"56 High Street","lat":52.28281056949082,"lng":0.04455174558089984,"city_fetched":"Longstanton,UK","state":"Cambridgeshire","country":"United Kingdom","canonicalUrl":"https://foursquare.com/v/the-black-bull--longstanton/4f8f06a8e4b0036b6fa6604a","categoryId":"4bf58dd8d48988d11b941735","category":"Pub","checkinsCount":73,"usersCount":22,"tipCount":2,"visitsCount":92,"tier":"","message":"","currency":"","rating":6.2},{"name":"The Fox","lat":52.255214,"lng":0.02043,"city_fetched":"Longstanton,UK","country":"United Kingdom","canonicalUrl":"https://foursquare.com/v/the-fox/4c1a7b60b306c928d8ad60b7","categoryId":"4bf58dd8d48988d116941735","category":"Bar","checkinsCount":154,"usersCount":93,"tipCount":6,"visitsCount":163,"tier":"","message":"","currency":"","rating":6}]