[{"name":"The Organ Grinder","address":"4 Woodgate","lat":52.77036590207713,"lng":-1.2046174902424303,"city_fetched":"Loughborough","state":"Leicestershire","country":"United Kingdom","canonicalUrl":"https://foursquare.com/v/the-organ-grinder/50426c55e4b09c6ce4e5926a","category":"Pub","checkinsCount":318,"usersCount":86,"tipCount":8,"visitsCount":345,"tier":"","message":"","currency":"","rating":8.2},{"name":"The Swan In The Rushes","phone":"+441509217014","twitter":"swanrushes","address":"21 The Rushes","lat":52.773761,"lng":-1.209945,"city_fetched":"Loughborough","state":"Leicestershire","country":"United Kingdom","canonicalUrl":"https://foursquare.com/v/the-swan-in-the-rushes/4bbc88f5afe1b713267a304b","category":"Pub","checkinsCount":330,"usersCount":100,"tipCount":7,"visitsCount":330,"url":"http://www.castlerockbrewery.co.uk","tier":"","message":"","currency":"","rating":7.7},{"name":"The Moon & Bell (Wetherspoon)","phone":"+441509241504","address":"6 Wards End","lat":52.76925305252323,"lng":-1.2077767626290234,"city_fetched":"Loughborough","state":"Leicestershire","country":"United Kingdom","canonicalUrl":"https://foursquare.com/v/the-moon--bell-wetherspoon/4b52f606f964a5206d8b27e3","category":"Pub","checkinsCount":1088,"usersCount":410,"tipCount":8,"visitsCount":1389,"url":"http://www.jdwetherspoon.co.uk","tier":"","message":"","currency":"","rating":7.6},{"name":"The Paget Arms","phone":"+441509266216","address":"41 Oxford St","lat":52.77453937402593,"lng":-1.2167851374501386,"city_fetched":"Loughborough","state":"Leicestershire","country":"United Kingdom","canonicalUrl":"https://foursquare.com/v/the-paget-arms/4deccbc418386283a41fca77","category":"Pub","checkinsCount":160,"usersCount":95,"tipCount":3,"visitsCount":211,"url":"http://www.steamin-billy.co.uk","tier":"","message":"","currency":"","rating":7.4},{"name":"Orange Tree","phone":"+441509238852","address":"Bedford Square","lat":52.76885764068364,"lng":-1.2081044912338257,"city_fetched":"Loughborough","state":"Leicestershire","country":"United Kingdom","canonicalUrl":"https://foursquare.com/v/orange-tree/4b50c002f964a520c53027e3","category":"Bar","checkinsCount":779,"usersCount":372,"tipCount":12,"visitsCount":952,"tier":"","message":"","currency":"","rating":7.3},{"name":"Revolution","phone":"+441509808010","twitter":"revolutionbars","address":"13-14 Baxter Gate","lat":52.772589971759054,"lng":-1.2043547630310059,"city_fetched":"Loughborough","state":"Leicestershire","country":"United Kingdom","canonicalUrl":"https://foursquare.com/v/revolution/4b87c249f964a52094ca31e3","category":"Wine Bar","checkinsCount":608,"usersCount":315,"tipCount":10,"visitsCount":770,"tier":"","message":"","currency":"","rating":7.1},{"name":"The Griffin Inn","address":"Ashby Square","lat":52.77204254143668,"lng":-1.2101743187325742,"city_fetched":"Loughborough","state":"Leicestershire","country":"United Kingdom","canonicalUrl":"https://foursquare.com/v/the-griffin-inn/4b6b3119f964a520abf82be3","category":"Pub","checkinsCount":377,"usersCount":218,"tipCount":6,"visitsCount":415,"tier":"","message":"","currency":"","rating":6.9},{"name":"Goodliffe's","phone":"+441509234300","address":"52 Church St","lat":52.7730199810378,"lng":-1.2055316563754068,"city_fetched":"Loughborough","state":"Leicestershire","country":"United Kingdom","canonicalUrl":"https://foursquare.com/v/goodliffes/4e345c9445dd1c42bf133893","category":"Bar","checkinsCount":125,"usersCount":102,"tipCount":0,"visitsCount":143,"url":"http://www.goodliffes.co.uk","tier":"","message":"","currency":"","rating":6.7},{"name":"The Phantom","phone":"+441509234194","twitter":"thephantompub","address":"2  Leicester Rd","lat":52.770618415453185,"lng":-1.203914924677226,"city_fetched":"Loughborough","state":"Leicestershire","country":"United Kingdom","canonicalUrl":"https://foursquare.com/v/the-phantom/4b9b9ad5f964a520f81236e3","category":"Pub","checkinsCount":433,"usersCount":170,"tipCount":8,"visitsCount":488,"url":"http://www.phantomloughborough.co.uk","tier":"","message":"","currency":"","rating":6.4},{"name":"Unicorn","lat":52.77263956,"lng":-1.206597,"city_fetched":"Loughborough","state":"Leicestershire","country":"United Kingdom","canonicalUrl":"https://foursquare.com/v/unicorn/4b9bf341f964a520973936e3","category":"Pub","checkinsCount":111,"usersCount":78,"tipCount":4,"visitsCount":123,"tier":"","message":"","currency":"","rating":6.3},{"name":"The Amber Rooms (Wetherspoon)","phone":"+441509638570","address":"15 The Rushes","lat":52.7735954649333,"lng":-1.2094985270475702,"city_fetched":"Loughborough","state":"Leicestershire","country":"United Kingdom","canonicalUrl":"https://foursquare.com/v/the-amber-rooms-wetherspoon/4c87ab6c821e9eb05bcd8d89","category":"Pub","checkinsCount":1003,"usersCount":341,"tipCount":3,"visitsCount":1081,"url":"http://www.jdwetherspoon.co.uk","tier":"","message":"","currency":"","rating":5.9},{"name":"Echo's","phone":"+441509213887","address":"5 Biggin St","lat":52.77267417246635,"lng":-1.206953714525445,"city_fetched":"Loughborough","state":"Leicestershire","country":"United Kingdom","canonicalUrl":"https://foursquare.com/v/echos/4bf875e1b182c9b65c93775a","category":"Nightclub","checkinsCount":282,"usersCount":93,"tipCount":7,"visitsCount":283,"tier":"","message":"","currency":"","rating":5.6},{"name":"Varsity","phone":"+441509240080","address":"22-23 Market St","lat":52.77178678124917,"lng":-1.2094451831700708,"city_fetched":"Loughborough","state":"Leicestershire","country":"United Kingdom","canonicalUrl":"https://foursquare.com/v/varsity/4bb39a4e35f0c9b69c9ebc83","category":"Bar","checkinsCount":366,"usersCount":171,"tipCount":4,"visitsCount":367,"tier":"","message":"","currency":"","rating":5.1}]