[{"name":"The Triangle Tavern","phone":"+441502582711","address":"29 St. Peters St.","lat":52.48058219328018,"lng":1.7549833961099324,"city_fetched":"Lowestoft","state":"Suffolk","country":"United Kingdom","canonicalUrl":"https://foursquare.com/v/the-triangle-tavern/4d1bb2961356224b974809be","category":"Pub","checkinsCount":125,"usersCount":53,"tipCount":4,"visitsCount":131,"tier":"","message":"","currency":"","rating":7.8},{"name":"The Joseph Conrad (Wetherspoons)","phone":"+441502533270","twitter":"thejctweet","address":"18-32 Station Square","lat":52.47441964158811,"lng":1.7506172665727333,"city_fetched":"Lowestoft","state":"Suffolk","country":"United Kingdom","canonicalUrl":"https://foursquare.com/v/the-joseph-conrad-wetherspoons/51e6aa76498e05a09138fac6","category":"Pub","checkinsCount":315,"usersCount":140,"tipCount":5,"visitsCount":387,"url":"http://www.jdwetherspoon.co.uk/home/pubs/the-joseph-conrad#","tier":1,"message":"Cheap","currency":"Â£","rating":7.2},{"name":"Wherry Hotel","phone":"+441502516845","address":"Bridge Rd.","lat":52.47525671704882,"lng":1.7108011352891657,"neighborhood":"Oulton Broad","city_fetched":"Lowestoft","state":"Suffolk","country":"United Kingdom","canonicalUrl":"https://foursquare.com/v/wherry-hotel/4bd5a68f9649ce72ce76511d","category":"Hotel","checkinsCount":144,"usersCount":88,"tipCount":3,"visitsCount":147,"tier":"","message":"","currency":"","rating":6.1},{"name":"The Harbour Inn","address":"1 Royal Thoroughfare","lat":52.472258827507595,"lng":1.7495196609228159,"city_fetched":"Lowestoft","state":"Suffolk","country":"United Kingdom","canonicalUrl":"https://foursquare.com/v/the-harbour-inn/4c823ee447cc224baf94839f","category":"Pub","checkinsCount":319,"usersCount":76,"tipCount":4,"visitsCount":319,"tier":"","message":"","currency":"","rating":5.7}]