[{"name":"Frog & Rhubarb","address":"Church Road","lat":51.85527891378104,"lng":-0.43244129836352496,"city_fetched":"Luton","country":"United Kingdom","canonicalUrl":"https://foursquare.com/v/frog--rhubarb/4b7e8b7ff964a520fff12fe3","category":"Pub","checkinsCount":164,"usersCount":93,"tipCount":6,"visitsCount":198,"tier":"","message":"","currency":"","rating":7.5},{"name":"Grosvenor G Casino Luton","phone":"+441582813780","twitter":"gcluton","address":"35 Park Street West","lat":51.87638499384355,"lng":-0.4131460189819336,"city_fetched":"Luton","country":"United Kingdom","canonicalUrl":"https://foursquare.com/v/grosvenor-g-casino-luton/4bd2137a462cb713298cdb07","category":"Casino","checkinsCount":301,"usersCount":174,"tipCount":5,"visitsCount":335,"url":"https://www.grosvenorcasinos.com","tier":"","message":"","currency":"","rating":7.1},{"name":"The Warden (Beefeater)","phone":"+441582591277","twitter":"beefeater","address":"129 Barton Rd","lat":51.91804150114781,"lng":-0.4276412329168626,"city_fetched":"Luton","state":"Luton","country":"United Kingdom","canonicalUrl":"https://foursquare.com/v/the-warden-beefeater/4c2a0b92ed0ac9b6a9ad62aa","category":"Pub","checkinsCount":398,"usersCount":195,"tipCount":7,"visitsCount":632,"url":"http://www.beefeater.co.uk/steak-restaurant/Bedfordshire/Warden.html","tier":"","message":"","currency":"","rating":6.9},{"name":"Castle Pub","lat":51.877877,"lng":-0.414647,"city_fetched":"Luton","state":"Luton","country":"United Kingdom","canonicalUrl":"https://foursquare.com/v/castle-pub/4bd07f3b77b29c7436d78a82","category":"Bar","checkinsCount":375,"usersCount":90,"tipCount":3,"visitsCount":395,"tier":"","message":"","currency":"","rating":6.8},{"name":"The Old Moat House","phone":"+441582597474","address":"Moat Lane","lat":51.90436880885016,"lng":-0.4343150873125563,"city_fetched":"Luton","state":"Luton","country":"United Kingdom","canonicalUrl":"https://foursquare.com/v/the-old-moat-house/4c948b5b209fef3b95ac8b91","category":"Pub","checkinsCount":90,"usersCount":81,"tipCount":6,"visitsCount":128,"tier":"","message":"","currency":"","rating":6.6},{"name":"Halfway House Table Table","phone":"+448701977083","address":"350 Luton Road","lat":51.891456872417834,"lng":-0.4858267085998642,"city_fetched":"Luton","state":"Central Bedfordshire","country":"United Kingdom","canonicalUrl":"https://foursquare.com/v/halfway-house-table-table/4c7ce9f409b29c749176e53c","category":"Brewery","checkinsCount":231,"usersCount":132,"tipCount":3,"visitsCount":270,"tier":"","message":"","currency":"","rating":6.4},{"name":"Horse and Jockey","phone":"+448701977082","address":"Watling Street","lat":51.85738462219755,"lng":-0.48035144805908203,"city_fetched":"Luton","state":"Central Bedfordshire","country":"United Kingdom","canonicalUrl":"https://foursquare.com/v/horse-and-jockey/4c3df8b71ef0d13ad4a49180","category":"Pub","checkinsCount":189,"usersCount":133,"tipCount":4,"visitsCount":250,"tier":"","message":"","currency":"","rating":6.2},{"name":"The Brache (Beefeater)","phone":"+441582420208","twitter":"beefeater","address":"Osborne Rd","lat":51.87346,"lng":-0.40210875,"city_fetched":"Luton","state":"Luton","country":"United Kingdom","canonicalUrl":"https://foursquare.com/v/the-brache-beefeater/4c01510bf7ab0f476edf15b6","category":"Pub","checkinsCount":717,"usersCount":422,"tipCount":13,"visitsCount":914,"url":"http://www.beefeater.co.uk/steak-restaurant/Bedfordshire/Brache.html","tier":"","message":"","currency":"","rating":6},{"name":"George II","phone":"+441582728916","address":"Bute Street","lat":51.88133918045158,"lng":-0.41409524530153846,"city_fetched":"Luton","state":"Luton","country":"United Kingdom","canonicalUrl":"https://foursquare.com/v/george-ii/4cb35e9eeb65b1f72a3c83cd","category":"Pub","checkinsCount":190,"usersCount":66,"tipCount":1,"visitsCount":200,"tier":"","message":"","currency":"","rating":5.8},{"name":"Liquid & Envy, Luton","phone":"+441582727131","address":"20-44 Gordon Street","lat":51.88000231170731,"lng":-0.4188857071761674,"city_fetched":"Luton","country":"United Kingdom","canonicalUrl":"https://foursquare.com/v/liquid--envy-luton/4c6bf1f87c052d7f17932acf","category":"Nightclub","checkinsCount":259,"usersCount":108,"tipCount":3,"visitsCount":259,"tier":"","message":"","currency":"","rating":5.8},{"name":"Flame Bar & Nightclub","address":"Wellington St","lat":51.87827125265336,"lng":-0.41899764857433497,"city_fetched":"Luton","state":"Luton","country":"United Kingdom","canonicalUrl":"https://foursquare.com/v/flame-bar--nightclub/4c7ad87e794e224be4ec6928","category":"Gay Bar","checkinsCount":105,"usersCount":58,"tipCount":3,"visitsCount":111,"tier":"","message":"","currency":"","rating":5.7},{"name":"The White House (Wetherspoon)","phone":"+441582454608","address":"1 Bridge St","lat":51.88117797252602,"lng":-0.41747824177892917,"city_fetched":"Luton","state":"Luton","country":"United Kingdom","canonicalUrl":"https://foursquare.com/v/the-white-house-wetherspoon/4b7744b5f964a520588d2ee3","category":"Pub","checkinsCount":1080,"usersCount":406,"tipCount":8,"visitsCount":1112,"url":"http://www.jdwetherspoon.co.uk","tier":"","message":"","currency":"","rating":5.5},{"name":"Yates's","lat":51.878321020068014,"lng":-0.4137306374868544,"city_fetched":"Luton","state":"Luton","country":"United Kingdom","canonicalUrl":"https://foursquare.com/v/yatess/4c38e234dfb0e21e5b79afa8","category":"Bar","checkinsCount":194,"usersCount":91,"tipCount":6,"visitsCount":209,"tier":"","message":"","currency":"","rating":5.2},{"name":"Est Bar","address":"Departure Lounge","lat":51.88048308591637,"lng":-0.37523358416592906,"city_fetched":"Luton","country":"United Kingdom","canonicalUrl":"https://foursquare.com/v/est-bar/4bf6a6f9bfeac92856b29436","category":"Bar","checkinsCount":737,"usersCount":565,"tipCount":22,"visitsCount":739,"tier":"","message":"","currency":"","rating":4.7}]