[{"name":"The Angel And Blue Pig","phone":"+441590672050","address":"High Street","lat":50.758776958470825,"lng":-1.5407485255633329,"city_fetched":"Lymington","state":"Hampshire","country":"United Kingdom","canonicalUrl":"https://foursquare.com/v/the-angel-and-blue-pig/5166b44be4b02ed23251eba9","category":"Pub","checkinsCount":104,"usersCount":79,"tipCount":6,"visitsCount":110,"tier":"","message":"","currency":"","rating":7.4},{"name":"The Ship","phone":"+441590676903","address":"The Quay","lat":50.759144,"lng":-1.5365570783615112,"city_fetched":"Lymington","state":"Hampshire","country":"United Kingdom","canonicalUrl":"https://foursquare.com/v/the-ship/4bc0affcf8219c747df6b110","category":"Pub","checkinsCount":547,"usersCount":434,"tipCount":11,"visitsCount":582,"tier":"","message":"","currency":"","rating":7},{"name":"Kings Head Inn","lat":50.759141,"lng":-1.538243,"city_fetched":"Lymington","state":"Hampshire","country":"United Kingdom","canonicalUrl":"https://foursquare.com/v/kings-head-inn/4c2360ce13c00f4707e688de","category":"Pub","checkinsCount":217,"usersCount":167,"tipCount":9,"visitsCount":238,"tier":"","message":"","currency":"","rating":6.9},{"name":"The Six Bells (Wetherspoon)","phone":"+441590689990","twitter":"jdwtweet","address":"47-48 St Thomas St.","lat":50.757489,"lng":-1.545357,"city_fetched":"Lymington","state":"Hampshire","country":"United Kingdom","canonicalUrl":"https://foursquare.com/v/the-six-bells-wetherspoon/51235be1e4b02b2abeca89dd","category":"Pub","checkinsCount":132,"usersCount":95,"tipCount":3,"visitsCount":148,"url":"http://www.jdwetherspoon.co.uk","tier":"","message":"","currency":"","rating":6.4}]