[{"name":"The New Forest Inn","address":"Pikes Hill","lat":50.87431368201279,"lng":-1.5951069727878686,"city_fetched":"Lyndhurst,UK","state":"Hampshire","country":"United Kingdom","canonicalUrl":"https://foursquare.com/v/the-new-forest-inn/4c03a19f0d0e0f471acb029a","categoryId":"4bf58dd8d48988d11b941735","category":"Pub","checkinsCount":221,"usersCount":130,"tipCount":4,"visitsCount":258,"tier":"","message":"","currency":"","rating":7.5},{"name":"Waterloo Arms","phone":"+442380282113","address":"Pikes Hill","lat":50.877539460212084,"lng":-1.5790550624773452,"city_fetched":"Lyndhurst,UK","state":"Hampshire","country":"United Kingdom","canonicalUrl":"https://foursquare.com/v/waterloo-arms/4b6d5ce4f964a520f0722ce3","categoryId":"4bf58dd8d48988d11b941735","category":"Pub","checkinsCount":201,"usersCount":92,"tipCount":2,"visitsCount":227,"tier":"","message":"","currency":"","rating":7},{"name":"The Swan Inn","phone":"+442380282203","address":"Swan Green","lat":50.872085094451904,"lng":-1.587777,"city_fetched":"Lyndhurst,UK","state":"Hampshire","country":"United Kingdom","canonicalUrl":"https://foursquare.com/v/the-swan-inn/4c3f2aa20596c928bd438578","categoryId":"4bf58dd8d48988d11b941735","category":"Pub","checkinsCount":121,"usersCount":114,"tipCount":4,"visitsCount":144,"tier":"","message":"","currency":"","rating":6.4}]