[{"name":"Hotel Du Vin","phone":"+448447489265","address":"Thames St.","lat":50.712756113319585,"lng":-1.9898138868273925,"city_fetched":"Lytchett Matravers,UK","state":"Dorset","country":"United Kingdom","canonicalUrl":"https://foursquare.com/v/hotel-du-vin/4baf8698f964a52049073ce3","categoryId":"4bf58dd8d48988d1d5941735","category":"Hotel Bar","checkinsCount":372,"usersCount":225,"tipCount":9,"visitsCount":442,"url":"https://www.hotelduvin.com","tier":"","message":"","currency":"","rating":8.5},{"name":"Bermuda Triangle","phone":"+441202748087","address":"10 Parr St","lat":50.723909,"lng":-1.953273,"city_fetched":"Lytchett Matravers,UK","state":"Dorset","country":"United Kingdom","canonicalUrl":"https://foursquare.com/v/bermuda-triangle/4bb25195715eef3be41185bb","categoryId":"4bf58dd8d48988d11b941735","category":"Pub","checkinsCount":199,"usersCount":102,"tipCount":7,"visitsCount":201,"tier":"","message":"","currency":"","rating":8},{"name":"The Blue Boar","address":"29 Market Close","lat":50.715318,"lng":-1.986682,"city_fetched":"Lytchett Matravers,UK","state":"Dorset","country":"United Kingdom","canonicalUrl":"https://foursquare.com/v/the-blue-boar/4b87c78df964a520a4cb31e3","categoryId":"4bf58dd8d48988d11b941735","category":"Pub","checkinsCount":181,"usersCount":86,"tipCount":8,"visitsCount":182,"tier":"","message":"","currency":"","rating":7.7},{"name":"The Bakers Arms","phone":"+441202622900","address":"Dorchester Road, Lytchett Minster","lat":50.73340357018023,"lng":-2.0652841312578687,"city_fetched":"Lytchett Matravers,UK","state":"Dorset","country":"United Kingdom","canonicalUrl":"https://foursquare.com/v/the-bakers-arms/4b961eeaf964a52069bd34e3","categoryId":"4bf58dd8d48988d11b941735","category":"Pub","checkinsCount":269,"usersCount":113,"tipCount":7,"visitsCount":269,"tier":"","message":"","currency":"","rating":7.5},{"name":"The Cliff","phone":"+441202492921","address":"Ravine Road","lat":50.703363,"lng":-1.919664,"city_fetched":"Lytchett Matravers,UK","state":"Dorset","country":"United Kingdom","canonicalUrl":"https://foursquare.com/v/the-cliff/4d6d6b4b423d5481a1f8edb1","categoryId":"4bf58dd8d48988d11b941735","category":"Pub","checkinsCount":207,"usersCount":171,"tipCount":5,"visitsCount":257,"url":"http://www.thecliff-sandbanks.co.uk","tier":"","message":"","currency":"","rating":7.4},{"name":"The Slug and Lettuce","phone":"+441202670520","address":"48 High St","lat":50.713491993787045,"lng":-1.9870126247406006,"city_fetched":"Lytchett Matravers,UK","state":"Dorset","country":"United Kingdom","canonicalUrl":"https://foursquare.com/v/the-slug-and-lettuce/4c2b309c2219c9288322a448","categoryId":"4bf58dd8d48988d11b941735","category":"Pub","checkinsCount":399,"usersCount":221,"tipCount":12,"visitsCount":407,"url":"http://www.slugandlettuce.co.uk/slug-poole/","tier":"","message":"","currency":"","rating":7.3},{"name":"The Old Thatch","phone":"+441202877192","address":"285 Wimborne Road","lat":50.80483052,"lng":-1.92525,"city_fetched":"Lytchett Matravers,UK","state":"Dorset","country":"United Kingdom","canonicalUrl":"https://foursquare.com/v/the-old-thatch/4bf7cd718d30d13a4f86ff17","categoryId":"4bf58dd8d48988d11b941735","category":"Pub","checkinsCount":83,"usersCount":61,"tipCount":3,"visitsCount":91,"tier":"","message":"","currency":"","rating":7.3},{"name":"Patricks","lat":50.72458566541138,"lng":-1.9503814342593466,"city_fetched":"Lytchett Matravers,UK","country":"United Kingdom","canonicalUrl":"https://foursquare.com/v/patricks/4d02aad40e49721e4728667f","categoryId":"4bf58dd8d48988d116941735","category":"Bar","checkinsCount":491,"usersCount":93,"tipCount":5,"visitsCount":509,"tier":"","message":"","currency":"","rating":7.1},{"name":"The Portsmouth Hoy","lat":50.71222580039128,"lng":-1.9872529238119263,"city_fetched":"Lytchett Matravers,UK","state":"Dorset","country":"United Kingdom","canonicalUrl":"https://foursquare.com/v/the-portsmouth-hoy/4c4202bbd7fad13ada7108da","categoryId":"4bf58dd8d48988d11b941735","category":"Pub","checkinsCount":125,"usersCount":94,"tipCount":4,"visitsCount":125,"tier":"","message":"","currency":"","rating":7.1},{"name":"Lambs Green Inn","lat":50.787789,"lng":-2.00707,"city_fetched":"Lytchett Matravers,UK","country":"United Kingdom","canonicalUrl":"https://foursquare.com/v/lambs-green-inn/4b9bcfaff964a5200b2836e3","categoryId":"4bf58dd8d48988d11b941735","category":"Pub","checkinsCount":133,"usersCount":87,"tipCount":2,"visitsCount":168,"tier":"","message":"","currency":"","rating":7.1},{"name":"The Antelope Inn","phone":"+441202672029","address":"8 high Street","lat":50.713009,"lng":-1.988236,"city_fetched":"Lytchett Matravers,UK","state":"Dorset","country":"United Kingdom","canonicalUrl":"https://foursquare.com/v/the-antelope-inn/4babc0cff964a52081c63ae3","categoryId":"4bf58dd8d48988d11b941735","category":"Pub","checkinsCount":166,"usersCount":112,"tipCount":5,"visitsCount":166,"tier":"","message":"","currency":"","rating":7},{"name":"The Lord Nelson","phone":"+441202776226","twitter":"lordnelsonpoole","address":"The Quay","lat":50.712197,"lng":-1.985778,"city_fetched":"Lytchett Matravers,UK","state":"Dorset","country":"United Kingdom","canonicalUrl":"https://foursquare.com/v/the-lord-nelson/4c2f836466e40f47640ac28b","categoryId":"4bf58dd8d48988d11b941735","category":"Pub","checkinsCount":294,"usersCount":152,"tipCount":5,"visitsCount":295,"url":"http://www.thelordnelsonpoole.co.uk","tier":"","message":"","currency":"","rating":6.9},{"name":"Camden Bar and Kitchen","phone":"+441202383879","twitter":"camden_ashleyx","address":"6 Bournemouth Road","lat":50.72465067824002,"lng":-1.9501132497608225,"city_fetched":"Lytchett Matravers,UK","state":"Dorset","country":"United Kingdom","canonicalUrl":"https://foursquare.com/v/camden-bar-and-kitchen/4da34e8b00a92d430e3cb27d","categoryId":"4bf58dd8d48988d116941735","category":"Bar","checkinsCount":243,"usersCount":88,"tipCount":4,"visitsCount":243,"tier":"","message":"","currency":"","rating":6.8},{"name":"The Jolly Sailor","phone":"+441202674138","address":"The Quay","lat":50.71213960647583,"lng":-1.98588,"city_fetched":"Lytchett Matravers,UK","state":"Dorset","country":"United Kingdom","canonicalUrl":"https://foursquare.com/v/the-jolly-sailor/4bfc1cb6da7120a17a9649fd","categoryId":"4bf58dd8d48988d11b941735","category":"Pub","checkinsCount":268,"usersCount":184,"tipCount":7,"visitsCount":269,"tier":"","message":"","currency":"","rating":6.6},{"name":"The Olive Branch","address":"East Borough","lat":50.800699,"lng":-1.986874,"city_fetched":"Lytchett Matravers,UK","state":"Dorset","country":"United Kingdom","canonicalUrl":"https://foursquare.com/v/the-olive-branch/4c1379d6a1010f4714a34a18","categoryId":"4bf58dd8d48988d116941735","category":"Bar","checkinsCount":562,"usersCount":211,"tipCount":9,"visitsCount":641,"url":"http://theolivebranchwimborne.co.uk","tier":"","message":"","currency":"","rating":6.6},{"name":"The Blackwater Stream (Wetherspoon)","phone":"+441202642580","twitter":"jdwtweet","address":"180 Lower Blandford Rd.","lat":50.75930522447624,"lng":-1.9935035705566406,"city_fetched":"Lytchett Matravers,UK","state":"Dorset","country":"United Kingdom","canonicalUrl":"https://foursquare.com/v/the-blackwater-stream-wetherspoon/4d642fd34e1ea1cd34b541b9","categoryId":"4bf58dd8d48988d11b941735","category":"Pub","checkinsCount":532,"usersCount":137,"tipCount":4,"visitsCount":601,"url":"http://www.jdwetherspoon.co.uk","tier":"","message":"","currency":"","rating":6.5},{"name":"Poole Arms","phone":"+448719511000","address":"The Quay","lat":50.71212139397442,"lng":-1.9869880143480891,"city_fetched":"Lytchett Matravers,UK","state":"Dorset","country":"United Kingdom","canonicalUrl":"https://foursquare.com/v/poole-arms/4b5c3cc8f964a5202a2829e3","categoryId":"4bf58dd8d48988d11b941735","category":"Pub","checkinsCount":122,"usersCount":101,"tipCount":7,"visitsCount":122,"tier":"","message":"","currency":"","rating":6.4},{"name":"Willett Arms","address":"1 Oakley Ln","lat":50.7871,"lng":-1.9765242654830217,"city_fetched":"Lytchett Matravers,UK","state":"Dorset","country":"United Kingdom","canonicalUrl":"https://foursquare.com/v/willett-arms/4d1b866770d76ea8fdd44e73","categoryId":"4bf58dd8d48988d11b941735","category":"Pub","checkinsCount":181,"usersCount":111,"tipCount":5,"visitsCount":237,"tier":"","message":"","currency":"","rating":6.4},{"name":"The Porterhouse","address":"County Gates Ln","lat":50.72901333882301,"lng":-1.9154722387191168,"city_fetched":"Lytchett Matravers,UK","state":"Dorset","country":"United Kingdom","canonicalUrl":"https://foursquare.com/v/the-porterhouse/4d2de8d4d9d8a143bac8f4d7","categoryId":"4bf58dd8d48988d11b941735","category":"Pub","checkinsCount":793,"usersCount":93,"tipCount":7,"visitsCount":813,"tier":"","message":"","currency":"","rating":6.3},{"name":"The Grasshopper","phone":"+441202741463","address":"141 Bournemouth Road","lat":50.724716,"lng":-1.936159,"city_fetched":"Lytchett Matravers,UK","state":"Dorset","country":"United Kingdom","canonicalUrl":"https://foursquare.com/v/the-grasshopper/4be96509fbbb9c741c3e1e8e","categoryId":"4bf58dd8d48988d116941735","category":"Bar","checkinsCount":307,"usersCount":155,"tipCount":6,"visitsCount":377,"url":"http://www.thegrasshopperparkstone.co.uk","tier":"","message":"","currency":"","rating":6.3},{"name":"The Man In The Wall (Wetherspoon)","phone":"+441202639800","twitter":"jdwtweet","address":"10 West Borough","lat":50.800728,"lng":-1.988263,"city_fetched":"Lytchett Matravers,UK","state":"Dorset","country":"United Kingdom","canonicalUrl":"https://foursquare.com/v/the-man-in-the-wall-wetherspoon/4f143e35e4b03856f31e7667","categoryId":"4bf58dd8d48988d11b941735","category":"Pub","checkinsCount":362,"usersCount":163,"tipCount":3,"visitsCount":410,"url":"http://www.jdwetherspoon.co.uk","tier":"","message":"","currency":"","rating":6.2},{"name":"The Lord Wimborne (Wetherspoon)","phone":"+441202493290","address":"59 Lagland St.","lat":50.71657556666667,"lng":-1.9823011,"city_fetched":"Lytchett Matravers,UK","state":"Dorset","country":"United Kingdom","canonicalUrl":"https://foursquare.com/v/the-lord-wimborne-wetherspoon/4c87abc6821e9eb0a8cd8d89","categoryId":"4bf58dd8d48988d11b941735","category":"Pub","checkinsCount":1033,"usersCount":332,"tipCount":4,"visitsCount":1048,"url":"http://www.jdwetherspoon.co.uk","tier":"","message":"","currency":"","rating":6.2},{"name":"Le Bateau","phone":"+441202730263","address":"141-143 Commercial Rd.","lat":50.72416805039212,"lng":-1.9508714223881596,"city_fetched":"Lytchett Matravers,UK","state":"Dorset","country":"United Kingdom","canonicalUrl":"https://foursquare.com/v/le-bateau/4b477cecf964a520c03326e3","categoryId":"4bf58dd8d48988d116941735","category":"Bar","checkinsCount":409,"usersCount":178,"tipCount":7,"visitsCount":424,"tier":"","message":"","currency":"","rating":6.2},{"name":"Shah Of Persia Hotel","phone":"+441202676587","address":"173 Longfleet Rd.","lat":50.725266337394714,"lng":-1.967336,"city_fetched":"Lytchett Matravers,UK","state":"Dorset","country":"United Kingdom","canonicalUrl":"https://foursquare.com/v/shah-of-persia-hotel/4bd5ff4a9649ce723acc511d","categoryId":"4bf58dd8d48988d11b941735","category":"Pub","checkinsCount":175,"usersCount":105,"tipCount":5,"visitsCount":206,"url":"http://www.shahofpersiapub.co.uk","tier":"","message":"","currency":"","rating":6.1},{"name":"The Quay (Wetherspoon)","phone":"+441202664380","address":"21 The Quay","lat":50.7123081453234,"lng":-1.9864441943329472,"city_fetched":"Lytchett Matravers,UK","state":"Dorset","country":"United Kingdom","canonicalUrl":"https://foursquare.com/v/the-quay-wetherspoon/4c4887711879c9b6f9c4e143","categoryId":"4bf58dd8d48988d11b941735","category":"Pub","checkinsCount":880,"usersCount":410,"tipCount":11,"visitsCount":908,"url":"http://www.jdwetherspoon.co.uk","tier":"","message":"","currency":"","rating":6},{"name":"Bear Cross","phone":"+441202574413","address":"High Howe Lane","lat":50.769538948644815,"lng":-1.9195293886679086,"city_fetched":"Lytchett Matravers,UK","state":"Dorset","country":"United Kingdom","canonicalUrl":"https://foursquare.com/v/bear-cross/4bac10c9f964a520d7e13ae3","categoryId":"4bf58dd8d48988d11b941735","category":"Pub","checkinsCount":369,"usersCount":151,"tipCount":3,"visitsCount":416,"tier":"","message":"","currency":"","rating":6},{"name":"Yates","lat":50.714916,"lng":-1.985014,"city_fetched":"Lytchett Matravers,UK","country":"United Kingdom","canonicalUrl":"https://foursquare.com/v/yates/4c7e601a10916dcbd5122c96","categoryId":"4bf58dd8d48988d11b941735","category":"Pub","checkinsCount":127,"usersCount":88,"tipCount":5,"visitsCount":130,"tier":"","message":"","currency":"","rating":6},{"name":"The Greyhound Inn","phone":"+441929480205","twitter":"greyhoundcorfe","address":"The Square","lat":50.638614337872895,"lng":-2.057382786554899,"city_fetched":"Lytchett Matravers,UK","state":"Dorset","country":"United Kingdom","canonicalUrl":"https://foursquare.com/v/the-greyhound-inn/4be3f6a0d27a20a1d157935b","categoryId":"4bf58dd8d48988d11b941735","category":"Pub","checkinsCount":246,"usersCount":211,"tipCount":7,"visitsCount":249,"url":"http://www.greyhoundcorfe.co.uk","tier":"","message":"","currency":"","rating":5.9},{"name":"The White Hart","phone":"+441202848478","address":"6 Corn Mkt","lat":50.79926909578965,"lng":-1.9889817995700398,"city_fetched":"Lytchett Matravers,UK","state":"Dorset","country":"United Kingdom","canonicalUrl":"https://foursquare.com/v/the-white-hart/4bfd72254cf820a1a67becf4","categoryId":"4bf58dd8d48988d11b941735","category":"Pub","checkinsCount":193,"usersCount":87,"tipCount":5,"visitsCount":196,"url":"http://www.thewhitehartwimborne.co.uk","tier":"","message":"","currency":"","rating":5.9},{"name":"The Coventry Arms","phone":"+441258857284","address":"Mill Street","lat":50.786156,"lng":-2.0386719703674316,"city_fetched":"Lytchett Matravers,UK","state":"Dorset","country":"United Kingdom","canonicalUrl":"https://foursquare.com/v/the-coventry-arms/4c471d7534999c74f47202fd","categoryId":"4bf58dd8d48988d11b941735","category":"Pub","checkinsCount":87,"usersCount":43,"tipCount":2,"visitsCount":97,"tier":"","message":"","currency":"","rating":5.8},{"name":"The Quay Inn","phone":"+441929552735","address":"The Quay","lat":50.684175739897626,"lng":-2.1092140674591064,"city_fetched":"Lytchett Matravers,UK","state":"Dorset","country":"United Kingdom","canonicalUrl":"https://foursquare.com/v/the-quay-inn/4ba559bdf964a520dffd38e3","categoryId":"4bf58dd8d48988d11b941735","category":"Pub","checkinsCount":178,"usersCount":97,"tipCount":4,"visitsCount":180,"tier":"","message":"","currency":"","rating":5.6},{"name":"Banana Wharf","lat":50.712016,"lng":-1.9851404428482056,"city_fetched":"Lytchett Matravers,UK","country":"United Kingdom","canonicalUrl":"https://foursquare.com/v/banana-wharf/4c7b96d1794e224bc99c6b28","categoryId":"4bf58dd8d48988d116941735","category":"Bar","checkinsCount":117,"usersCount":87,"tipCount":4,"visitsCount":117,"tier":"","message":"","currency":"","rating":5.6},{"name":"The Cow Pub","phone":"+441202749569","address":"58 Station Rd","lat":50.723192085518804,"lng":-1.9483888149261475,"city_fetched":"Lytchett Matravers,UK","state":"Dorset","country":"United Kingdom","canonicalUrl":"https://foursquare.com/v/the-cow-pub/4b476590f964a520d63026e3","categoryId":"4bf58dd8d48988d11b941735","category":"Pub","checkinsCount":492,"usersCount":237,"tipCount":7,"visitsCount":572,"url":"http://gkpubs.co.uk/pubs-in-poole/the-cow-pub","tier":"","message":"","currency":"","rating":5.1}]