[{"name":"Sutton Hall","phone":"+441260253211","address":"Bullocks Ln","lat":53.24081057992004,"lng":-2.1128229835059082,"city_fetched":"Macclesfield,UK","state":"Cheshire","country":"United Kingdom","canonicalUrl":"https://foursquare.com/v/sutton-hall/4b63643ef964a52087762ae3","categoryId":"4bf58dd8d48988d11b941735","category":"Pub","checkinsCount":241,"usersCount":189,"tipCount":11,"visitsCount":373,"tier":"","message":"","currency":"","rating":8.7},{"name":"Redwillow","phone":"+441625503253","address":"32A Park Green","lat":53.25624197261421,"lng":-2.1231791940228733,"city_fetched":"Macclesfield,UK","state":"Cheshire","country":"United Kingdom","canonicalUrl":"https://foursquare.com/v/redwillow/52445706498ecd280cfd1b85","categoryId":"4bf58dd8d48988d116941735","category":"Bar","checkinsCount":194,"usersCount":100,"tipCount":8,"visitsCount":237,"url":"http://www.redwillowbar.com","tier":"","message":"","currency":"","rating":8.2},{"name":"Snow Goose","phone":"+441625619299","address":"52-54 Sunderland St","lat":53.257235,"lng":-2.122454,"city_fetched":"Macclesfield,UK","state":"Cheshire","country":"United Kingdom","canonicalUrl":"https://foursquare.com/v/snow-goose/4d8d17903bfef04d60e37886","categoryId":"4bf58dd8d48988d116941735","category":"Bar","checkinsCount":368,"usersCount":150,"tipCount":11,"visitsCount":376,"tier":"","message":"","currency":"","rating":7.8},{"name":"Treacle Tap","phone":"+441625615938","twitter":"thetreacletap","address":"43 Sunderland St.","lat":53.257733,"lng":-2.122558,"city_fetched":"Macclesfield,UK","state":"Cheshire","country":"United Kingdom","canonicalUrl":"https://foursquare.com/v/treacle-tap/4d0f981771e8a1cdb7a07bbd","categoryId":"4bf58dd8d48988d116941735","category":"Bar","checkinsCount":249,"usersCount":120,"tipCount":3,"visitsCount":255,"url":"http://www.thetreacletap.co.uk","tier":"","message":"","currency":"","rating":7.7},{"name":"The Vale Inn","phone":"+441625575147","address":"Adlington Rd","lat":53.299787,"lng":-2.104483,"city_fetched":"Macclesfield,UK","state":"Cheshire","country":"United Kingdom","canonicalUrl":"https://foursquare.com/v/the-vale-inn/4ca7a38344a8224b50750f40","categoryId":"4bf58dd8d48988d11b941735","category":"Pub","checkinsCount":154,"usersCount":104,"tipCount":4,"visitsCount":218,"tier":"","message":"","currency":"","rating":7.7},{"name":"The Windmill","twitter":"windmilltweet","address":"Holehouse Lane","lat":53.30669403076172,"lng":-2.114666,"city_fetched":"Macclesfield,UK","state":"Cheshire","country":"United Kingdom","canonicalUrl":"https://foursquare.com/v/the-windmill/4c6c0b18a437224bda3529b1","categoryId":"4bf58dd8d48988d11b941735","category":"Pub","checkinsCount":153,"usersCount":116,"tipCount":6,"visitsCount":197,"tier":"","message":"","currency":"","rating":7.3},{"name":"Wizard Inn","phone":"+441625584000","address":"Macclesfield Rd.","lat":53.29257195329321,"lng":-2.212995556269652,"city_fetched":"Macclesfield,UK","state":"Cheshire","country":"United Kingdom","canonicalUrl":"https://foursquare.com/v/wizard-inn/4db1bdd41e729fcc5659363a","categoryId":"4bf58dd8d48988d11b941735","category":"Pub","checkinsCount":118,"usersCount":126,"tipCount":6,"visitsCount":145,"tier":"","message":"","currency":"","rating":6.6},{"name":"Butley Ash","phone":"+441625824930","address":"London Rd","lat":53.29720337729953,"lng":-2.1376428306774597,"city_fetched":"Macclesfield,UK","state":"Cheshire","country":"United Kingdom","canonicalUrl":"https://foursquare.com/v/butley-ash/4ceeae9e8604a1cdc45df9c0","categoryId":"4bf58dd8d48988d11b941735","category":"Pub","checkinsCount":88,"usersCount":65,"tipCount":1,"visitsCount":112,"tier":"","message":"","currency":"","rating":6.4},{"name":"The Society Rooms (Wetherspoon)","phone":"+441625507320","address":"Park Green","lat":53.25643672338472,"lng":-2.1243900060653687,"city_fetched":"Macclesfield,UK","state":"Cheshire","country":"United Kingdom","canonicalUrl":"https://foursquare.com/v/the-society-rooms-wetherspoon/4b378c52f964a5200d4225e3","categoryId":"4bf58dd8d48988d11b941735","category":"Pub","checkinsCount":778,"usersCount":235,"tipCount":3,"visitsCount":830,"url":"http://www.jdwetherspoon.co.uk","tier":"","message":"","currency":"","rating":6.1},{"name":"Holin Hall Hotel","address":"Jackson La","lat":53.29192053781801,"lng":-2.100344665584114,"city_fetched":"Macclesfield,UK","state":"Cheshire","country":"United Kingdom","canonicalUrl":"https://foursquare.com/v/holin-hall-hotel/4bd72de4304fce72792e33ab","categoryId":"4bf58dd8d48988d1d5941735","category":"Hotel Bar","checkinsCount":204,"usersCount":119,"tipCount":2,"visitsCount":235,"tier":"","message":"","currency":"","rating":5.4}]