[{"name":"Rebellion Beer Co. Ltd.","phone":"+441628476594","twitter":"rebellionbeer","address":"Bencome Farm","lat":51.586125030527114,"lng":-0.7680283569129743,"city_fetched":"Maidenhead,UK","state":"Buckinghamshire","country":"United Kingdom","canonicalUrl":"https://foursquare.com/v/rebellion-beer-co-ltd/4b893e2bf964a520752532e3","categoryId":"50327c8591d4c4b30a586d5d","category":"Brewery","checkinsCount":1108,"usersCount":389,"tipCount":22,"visitsCount":1421,"url":"http://www.rebellionbeer.co.uk","tier":"","message":"","currency":"","rating":9.3},{"name":"Stag & Hounds","phone":"+441344483553","address":"Forest Rd","lat":51.433277409656654,"lng":-0.777317388921454,"city_fetched":"Maidenhead,UK","state":"Bracknell Forest","country":"United Kingdom","canonicalUrl":"https://foursquare.com/v/stag--hounds/4b9bb796f964a520531d36e3","categoryId":"4bf58dd8d48988d11b941735","category":"Pub","checkinsCount":553,"usersCount":277,"tipCount":8,"visitsCount":746,"url":"http://www.thestagandhounds.com","tier":"","message":"","currency":"","rating":8.9},{"name":"The Crown at Bray","phone":"+441628621936","twitter":"thecrownatbray","address":"High Street","lat":51.50675583656452,"lng":-0.7012796401977539,"city_fetched":"Maidenhead,UK","country":"United Kingdom","canonicalUrl":"https://foursquare.com/thecrownatbray","categoryId":"4bf58dd8d48988d11b941735","category":"Pub","checkinsCount":517,"usersCount":478,"tipCount":16,"visitsCount":733,"url":"http://www.thecrownatbray.com","tier":"","message":"","currency":"","rating":8.5},{"name":"The Bootlegger","phone":"+441494525457","twitter":"bootleggerpub","address":"3 Amersham Hill","lat":51.62981927751726,"lng":-0.7472419738769531,"city_fetched":"Maidenhead,UK","state":"Buckinghamshire","country":"United Kingdom","canonicalUrl":"https://foursquare.com/v/the-bootlegger/4c127eb57f7f2d7f6c68dd68","categoryId":"4bf58dd8d48988d11b941735","category":"Pub","checkinsCount":723,"usersCount":347,"tipCount":12,"visitsCount":843,"url":"http://www.thebootleggerpub.co.uk","tier":"","message":"","currency":"","rating":8.3},{"name":"The Horse and Groom","phone":"+441753830172","twitter":"horsengroom","address":"4 Castle Hill","lat":51.48265060822411,"lng":-0.6072895622201951,"city_fetched":"Maidenhead,UK","country":"United Kingdom","canonicalUrl":"https://foursquare.com/v/the-horse-and-groom/4bad13aaf964a520252b3be3","categoryId":"4bf58dd8d48988d11b941735","category":"Pub","checkinsCount":708,"usersCount":548,"tipCount":19,"visitsCount":734,"tier":"","message":"","currency":"","rating":8.1},{"name":"The Jolly Farmer","phone":"+441628482905","address":"Church Rd","lat":51.558226,"lng":-0.745438,"city_fetched":"Maidenhead,UK","country":"United Kingdom","canonicalUrl":"https://foursquare.com/v/the-jolly-farmer/4ace4a7df964a520aacf20e3","categoryId":"4bf58dd8d48988d11b941735","category":"Pub","checkinsCount":255,"usersCount":121,"tipCount":4,"visitsCount":345,"tier":"","message":"","currency":"","rating":8},{"name":"The Beehive","phone":"+441628822877","twitter":"thebeehivetweet","address":"Waltham Rd","lat":51.487130367730494,"lng":-0.7781705260276794,"city_fetched":"Maidenhead,UK","country":"United Kingdom","canonicalUrl":"https://foursquare.com/v/the-beehive/4b50e773f964a520f13727e3","categoryId":"4bf58dd8d48988d11b941735","category":"Pub","checkinsCount":230,"usersCount":171,"tipCount":8,"visitsCount":337,"url":"http://www.thebeehivewhitewaltham.com","tier":"","message":"","currency":"","rating":7.8},{"name":"The Two Brewers","address":"Park St","lat":51.480438517453926,"lng":-0.6042247908352796,"city_fetched":"Maidenhead,UK","country":"United Kingdom","canonicalUrl":"https://foursquare.com/v/the-two-brewers/4bec6ed9fd60a593d3fd3af1","categoryId":"4bf58dd8d48988d11b941735","category":"Pub","checkinsCount":713,"usersCount":817,"tipCount":16,"visitsCount":1182,"tier":"","message":"","currency":"","rating":7.7},{"name":"The Pineapple","phone":"+441628662353","twitter":"pineappledorney","address":"Lake End Rd","lat":51.50885597745781,"lng":-0.6634551286697388,"city_fetched":"Maidenhead,UK","state":"Buckinghamshire","country":"United Kingdom","canonicalUrl":"https://foursquare.com/v/the-pineapple/4b4dd46ff964a520c8d826e3","categoryId":"4bf58dd8d48988d11b941735","category":"Pub","checkinsCount":382,"usersCount":292,"tipCount":19,"visitsCount":449,"url":"http://www.pineappledorney.co.uk","tier":"","message":"","currency":"","rating":7.6},{"name":"Boulters Restaurant & Bar","phone":"+441628621291","address":"Boulters Lock Island","lat":51.53318250714905,"lng":-0.6991446018218994,"city_fetched":"Maidenhead,UK","country":"United Kingdom","canonicalUrl":"https://foursquare.com/v/boulters-restaurant--bar/4ba562aff964a520d20139e3","categoryId":"4bf58dd8d48988d116941735","category":"Bar","checkinsCount":1111,"usersCount":520,"tipCount":31,"visitsCount":1382,"url":"http://www.boultersrestaurant.co.uk","tier":"","message":"","currency":"","rating":7.6},{"name":"The Alma","phone":"+441753840515","twitter":"innthealma","address":"61 Springfield Rd.","lat":51.47494748953222,"lng":-0.6194865657597126,"city_fetched":"Maidenhead,UK","country":"United Kingdom","canonicalUrl":"https://foursquare.com/v/the-alma/4b5c652ff964a520e52d29e3","categoryId":"4bf58dd8d48988d11b941735","category":"Pub","checkinsCount":293,"usersCount":147,"tipCount":12,"visitsCount":382,"url":"http://www.innthealma.co.uk","tier":"","message":"","currency":"","rating":7.6},{"name":"Windsor and Eton Brewery","phone":"+441753854075","twitter":"windsoretonbrew","address":"Duke St","lat":51.48432145463153,"lng":-0.6179438131045896,"city_fetched":"Maidenhead,UK","country":"United Kingdom","canonicalUrl":"https://foursquare.com/v/windsor-and-eton-brewery/4d51b4a7bd6ff04d2967f40c","categoryId":"50327c8591d4c4b30a586d5d","category":"Brewery","checkinsCount":791,"usersCount":222,"tipCount":8,"visitsCount":897,"url":"http://www.webrew.co.uk","tier":"","message":"","currency":"","rating":7.6},{"name":"The George Inn","phone":"+441753850478","twitter":"georgeinn_eton","address":"77 High St","lat":51.486354681945926,"lng":-0.6090371145783838,"city_fetched":"Maidenhead,UK","state":"West Berkshire","country":"United Kingdom","canonicalUrl":"https://foursquare.com/v/the-george-inn/4b2d2160f964a5200bcf24e3","categoryId":"4bf58dd8d48988d11b941735","category":"Pub","checkinsCount":374,"usersCount":286,"tipCount":9,"visitsCount":396,"url":"http://www.georgeinn-eton.co.uk","tier":"","message":"","currency":"","rating":7.6},{"name":"The Belgian Arms","phone":"+441628634468","twitter":"thebelgianarms","address":"Holyport St","lat":51.492304,"lng":-0.7152003049850464,"city_fetched":"Maidenhead,UK","state":"Berkshire","country":"United Kingdom","canonicalUrl":"https://foursquare.com/v/the-belgian-arms/4af1801ff964a52026e121e3","categoryId":"4bf58dd8d48988d11b941735","category":"Pub","checkinsCount":367,"usersCount":207,"tipCount":5,"visitsCount":432,"url":"http://www.thebelgianarms.com","tier":"","message":"","currency":"","rating":7.6},{"name":"The Hobgoblin","phone":"+441628784786","address":"34 High St","lat":51.52308408736853,"lng":-0.719215513662393,"city_fetched":"Maidenhead,UK","country":"United Kingdom","canonicalUrl":"https://foursquare.com/v/the-hobgoblin/4b575809f964a520983228e3","categoryId":"4bf58dd8d48988d11b941735","category":"Pub","checkinsCount":964,"usersCount":154,"tipCount":4,"visitsCount":967,"tier":"","message":"","currency":"","rating":7.5},{"name":"Marlow Donkey","phone":"+441628482022","address":"Station Rd","lat":51.5714843,"lng":-0.7688988999999999,"city_fetched":"Maidenhead,UK","state":"Buckinghamshire","country":"United Kingdom","canonicalUrl":"https://foursquare.com/v/marlow-donkey/4b7ef9dcf964a520b60d30e3","categoryId":"4bf58dd8d48988d11b941735","category":"Pub","checkinsCount":704,"usersCount":389,"tipCount":17,"visitsCount":927,"url":"http://www.marlowdonkey-marlow.co.uk","tier":"","message":"","currency":"","rating":7.4},{"name":"Crown Inn","phone":"+441753647714","address":"Crown Lane","lat":51.54661704137841,"lng":-0.6241519998765424,"city_fetched":"Maidenhead,UK","state":"Buckinghamshire","country":"United Kingdom","canonicalUrl":"https://foursquare.com/v/crown-inn/4d8f3b83ca75b60cdfb00fa9","categoryId":"4bf58dd8d48988d11b941735","category":"Pub","checkinsCount":131,"usersCount":71,"tipCount":9,"visitsCount":156,"url":"http://www.crowninnpub.co.uk","tier":"","message":"","currency":"","rating":7.4},{"name":"The Duchess of Cambridge","phone":"+441753864405","twitter":"theduchesspub","address":"3-4 Thames St.","lat":51.483049,"lng":-0.608575,"city_fetched":"Maidenhead,UK","country":"United Kingdom","canonicalUrl":"https://foursquare.com/v/the-duchess-of-cambridge/4e18a0481f6eb955987c0ff0","categoryId":"4bf58dd8d48988d11b941735","category":"Pub","checkinsCount":896,"usersCount":711,"tipCount":23,"visitsCount":947,"url":"http://www.theduchessofcambridgepub.co.uk","tier":"","message":"","currency":"","rating":7.3},{"name":"Stag","phone":"+441628521277","twitter":"stagflackwell","address":"91 Heath End Rd, Flackwell Heath","lat":51.60447884931223,"lng":-0.7171836705357484,"city_fetched":"Maidenhead,UK","state":"Buckinghamshire","country":"United Kingdom","canonicalUrl":"https://foursquare.com/stagflackwell","categoryId":"4bf58dd8d48988d11b941735","category":"Pub","checkinsCount":259,"usersCount":76,"tipCount":5,"visitsCount":296,"url":"http://www.stagflackwell.com","tier":"","message":"","currency":"","rating":7.3},{"name":"Baroosh","phone":"+441628472878","twitter":"barooshbars","address":"56-58 High St","lat":51.570523404982715,"lng":-0.7757677404419502,"city_fetched":"Maidenhead,UK","state":"Buckinghamshire","country":"United Kingdom","canonicalUrl":"https://foursquare.com/v/baroosh/50cf5376e4b0ed4375e73562","categoryId":"4bf58dd8d48988d116941735","category":"Bar","checkinsCount":411,"usersCount":216,"tipCount":13,"visitsCount":457,"url":"http://www.baroosh.co.uk","tier":"","message":"","currency":"","rating":7.2},{"name":"The Carpenters Arms","phone":"+441753863739","twitter":"carpenters1518","address":"4 Market Street","lat":51.482349,"lng":-0.6071019172668457,"city_fetched":"Maidenhead,UK","country":"United Kingdom","canonicalUrl":"https://foursquare.com/v/the-carpenters-arms/4bf58408004ed13a80b640a0","categoryId":"4bf58dd8d48988d11b941735","category":"Pub","checkinsCount":681,"usersCount":464,"tipCount":14,"visitsCount":709,"url":"http://www.nicholsonspubs.co.uk/thecarpentersarmswindsor/","tier":"","message":"","currency":"","rating":7.2},{"name":"The Ship","phone":"+441628484360","address":"23 Weat St","lat":51.571154,"lng":-0.7776421308517456,"city_fetched":"Maidenhead,UK","state":"Buckinghamshire","country":"United Kingdom","canonicalUrl":"https://foursquare.com/v/the-ship/4bfd9138f61dc9b6ff369fde","categoryId":"4bf58dd8d48988d11b941735","category":"Pub","checkinsCount":402,"usersCount":172,"tipCount":5,"visitsCount":457,"url":"http://www.theshipmarlow.co.uk","tier":"","message":"","currency":"","rating":7.1},{"name":"The Hand & Flowers","phone":"+441628623800","address":"15 Queen St","lat":51.5222474,"lng":-0.720093,"city_fetched":"Maidenhead,UK","state":"Berkshire","country":"United Kingdom","canonicalUrl":"https://foursquare.com/v/the-hand--flowers/4b6c78aff964a520d23c2ce3","categoryId":"4bf58dd8d48988d11b941735","category":"Pub","checkinsCount":544,"usersCount":205,"tipCount":11,"visitsCount":660,"tier":"","message":"","currency":"","rating":7.1},{"name":"The Sausage Tree","address":"Saffron Road","lat":51.6281189026843,"lng":-0.7423584752793035,"city_fetched":"Maidenhead,UK","state":"Buckinghamshire","country":"United Kingdom","canonicalUrl":"https://foursquare.com/v/the-sausage-tree/4b8d714af964a52023fc32e3","categoryId":"4bf58dd8d48988d11b941735","category":"Pub","checkinsCount":213,"usersCount":138,"tipCount":8,"visitsCount":219,"tier":"","message":"","currency":"","rating":7.1},{"name":"The Royal Stag","phone":"+441753584231","twitter":"windsorpubco","address":"The Green","lat":51.484095539091534,"lng":-0.5786705017089844,"city_fetched":"Maidenhead,UK","country":"United Kingdom","canonicalUrl":"https://foursquare.com/v/the-royal-stag/4bb1bb3ff964a520c0a03ce3","categoryId":"4bf58dd8d48988d11b941735","category":"Pub","checkinsCount":485,"usersCount":248,"tipCount":8,"visitsCount":595,"url":"http://www.royalstagdatchet.co.uk","tier":"","message":"","currency":"","rating":7},{"name":"The Red Lion","phone":"+441753535115","twitter":"redlionsp","address":"Stoke Green","lat":51.53134559400008,"lng":-0.5806072065133601,"city_fetched":"Maidenhead,UK","state":"Berkshire","country":"United Kingdom","canonicalUrl":"https://foursquare.com/v/the-red-lion/4b6422d3f964a520bfa02ae3","categoryId":"4bf58dd8d48988d116941735","category":"Bar","checkinsCount":383,"usersCount":374,"tipCount":6,"visitsCount":601,"tier":"","message":"","currency":"","rating":7},{"name":"Belle Vue","phone":"+441494524728","twitter":"thebv","address":"45 Gordon Rd","lat":51.628444,"lng":-0.740719,"city_fetched":"Maidenhead,UK","state":"Buckinghamshire","country":"United Kingdom","canonicalUrl":"https://foursquare.com/v/belle-vue/4cb89372bac937040722de7c","categoryId":"4bf58dd8d48988d11b941735","category":"Pub","checkinsCount":128,"usersCount":42,"tipCount":7,"visitsCount":135,"url":"http://www.thebv.co.uk","tier":"","message":"","currency":"","rating":7},{"name":"The Bear (Wetherspoon)","phone":"+441628763030","address":"8-10 High St","lat":51.523127025398765,"lng":-0.7178932428359985,"city_fetched":"Maidenhead,UK","state":"Berkshire","country":"United Kingdom","canonicalUrl":"https://foursquare.com/v/the-bear-wetherspoon/4c87ab6f821e9eb05ecd8d89","categoryId":"4bf58dd8d48988d11b941735","category":"Pub","checkinsCount":2135,"usersCount":522,"tipCount":31,"visitsCount":2448,"url":"http://www.jdwetherspoon.co.uk","tier":1,"message":"Cheap","currency":"Â£","rating":6.9},{"name":"The White Hart","address":"Moneyrow Green","lat":51.48572048269334,"lng":-0.7187952828059732,"city_fetched":"Maidenhead,UK","state":"Berkshire","country":"United Kingdom","canonicalUrl":"https://foursquare.com/v/the-white-hart/4c3f3aafff711b8d96940e05","categoryId":"4bf58dd8d48988d11b941735","category":"Pub","checkinsCount":104,"usersCount":59,"tipCount":3,"visitsCount":123,"tier":"","message":"","currency":"","rating":6.9},{"name":"The Bounty","phone":"+441628520056","address":"Cockmarsh","lat":51.576465368270874,"lng":-0.716329,"city_fetched":"Maidenhead,UK","state":"Buckinghamshire","country":"United Kingdom","canonicalUrl":"https://foursquare.com/v/the-bounty/4b5c60def964a5203a2d29e3","categoryId":"4bf58dd8d48988d11b941735","category":"Pub","checkinsCount":349,"usersCount":277,"tipCount":10,"visitsCount":428,"tier":"","message":"","currency":"","rating":6.9},{"name":"Clayton's Marlow Bar & Kitchen","phone":"+441628488404","twitter":"claytonsmarlow","address":"16 Oxford Rd","lat":51.571215044978075,"lng":-0.7791924476623535,"city_fetched":"Maidenhead,UK","state":"Buckinghamshire","country":"United Kingdom","canonicalUrl":"https://foursquare.com/claytonsmarlow","categoryId":"4bf58dd8d48988d116941735","category":"Bar","checkinsCount":154,"usersCount":90,"tipCount":7,"visitsCount":154,"url":"http://www.claytonsmarlow.com","tier":"","message":"","currency":"","rating":6.9},{"name":"Queens Head","phone":"+441628482927","lat":51.583635,"lng":-0.741306,"city_fetched":"Maidenhead,UK","state":"Buckinghamshire","country":"United Kingdom","canonicalUrl":"https://foursquare.com/v/queens-head/4bc778e42f94d13ae1fd117f","categoryId":"4bf58dd8d48988d11b941735","category":"Pub","checkinsCount":154,"usersCount":153,"tipCount":3,"visitsCount":212,"tier":"","message":"","currency":"","rating":6.8},{"name":"The King and Castle (Wetherspoon)","phone":"+441753625120","address":"15-16 Thames St","lat":51.48371194976347,"lng":-0.6087739591186546,"city_fetched":"Maidenhead,UK","state":"Berkshire","country":"United Kingdom","canonicalUrl":"https://foursquare.com/v/the-king-and-castle-wetherspoon/4baf44b0f964a5208bf43be3","categoryId":"4bf58dd8d48988d11b941735","category":"Pub","checkinsCount":2014,"usersCount":1313,"tipCount":25,"visitsCount":2095,"url":"http://www.jdwetherspoon.co.uk","tier":"","message":"","currency":"","rating":6.7},{"name":"The Royal Oak","phone":"+441753865179","twitter":"windsorpubco","address":"Datchet Rd.","lat":51.48535248199964,"lng":-0.6064711995673754,"city_fetched":"Maidenhead,UK","country":"United Kingdom","canonicalUrl":"https://foursquare.com/v/the-royal-oak/4ba299eff964a520220838e3","categoryId":"4bf58dd8d48988d11b941735","category":"Pub","checkinsCount":773,"usersCount":603,"tipCount":12,"visitsCount":792,"url":"http://www.windsorpubco.co.uk/royal-oak.html","tier":"","message":"","currency":"","rating":6.6},{"name":"The Windsor Trooper","phone":"+441753670123","address":"97 St Leonard's Rd","lat":51.476665452849105,"lng":-0.6128954887390137,"city_fetched":"Maidenhead,UK","country":"United Kingdom","canonicalUrl":"https://foursquare.com/v/the-windsor-trooper/4bec44c6c43f2d7f41a5dbd9","categoryId":"4bf58dd8d48988d116941735","category":"Bar","checkinsCount":186,"usersCount":89,"tipCount":6,"visitsCount":196,"tier":"","message":"","currency":"","rating":6.5},{"name":"The Windsor Castle Pub","phone":"+441628621649","address":"Bath Rd","lat":51.522332637806336,"lng":-0.7337933778762817,"city_fetched":"Maidenhead,UK","state":"Berkshire","country":"United Kingdom","canonicalUrl":"https://foursquare.com/v/the-windsor-castle-pub/4bbf7abb006dc9b64eadfc3f","categoryId":"4bf58dd8d48988d11b941735","category":"Pub","checkinsCount":759,"usersCount":233,"tipCount":10,"visitsCount":896,"url":"http://www.thewindsorcastlepub.co.uk","tier":"","message":"","currency":"","rating":6.4},{"name":"The Rose","phone":"+441628621673","address":"16 King St","lat":51.521682,"lng":-0.7233273983001709,"city_fetched":"Maidenhead,UK","state":"Berkshire","country":"United Kingdom","canonicalUrl":"https://foursquare.com/v/the-rose/4bf6d3724a67c928987b22cf","categoryId":"4bf58dd8d48988d11b941735","category":"Pub","checkinsCount":419,"usersCount":84,"tipCount":1,"visitsCount":445,"tier":"","message":"","currency":"","rating":6.3},{"name":"The Watermans Arms","phone":"+441753861001","twitter":"watermanseton","address":"Brocas St","lat":51.48640717153224,"lng":-0.6096768379211426,"city_fetched":"Maidenhead,UK","state":"West Berkshire","country":"United Kingdom","canonicalUrl":"https://foursquare.com/v/the-watermans-arms/4bf6e540b182c9b65bb6745a","categoryId":"4bf58dd8d48988d11b941735","category":"Pub","checkinsCount":171,"usersCount":134,"tipCount":4,"visitsCount":187,"url":"http://www.watermans-eton.com","tier":"","message":"","currency":"","rating":6.3},{"name":"The Maiden's Head","phone":"+441628784786","twitter":"maidensheadbar","address":"34 High St","lat":51.5231,"lng":-0.719135,"city_fetched":"Maidenhead,UK","state":"Berkshire","country":"United Kingdom","canonicalUrl":"https://foursquare.com/v/the-maidens-head/538e0f23498e8697475a1714","categoryId":"4bf58dd8d48988d11b941735","category":"Pub","checkinsCount":119,"usersCount":58,"tipCount":2,"visitsCount":131,"url":"http://www.themaidenshead.co.uk","tier":"","message":"","currency":"","rating":6.2},{"name":"Palmer Arms","address":"Village Rd","lat":51.503533651621794,"lng":-0.6613683700561523,"city_fetched":"Maidenhead,UK","state":"Buckinghamshire","country":"United Kingdom","canonicalUrl":"https://foursquare.com/v/palmer-arms/4aeb6322f964a5209fc121e3","categoryId":"4bf58dd8d48988d11b941735","category":"Pub","checkinsCount":210,"usersCount":204,"tipCount":15,"visitsCount":284,"tier":"","message":"","currency":"","rating":6.1},{"name":"Butlers","phone":"+441494558188","twitter":"butlerspub","address":"21-31 Frogmoor","lat":51.631485,"lng":-0.752848,"city_fetched":"Maidenhead,UK","state":"Buckinghamshire","country":"United Kingdom","canonicalUrl":"https://foursquare.com/v/butlers/4b8fa848f964a520bb5b33e3","categoryId":"4bf58dd8d48988d11b941735","category":"Pub","checkinsCount":122,"usersCount":48,"tipCount":2,"visitsCount":122,"url":"http://www.butlerspub.co.uk","tier":"","message":"","currency":"","rating":6.1},{"name":"Coco Bar","phone":"+441628789261","address":"65-67 King St","lat":51.52048736999999,"lng":-0.7222050400000001,"city_fetched":"Maidenhead,UK","country":"United Kingdom","canonicalUrl":"https://foursquare.com/v/coco-bar/4bf538fced30b7135d32f49a","categoryId":"4bf58dd8d48988d116941735","category":"Bar","checkinsCount":256,"usersCount":95,"tipCount":6,"visitsCount":256,"tier":"","message":"","currency":"","rating":6.1},{"name":"The Pond House","phone":"+441628779058","address":"53 Bath Rd.","lat":51.51990132505377,"lng":-0.7428860664367676,"city_fetched":"Maidenhead,UK","country":"United Kingdom","canonicalUrl":"https://foursquare.com/v/the-pond-house/4bf14e8b48d520a14c602e84","categoryId":"4bf58dd8d48988d11b941735","category":"Pub","checkinsCount":374,"usersCount":109,"tipCount":5,"visitsCount":423,"url":"http://www.gkmeetandeat.co.uk/locations/pond-house-maidenhead","tier":"","message":"","currency":"","rating":6},{"name":"The Bell PKB","phone":"+441628624409","address":"95-97 King St","lat":51.51979918312931,"lng":-0.7216483354568481,"city_fetched":"Maidenhead,UK","state":"Berkshire","country":"United Kingdom","canonicalUrl":"https://foursquare.com/v/the-bell-pkb/4b6c9c50f964a52074462ce3","categoryId":"4bf58dd8d48988d11b941735","category":"Pub","checkinsCount":1379,"usersCount":447,"tipCount":20,"visitsCount":1538,"tier":"","message":"","currency":"","rating":6},{"name":"Three Tuns","phone":"+441753521911","address":"124 Bath Rd","lat":51.512716121061686,"lng":-0.6126330387511385,"city_fetched":"Maidenhead,UK","country":"United Kingdom","canonicalUrl":"https://foursquare.com/v/three-tuns/4c877b36b504a143b78fb61c","categoryId":"4bf58dd8d48988d11b941735","category":"Pub","checkinsCount":742,"usersCount":140,"tipCount":5,"visitsCount":768,"url":"http://www.threetunsslough.co.uk","tier":"","message":"","currency":"","rating":5.9},{"name":"The Three Horseshoes","phone":"+441628483109","lat":51.59372204342234,"lng":-0.7663607597351074,"city_fetched":"Maidenhead,UK","state":"Buckinghamshire","country":"United Kingdom","canonicalUrl":"https://foursquare.com/v/the-three-horseshoes/4b93a9c1f964a520194c34e3","categoryId":"4bf58dd8d48988d11b941735","category":"Pub","checkinsCount":256,"usersCount":152,"tipCount":8,"visitsCount":320,"tier":"","message":"","currency":"","rating":5.9},{"name":"Blue River Cafe","phone":"+441628674057","address":"The Thames Riviera Hotel, Bridge Rd","lat":51.52374711719065,"lng":-0.7029639541377392,"city_fetched":"Maidenhead,UK","country":"United Kingdom","canonicalUrl":"https://foursquare.com/v/blue-river-cafe/4b658298f964a520def22ae3","categoryId":"4bf58dd8d48988d1d5941735","category":"Hotel Bar","checkinsCount":634,"usersCount":332,"tipCount":14,"visitsCount":731,"url":"http://www.thamesriviera.com","tier":"","message":"","currency":"","rating":5.7},{"name":"Bar Sport","phone":"+441628560823","twitter":"barsportmaiden","address":"Unit 2, Grenfell Island","lat":51.52053980339069,"lng":-0.7222000162856547,"city_fetched":"Maidenhead,UK","state":"Berkshire","country":"United Kingdom","canonicalUrl":"https://foursquare.com/v/bar-sport/4f6317f8e4b0ce431bcf3704","categoryId":"4bf58dd8d48988d11d941735","category":"Sports Bar","checkinsCount":443,"usersCount":134,"tipCount":5,"visitsCount":446,"url":"http://www.barsportmaidenhead.co.uk","tier":"","message":"","currency":"","rating":5.5},{"name":"The Cross Keys","phone":"+441628482522","address":"46 Spittal St","lat":51.572894063927,"lng":-0.7759735383662527,"city_fetched":"Maidenhead,UK","state":"Buckinghamshire","country":"United Kingdom","canonicalUrl":"https://foursquare.com/v/the-cross-keys/4b7b055cf964a520ad4c2fe3","categoryId":"4bf58dd8d48988d11b941735","category":"Pub","checkinsCount":209,"usersCount":91,"tipCount":2,"visitsCount":210,"url":"http://www.crossleysmarlow.co.uk","tier":"","message":"","currency":"","rating":5}]