[{"name":"Best Western the Russell Hotel","phone":"+441622692221","twitter":"russellhotel","address":"136 Boxley Road","lat":51.285101508059974,"lng":0.5318376641113273,"city_fetched":"Maidstone","state":"Kent","country":"United Kingdom","canonicalUrl":"https://foursquare.com/russellhotel","category":"Hotel Bar","checkinsCount":173,"usersCount":85,"tipCount":3,"visitsCount":173,"url":"http://www.therussellhotel.com","tier":"","message":"","currency":"","rating":7.5},{"name":"Oak on the Green","phone":"+441622737976","address":"Bearsted Green","lat":51.273551037482775,"lng":0.5815817855925424,"city_fetched":"Maidstone","state":"Kent","country":"United Kingdom","canonicalUrl":"https://foursquare.com/v/oak-on-the-green/4b93b71cf964a520384e34e3","category":"Gastropub","checkinsCount":316,"usersCount":233,"tipCount":9,"visitsCount":414,"url":"http://oakonthegreen.com","tier":"","message":"","currency":"","rating":7.3},{"name":"Ye Olde Thirsty Pig","address":"Knightrider Street","lat":51.270527710515495,"lng":0.5250155925750732,"city_fetched":"Maidstone","state":"Kent","country":"United Kingdom","canonicalUrl":"https://foursquare.com/v/ye-olde-thirsty-pig/4b71b958f964a52093582de3","category":"Bar","checkinsCount":730,"usersCount":104,"tipCount":3,"visitsCount":788,"tier":"","message":"","currency":"","rating":7.1},{"name":"The Source Bar","phone":"+441622678174","twitter":"sourcemaidstone","address":"4-6 Rose Yard","lat":51.27409358041185,"lng":0.5221435678106214,"city_fetched":"Maidstone","state":"Kent","country":"United Kingdom","canonicalUrl":"https://foursquare.com/v/the-source-bar/4d01546df94a6dcbf206f943","category":"Nightclub","checkinsCount":132,"usersCount":69,"tipCount":6,"visitsCount":132,"url":"http://www.thesourcebar.co.uk","tier":2,"message":"Moderate","currency":"£","rating":7},{"name":"The White Horse","phone":"+441622738365","address":"The Green","lat":51.274415,"lng":0.579346,"city_fetched":"Maidstone","state":"Kent","country":"United Kingdom","canonicalUrl":"https://foursquare.com/v/the-white-horse/4c0555c3f56c2d7f3d801f66","category":"Gastropub","checkinsCount":341,"usersCount":230,"tipCount":10,"visitsCount":454,"url":"http://www.thewhitehorsebearsted.co.uk","tier":2,"message":"Moderate","currency":"£","rating":7},{"name":"The Society Rooms (Wetherspoon)","phone":"+441622350910","address":"Brenchley House","lat":51.277448670740625,"lng":0.5216981604861238,"city_fetched":"Maidstone","state":"Kent","country":"United Kingdom","canonicalUrl":"https://foursquare.com/v/the-society-rooms-wetherspoon/4b6fc203f964a520b8fb2ce3","category":"Pub","checkinsCount":1189,"usersCount":421,"tipCount":9,"visitsCount":1440,"url":"http://www.jdwetherspoon.co.uk","tier":"","message":"","currency":"","rating":6.9},{"name":"Chiltern Hundreds","phone":"+441622752335","address":"Penenden Heath Road","lat":51.285734,"lng":0.542422,"city_fetched":"Maidstone","state":"Kent","country":"United Kingdom","canonicalUrl":"https://foursquare.com/v/chiltern-hundreds/4c71614fb5a5236a7cdb5252","category":"Gastropub","checkinsCount":152,"usersCount":142,"tipCount":8,"visitsCount":225,"tier":"","message":"","currency":"","rating":6.8},{"name":"The Druid's Arms","address":"Earl St.","lat":51.274885000000005,"lng":0.521682,"city_fetched":"Maidstone","state":"Kent","country":"United Kingdom","canonicalUrl":"https://foursquare.com/v/the-druids-arms/4bc710522f94d13a512b117f","category":"Bar","checkinsCount":423,"usersCount":150,"tipCount":3,"visitsCount":429,"tier":"","message":"","currency":"","rating":6.7},{"name":"The Early Bird - Shepherd Neame","phone":"+441622734237","address":"Grovewood Drive","lat":51.27707857723489,"lng":0.5566227436065674,"city_fetched":"Maidstone","state":"Kent","country":"United Kingdom","canonicalUrl":"https://foursquare.com/v/the-early-bird--shepherd-neame/4ccf3d4f3bd6236a46568421","category":"Pub","checkinsCount":152,"usersCount":26,"tipCount":0,"visitsCount":158,"url":"http://www.shepherdneame.co.uk","tier":"","message":"","currency":"","rating":6.7},{"name":"White Rabbit","address":"Sandling Rd","lat":51.27992004818815,"lng":0.5192141509654449,"city_fetched":"Maidstone","state":"Kent","country":"United Kingdom","canonicalUrl":"https://foursquare.com/v/white-rabbit/4aec41a8f964a520b3c521e3","category":"Pub","checkinsCount":249,"usersCount":176,"tipCount":4,"visitsCount":302,"tier":"","message":"","currency":"","rating":6.6},{"name":"The Walnut Tree - Shepherd Neame","phone":"+441622726368","address":"Forge Lane, E. Farleigh","lat":51.25025169388092,"lng":0.49798429012298584,"city_fetched":"Maidstone","state":"Kent","country":"United Kingdom","canonicalUrl":"https://foursquare.com/v/the-walnut-tree--shepherd-neame/4e687dbcb3ad5d919751e470","category":"Pub","checkinsCount":9,"usersCount":8,"tipCount":1,"visitsCount":9,"url":"http://www.shepherdneame.co.uk","tier":"","message":"","currency":"","rating":6.6},{"name":"Fishermans Arms - Shepherd Neame","phone":"+441622755443","address":"40 Lower Stone Street","lat":51.271009324994814,"lng":0.5249914526939392,"city_fetched":"Maidstone","state":"Kent","country":"United Kingdom","canonicalUrl":"https://foursquare.com/v/fishermans-arms--shepherd-neame/4c0322809a7920a19491cf79","category":"Pub","checkinsCount":279,"usersCount":36,"tipCount":1,"visitsCount":290,"url":"http://www.shepherdneame.co.uk","tier":"","message":"","currency":"","rating":6.5},{"name":"The Muggleton Inn (Wetherspoon)","phone":"+441622691527","address":"8-9 High St.","lat":51.27364888543476,"lng":0.5219364166259766,"city_fetched":"Maidstone","state":"Kent","country":"United Kingdom","canonicalUrl":"https://foursquare.com/v/the-muggleton-inn-wetherspoon/4c212da83389c9b6e8604ffb","category":"Pub","checkinsCount":741,"usersCount":359,"tipCount":13,"visitsCount":790,"url":"http://www.jdwetherspoon.co.uk","tier":"","message":"","currency":"","rating":6.5},{"name":"The Dragoon - Shepherd Neame","phone":"+441622752620","address":"40 Sandling Road","lat":51.28038050432386,"lng":0.5197691917419434,"city_fetched":"Maidstone","state":"Kent","country":"United Kingdom","canonicalUrl":"https://foursquare.com/v/the-dragoon--shepherd-neame/4d9762dcc19fb60ca4509565","category":"Pub","checkinsCount":30,"usersCount":14,"tipCount":0,"visitsCount":30,"url":"http://www.shepherdneame.co.uk","tier":"","message":"","currency":"","rating":6.5},{"name":"The Duke of Edinburgh - Shepherd Neame","phone":"+441622727122","address":"Heath Road","lat":51.26762281370907,"lng":0.48287004232406616,"city_fetched":"Maidstone","state":"Kent","country":"United Kingdom","canonicalUrl":"https://foursquare.com/v/the-duke-of-edinburgh--shepherd-neame/4bfeb847e584c92847206d25","category":"Pub","checkinsCount":59,"usersCount":18,"tipCount":1,"visitsCount":66,"url":"http://www.shepherdneame.co.uk","tier":"","message":"","currency":"","rating":6.4},{"name":"The Royal Albion - Shepherd Neame","phone":"+441622691789","address":"19 Havock Lane","lat":51.27559028352032,"lng":0.5200052261352539,"city_fetched":"Maidstone","state":"Kent","country":"United Kingdom","canonicalUrl":"https://foursquare.com/v/the-royal-albion--shepherd-neame/4c2915b297d00f4715e240ea","category":"Pub","checkinsCount":84,"usersCount":31,"tipCount":1,"visitsCount":84,"url":"http://www.shepherdneame.co.uk","tier":"","message":"","currency":"","rating":6.4},{"name":"The British Queen - Shepherd Neame","phone":"+441622686699","address":"Square Hill","lat":51.273075007889545,"lng":0.5323487520217896,"city_fetched":"Maidstone","state":"Kent","country":"United Kingdom","canonicalUrl":"https://foursquare.com/v/the-british-queen--shepherd-neame/4d15e614cc216ea87b3a66d3","category":"Pub","checkinsCount":9,"usersCount":6,"tipCount":1,"visitsCount":9,"url":"http://www.shepherdneame.co.uk","tier":"","message":"","currency":"","rating":6.4},{"name":"Walnut Tree","lat":51.24418029467462,"lng":0.5228609336536165,"city_fetched":"Maidstone","country":"United Kingdom","canonicalUrl":"https://foursquare.com/v/walnut-tree/4db08e211e729fcc5640cc49","category":"Pub","checkinsCount":18,"usersCount":6,"tipCount":0,"visitsCount":18,"url":"http://www.shepherdneame.co.uk","tier":"","message":"","currency":"","rating":6.3},{"name":"The Brenchley","phone":"+441622755773","twitter":"thebrenchley","address":"91 High St","lat":51.27345539591324,"lng":0.522449708048457,"city_fetched":"Maidstone","state":"Kent","country":"United Kingdom","canonicalUrl":"https://foursquare.com/v/the-brenchley/529a4c2711d21f5474807d34","category":"Pub","checkinsCount":185,"usersCount":89,"tipCount":3,"visitsCount":196,"url":"http://www.thebrenchley.co.uk","tier":"","message":"","currency":"","rating":6.2},{"name":"The Swan - Shepherd Neame","phone":"+441622751264","address":"2 County Road","lat":51.277863813112866,"lng":0.5245247483253479,"city_fetched":"Maidstone","state":"Kent","country":"United Kingdom","canonicalUrl":"https://foursquare.com/v/the-swan--shepherd-neame/4da89ae1f7b12d2d9a0f8c68","category":"Pub","checkinsCount":15,"usersCount":7,"tipCount":1,"visitsCount":17,"url":"http://www.shepherdneame.co.uk","tier":"","message":"","currency":"","rating":6.2},{"name":"The Pippin","phone":"+441622750747","address":"78 London Rd.","lat":51.28020918651556,"lng":0.5066938656736936,"city_fetched":"Maidstone","state":"Kent","country":"United Kingdom","canonicalUrl":"https://foursquare.com/v/the-pippin/4bafc1c1f964a520381e3ce3","category":"Bar","checkinsCount":193,"usersCount":125,"tipCount":1,"visitsCount":220,"tier":"","message":"","currency":"","rating":6.1},{"name":"The Bull Inn","phone":"+441622752888","address":"Boxley Rd., Penenden Heath","lat":51.289245,"lng":0.5372514814266445,"city_fetched":"Maidstone","state":"Kent","country":"United Kingdom","canonicalUrl":"https://foursquare.com/v/the-bull-inn/4bce0d1e68f976b0e4576583","category":"Pub","checkinsCount":87,"usersCount":58,"tipCount":4,"visitsCount":104,"tier":"","message":"","currency":"","rating":6.1},{"name":"The Dog & Gun - Shepherd Neame","phone":"+441622759046","address":"213 Boxley Road","lat":51.2820791743806,"lng":0.526118017026753,"city_fetched":"Maidstone","state":"Kent","country":"United Kingdom","canonicalUrl":"https://foursquare.com/v/the-dog--gun--shepherd-neame/4be1759d9897b713e2994bea","category":"Pub","checkinsCount":42,"usersCount":27,"tipCount":1,"visitsCount":43,"url":"http://www.shepherdneame.co.uk","tier":"","message":"","currency":"","rating":6},{"name":"Drakes Cork and Cask","address":"9 Fairmeadow","lat":51.27303861961739,"lng":0.5187227740436414,"city_fetched":"Maidstone","state":"Kent","country":"United Kingdom","canonicalUrl":"https://foursquare.com/v/drakes-cork-and-cask/4b7173eff964a5206b472de3","category":"Pub","checkinsCount":532,"usersCount":104,"tipCount":5,"visitsCount":537,"tier":"","message":"","currency":"","rating":5.9},{"name":"Mu Mu","phone":"+441622669800","address":"108-110 Week St.","lat":51.27709871165582,"lng":0.5220866203308105,"city_fetched":"Maidstone","state":"Kent","country":"United Kingdom","canonicalUrl":"https://foursquare.com/v/mu-mu/4bb8efdd3db7b71316ce219a","category":"Bar","checkinsCount":357,"usersCount":196,"tipCount":11,"visitsCount":377,"tier":"","message":"","currency":"","rating":5.8},{"name":"Sir Thomas Wyatt (Beefeater)","phone":"+441622752515","twitter":"beefeatergrill","address":"London Rd","lat":51.28736725626071,"lng":0.4910919173833729,"city_fetched":"Maidstone","state":"Kent","country":"United Kingdom","canonicalUrl":"https://foursquare.com/v/sir-thomas-wyatt-beefeater/4c4d967014b7b713e10e6378","category":"Pub","checkinsCount":137,"usersCount":107,"tipCount":3,"visitsCount":153,"url":"http://www.beefeater.co.uk","tier":"","message":"","currency":"","rating":5.8}]