[{"name":"Stockyard Truckstop","lat":53.43472355855464,"lng":-1.2422983180226788,"city_fetched":"Maltby,UK","country":"United Kingdom","canonicalUrl":"https://foursquare.com/v/stockyard-truckstop/4c344b993896e21e804ceb90","categoryId":"4bf58dd8d48988d11b941735","category":"Pub","checkinsCount":138,"usersCount":60,"tipCount":6,"visitsCount":162,"tier":"","message":"","currency":"","rating":7.5},{"name":"The Masons Arms","phone":"+441144460291","address":"Bawtry Rd, Wickersley","lat":53.42175146755937,"lng":-1.2821013088718687,"city_fetched":"Maltby,UK","state":"Rotherham","country":"United Kingdom","canonicalUrl":"https://foursquare.com/v/the-masons-arms/4b7a8cebf964a520cc302fe3","categoryId":"4bf58dd8d48988d11b941735","category":"Pub","checkinsCount":282,"usersCount":114,"tipCount":4,"visitsCount":319,"url":"http://www.masonsarmsthorpehesley.co.uk","tier":"","message":"","currency":"","rating":6.6},{"name":"The Queens Hotel (Wetherspoon)","phone":"+441709797120","twitter":"jdwtweet","address":"Tickhill Rd.","lat":53.42040728765877,"lng":-1.1958573723627617,"city_fetched":"Maltby,UK","country":"United Kingdom","canonicalUrl":"https://foursquare.com/v/the-queens-hotel-wetherspoon/4f9d0048e4b0b38d3003d9b5","categoryId":"4bf58dd8d48988d11b941735","category":"Pub","checkinsCount":291,"usersCount":58,"tipCount":4,"visitsCount":306,"url":"http://www.jdwetherspoon.co.uk","tier":"","message":"","currency":"","rating":6.1},{"name":"King William IV (Brewers Fayre)","phone":"+441909730225","address":"Blyth Rd.","lat":53.39192496573557,"lng":-1.1176013946533203,"city_fetched":"Maltby,UK","country":"United Kingdom","canonicalUrl":"https://foursquare.com/v/king-william-iv-brewers-fayre/4c2f5cb5a0ced13ace58106e","categoryId":"4bf58dd8d48988d11b941735","category":"Pub","checkinsCount":179,"usersCount":72,"tipCount":4,"visitsCount":188,"tier":"","message":"","currency":"","rating":5.9},{"name":"Monksbridge Farm","phone":"+441909566225","address":"Nobel Way","lat":53.374598917267875,"lng":-1.224959426719286,"neighborhood":"Dinnington","city_fetched":"Maltby,UK","state":"Sheffield","country":"United Kingdom","canonicalUrl":"https://foursquare.com/v/monksbridge-farm/4bc1ea14b492d13a6798a660","categoryId":"4bf58dd8d48988d11b941735","category":"Pub","checkinsCount":213,"usersCount":114,"tipCount":3,"visitsCount":346,"url":"http://www.farmhouseinns.co.uk/pubs/monks-bridge-farm","tier":"","message":"","currency":"","rating":5.6}]