[{"name":"Arcade Street Tavern","phone":"+441473805454","twitter":"arcadetavern","address":"1 Arcade Street","lat":52.05736912216897,"lng":1.1517512798309326,"city_fetched":"Manningtree,UK","state":"Suffolk","country":"United Kingdom","canonicalUrl":"https://foursquare.com/v/arcade-street-tavern/54888157498ede43a0173f76","categoryId":"4bf58dd8d48988d11b941735","category":"Pub","checkinsCount":178,"usersCount":56,"tipCount":2,"visitsCount":218,"tier":"","message":"","currency":"","rating":8.4},{"name":"Black Buoy","phone":"+441206822425","twitter":"blackbuoypub","address":"Black Buoy Hill","lat":51.854689848692274,"lng":0.9602411936218951,"city_fetched":"Manningtree,UK","state":"Essex","country":"United Kingdom","canonicalUrl":"https://foursquare.com/v/black-buoy/4d7563f10e258cfaa5bcdfd4","categoryId":"4bf58dd8d48988d11b941735","category":"Pub","checkinsCount":164,"usersCount":64,"tipCount":3,"visitsCount":173,"url":"http://www.blackbuoy.co.uk","tier":"","message":"","currency":"","rating":8},{"name":"The Lord Nelson","address":"97-107 Fore St","lat":52.053405,"lng":1.1608059499999999,"city_fetched":"Manningtree,UK","state":"Suffolk","country":"United Kingdom","canonicalUrl":"https://foursquare.com/v/the-lord-nelson/4c2259e19a67a593025adc87","categoryId":"4bf58dd8d48988d116941735","category":"Bar","checkinsCount":137,"usersCount":67,"tipCount":1,"visitsCount":137,"tier":"","message":"","currency":"","rating":7.8},{"name":"Steamboat Tavern","address":"New Cut West","lat":52.04918324947357,"lng":1.158857,"city_fetched":"Manningtree,UK","state":"Suffolk","country":"United Kingdom","canonicalUrl":"https://foursquare.com/v/steamboat-tavern/4c7ce09aa141b1f74a316c79","categoryId":"4bf58dd8d48988d11b941735","category":"Pub","checkinsCount":118,"usersCount":66,"tipCount":4,"visitsCount":177,"tier":"","message":"","currency":"","rating":7.8},{"name":"Waterfront Bar & Brasserie","phone":"+441473226082","address":"15 Regatta Quay","lat":52.052311974786114,"lng":1.1580699055348151,"city_fetched":"Manningtree,UK","state":"Suffolk","country":"United Kingdom","canonicalUrl":"https://foursquare.com/v/waterfront-bar--brasserie/4bf5328cff90c9b6720a5628","categoryId":"4bf58dd8d48988d116941735","category":"Bar","checkinsCount":199,"usersCount":105,"tipCount":8,"visitsCount":203,"url":"http://www.waterfrontbistroipswich.co.uk","tier":"","message":"","currency":"","rating":7.7},{"name":"The Thomas Wolsey","address":"St Peters Street","lat":52.054298,"lng":1.153141,"city_fetched":"Manningtree,UK","state":"Suffolk","country":"United Kingdom","canonicalUrl":"https://foursquare.com/v/the-thomas-wolsey/4ed91ee7f5b921398719e967","categoryId":"4bf58dd8d48988d116941735","category":"Bar","checkinsCount":257,"usersCount":86,"tipCount":4,"visitsCount":297,"tier":"","message":"","currency":"","rating":7.7},{"name":"Mannings","phone":"+441473254170","address":"8 Cornhill","lat":52.057985,"lng":1.1524486541748047,"city_fetched":"Manningtree,UK","state":"Suffolk","country":"United Kingdom","canonicalUrl":"https://foursquare.com/v/mannings/4b5f31aef964a52064ac29e3","categoryId":"4bf58dd8d48988d11b941735","category":"Pub","checkinsCount":189,"usersCount":111,"tipCount":5,"visitsCount":189,"tier":"","message":"","currency":"","rating":7.6},{"name":"The Greyhound","address":"62 High Street, Wivenhoe","lat":51.85771447801962,"lng":0.9599505487313073,"city_fetched":"Manningtree,UK","state":"Essex","country":"United Kingdom","canonicalUrl":"https://foursquare.com/v/the-greyhound/4bc1dc51920eb7131f351b2c","categoryId":"4bf58dd8d48988d11b941735","category":"Pub","checkinsCount":286,"usersCount":59,"tipCount":3,"visitsCount":289,"tier":"","message":"","currency":"","rating":7.4},{"name":"Briarbank Brewing Company","address":"70 Fore Street","lat":52.05325060056847,"lng":1.1603426792827676,"city_fetched":"Manningtree,UK","state":"Suffolk","country":"United Kingdom","canonicalUrl":"https://foursquare.com/v/briarbank-brewing-company/518946a47dd22e7a042d3377","categoryId":"50327c8591d4c4b30a586d5d","category":"Brewery","checkinsCount":217,"usersCount":71,"tipCount":6,"visitsCount":228,"url":"http://briarbank.org","tier":"","message":"","currency":"","rating":7.3},{"name":"The Beagle","phone":"+441473730607","address":"Old Hadleigh Road","lat":52.050938808517245,"lng":1.0979758088304323,"city_fetched":"Manningtree,UK","state":"Suffolk","country":"United Kingdom","canonicalUrl":"https://foursquare.com/v/the-beagle/4dd6c1861838b8561cd58946","categoryId":"4bf58dd8d48988d11b941735","category":"Pub","checkinsCount":339,"usersCount":161,"tipCount":5,"visitsCount":387,"url":"http://www.vintageinn.co.uk/thebeagleipswich/","tier":"","message":"","currency":"","rating":7.3},{"name":"Isaacs","phone":"+441473259952","address":"7 Wherry Quay","lat":52.052850042821554,"lng":1.1608117818832397,"city_fetched":"Manningtree,UK","state":"Suffolk","country":"United Kingdom","canonicalUrl":"https://foursquare.com/v/isaacs/4b9cdffaf964a5201c8036e3","categoryId":"4bf58dd8d48988d11b941735","category":"Pub","checkinsCount":1335,"usersCount":694,"tipCount":14,"visitsCount":1559,"tier":2,"message":"Moderate","currency":"Â£","rating":7},{"name":"Table Table","lat":51.919838,"lng":0.932722,"city_fetched":"Manningtree,UK","country":"United Kingdom","canonicalUrl":"https://foursquare.com/v/table-table/4c02b561310fc9b69edac461","categoryId":"4bf58dd8d48988d11b941735","category":"Pub","checkinsCount":244,"usersCount":96,"tipCount":5,"visitsCount":273,"tier":"","message":"","currency":"","rating":6.9},{"name":"Cock & Pye","phone":"+441473254213","address":"Upper Brook St.","lat":52.05725513359036,"lng":1.1566275482546886,"city_fetched":"Manningtree,UK","state":"Suffolk","country":"United Kingdom","canonicalUrl":"https://foursquare.com/v/cock--pye/4ba37b50f964a520cf4038e3","categoryId":"4bf58dd8d48988d11b941735","category":"Pub","checkinsCount":329,"usersCount":144,"tipCount":4,"visitsCount":335,"tier":"","message":"","currency":"","rating":6.6},{"name":"The Punch & Judy","address":"41 Grafton Way","lat":52.052706612298145,"lng":1.152409594155433,"city_fetched":"Manningtree,UK","state":"Suffolk","country":"United Kingdom","canonicalUrl":"https://foursquare.com/v/the-punch--judy/4b94e51df964a520ca8634e3","categoryId":"4bf58dd8d48988d11b941735","category":"Pub","checkinsCount":197,"usersCount":107,"tipCount":8,"visitsCount":204,"tier":"","message":"","currency":"","rating":6.4},{"name":"The Swan","phone":"+441473252485","address":"King Street","lat":52.0571959541936,"lng":1.1523038148880005,"city_fetched":"Manningtree,UK","state":"Suffolk","country":"United Kingdom","canonicalUrl":"https://foursquare.com/v/the-swan/4b9f5d76f964a5208a1e37e3","categoryId":"4bf58dd8d48988d11b941735","category":"Pub","checkinsCount":488,"usersCount":163,"tipCount":5,"visitsCount":492,"tier":"","message":"","currency":"","rating":6.2},{"name":"Wetherspoons","phone":"+441473210334","address":"10 Corn Hill","lat":52.05789682761076,"lng":1.1519220607461425,"city_fetched":"Manningtree,UK","state":"Suffolk","country":"United Kingdom","canonicalUrl":"https://foursquare.com/v/wetherspoons/4c87ab41821e9eb032cd8d89","categoryId":"4bf58dd8d48988d11b941735","category":"Pub","checkinsCount":139,"usersCount":41,"tipCount":1,"visitsCount":139,"url":"http://www.jdwetherspoon.co.uk","tier":"","message":"","currency":"","rating":6.2},{"name":"The Crown Inn","address":"Old Ipswich Road","lat":51.9252135690617,"lng":0.9396882134372655,"city_fetched":"Manningtree,UK","state":"Essex","country":"United Kingdom","canonicalUrl":"https://foursquare.com/v/the-crown-inn/4bf52ab194af2d7f71593b72","categoryId":"4bf58dd8d48988d11b941735","category":"Pub","checkinsCount":217,"usersCount":163,"tipCount":4,"visitsCount":273,"tier":"","message":"","currency":"","rating":5.9},{"name":"Oyster Reach (Beefeater)","phone":"+441473692372","twitter":"beefeatergrill","address":"Bourne Hill","lat":52.03312428844733,"lng":1.150212693856683,"city_fetched":"Manningtree,UK","state":"Suffolk","country":"United Kingdom","canonicalUrl":"https://foursquare.com/v/oyster-reach-beefeater/4bf817bc8d30d13ac9160018","categoryId":"4bf58dd8d48988d11b941735","category":"Pub","checkinsCount":214,"usersCount":124,"tipCount":2,"visitsCount":237,"url":"http://www.beefeater.co.uk","tier":"","message":"","currency":"","rating":5.9},{"name":"The Balkerne Gate","lat":51.91981440401541,"lng":0.9326861704808479,"city_fetched":"Manningtree,UK","country":"United Kingdom","canonicalUrl":"https://foursquare.com/v/the-balkerne-gate/4ced19757b943704e3b02453","categoryId":"4bf58dd8d48988d11b941735","category":"Pub","checkinsCount":362,"usersCount":107,"tipCount":3,"visitsCount":367,"tier":"","message":"","currency":"","rating":5.9},{"name":"Liquid & Envy","address":"17 Grafton Way","lat":52.053356247506024,"lng":1.1506217622106252,"city_fetched":"Manningtree,UK","state":"Suffolk","country":"United Kingdom","canonicalUrl":"https://foursquare.com/v/liquid--envy/4b94e56bf964a520d88634e3","categoryId":"4bf58dd8d48988d11f941735","category":"Nightclub","checkinsCount":178,"usersCount":94,"tipCount":4,"visitsCount":178,"tier":"","message":"","currency":"","rating":5.8},{"name":"The Plough","phone":"+441473288005","address":"2 Dogs Head St","lat":52.05580294132233,"lng":1.155086,"city_fetched":"Manningtree,UK","state":"Suffolk","country":"United Kingdom","canonicalUrl":"https://foursquare.com/v/the-plough/4c533c9a06901b8d2116c149","categoryId":"4bf58dd8d48988d11b941735","category":"Pub","checkinsCount":241,"usersCount":104,"tipCount":4,"visitsCount":248,"url":"http://www.ploughipswich.co.uk","tier":"","message":"","currency":"","rating":5.6},{"name":"The Rep","phone":"+441473221361","address":"11 Tower Street","lat":52.05802985861794,"lng":1.1548119866799464,"city_fetched":"Manningtree,UK","state":"Suffolk","country":"United Kingdom","canonicalUrl":"https://foursquare.com/v/the-rep/4bc3121e461576b084167e32","categoryId":"4bf58dd8d48988d11b941735","category":"Pub","checkinsCount":127,"usersCount":88,"tipCount":5,"visitsCount":131,"tier":"","message":"","currency":"","rating":5.4}]