[{"name":"The Brown Cow","phone":"+441623429594","twitter":"rawbrowncow","address":"35 Ratcliffe Gate","lat":53.14313176481314,"lng":-1.1894448055608051,"city_fetched":"Mansfield,UK","state":"Nottinghamshire","country":"United Kingdom","canonicalUrl":"https://foursquare.com/v/the-brown-cow/4d2760a277a2a1cdc23158b7","categoryId":"4bf58dd8d48988d11b941735","category":"Pub","checkinsCount":306,"usersCount":90,"tipCount":8,"visitsCount":391,"tier":"","message":"","currency":"","rating":8.5},{"name":"The Masons Arms","phone":"+441623472704","address":"Unwin Rd","lat":53.12854288673473,"lng":-1.2446681730660853,"city_fetched":"Mansfield,UK","state":"Nottinghamshire","country":"United Kingdom","canonicalUrl":"https://foursquare.com/v/the-masons-arms/4d35ddfe329e54814ebfce1d","categoryId":"4bf58dd8d48988d11b941735","category":"Pub","checkinsCount":324,"usersCount":29,"tipCount":4,"visitsCount":371,"url":"http://www.themasonsarmspub.co.uk","tier":"","message":"","currency":"","rating":8.4},{"name":"The Clock Inn","phone":"+441773811396","twitter":"theclockinn","address":"107 Market St","lat":53.10465952300996,"lng":-1.342697492541969,"city_fetched":"Mansfield,UK","state":"Derbyshire","country":"United Kingdom","canonicalUrl":"https://foursquare.com/v/the-clock-inn/4c8402f5d4e237048f3f7688","categoryId":"4bf58dd8d48988d11b941735","category":"Pub","checkinsCount":939,"usersCount":39,"tipCount":6,"visitsCount":1000,"url":"http://www.theclockinn.co.uk","tier":"","message":"","currency":"","rating":8.2},{"name":"The Railway Inn","phone":"+441623623086","address":"Station St.","lat":53.14220137666793,"lng":-1.1966782808303833,"city_fetched":"Mansfield,UK","state":"Nottinghamshire","country":"United Kingdom","canonicalUrl":"https://foursquare.com/v/the-railway-inn/4bd2e423b221c9b6a969d8d0","categoryId":"4bf58dd8d48988d11b941735","category":"Pub","checkinsCount":939,"usersCount":73,"tipCount":7,"visitsCount":1040,"url":"http://www.railwaylive.co.uk","tier":"","message":"","currency":"","rating":8},{"name":"The Devonshire Arms","phone":"+441773810748","address":"Market St","lat":53.10586267103518,"lng":-1.3426105116874014,"city_fetched":"Mansfield,UK","state":"Derbyshire","country":"United Kingdom","canonicalUrl":"https://foursquare.com/v/the-devonshire-arms/4c6023c012e5c92886861e4c","categoryId":"4bf58dd8d48988d11b941735","category":"Pub","checkinsCount":5417,"usersCount":55,"tipCount":4,"visitsCount":5472,"tier":"","message":"","currency":"","rating":7.9},{"name":"The Burnt Stump","address":"Burntstump Hill","lat":53.051122,"lng":-1.141623,"city_fetched":"Mansfield,UK","state":"Nottinghamshire","country":"United Kingdom","canonicalUrl":"https://foursquare.com/v/the-burnt-stump/51a0b3e0498e3a83dcc14b69","categoryId":"4bf58dd8d48988d11b941735","category":"Pub","checkinsCount":65,"usersCount":60,"tipCount":0,"visitsCount":83,"tier":"","message":"","currency":"","rating":7.8},{"name":"The Forest Lodge and Restaurant","phone":"+441623824443","address":"4 Church St.","lat":53.195463535363224,"lng":-1.064490699386425,"city_fetched":"Mansfield,UK","state":"Nottinghamshire","country":"United Kingdom","canonicalUrl":"https://foursquare.com/v/the-forest-lodge-and-restaurant/4cf6d7a1c28df04d7c2bcd15","categoryId":"4bf58dd8d48988d1d5941735","category":"Hotel Bar","checkinsCount":149,"usersCount":66,"tipCount":3,"visitsCount":195,"url":"http://www.forestlodgehotel.co.uk","tier":"","message":"","currency":"","rating":7.7},{"name":"Griffin's Head","phone":"+441159633672","address":"Moor Rd.","lat":53.053852,"lng":-1.1825162172317505,"city_fetched":"Mansfield,UK","state":"Nottinghamshire","country":"United Kingdom","canonicalUrl":"https://foursquare.com/v/griffins-head/4d96f56cdaec224bd895233e","categoryId":"4bf58dd8d48988d11b941735","category":"Pub","checkinsCount":143,"usersCount":102,"tipCount":3,"visitsCount":210,"url":"http://www.griffinshead.co.uk","tier":"","message":"","currency":"","rating":7.7},{"name":"The Hardwick Inn","phone":"+441246850245","address":"Hardwick Park","lat":53.165249,"lng":-1.314942,"city_fetched":"Mansfield,UK","state":"Derbyshire","country":"United Kingdom","canonicalUrl":"https://foursquare.com/v/the-hardwick-inn/4be6b90bbcef2d7f5a6205e5","categoryId":"4bf58dd8d48988d11b941735","category":"Pub","checkinsCount":222,"usersCount":157,"tipCount":4,"visitsCount":247,"tier":"","message":"","currency":"","rating":7.2},{"name":"Andwhynot? & The Late Lounge","phone":"+441623431460","twitter":"andwhynotbar","address":"62 Leeming St","lat":53.14641917319616,"lng":-1.1943457680012788,"city_fetched":"Mansfield,UK","state":"Nottinghamshire","country":"United Kingdom","canonicalUrl":"https://foursquare.com/v/andwhynot--the-late-lounge/4c9d52d38afca09331f8f515","categoryId":"4bf58dd8d48988d116941735","category":"Bar","checkinsCount":261,"usersCount":124,"tipCount":8,"visitsCount":294,"url":"http://www.andwhynotworld.com","tier":"","message":"","currency":"","rating":7},{"name":"Green Dragon","phone":"+441623632459","address":"13-15 Leeming St.","lat":53.145081,"lng":-1.195496,"city_fetched":"Mansfield,UK","state":"Nottinghamshire","country":"United Kingdom","canonicalUrl":"https://foursquare.com/v/green-dragon/4bd43a5c41b9ef3ba19801e6","categoryId":"4bf58dd8d48988d116941735","category":"Bar","checkinsCount":420,"usersCount":134,"tipCount":4,"visitsCount":449,"url":"http://www.weareyates.co.uk","tier":"","message":"","currency":"","rating":6.9},{"name":"The Hutt","phone":"+441623792325","address":"Nottingham Rd.","lat":53.083928,"lng":-1.170154,"city_fetched":"Mansfield,UK","state":"Nottinghamshire","country":"United Kingdom","canonicalUrl":"https://foursquare.com/v/the-hutt/4b54effdf964a52018d427e3","categoryId":"4bf58dd8d48988d117941735","category":"Beer Garden","checkinsCount":228,"usersCount":198,"tipCount":5,"visitsCount":346,"url":"http://www.chefandbrewer.com/pub/hutt-ravenshead-nottingham/c4141/","tier":"","message":"","currency":"","rating":6.8},{"name":"The Badger Box","phone":"+441623752243","address":"Derby Rd","lat":53.07908116159597,"lng":-1.2426223844302218,"city_fetched":"Mansfield,UK","state":"Nottinghamshire","country":"United Kingdom","canonicalUrl":"https://foursquare.com/v/the-badger-box/4bacb86ef964a520b3063be3","categoryId":"4bf58dd8d48988d11b941735","category":"Pub","checkinsCount":533,"usersCount":192,"tipCount":4,"visitsCount":711,"tier":"","message":"","currency":"","rating":6.6},{"name":"The Rushley","phone":"+441623643847","address":"Forest Hill","lat":53.12439147568108,"lng":-1.1912366981119544,"city_fetched":"Mansfield,UK","state":"Nottinghamshire","country":"United Kingdom","canonicalUrl":"https://foursquare.com/v/the-rushley/4b7876d2f964a5201ed02ee3","categoryId":"4bf58dd8d48988d11b941735","category":"Pub","checkinsCount":223,"usersCount":115,"tipCount":7,"visitsCount":262,"url":"http://www.rushleypub.co.uk","tier":"","message":"","currency":"","rating":6.5},{"name":"Foxglove","phone":"+441623646557","address":"Fulmar Close","lat":53.15641259519707,"lng":-1.1716939273177953,"city_fetched":"Mansfield,UK","state":"Nottinghamshire","country":"United Kingdom","canonicalUrl":"https://foursquare.com/v/foxglove/4bcc9a6cfb84c9b649ad203e","categoryId":"4bf58dd8d48988d11b941735","category":"Pub","checkinsCount":293,"usersCount":113,"tipCount":5,"visitsCount":313,"url":"http://www.foxglovepub.co.uk","tier":"","message":"","currency":"","rating":6.5},{"name":"The Bold Forester","phone":"+441623623970","address":"Botany Ave.","lat":53.14093556046607,"lng":-1.2104137774949708,"city_fetched":"Mansfield,UK","state":"Nottinghamshire","country":"United Kingdom","canonicalUrl":"https://foursquare.com/v/the-bold-forester/4c7521a3604a370414ba8149","categoryId":"4bf58dd8d48988d11b941735","category":"Pub","checkinsCount":318,"usersCount":124,"tipCount":6,"visitsCount":366,"url":"http://www.boldforester-mansfield.co.uk","tier":"","message":"","currency":"","rating":6.4},{"name":"The Widow Frost (Wetherspoon)","phone":"+441623666790","address":"Leeming St.","lat":53.14574774641689,"lng":-1.1948950357747663,"city_fetched":"Mansfield,UK","state":"Nottinghamshire","country":"United Kingdom","canonicalUrl":"https://foursquare.com/v/the-widow-frost-wetherspoon/4c617be113791b8d200652af","categoryId":"4bf58dd8d48988d11b941735","category":"Pub","checkinsCount":961,"usersCount":221,"tipCount":4,"visitsCount":1070,"url":"http://www.jdwetherspoon.co.uk","tier":"","message":"","currency":"","rating":6.3},{"name":"Golden Eagle","phone":"+441623414627","address":"Sherwood Ave.","lat":53.12656877330345,"lng":-1.1494008777008806,"city_fetched":"Mansfield,UK","state":"Nottinghamshire","country":"United Kingdom","canonicalUrl":"https://foursquare.com/v/golden-eagle/4da1ba4663b5a35d5c1cee19","categoryId":"4bf58dd8d48988d11b941735","category":"Pub","checkinsCount":238,"usersCount":144,"tipCount":9,"visitsCount":321,"url":"http://www.goldeneaglemansfield.co.uk","tier":"","message":"","currency":"","rating":6.2},{"name":"Forest Town Welfare","phone":"+441623624678","address":"Clipstone Rd. W","lat":53.151966,"lng":-1.161741,"city_fetched":"Mansfield,UK","state":"Nottinghamshire","country":"United Kingdom","canonicalUrl":"https://foursquare.com/v/forest-town-welfare/4d8d0ec3c479a35ddc2c2597","categoryId":"4bf58dd8d48988d116941735","category":"Bar","checkinsCount":66,"usersCount":50,"tipCount":1,"visitsCount":94,"tier":"","message":"","currency":"","rating":6.1},{"name":"The Court House","phone":"+441623412720","address":"Market Pl","lat":53.14411110658727,"lng":-1.1966594274878444,"city_fetched":"Mansfield,UK","state":"Nottinghamshire","country":"United Kingdom","canonicalUrl":"https://foursquare.com/v/the-court-house/4c7c88c0f56a3704475e0846","categoryId":"4bf58dd8d48988d11b941735","category":"Pub","checkinsCount":1161,"usersCount":137,"tipCount":6,"visitsCount":1246,"url":"http://www.hawthornleisure.com","tier":1,"message":"Cheap","currency":"Â£","rating":6},{"name":"The Stag and Pheasant (Wetherspoon)","phone":"+441623412890","address":"Unit 4, Clumber St.","lat":53.145788056606776,"lng":-1.1956725458053994,"city_fetched":"Mansfield,UK","state":"Nottinghamshire","country":"United Kingdom","canonicalUrl":"https://foursquare.com/v/the-stag-and-pheasant-wetherspoon/4c87ab7a821e9eb065cd8d89","categoryId":"4bf58dd8d48988d11b941735","category":"Pub","checkinsCount":911,"usersCount":230,"tipCount":7,"visitsCount":1008,"url":"http://www.jdwetherspoon.co.uk","tier":"","message":"","currency":"","rating":6},{"name":"The Rufford","phone":"+441623623286","address":"335 Chesterfield Rd. S.","lat":53.15676484021061,"lng":-1.21729475319596,"city_fetched":"Mansfield,UK","state":"Nottinghamshire","country":"United Kingdom","canonicalUrl":"https://foursquare.com/v/the-rufford/4cd1c2631ac7a1cd46f22092","categoryId":"4bf58dd8d48988d11b941735","category":"Pub","checkinsCount":284,"usersCount":106,"tipCount":1,"visitsCount":339,"url":"http://www.ruffordmansfieldpub.co.uk","tier":"","message":"","currency":"","rating":5.8},{"name":"The Swan","phone":"+441623624131","address":"Church St.","lat":53.14389186730574,"lng":-1.1958810791287755,"city_fetched":"Mansfield,UK","state":"Nottinghamshire","country":"United Kingdom","canonicalUrl":"https://foursquare.com/v/the-swan/4bb507c91344b71347bc9b04","categoryId":"4bf58dd8d48988d11b941735","category":"Pub","checkinsCount":319,"usersCount":135,"tipCount":4,"visitsCount":324,"url":"http://www.swanpubmansfield.co.uk","tier":"","message":"","currency":"","rating":5.7},{"name":"Dakota Bar & Grill","lat":53.06875614989313,"lng":-1.252276964011029,"city_fetched":"Mansfield,UK","country":"United Kingdom","canonicalUrl":"https://foursquare.com/v/dakota-bar--grill/4f19a6e6e4b0a339fb46a9cd","categoryId":"4bf58dd8d48988d1d5941735","category":"Hotel Bar","checkinsCount":236,"usersCount":98,"tipCount":1,"visitsCount":264,"tier":"","message":"","currency":"","rating":5.6}]