[{"name":"The Charles Dickens","phone":"+441843600160","twitter":"thecharlesdicke","address":"5-6 Victoria Parade","lat":51.358138520384564,"lng":1.4418934318336327,"city_fetched":"Margate-Ramsgate-Broadstairs,UK","state":"Kent","country":"United Kingdom","canonicalUrl":"https://foursquare.com/v/the-charles-dickens/4c5dbc5d2815c928eab9b567","categoryId":"4bf58dd8d48988d116941735","category":"Bar","checkinsCount":169,"usersCount":139,"tipCount":5,"visitsCount":176,"url":"http://www.charlesdickensbroadstairs.co.uk","tier":"","message":"","currency":"","rating":8.6},{"name":"Harbour Arms","phone":"+447776183273","twitter":"harbourarmsmarg","address":"Units 7 & 8 Stone Pier","lat":51.39107233618398,"lng":1.3788709405016304,"city_fetched":"Margate-Ramsgate-Broadstairs,UK","state":"Kent","country":"United Kingdom","canonicalUrl":"https://foursquare.com/v/harbour-arms/532de735498e1744723bd398","categoryId":"4bf58dd8d48988d116941735","category":"Bar","checkinsCount":93,"usersCount":66,"tipCount":6,"visitsCount":101,"url":"http://harbourarmsmargate.co.uk","tier":"","message":"","currency":"","rating":8.3},{"name":"Royal Albion Hotel","phone":"+441843868071","twitter":"royalalbion","address":"6-12 Albion St","lat":51.35847694883217,"lng":1.4422693848609924,"city_fetched":"Margate-Ramsgate-Broadstairs,UK","state":"Kent","country":"United Kingdom","canonicalUrl":"https://foursquare.com/v/royal-albion-hotel/4bd8a1d92ecdce7219e0d0f2","categoryId":"4bf58dd8d48988d11b941735","category":"Pub","checkinsCount":302,"usersCount":176,"tipCount":3,"visitsCount":306,"url":"http://www.shepherdneame.co.uk","tier":"","message":"","currency":"","rating":7.8},{"name":"The Captain Digby","phone":"+441843867764","twitter":"captain_digby","address":"Whiteness Rd","lat":51.384679659054555,"lng":1.4407841897093685,"city_fetched":"Margate-Ramsgate-Broadstairs,UK","state":"Kent","country":"United Kingdom","canonicalUrl":"https://foursquare.com/v/the-captain-digby/4c4acbc49e6dbe9a3bce140b","categoryId":"4bf58dd8d48988d11b941735","category":"Pub","checkinsCount":168,"usersCount":159,"tipCount":8,"visitsCount":205,"url":"http://www.captaindigby.co.uk","tier":"","message":"","currency":"","rating":7.7},{"name":"The Chapel","phone":"+447837024259","address":"44-46 Albion St","lat":51.359494523146815,"lng":1.4430032043748575,"city_fetched":"Margate-Ramsgate-Broadstairs,UK","state":"Kent","country":"United Kingdom","canonicalUrl":"https://foursquare.com/v/the-chapel/502a259be4b0be6a06d3a666","categoryId":"4bf58dd8d48988d11b941735","category":"Pub","checkinsCount":118,"usersCount":70,"tipCount":5,"visitsCount":119,"tier":"","message":"","currency":"","rating":7.4},{"name":"Miles Bar","phone":"+441843585008","address":"54-56 Harbour Parade","lat":51.3323,"lng":1.421452,"city_fetched":"Margate-Ramsgate-Broadstairs,UK","state":"Kent","country":"United Kingdom","canonicalUrl":"https://foursquare.com/v/miles-bar/4bb7a7f47421a5930dd4c040","categoryId":"4bf58dd8d48988d116941735","category":"Bar","checkinsCount":243,"usersCount":121,"tipCount":4,"visitsCount":245,"url":"http://www.milesbarramsgate.com","tier":"","message":"","currency":"","rating":7.3},{"name":"The Lifeboat","phone":"+441843447118","address":"1 Market St","lat":51.38934419363587,"lng":1.3815550554566736,"city_fetched":"Margate-Ramsgate-Broadstairs,UK","state":"Kent","country":"United Kingdom","canonicalUrl":"https://foursquare.com/v/the-lifeboat/4c236487502b9521d2306e21","categoryId":"4bf58dd8d48988d11b941735","category":"Pub","checkinsCount":392,"usersCount":186,"tipCount":13,"visitsCount":404,"url":"http://www.thelifeboat-margate.com","tier":"","message":"","currency":"","rating":7.3},{"name":"Churchill Tavern","phone":"+441843587862","address":"19-21 Paragon","lat":51.3291411524234,"lng":1.414255302715091,"city_fetched":"Margate-Ramsgate-Broadstairs,UK","state":"Kent","country":"United Kingdom","canonicalUrl":"https://foursquare.com/v/churchill-tavern/4e0a3c6018a8031642cc3d4d","categoryId":"4bf58dd8d48988d11b941735","category":"Pub","checkinsCount":689,"usersCount":117,"tipCount":2,"visitsCount":705,"url":"http://www.churchilltavern.co.uk","tier":"","message":"","currency":"","rating":7.2},{"name":"The Goose","phone":"+441843855110","address":"34-38 Harbour St","lat":51.33270387714398,"lng":1.4204526503995472,"city_fetched":"Margate-Ramsgate-Broadstairs,UK","state":"Kent","country":"United Kingdom","canonicalUrl":"https://foursquare.com/v/the-goose/53511c43498e369691b5d83a","categoryId":"4bf58dd8d48988d11b941735","category":"Pub","checkinsCount":276,"usersCount":97,"tipCount":3,"visitsCount":294,"url":"http://www.gooseramsgate.co.uk","tier":1,"message":"Cheap","currency":"£","rating":7},{"name":"Totally Wired","twitter":"totallywiredm","address":"The Westcoast Bar","lat":51.39015498651871,"lng":1.3817882537841797,"city_fetched":"Margate-Ramsgate-Broadstairs,UK","state":"Kent","country":"United Kingdom","canonicalUrl":"https://foursquare.com/v/totally-wired/4ed39c98c2eee2de8f14c960","categoryId":"4bf58dd8d48988d11f941735","category":"Nightclub","checkinsCount":117,"usersCount":32,"tipCount":1,"visitsCount":117,"tier":1,"message":"Cheap","currency":"£","rating":6.9},{"name":"The Mechanical Elephant (Wetherspoon)","phone":"+441843234100","twitter":"jdwtweet","address":"28-30 Marine Terrace","lat":51.386563,"lng":1.378048,"city_fetched":"Margate-Ramsgate-Broadstairs,UK","state":"Kent","country":"United Kingdom","canonicalUrl":"https://foursquare.com/v/the-mechanical-elephant-wetherspoon/4bc4cc4fabf49521f295c593","categoryId":"4bf58dd8d48988d11b941735","category":"Pub","checkinsCount":654,"usersCount":251,"tipCount":5,"visitsCount":713,"url":"http://www.jdwetherspoon.co.uk","tier":"","message":"","currency":"","rating":6.8},{"name":"The Bell Vue Tavern","phone":"+441843593991","address":"Pegwell Bay","lat":51.32751347909139,"lng":1.3914264986003142,"city_fetched":"Margate-Ramsgate-Broadstairs,UK","state":"Kent","country":"United Kingdom","canonicalUrl":"https://foursquare.com/v/the-bell-vue-tavern/4e142753b3ad51e832e99465","categoryId":"4bf58dd8d48988d11b941735","category":"Pub","checkinsCount":48,"usersCount":30,"tipCount":2,"visitsCount":48,"url":"http://www.shepherdneame.co.uk","tier":"","message":"","currency":"","rating":6.6},{"name":"The Wheatsheaf (Hungry Horse)","phone":"+441843571491","address":"Northdown Park Rd","lat":51.381310112640335,"lng":1.4140194691026406,"city_fetched":"Margate-Ramsgate-Broadstairs,UK","state":"Kent","country":"United Kingdom","canonicalUrl":"https://foursquare.com/v/the-wheatsheaf-hungry-horse/4bb4854bf187a593f43114f8","categoryId":"4bf58dd8d48988d11b941735","category":"Pub","checkinsCount":559,"usersCount":79,"tipCount":5,"visitsCount":564,"url":"http://www.hungryhorse.co.uk","tier":"","message":"","currency":"","rating":6.6},{"name":"Neptunes Hall - Shepherd Neame","phone":"+441843861400","address":"Harbour St","lat":51.359795071590455,"lng":1.4435112476348877,"city_fetched":"Margate-Ramsgate-Broadstairs,UK","state":"Kent","country":"United Kingdom","canonicalUrl":"https://foursquare.com/v/neptunes-hall--shepherd-neame/4dc5b6361f6ef43b8a1d9b46","categoryId":"4bf58dd8d48988d11b941735","category":"Pub","checkinsCount":64,"usersCount":21,"tipCount":1,"visitsCount":64,"url":"http://www.shepherdneame.co.uk","tier":"","message":"","currency":"","rating":6.5},{"name":"Wrotham Arms","phone":"+441843861788","twitter":"shepherdneame","address":"9 Ramsgate Rd","lat":51.35633747955819,"lng":1.4389449728438972,"city_fetched":"Margate-Ramsgate-Broadstairs,UK","state":"Kent","country":"United Kingdom","canonicalUrl":"https://foursquare.com/v/wrotham-arms/4e3d1c161f6e844231e071ec","categoryId":"4bf58dd8d48988d11b941735","category":"Pub","checkinsCount":36,"usersCount":18,"tipCount":0,"visitsCount":49,"url":"http://www.shepherdneame.co.uk","tier":"","message":"","currency":"","rating":6.5},{"name":"The Orb - Shepherd Neame","phone":"+441843220663","twitter":"theorbmargate","address":"Ramsgate Road","lat":51.389162234263175,"lng":1.3799942157576848,"city_fetched":"Margate-Ramsgate-Broadstairs,UK","state":"Kent","country":"United Kingdom","canonicalUrl":"https://foursquare.com/v/the-orb--shepherd-neame/4c2000e363750f47e507bc67","categoryId":"4bf58dd8d48988d11b941735","category":"Pub","checkinsCount":160,"usersCount":11,"tipCount":1,"visitsCount":160,"url":"http://www.shepherdneame.co.uk","tier":"","message":"","currency":"","rating":6.5},{"name":"The Fayreness Hotel - Shepherd Neame","phone":"+441843868641","address":"Marine Drive","lat":51.387640966524145,"lng":1.436811089515686,"city_fetched":"Margate-Ramsgate-Broadstairs,UK","state":"Kent","country":"United Kingdom","canonicalUrl":"https://foursquare.com/v/the-fayreness-hotel--shepherd-neame/4b9d7ec5f964a52040b036e3","categoryId":"4bf58dd8d48988d11b941735","category":"Pub","checkinsCount":73,"usersCount":48,"tipCount":2,"visitsCount":73,"url":"http://www.shepherdneame.co.uk","tier":"","message":"","currency":"","rating":6.5},{"name":"The Seaview - Shepherd Neame","phone":"+441843841660","address":"96 Station Road","lat":51.37655888612868,"lng":1.3032370805740356,"city_fetched":"Margate-Ramsgate-Broadstairs,UK","state":"Kent","country":"United Kingdom","canonicalUrl":"https://foursquare.com/v/the-seaview--shepherd-neame/4dd7de92d4c05d5096f3e241","categoryId":"4bf58dd8d48988d11b941735","category":"Pub","checkinsCount":37,"usersCount":18,"tipCount":2,"visitsCount":37,"url":"http://www.shepherdneame.co.uk","tier":"","message":"","currency":"","rating":6.5},{"name":"Northern Belle (Shepherd Neame)","phone":"+441843298674","address":"Mansion St.","lat":51.39056337619221,"lng":1.3817882537841797,"city_fetched":"Margate-Ramsgate-Broadstairs,UK","state":"Kent","country":"United Kingdom","canonicalUrl":"https://foursquare.com/v/northern-belle-shepherd-neame/4e662005091afcffda174f33","categoryId":"4bf58dd8d48988d11b941735","category":"Pub","checkinsCount":15,"usersCount":13,"tipCount":0,"visitsCount":15,"url":"http://www.shepherdneame.co.uk","tier":"","message":"","currency":"","rating":6.5},{"name":"The Rose in June - Shepherd Neame","phone":"+441843223461","address":"49/50 Trinity Square","lat":51.39113411139136,"lng":1.3873082399368286,"city_fetched":"Margate-Ramsgate-Broadstairs,UK","state":"Kent","country":"United Kingdom","canonicalUrl":"https://foursquare.com/v/the-rose-in-june--shepherd-neame/4e54f3c562e1d184432432e4","categoryId":"4bf58dd8d48988d11b941735","category":"Pub","checkinsCount":6,"usersCount":6,"tipCount":0,"visitsCount":6,"url":"http://www.shepherdneame.co.uk","tier":"","message":"","currency":"","rating":6.4},{"name":"Horse & Groom - Shepherd Neame","phone":"+441843587687","address":"Charlotte Court","lat":51.33311203151714,"lng":1.4195027947425842,"city_fetched":"Margate-Ramsgate-Broadstairs,UK","state":"Kent","country":"United Kingdom","canonicalUrl":"https://foursquare.com/v/horse--groom--shepherd-neame/4dbdb2645da3ff58ec6989fe","categoryId":"4bf58dd8d48988d11b941735","category":"Pub","checkinsCount":23,"usersCount":16,"tipCount":0,"visitsCount":23,"url":"http://www.shepherdneame.co.uk","tier":"","message":"","currency":"","rating":6.4},{"name":"The Sportsman - Shepherd Neame","phone":"+441843852547","address":"Sandwich Road, Cliffsend","lat":51.3256473150757,"lng":1.3653570413589478,"city_fetched":"Margate-Ramsgate-Broadstairs,UK","state":"Kent","country":"United Kingdom","canonicalUrl":"https://foursquare.com/v/the-sportsman--shepherd-neame/4e674f0b814db7421778635f","categoryId":"4bf58dd8d48988d11b941735","category":"Pub","checkinsCount":7,"usersCount":12,"tipCount":0,"visitsCount":13,"url":"http://www.shepherdneame.co.uk","tier":"","message":"","currency":"","rating":6.3},{"name":"Princess of Wales (Shepherd Neame)","phone":"+441843223944","address":"20 Tivoli Rd","lat":51.38154782842523,"lng":1.3805973529815674,"city_fetched":"Margate-Ramsgate-Broadstairs,UK","state":"Kent","country":"United Kingdom","canonicalUrl":"https://foursquare.com/v/princess-of-wales-shepherd-neame/4d793341b706224bbc13358d","categoryId":"4bf58dd8d48988d11b941735","category":"Pub","checkinsCount":14,"usersCount":5,"tipCount":0,"visitsCount":14,"url":"http://www.shepherdneame.co.uk","tier":"","message":"","currency":"","rating":6.2},{"name":"Brewers Fayre","phone":"+448701977182","twitter":"brewersfayre","address":"Station Rd","lat":51.38583381552423,"lng":1.3735881134540926,"city_fetched":"Margate-Ramsgate-Broadstairs,UK","state":"Kent","country":"United Kingdom","canonicalUrl":"https://foursquare.com/v/brewers-fayre/4c4ef4c9fa9d9521fc0b710a","categoryId":"4bf58dd8d48988d11b941735","category":"Pub","checkinsCount":145,"usersCount":100,"tipCount":0,"visitsCount":147,"url":"http://www.brewersfayre.co.uk/pub-restaurant/Kent/Promenade-Margate.html","tier":"","message":"","currency":"","rating":6.2}]