[{"name":"The Castle & Ball Hotel","phone":"+441672515201","address":"High Street","lat":51.42032586420095,"lng":-1.731925438665328,"city_fetched":"Marlborough","state":"Wiltshire","country":"United Kingdom","canonicalUrl":"https://foursquare.com/v/the-castle--ball-hotel/4bba02d93db7b713c9c3229a","category":"Hotel Bar","checkinsCount":258,"usersCount":143,"tipCount":7,"visitsCount":262,"url":"http://www.oldenglishinns.co.uk/marlborough/","tier":"","message":"","currency":"","rating":7.1},{"name":"The Lamb Inn","phone":"+441672512668","address":"5 The Parade","lat":51.421296,"lng":-1.728797,"city_fetched":"Marlborough","state":"Wiltshire","country":"United Kingdom","canonicalUrl":"https://foursquare.com/v/the-lamb-inn/4b7f04fef964a520c61030e3","category":"Pub","checkinsCount":99,"usersCount":40,"tipCount":3,"visitsCount":100,"tier":"","message":"","currency":"","rating":6.3},{"name":"Royal Oak","phone":"+441672512064","address":"111 High Street","lat":51.419843175,"lng":-1.732366,"city_fetched":"Marlborough","state":"Wiltshire","country":"United Kingdom","canonicalUrl":"https://foursquare.com/v/royal-oak/4bc0f517f8219c745d92b210","category":"Pub","checkinsCount":153,"usersCount":93,"tipCount":4,"visitsCount":156,"tier":"","message":"","currency":"","rating":6.1}]