[{"name":"Hare and Hounds","address":"Werneth Low Road","lat":53.43067930543718,"lng":-2.064551355095997,"city_fetched":"Marple,UK","state":"Tameside","country":"United Kingdom","canonicalUrl":"https://foursquare.com/v/hare-and-hounds/4bc1e228abf49521f58dc193","categoryId":"4bf58dd8d48988d11b941735","category":"Pub","checkinsCount":286,"usersCount":204,"tipCount":5,"visitsCount":372,"tier":"","message":"","currency":"","rating":8.2},{"name":"The Joshua Bradley","phone":"+441614066776","address":"Stockport Rd.","lat":53.43344729158494,"lng":-2.084149097948286,"city_fetched":"Marple,UK","country":"United Kingdom","canonicalUrl":"https://foursquare.com/v/the-joshua-bradley/4bbb3340cf2fc9b6ec45a202","categoryId":"4bf58dd8d48988d116941735","category":"Bar","checkinsCount":244,"usersCount":161,"tipCount":4,"visitsCount":337,"tier":"","message":"","currency":"","rating":7.5},{"name":"The Ring O'Bells","phone":"+441614272300","address":"130 Church Lane","lat":53.39157549876503,"lng":-2.061141634846495,"neighborhood":"Marple South","city_fetched":"Marple,UK","state":"Cheshire","country":"United Kingdom","canonicalUrl":"https://foursquare.com/v/the-ring-obells/4bc9b712511f9521b115aec7","categoryId":"4bf58dd8d48988d11b941735","category":"Pub","checkinsCount":102,"usersCount":57,"tipCount":2,"visitsCount":107,"tier":"","message":"","currency":"","rating":7.3},{"name":"Puss In Boots","phone":"+441614565200","twitter":"pussinbootspub","address":"147 Nangreave Rd","lat":53.396905,"lng":-2.138642,"city_fetched":"Marple,UK","state":"Cheshire","country":"United Kingdom","canonicalUrl":"https://foursquare.com/v/puss-in-boots/4d665331838654811bf8f653","categoryId":"4bf58dd8d48988d11b941735","category":"Pub","checkinsCount":219,"usersCount":143,"tipCount":4,"visitsCount":315,"url":"http://almond-pubs.co.uk/puss-in-boots","tier":"","message":"","currency":"","rating":7.3},{"name":"The Norfolk Arms","address":"2 Town St","lat":53.40171,"lng":-2.053904,"city_fetched":"Marple,UK","country":"United Kingdom","canonicalUrl":"https://foursquare.com/v/the-norfolk-arms/4fdba820e4b06737a95d9112","categoryId":"4bf58dd8d48988d11b941735","category":"Pub","checkinsCount":64,"usersCount":38,"tipCount":3,"visitsCount":71,"tier":"","message":"","currency":"","rating":6.3},{"name":"Fiveways","address":"Macclesfield Road","lat":53.36847939161979,"lng":-2.1140098571777344,"neighborhood":"Hazel Grove","city_fetched":"Marple,UK","state":"Stockport","country":"United Kingdom","canonicalUrl":"https://foursquare.com/v/fiveways/4bdb1de9fed22d7fdf7d57c9","categoryId":"4bf58dd8d48988d11b941735","category":"Pub","checkinsCount":132,"usersCount":68,"tipCount":2,"visitsCount":135,"tier":"","message":"","currency":"","rating":6.2},{"name":"The Wilfred Wood (Wetherspoon)","phone":"+441614192440","address":"204 London Rd.","lat":53.379508423017164,"lng":-2.1204860739736966,"neighborhood":"Hazel Grove","city_fetched":"Marple,UK","state":"Stockport","country":"United Kingdom","canonicalUrl":"https://foursquare.com/v/the-wilfred-wood-wetherspoon/4c87aa25821e9eb02dcc8d89","categoryId":"4bf58dd8d48988d11b941735","category":"Pub","checkinsCount":711,"usersCount":260,"tipCount":7,"visitsCount":832,"url":"http://www.jdwetherspoon.co.uk","tier":"","message":"","currency":"","rating":6},{"name":"Boars Head","lat":53.34716778378751,"lng":-2.0857643638407253,"city_fetched":"Marple,UK","country":"United Kingdom","canonicalUrl":"https://foursquare.com/v/boars-head/4c79887e794e224b0be46528","categoryId":"4bf58dd8d48988d11b941735","category":"Pub","checkinsCount":69,"usersCount":46,"tipCount":2,"visitsCount":74,"tier":"","message":"","currency":"","rating":5.9},{"name":"The Cotton Bale (Wetherspoon)","phone":"+441613510380","address":"Market Pl.","lat":53.45164366069468,"lng":-2.077960968017578,"city_fetched":"Marple,UK","country":"United Kingdom","canonicalUrl":"https://foursquare.com/v/the-cotton-bale-wetherspoon/4b3132b5f964a520640225e3","categoryId":"4bf58dd8d48988d11b941735","category":"Pub","checkinsCount":243,"usersCount":64,"tipCount":1,"visitsCount":256,"url":"http://www.jdwetherspoon.co.uk","tier":"","message":"","currency":"","rating":5.7},{"name":"Bamford Arms (Beefeater)","phone":"+441614802968","twitter":"beefeater","address":"Buxton Rd","lat":53.396346049884464,"lng":-2.1496344367151172,"city_fetched":"Marple,UK","state":"Cheshire","country":"United Kingdom","canonicalUrl":"https://foursquare.com/v/bamford-arms-beefeater/4c36063618e72d7f991714f5","categoryId":"4bf58dd8d48988d11b941735","category":"Pub","checkinsCount":370,"usersCount":193,"tipCount":9,"visitsCount":489,"url":"http://www.beefeater.co.uk/steak-restaurant/Cheshire/Bamford-Arms-Heavily.html","tier":"","message":"","currency":"","rating":5.4}]