[{"name":"Meantime Brewing Company","phone":"+442082931111","twitter":"meantimebrewing","address":"Lawrence Trading Estate","lat":51.489595029814836,"lng":0.008375389398685186,"neighborhood":"Greenwich","city_fetched":"Medway,UK","state":"Greater London","country":"United Kingdom","canonicalUrl":"https://foursquare.com/v/meantime-brewing-company/4ca9ce3cb7106dcb4ecb7fa5","categoryId":"50327c8591d4c4b30a586d5d","category":"Brewery","checkinsCount":962,"usersCount":1133,"tipCount":25,"visitsCount":1483,"url":"http://www.meantimebrewing.com","tier":"","message":"","currency":"","rating":8.8},{"name":"The Leather Bottle","address":"Cobham","lat":51.390706300735474,"lng":0.3988015651702881,"city_fetched":"Medway,UK","state":"Kent","country":"United Kingdom","canonicalUrl":"https://foursquare.com/v/the-leather-bottle/4bd2f8f3caff9521c3b2d3f0","categoryId":"4bf58dd8d48988d11b941735","category":"Pub","checkinsCount":55,"usersCount":78,"tipCount":2,"visitsCount":110,"tier":"","message":"","currency":"","rating":8.3},{"name":"Princess of Wales","phone":"+442088525784","address":"1a Montpeller Row","lat":51.46941153916701,"lng":0.01039973992015584,"neighborhood":"Blackheath","city_fetched":"Medway,UK","state":"Greater London","country":"United Kingdom","canonicalUrl":"https://foursquare.com/v/princess-of-wales/4b2fe171f964a520e1f124e3","categoryId":"4bf58dd8d48988d11b941735","category":"Pub","checkinsCount":1442,"usersCount":940,"tipCount":20,"visitsCount":1975,"tier":"","message":"","currency":"","rating":8},{"name":"The Vanbrugh","phone":"+442083051007","twitter":"thevanbrugh","address":"91 Colomb St","lat":51.483417282997934,"lng":0.00789856221545901,"city_fetched":"Medway,UK","state":"Greater London","country":"United Kingdom","canonicalUrl":"https://foursquare.com/v/the-vanbrugh/4af5ebc6f964a520d7fe21e3","categoryId":"4bf58dd8d48988d11b941735","category":"Pub","checkinsCount":729,"usersCount":459,"tipCount":12,"visitsCount":1130,"url":"http://www.thevanbrugh.co.uk","tier":"","message":"","currency":"","rating":7.9},{"name":"O2 Lounge","address":"The O2","lat":51.50096188900481,"lng":0.004285584822873687,"neighborhood":"Greenwich","city_fetched":"Medway,UK","state":"Greater London","country":"United Kingdom","canonicalUrl":"https://foursquare.com/v/o2-lounge/4b803322f964a520b15b30e3","categoryId":"4bf58dd8d48988d116941735","category":"Bar","checkinsCount":1138,"usersCount":856,"tipCount":1,"visitsCount":1138,"tier":"","message":"","currency":"","rating":7.9},{"name":"The Farm House","phone":"+441732843257","address":"97-99 High Street","lat":51.293613,"lng":0.408685,"city_fetched":"Medway,UK","state":"Kent","country":"United Kingdom","canonicalUrl":"https://foursquare.com/v/the-farm-house/4beefc1cd5e1c928deeb0e81","categoryId":"4bf58dd8d48988d11b941735","category":"Pub","checkinsCount":128,"usersCount":85,"tipCount":5,"visitsCount":148,"url":"http://www.elitepubs.com/the_farmhouse/","tier":"","message":"","currency":"","rating":7.8},{"name":"Six Bells","phone":"+441245467232","lat":51.76446124975929,"lng":0.5476399808647037,"city_fetched":"Medway,UK","state":"Essex","country":"United Kingdom","canonicalUrl":"https://foursquare.com/v/six-bells/4c273ef9f1272d7f7edd87c5","categoryId":"4bf58dd8d48988d11b941735","category":"Pub","checkinsCount":114,"usersCount":96,"tipCount":2,"visitsCount":196,"tier":"","message":"","currency":"","rating":7.8},{"name":"The Anchor Pub","phone":"+441702230205","address":"284 Ferry Rd.","lat":51.62951605466756,"lng":0.6141615813028759,"city_fetched":"Medway,UK","state":"Essex","country":"United Kingdom","canonicalUrl":"https://foursquare.com/v/the-anchor-pub/4c056897191f20a1c50ce314","categoryId":"4bf58dd8d48988d11b941735","category":"Pub","checkinsCount":242,"usersCount":164,"tipCount":6,"visitsCount":329,"url":"http://www.theanchorhullbridge.co.uk","tier":"","message":"","currency":"","rating":7.7},{"name":"The Taproom SE18","phone":"+442083164413","twitter":"taproomse18","address":"15 Major Draper St","lat":51.49222660580589,"lng":0.07134584736683815,"neighborhood":"Woolwich Riverside","city_fetched":"Medway,UK","state":"Greater London","country":"United Kingdom","canonicalUrl":"https://foursquare.com/v/the-taproom-se18/562915e7498e006e2fd4be42","categoryId":"4bf58dd8d48988d11b941735","category":"Pub","checkinsCount":219,"usersCount":89,"tipCount":10,"visitsCount":286,"url":"http://www.taproomse18.com","tier":2,"message":"Moderate","currency":"£","rating":7.7},{"name":"The Lord Northbrook","address":"116 Burnt Ash Rd.","lat":51.450874,"lng":0.012283,"neighborhood":"Lee Green","city_fetched":"Medway,UK","state":"Greater London","country":"United Kingdom","canonicalUrl":"https://foursquare.com/v/the-lord-northbrook/4edcefa829c2b9122b6acb52","categoryId":"4bf58dd8d48988d11b941735","category":"Pub","checkinsCount":454,"usersCount":219,"tipCount":9,"visitsCount":525,"url":"http://www.thelordnorthbrook.co.uk","tier":"","message":"","currency":"","rating":7.6},{"name":"Star And Eagle","address":"High St","lat":51.113563,"lng":0.4607041,"city_fetched":"Medway,UK","state":"Kent","country":"United Kingdom","canonicalUrl":"https://foursquare.com/v/star-and-eagle/4c713ca1b5a5236ac5675252","categoryId":"4bf58dd8d48988d1d5941735","category":"Hotel Bar","checkinsCount":101,"usersCount":105,"tipCount":3,"visitsCount":140,"url":"http://starandeagle.com","tier":"","message":"","currency":"","rating":7.6},{"name":"The Sun Inn - Shepherd Neame","phone":"+441795535098","address":"10 West Street","lat":51.31595176090408,"lng":0.8899006247520447,"city_fetched":"Medway,UK","state":"Kent","country":"United Kingdom","canonicalUrl":"https://foursquare.com/v/the-sun-inn--shepherd-neame/4c55aaefb3b09c74719b4fb4","categoryId":"4bf58dd8d48988d11b941735","category":"Pub","checkinsCount":563,"usersCount":201,"tipCount":5,"visitsCount":647,"url":"http://www.shepherdneame.co.uk","tier":"","message":"","currency":"","rating":7.6},{"name":"Dial Arch","phone":"+442031300700","twitter":"dialarch","address":"Dial Arch Buildings, No 1 Street, The Warren","lat":51.49231953883773,"lng":0.06982720866577496,"neighborhood":"Woolwich Riverside","city_fetched":"Medway,UK","state":"Greater London","country":"United Kingdom","canonicalUrl":"https://foursquare.com/v/dial-arch/4c2b7d7957a9c9b6e1fbf567","categoryId":"4bf58dd8d48988d11b941735","category":"Pub","checkinsCount":3059,"usersCount":963,"tipCount":54,"visitsCount":3587,"url":"http://www.dialarch.com","tier":2,"message":"Moderate","currency":"£","rating":7.5},{"name":"Shepherd Neame","phone":"+441795532206","address":"17 Court Street","lat":51.31667158880029,"lng":0.8915719125350232,"city_fetched":"Medway,UK","state":"Kent","country":"United Kingdom","canonicalUrl":"https://foursquare.com/v/shepherd-neame/4c4fd5421886c9b64f32af27","categoryId":"50327c8591d4c4b30a586d5d","category":"Brewery","checkinsCount":253,"usersCount":187,"tipCount":7,"visitsCount":278,"url":"http://www.shepherdneame.co.uk","tier":"","message":"","currency":"","rating":7.5},{"name":"Zerodegrees","phone":"+442088525619","twitter":"zerodegreesbeer","address":"29/31 Montpelier Vale","lat":51.467226482698074,"lng":0.008380117638942022,"neighborhood":"Blackheath","city_fetched":"Medway,UK","state":"Greater London","country":"United Kingdom","canonicalUrl":"https://foursquare.com/v/zerodegrees/4bbde254f57ba5937390aeb9","categoryId":"4bf58dd8d48988d116941735","category":"Bar","checkinsCount":1291,"usersCount":799,"tipCount":29,"visitsCount":1381,"url":"http://www.zerodegrees.co.uk","tier":2,"message":"Moderate","currency":"£","rating":7.5},{"name":"Best Western the Russell Hotel","phone":"+441622692221","twitter":"russellhotel","address":"136 Boxley Road","lat":51.285101508059974,"lng":0.5318376641113273,"city_fetched":"Medway,UK","state":"Kent","country":"United Kingdom","canonicalUrl":"https://foursquare.com/russellhotel","categoryId":"4bf58dd8d48988d1d5941735","category":"Hotel Bar","checkinsCount":173,"usersCount":85,"tipCount":3,"visitsCount":173,"url":"http://www.therussellhotel.com","tier":"","message":"","currency":"","rating":7.5},{"name":"Hotel Continental","phone":"+441227280280","address":"29 Beach Walk","lat":51.3644541060922,"lng":1.0322157747373404,"city_fetched":"Medway,UK","state":"Kent","country":"United Kingdom","canonicalUrl":"https://foursquare.com/v/hotel-continental/4bd8a2ad11dcc9286d22f733","categoryId":"4bf58dd8d48988d1d5941735","category":"Hotel Bar","checkinsCount":269,"usersCount":165,"tipCount":3,"visitsCount":305,"tier":"","message":"","currency":"","rating":7.4},{"name":"VIP Club Lounge","phone":"+448447369980","address":"The O2","lat":51.50224504569465,"lng":0.004113559422892967,"neighborhood":"Greenwich","city_fetched":"Medway,UK","state":"Greater London","country":"United Kingdom","canonicalUrl":"https://foursquare.com/v/vip-club-lounge/4cf6aec366585481abbbca98","categoryId":"4bf58dd8d48988d121941735","category":"Lounge","checkinsCount":1157,"usersCount":802,"tipCount":7,"visitsCount":1160,"url":"http://www.theo2.co.uk/the-vip-experience","tier":"","message":"","currency":"","rating":7.4},{"name":"Crumpled Horn (Marston's)","phone":"+441708226698","twitter":"marstonspubs","address":"33-37 Corbets Tey Rd.","lat":51.554750204086304,"lng":0.24846911430358887,"neighborhood":"Upminster","city_fetched":"Medway,UK","state":"Greater London","country":"United Kingdom","canonicalUrl":"https://foursquare.com/v/crumpled-horn-marstons/4adb22f6f964a520832421e3","categoryId":"4bf58dd8d48988d11b941735","category":"Pub","checkinsCount":310,"usersCount":175,"tipCount":1,"visitsCount":424,"url":"http://www.crumpledhornpub.co.uk","tier":"","message":"","currency":"","rating":7.4},{"name":"NY-LON","twitter":"nylonattheo2","address":"Peninsula Square","lat":51.50309697919061,"lng":0.0049438940546799376,"neighborhood":"Greenwich","city_fetched":"Medway,UK","country":"United Kingdom","canonicalUrl":"https://foursquare.com/v/nylon/55e5be01498eb5b183482219","categoryId":"4bf58dd8d48988d11e941735","category":"Cocktail Bar","checkinsCount":39,"usersCount":34,"tipCount":2,"visitsCount":39,"tier":"","message":"","currency":"","rating":7.4},{"name":"The Man Of Kent","phone":"+447772214315","address":"6 - 8 Kent Street","lat":51.3837307381873,"lng":0.5054140090942383,"city_fetched":"Medway,UK","state":"Kent","country":"United Kingdom","canonicalUrl":"https://foursquare.com/v/the-man-of-kent/4b5b5fd1f964a520cdf828e3","categoryId":"4bf58dd8d48988d11b941735","category":"Pub","checkinsCount":779,"usersCount":142,"tipCount":9,"visitsCount":822,"tier":"","message":"","currency":"","rating":7.3},{"name":"The Ship Inn","phone":"+441634402222","address":"Upnor Road","lat":51.41154702009611,"lng":0.5301064252853394,"city_fetched":"Medway,UK","state":"Kent","country":"United Kingdom","canonicalUrl":"https://foursquare.com/v/the-ship-inn/4b7edd41f964a5203c0530e3","categoryId":"4bf58dd8d48988d11b941735","category":"Pub","checkinsCount":782,"usersCount":77,"tipCount":5,"visitsCount":804,"url":"http://www.shiprochester.co.uk","tier":"","message":"","currency":"","rating":7.2},{"name":"Swan & Mitre (Original Pub Company)","phone":"+442084605617","address":"260-262 High St.","lat":51.40716116585334,"lng":0.011552064888796561,"neighborhood":"Bromley Town","city_fetched":"Medway,UK","state":"Greater London","country":"United Kingdom","canonicalUrl":"https://foursquare.com/v/swan--mitre-original-pub-company/4b70bbc1f964a520152c2de3","categoryId":"4bf58dd8d48988d11b941735","category":"Pub","checkinsCount":629,"usersCount":216,"tipCount":5,"visitsCount":729,"url":"http://www.originalpubco.com/pub-food/swan-mitre-bromley/pid-m2615","tier":"","message":"","currency":"","rating":7.2},{"name":"The Eagle Tavern","lat":51.38776502748889,"lng":0.5056139357414833,"city_fetched":"Medway,UK","country":"United Kingdom","canonicalUrl":"https://foursquare.com/v/the-eagle-tavern/4c4595ffdd1f2d7fce5e81f9","categoryId":"4bf58dd8d48988d11b941735","category":"Pub","checkinsCount":207,"usersCount":112,"tipCount":4,"visitsCount":217,"tier":"","message":"","currency":"","rating":7.2},{"name":"The Tudor Rose - Shepherd Neame","address":"29 High St","lat":51.40620496914011,"lng":0.5260831117630005,"city_fetched":"Medway,UK","state":"Kent","country":"United Kingdom","canonicalUrl":"https://foursquare.com/v/the-tudor-rose--shepherd-neame/4d31bb3a2e56236a9d7515b4","categoryId":"4bf58dd8d48988d11b941735","category":"Pub","checkinsCount":48,"usersCount":43,"tipCount":2,"visitsCount":49,"url":"http://www.shepherdneame.co.uk","tier":"","message":"","currency":"","rating":7.1},{"name":"Sun Inn","phone":"+441622884221","address":"The Street","lat":51.30965618531822,"lng":0.6950728816467793,"neighborhood":"Bredgar","city_fetched":"Medway,UK","state":"Kent","country":"United Kingdom","canonicalUrl":"https://foursquare.com/v/sun-inn/4f0996b2e4b0e8ed38b58144","categoryId":"4bf58dd8d48988d11b941735","category":"Pub","checkinsCount":181,"usersCount":47,"tipCount":2,"visitsCount":205,"tier":"","message":"","currency":"","rating":7.1},{"name":"The Golden Lion (Wetherspoon)","phone":"+441634880521","address":"147-149 High St.","lat":51.38669189643161,"lng":0.5066880583763123,"city_fetched":"Medway,UK","state":"Kent","country":"United Kingdom","canonicalUrl":"https://foursquare.com/v/the-golden-lion-wetherspoon/4ba4049cf964a520487838e3","categoryId":"4bf58dd8d48988d11b941735","category":"Pub","checkinsCount":1369,"usersCount":477,"tipCount":5,"visitsCount":1555,"url":"http://www.jdwetherspoon.co.uk/home/pubs/the-golden-lion-rochester","tier":"","message":"","currency":"","rating":7},{"name":"The Railway","phone":"+442088522390","twitter":"railwaypub","address":"16 Blackheath Village","lat":51.4654250998054,"lng":0.009026576924270557,"neighborhood":"Blackheath","city_fetched":"Medway,UK","state":"Greater London","country":"United Kingdom","canonicalUrl":"https://foursquare.com/v/the-railway/4bb63f21f562ef3b70da2f97","categoryId":"4bf58dd8d48988d11b941735","category":"Pub","checkinsCount":1231,"usersCount":584,"tipCount":24,"visitsCount":1333,"url":"http://www.therailwayblackheath.co.uk","tier":"","message":"","currency":"","rating":7},{"name":"Building Six","phone":"+442084632149","address":"O2 Arena","lat":51.50390280923833,"lng":0.0034324875591340365,"city_fetched":"Medway,UK","state":"Greater London","country":"United Kingdom","canonicalUrl":"https://foursquare.com/v/building-six/4d571c5f9e508cfaa281179b","categoryId":"4bf58dd8d48988d11f941735","category":"Nightclub","checkinsCount":582,"usersCount":478,"tipCount":16,"visitsCount":585,"url":"http://www.theo2.co.uk","tier":"","message":"","currency":"","rating":6.9},{"name":"Golden Crane (Charles Wells)","phone":"+441708224701","address":"117 Avon Rd.","lat":51.56888622904779,"lng":0.26664633860752407,"city_fetched":"Medway,UK","state":"Greater London","country":"United Kingdom","canonicalUrl":"https://foursquare.com/v/golden-crane-charles-wells/4c540b625b83952188aebd31","categoryId":"4bf58dd8d48988d116941735","category":"Bar","checkinsCount":370,"usersCount":72,"tipCount":3,"visitsCount":477,"tier":"","message":"","currency":"","rating":6.9},{"name":"fighting cocks","address":"The Street","lat":51.39147219750637,"lng":0.24013012647628784,"city_fetched":"Medway,UK","country":"United Kingdom","canonicalUrl":"https://foursquare.com/v/fighting-cocks/4bc97712b6c49c7405878e91","categoryId":"4bf58dd8d48988d11b941735","category":"Pub","checkinsCount":137,"usersCount":140,"tipCount":5,"visitsCount":217,"url":"http://www.fightingcockshortonkirby.co.uk","tier":"","message":"","currency":"","rating":6.9},{"name":"Sky Backstage","address":"The O2","lat":51.50240417965522,"lng":0.0033063422461317507,"city_fetched":"Medway,UK","state":"Greater London","country":"United Kingdom","canonicalUrl":"https://foursquare.com/v/sky-backstage/4eb6dc16d3e3644ca6d341ed","categoryId":"4bf58dd8d48988d116941735","category":"Bar","checkinsCount":394,"usersCount":298,"tipCount":8,"visitsCount":395,"url":"http://www.sky.com","tier":"","message":"","currency":"","rating":6.8},{"name":"Tudor Rose - Shepherd Neame","phone":"+441795842575","address":"Chestnut Street, Borden","lat":51.34409740076684,"lng":0.6934797763824463,"city_fetched":"Medway,UK","state":"Kent","country":"United Kingdom","canonicalUrl":"https://foursquare.com/v/tudor-rose--shepherd-neame/4d95af5c97d06ea8d3c3ef0a","categoryId":"4bf58dd8d48988d11b941735","category":"Pub","checkinsCount":47,"usersCount":49,"tipCount":1,"visitsCount":64,"url":"http://www.shepherdneame.co.uk","tier":"","message":"","currency":"","rating":6.8},{"name":"Inn On The Green","phone":"+441277658998","address":"Mountnessing Rd.","lat":51.63175424710464,"lng":0.40919605204956677,"city_fetched":"Medway,UK","state":"Essex","country":"United Kingdom","canonicalUrl":"https://foursquare.com/v/inn-on-the-green/4c84063fe602b1f73552ab7a","categoryId":"4bf58dd8d48988d11b941735","category":"Pub","checkinsCount":195,"usersCount":55,"tipCount":5,"visitsCount":224,"tier":"","message":"","currency":"","rating":6.8},{"name":"The Ardleigh","phone":"+441708442550","address":"124 Ardleigh Green Rd.","lat":51.584338688102,"lng":0.22073861667743166,"city_fetched":"Medway,UK","state":"Greater London","country":"United Kingdom","canonicalUrl":"https://foursquare.com/v/the-ardleigh/4b84d359f964a520fc4431e3","categoryId":"4bf58dd8d48988d11b941735","category":"Pub","checkinsCount":164,"usersCount":96,"tipCount":2,"visitsCount":227,"url":"http://www.emberinns.co.uk/the-ardleigh-hornchurch/","tier":"","message":"","currency":"","rating":6.8},{"name":"The Wharf","phone":"+441322229939","address":"Galleon Blvd.","lat":51.45290377348424,"lng":0.2536886930465698,"city_fetched":"Medway,UK","state":"Kent","country":"United Kingdom","canonicalUrl":"https://foursquare.com/v/the-wharf/4bf16c8a78a2a59321eb9efd","categoryId":"4bf58dd8d48988d11b941735","category":"Pub","checkinsCount":255,"usersCount":163,"tipCount":1,"visitsCount":347,"url":"http://www.shepherdneame.co.uk","tier":"","message":"","currency":"","rating":6.7},{"name":"Nag's Head","phone":"+441277260005","address":"Brook St.","lat":51.61077854119456,"lng":0.27167539285128817,"city_fetched":"Medway,UK","state":"Essex","country":"United Kingdom","canonicalUrl":"https://foursquare.com/v/nags-head/4babbe00f964a52072c53ae3","categoryId":"50327c8591d4c4b30a586d5d","category":"Brewery","checkinsCount":266,"usersCount":238,"tipCount":3,"visitsCount":363,"tier":"","message":"","currency":"","rating":6.7},{"name":"Halfway House","phone":"+441233740258","address":"Canterbury Rd","lat":51.22115055993348,"lng":0.8792675962021653,"city_fetched":"Medway,UK","state":"Kent","country":"United Kingdom","canonicalUrl":"https://foursquare.com/v/halfway-house/4c43478ecc410f47d1faad61","categoryId":"50327c8591d4c4b30a586d5d","category":"Brewery","checkinsCount":67,"usersCount":91,"tipCount":3,"visitsCount":127,"tier":"","message":"","currency":"","rating":6.7},{"name":"The Plough Inn","phone":"+441322862281","twitter":"plougheynsford","address":"Riverside","lat":51.368449330329895,"lng":0.209931,"city_fetched":"Medway,UK","state":"Kent","country":"United Kingdom","canonicalUrl":"https://foursquare.com/v/the-plough-inn/4ba5454af964a52042f438e3","categoryId":"4bf58dd8d48988d11b941735","category":"Pub","checkinsCount":272,"usersCount":270,"tipCount":7,"visitsCount":371,"url":"http://www.theploughinneynsford.co.uk","tier":"","message":"","currency":"","rating":6.6},{"name":"wxyz bar","address":"Aloft Hotel Excel","lat":51.50816270453921,"lng":0.035174101479746304,"neighborhood":"Custom House","city_fetched":"Medway,UK","country":"United Kingdom","canonicalUrl":"https://foursquare.com/v/wxyz-bar/4ebaaba3dab4b5032400593f","categoryId":"4bf58dd8d48988d1d5941735","category":"Hotel Bar","checkinsCount":337,"usersCount":200,"tipCount":6,"visitsCount":340,"tier":"","message":"","currency":"","rating":6.6},{"name":"Ship & Trades - Shepherd Neame","phone":"+441634895200","address":"Chatham Maritime","lat":51.40246867600972,"lng":0.536382794380188,"city_fetched":"Medway,UK","state":"Kent","country":"United Kingdom","canonicalUrl":"https://foursquare.com/v/ship--trades--shepherd-neame/4bc77d6b93bdeee1677037ae","categoryId":"4bf58dd8d48988d11b941735","category":"Pub","checkinsCount":480,"usersCount":335,"tipCount":5,"visitsCount":776,"url":"http://www.shepherdneame.co.uk","tier":"","message":"","currency":"","rating":6.6},{"name":"Upper Deck Restaurant & Bar","phone":"+442076600677","address":"7 Western Gateway","lat":51.50751376820967,"lng":0.02373218536376953,"city_fetched":"Medway,UK","state":"Greater London","country":"United Kingdom","canonicalUrl":"https://foursquare.com/v/upper-deck-restaurant--bar/4c38d830ae2da593d17701c6","categoryId":"4bf58dd8d48988d1d5941735","category":"Hotel Bar","checkinsCount":281,"usersCount":183,"tipCount":9,"visitsCount":281,"url":"http://www.novotel.com","tier":"","message":"","currency":"","rating":6.5},{"name":"American Express Lounge","twitter":"amexuk","address":"The O2","lat":51.50209108112342,"lng":0.00419368108641575,"city_fetched":"Medway,UK","state":"Greater London","country":"United Kingdom","canonicalUrl":"https://foursquare.com/v/american-express-lounge/53c95ac7498e9959101de976","categoryId":"4bf58dd8d48988d121941735","category":"Lounge","checkinsCount":97,"usersCount":61,"tipCount":1,"visitsCount":97,"url":"http://www.inviteslounge.com","tier":"","message":"","currency":"","rating":6.5},{"name":"The Four Horseshoes - Shepherd Neame","phone":"+441227273876","address":"Borstal Hill","lat":51.34763742631321,"lng":1.0212403535842896,"city_fetched":"Medway,UK","state":"Kent","country":"United Kingdom","canonicalUrl":"https://foursquare.com/v/the-four-horseshoes--shepherd-neame/4c4ad947f7cc1b8ddabc023f","categoryId":"4bf58dd8d48988d11b941735","category":"Pub","checkinsCount":5,"usersCount":5,"tipCount":0,"visitsCount":5,"url":"http://www.shepherdneame.co.uk","tier":"","message":"","currency":"","rating":6.5},{"name":"The Mackland Arms (Shepherd Neame)","phone":"+441634232178","address":"213 Station Rd.","lat":51.367900608886735,"lng":0.6143009662628174,"city_fetched":"Medway,UK","state":"Kent","country":"United Kingdom","canonicalUrl":"https://foursquare.com/v/the-mackland-arms-shepherd-neame/4e25cad5d4c0d18a28a9d399","categoryId":"4bf58dd8d48988d11b941735","category":"Pub","checkinsCount":275,"usersCount":13,"tipCount":0,"visitsCount":276,"url":"http://www.shepherdneame.co.uk","tier":"","message":"","currency":"","rating":6.5},{"name":"The Duke of Edinburgh - Shepherd Neame","phone":"+441622727122","address":"Heath Road","lat":51.26762281370907,"lng":0.48287004232406616,"city_fetched":"Medway,UK","state":"Kent","country":"United Kingdom","canonicalUrl":"https://foursquare.com/v/the-duke-of-edinburgh--shepherd-neame/4bfeb847e584c92847206d25","categoryId":"4bf58dd8d48988d11b941735","category":"Pub","checkinsCount":59,"usersCount":18,"tipCount":1,"visitsCount":66,"url":"http://www.shepherdneame.co.uk","tier":"","message":"","currency":"","rating":6.5},{"name":"The Nelson Arms - Shepherd Neame","phone":"+441732350822","address":"Cromer St","lat":51.192797547107986,"lng":0.26462405920028687,"city_fetched":"Medway,UK","state":"Kent","country":"United Kingdom","canonicalUrl":"https://foursquare.com/v/the-nelson-arms--shepherd-neame/4dc19b8b8877c00d6adcbcbf","categoryId":"4bf58dd8d48988d11b941735","category":"Pub","checkinsCount":69,"usersCount":11,"tipCount":1,"visitsCount":69,"url":"http://www.shepherdneame.co.uk","tier":"","message":"","currency":"","rating":6.5},{"name":"Beacon Court Tavern - Shepherd Neame","phone":"+441634853186","address":"Canterbury Street","lat":51.383738,"lng":0.545176,"city_fetched":"Medway,UK","state":"Kent","country":"United Kingdom","canonicalUrl":"https://foursquare.com/v/beacon-court-tavern--shepherd-neame/4c13d259a9c220a16f74569d","categoryId":"4bf58dd8d48988d11b941735","category":"Pub","checkinsCount":74,"usersCount":33,"tipCount":0,"visitsCount":74,"url":"http://www.shepherdneame.co.uk","tier":"","message":"","currency":"","rating":6.5},{"name":"Fishermans Arms - Shepherd Neame","phone":"+441622755443","address":"40 Lower Stone Street","lat":51.271009324994814,"lng":0.5249914526939392,"city_fetched":"Medway,UK","state":"Kent","country":"United Kingdom","canonicalUrl":"https://foursquare.com/v/fishermans-arms--shepherd-neame/4c0322809a7920a19491cf79","categoryId":"4bf58dd8d48988d11b941735","category":"Pub","checkinsCount":279,"usersCount":36,"tipCount":1,"visitsCount":290,"url":"http://www.shepherdneame.co.uk","tier":"","message":"","currency":"","rating":6.5},{"name":"The Orange Tree - Shepherd Neame","phone":"+441322272483","address":"Hawley Road","lat":51.43380024163564,"lng":0.21527409553527832,"city_fetched":"Medway,UK","state":"Kent","country":"United Kingdom","canonicalUrl":"https://foursquare.com/v/the-orange-tree--shepherd-neame/4c5dc03c7735c9b6d7059072","categoryId":"4bf58dd8d48988d11b941735","category":"Pub","checkinsCount":62,"usersCount":26,"tipCount":1,"visitsCount":65,"url":"http://www.shepherdneame.co.uk","tier":"","message":"","currency":"","rating":6.5},{"name":"The Dragoon - Shepherd Neame","phone":"+441622752620","address":"40 Sandling Road","lat":51.28038050432386,"lng":0.5197691917419434,"city_fetched":"Medway,UK","state":"Kent","country":"United Kingdom","canonicalUrl":"https://foursquare.com/v/the-dragoon--shepherd-neame/4d9762dcc19fb60ca4509565","categoryId":"4bf58dd8d48988d11b941735","category":"Pub","checkinsCount":30,"usersCount":14,"tipCount":0,"visitsCount":30,"url":"http://www.shepherdneame.co.uk","tier":"","message":"","currency":"","rating":6.5},{"name":"The Ship Inn","phone":"+441634402222","address":"347 High St","lat":51.38333730364682,"lng":0.5152789405766904,"city_fetched":"Medway,UK","state":"Kent","country":"United Kingdom","canonicalUrl":"https://foursquare.com/v/the-ship-inn/4cd04ad5f6378cfa5740b4d6","categoryId":"4bf58dd8d48988d1d8941735","category":"Gay Bar","checkinsCount":69,"usersCount":36,"tipCount":3,"visitsCount":112,"url":"http://www.shiprochester.co.uk","tier":"","message":"","currency":"","rating":6.5},{"name":"The Dewdrop - Shepherd Neame","phone":"+441634232173","address":"Begonia Avenue","lat":51.37111730566377,"lng":0.5912339687347412,"city_fetched":"Medway,UK","state":"Kent","country":"United Kingdom","canonicalUrl":"https://foursquare.com/v/the-dewdrop--shepherd-neame/4dc8520445ddf311e6e6877b","categoryId":"4bf58dd8d48988d11b941735","category":"Pub","checkinsCount":12,"usersCount":8,"tipCount":0,"visitsCount":12,"url":"http://www.shepherdneame.co.uk","tier":"","message":"","currency":"","rating":6.4},{"name":"The Alma - Shepherd Neame","phone":"+441634735316","address":"Alma Place, Strood","lat":51.39402449968159,"lng":0.4915952682495117,"city_fetched":"Medway,UK","state":"Kent","country":"United Kingdom","canonicalUrl":"https://foursquare.com/v/the-alma--shepherd-neame/4e141d7ab3ad51e832e9915b","categoryId":"4bf58dd8d48988d11b941735","category":"Pub","checkinsCount":5,"usersCount":5,"tipCount":1,"visitsCount":5,"url":"http://www.shepherdneame.co.uk","tier":"","message":"","currency":"","rating":6.4},{"name":"The Royal Oak - Shepherd Neame","phone":"+441474872301","address":"Chapelwood Road","lat":51.367436756300485,"lng":0.2976474165916443,"city_fetched":"Medway,UK","state":"Kent","country":"United Kingdom","canonicalUrl":"https://foursquare.com/v/the-royal-oak--shepherd-neame/4e00fa6dd22db37fb026cdd3","categoryId":"4bf58dd8d48988d11b941735","category":"Pub","checkinsCount":38,"usersCount":16,"tipCount":0,"visitsCount":40,"url":"http://www.shepherdneame.co.uk","tier":"","message":"","currency":"","rating":6.4},{"name":"The Westcliff Hotel","phone":"+441702345247","address":"18-20 Westcliff Parade","lat":51.535072511129364,"lng":0.700637084379136,"city_fetched":"Medway,UK","state":"Essex","country":"United Kingdom","canonicalUrl":"https://foursquare.com/v/the-westcliff-hotel/4ba2c1f2f964a520b81638e3","categoryId":"4bf58dd8d48988d1d5941735","category":"Hotel Bar","checkinsCount":167,"usersCount":124,"tipCount":7,"visitsCount":221,"url":"http://www.westcliff-hotel.co.uk","tier":"","message":"","currency":"","rating":6.4},{"name":"White Hart","lat":51.373401014658654,"lng":0.45812990688490285,"city_fetched":"Medway,UK","country":"United Kingdom","canonicalUrl":"https://foursquare.com/v/white-hart/4c461c59f88dc92838c6ae75","categoryId":"4bf58dd8d48988d11b941735","category":"Pub","checkinsCount":36,"usersCount":33,"tipCount":1,"visitsCount":49,"url":"http://www.shepherdneame.co.uk","tier":"","message":"","currency":"","rating":6.4},{"name":"Tap 'n' Tin","phone":"+441634831119","address":"24A Railway Street","lat":51.38125482758054,"lng":0.5212525469811936,"city_fetched":"Medway,UK","state":"Kent","country":"United Kingdom","canonicalUrl":"https://foursquare.com/v/tap-n-tin/4bc391dc74a9a59334bdd4f6","categoryId":"4bf58dd8d48988d116941735","category":"Bar","checkinsCount":298,"usersCount":78,"tipCount":1,"visitsCount":298,"tier":"","message":"","currency":"","rating":6.4},{"name":"Gardeners Arms - Shepherd Neame","phone":"+441474823901","address":"2 Forge Lane","lat":51.415507692654835,"lng":0.45757403476221653,"city_fetched":"Medway,UK","state":"Kent","country":"United Kingdom","canonicalUrl":"https://foursquare.com/v/gardeners-arms--shepherd-neame/4c3e1b976faac9b64ec20d76","categoryId":"4bf58dd8d48988d11b941735","category":"Pub","checkinsCount":72,"usersCount":16,"tipCount":1,"visitsCount":83,"url":"http://www.shepherdneame.co.uk","tier":"","message":"","currency":"","rating":6.4},{"name":"Park Tavern - Shepherd Neame","phone":"+441795555158","address":"Park Road","lat":51.33802862808113,"lng":0.7303065061569214,"city_fetched":"Medway,UK","state":"Kent","country":"United Kingdom","canonicalUrl":"https://foursquare.com/v/park-tavern--shepherd-neame/4e6638a0091afcffda1a7175","categoryId":"4bf58dd8d48988d11b941735","category":"Pub","checkinsCount":6,"usersCount":5,"tipCount":0,"visitsCount":6,"url":"http://www.shepherdneame.co.uk","tier":"","message":"","currency":"","rating":6.4},{"name":"The Fenn Bell Inn - Shepherd Neame","phone":"+441634270213","address":"St Mary Hoo","lat":51.45193432842702,"lng":0.5894637107849121,"city_fetched":"Medway,UK","state":"Kent","country":"United Kingdom","canonicalUrl":"https://foursquare.com/v/the-fenn-bell-inn--shepherd-neame/4e301d6d922e47c92927635a","categoryId":"4bf58dd8d48988d11b941735","category":"Pub","checkinsCount":13,"usersCount":11,"tipCount":0,"visitsCount":20,"url":"http://www.shepherdneame.co.uk","tier":"","message":"","currency":"","rating":6.4},{"name":"Rose Inn - Shepherd Neame","phone":"+441634231047","address":"High Street","lat":51.36166248679956,"lng":0.6170180439949036,"city_fetched":"Medway,UK","state":"Kent","country":"United Kingdom","canonicalUrl":"https://foursquare.com/v/rose-inn--shepherd-neame/4e24590a1fc7c0ef9858630f","categoryId":"4bf58dd8d48988d11b941735","category":"Pub","checkinsCount":106,"usersCount":23,"tipCount":1,"visitsCount":138,"url":"http://www.shepherdneame.co.uk","tier":"","message":"","currency":"","rating":6.4},{"name":"Globe & Engine - Shepherd Neame","phone":"+441795472795","address":"Berry Street","lat":51.34152388352896,"lng":0.7354241609573364,"city_fetched":"Medway,UK","state":"Kent","country":"United Kingdom","canonicalUrl":"https://foursquare.com/v/globe--engine--shepherd-neame/4e65ee0d091afcffda11c895","categoryId":"4bf58dd8d48988d11b941735","category":"Pub","checkinsCount":11,"usersCount":5,"tipCount":0,"visitsCount":11,"url":"http://www.shepherdneame.co.uk","tier":"","message":"","currency":"","rating":6.4},{"name":"Divers Arms - Shepherd Neame","phone":"+441227367717","address":"66 Central Parade","lat":51.372888820402,"lng":1.1269193887710571,"city_fetched":"Medway,UK","state":"Kent","country":"United Kingdom","canonicalUrl":"https://foursquare.com/v/divers-arms--shepherd-neame/4e300bdd922e47c929275b3d","categoryId":"4bf58dd8d48988d11b941735","category":"Pub","checkinsCount":27,"usersCount":20,"tipCount":2,"visitsCount":27,"url":"http://www.shepherdneame.co.uk","tier":"","message":"","currency":"","rating":6.4},{"name":"The Lamb Inn - Shepherd Neame","phone":"+441322615161","address":"Swanley Village","lat":51.4040750015521,"lng":0.20105302333831787,"city_fetched":"Medway,UK","state":"Kent","country":"United Kingdom","canonicalUrl":"https://foursquare.com/v/the-lamb-inn--shepherd-neame/4c51d704d797e21eb2e7bb7c","categoryId":"4bf58dd8d48988d11b941735","category":"Pub","checkinsCount":10,"usersCount":7,"tipCount":0,"visitsCount":12,"url":"http://www.shepherdneame.co.uk","tier":"","message":"","currency":"","rating":6.4},{"name":"Railway Tavern - Shepherd Neame","phone":"+441474822705","address":"Chequers St, Lower Higham","lat":51.428313625499285,"lng":0.4649770259857178,"city_fetched":"Medway,UK","state":"Kent","country":"United Kingdom","canonicalUrl":"https://foursquare.com/v/railway-tavern--shepherd-neame/4e67424c814db7421776ee53","categoryId":"4bf58dd8d48988d11b941735","category":"Pub","checkinsCount":13,"usersCount":9,"tipCount":0,"visitsCount":13,"url":"http://www.shepherdneame.co.uk","tier":"","message":"","currency":"","rating":6.4},{"name":"The Two Brewers - Shepherd Neame","phone":"+441634812448","address":"113 High Street","lat":51.388136416812216,"lng":0.5052316188812256,"city_fetched":"Medway,UK","state":"Kent","country":"United Kingdom","canonicalUrl":"https://foursquare.com/v/the-two-brewers--shepherd-neame/4bddf493ffdec928141de7a1","categoryId":"4bf58dd8d48988d11b941735","category":"Pub","checkinsCount":136,"usersCount":58,"tipCount":1,"visitsCount":138,"url":"http://www.shepherdneame.co.uk","tier":"","message":"","currency":"","rating":6.4},{"name":"The British Queen - Shepherd Neame","phone":"+441622686699","address":"Square Hill","lat":51.273075007889545,"lng":0.5323487520217896,"city_fetched":"Medway,UK","state":"Kent","country":"United Kingdom","canonicalUrl":"https://foursquare.com/v/the-british-queen--shepherd-neame/4d15e614cc216ea87b3a66d3","categoryId":"4bf58dd8d48988d11b941735","category":"Pub","checkinsCount":9,"usersCount":6,"tipCount":1,"visitsCount":9,"url":"http://www.shepherdneame.co.uk","tier":"","message":"","currency":"","rating":6.4},{"name":"The Three Mariners - Shepherd Neame","phone":"+441795533633","address":"2 Church Street","lat":51.32988093386655,"lng":0.8788043260574341,"city_fetched":"Medway,UK","state":"Kent","country":"United Kingdom","canonicalUrl":"https://foursquare.com/v/the-three-mariners--shepherd-neame/4bb4d9dcbc82a5934ef13e72","categoryId":"4bf58dd8d48988d11b941735","category":"Pub","checkinsCount":70,"usersCount":54,"tipCount":3,"visitsCount":85,"url":"http://www.shepherdneame.co.uk","tier":"","message":"","currency":"","rating":6.4},{"name":"The Watermans Arms - Shepherd Neame","phone":"+441634861503","address":"151 High Street","lat":51.350889049794475,"lng":0.4585397243499756,"city_fetched":"Medway,UK","state":"Kent","country":"United Kingdom","canonicalUrl":"https://foursquare.com/v/the-watermans-arms--shepherd-neame/4e688229b3ad5d9197525853","categoryId":"4bf58dd8d48988d11b941735","category":"Pub","checkinsCount":6,"usersCount":6,"tipCount":0,"visitsCount":6,"url":"http://www.shepherdneame.co.uk","tier":"","message":"","currency":"","rating":6.4},{"name":"Coopers","phone":"+442083317572","twitter":"gkunions","address":"Jellicoe Building","lat":51.398161267870464,"lng":0.5371713265566459,"city_fetched":"Medway,UK","state":"Kent","country":"United Kingdom","canonicalUrl":"https://foursquare.com/v/coopers/4cd7dc877bb06dcbe6149fb2","categoryId":"50327c8591d4c4b30a586d5d","category":"Brewery","checkinsCount":146,"usersCount":67,"tipCount":3,"visitsCount":166,"url":"http://www.gkunions.co.uk","tier":"","message":"","currency":"","rating":6.4},{"name":"The Fountain - Shepherd Neame","phone":"+441795472015","address":"37 Station Street","lat":51.34149707529727,"lng":0.7348823547363281,"city_fetched":"Medway,UK","state":"Kent","country":"United Kingdom","canonicalUrl":"https://foursquare.com/v/the-fountain--shepherd-neame/4e54db0f636510eb2e0de86d","categoryId":"4bf58dd8d48988d11b941735","category":"Pub","checkinsCount":23,"usersCount":15,"tipCount":0,"visitsCount":23,"url":"http://www.shepherdneame.co.uk","tier":"","message":"","currency":"","rating":6.4},{"name":"The Hutton Junction","address":"15 Rayleigh Road","lat":51.6317182,"lng":0.333158,"city_fetched":"Medway,UK","state":"Essex","country":"United Kingdom","canonicalUrl":"https://foursquare.com/v/the-hutton-junction/4b7449d7f964a520c5d22de3","categoryId":"4bf58dd8d48988d11b941735","category":"Pub","checkinsCount":370,"usersCount":105,"tipCount":4,"visitsCount":485,"tier":"","message":"","currency":"","rating":6.2},{"name":"Six Bells - Shepherd Neame","phone":"+441634220609","address":"181 Church St","lat":51.46128360065736,"lng":0.4977911710739136,"city_fetched":"Medway,UK","state":"Kent","country":"United Kingdom","canonicalUrl":"https://foursquare.com/v/six-bells--shepherd-neame/4dec7286d164ef597d1e93ba","categoryId":"4bf58dd8d48988d11b941735","category":"Pub","checkinsCount":43,"usersCount":19,"tipCount":3,"visitsCount":45,"url":"http://www.shepherdneame.co.uk","tier":"","message":"","currency":"","rating":6.2},{"name":"The Harrow - Shepherd Neame","phone":"+441795842546","address":"The Street","lat":51.32543947891067,"lng":0.6401413679122925,"city_fetched":"Medway,UK","state":"Kent","country":"United Kingdom","canonicalUrl":"https://foursquare.com/v/the-harrow--shepherd-neame/4d1cea7d8629224b3f74f486","categoryId":"4bf58dd8d48988d11b941735","category":"Pub","checkinsCount":6,"usersCount":7,"tipCount":0,"visitsCount":7,"url":"http://www.shepherdneame.co.uk","tier":"","message":"","currency":"","rating":6.2},{"name":"White Lion","phone":"+441580765077","twitter":"whiteliontn30","address":"57 High St.","lat":51.06788277371934,"lng":0.6866187295074463,"city_fetched":"Medway,UK","state":"Kent","country":"United Kingdom","canonicalUrl":"https://foursquare.com/v/white-lion/4b7fe3a5f964a520ac4230e3","categoryId":"4bf58dd8d48988d11b941735","category":"Pub","checkinsCount":570,"usersCount":179,"tipCount":12,"visitsCount":619,"tier":"","message":"","currency":"","rating":6},{"name":"The Peacock - Shepherd Neame","phone":"+441580211233","address":"Goudhurst Road","lat":51.11040766904492,"lng":0.49045372696109063,"city_fetched":"Medway,UK","state":"Kent","country":"United Kingdom","canonicalUrl":"https://foursquare.com/v/the-peacock--shepherd-neame/4ce683dff86537046130a3c4","categoryId":"4bf58dd8d48988d11b941735","category":"Pub","checkinsCount":45,"usersCount":26,"tipCount":1,"visitsCount":49,"url":"http://www.shepherdneame.co.uk","tier":"","message":"","currency":"","rating":6},{"name":"The Casino Rooms Nightclub","phone":"+441634832888","twitter":"casinorooms","address":"Blue Boar Ln","lat":51.38781169662109,"lng":0.5065298080444336,"city_fetched":"Medway,UK","state":"Kent","country":"United Kingdom","canonicalUrl":"https://foursquare.com/v/the-casino-rooms-nightclub/4c117fc872caa593f0aa5da4","categoryId":"4bf58dd8d48988d11f941735","category":"Nightclub","checkinsCount":329,"usersCount":130,"tipCount":5,"visitsCount":329,"url":"http://www.casinoroomsnightclub.net","tier":"","message":"","currency":"","rating":6},{"name":"Honourable Pilot (Brewers Fayre)","phone":"+441634261500","twitter":"brewersfayre","address":"Will Adams Way, Watling Street","lat":51.3704338487226,"lng":0.5699038976287841,"city_fetched":"Medway,UK","state":"Kent","country":"United Kingdom","canonicalUrl":"https://foursquare.com/v/honourable-pilot-brewers-fayre/4c4f0c44e33495210261be15","categoryId":"4bf58dd8d48988d11b941735","category":"Pub","checkinsCount":349,"usersCount":184,"tipCount":4,"visitsCount":386,"url":"http://www.brewersfayre.co.uk/pub-restaurant/Kent/Honourable-Pilot-Gillingham.html","tier":"","message":"","currency":"","rating":6},{"name":"Drakes Cork and Cask","address":"9 Fairmeadow","lat":51.27303861961739,"lng":0.5187227740436414,"city_fetched":"Medway,UK","state":"Kent","country":"United Kingdom","canonicalUrl":"https://foursquare.com/v/drakes-cork-and-cask/4b7173eff964a5206b472de3","categoryId":"4bf58dd8d48988d11b941735","category":"Pub","checkinsCount":532,"usersCount":104,"tipCount":5,"visitsCount":537,"tier":"","message":"","currency":"","rating":5.9},{"name":"The Crown Freehouse","phone":"+441634814874","address":"2 High St.","lat":51.3912797230442,"lng":0.5018949508666992,"city_fetched":"Medway,UK","state":"Kent","country":"United Kingdom","canonicalUrl":"https://foursquare.com/v/the-crown-freehouse/4da0d11ad686b60c9d0c9828","categoryId":"4bf58dd8d48988d11b941735","category":"Pub","checkinsCount":185,"usersCount":107,"tipCount":4,"visitsCount":185,"url":"http://www.thecrownrochester.co.uk","tier":"","message":"","currency":"","rating":5.9},{"name":"King's Arms","lat":51.40640505452388,"lng":0.5248550473682254,"city_fetched":"Medway,UK","country":"United Kingdom","canonicalUrl":"https://foursquare.com/v/kings-arms/5128e4cbe4b0701b2e45ede7","categoryId":"4bf58dd8d48988d117941735","category":"Beer Garden","checkinsCount":48,"usersCount":52,"tipCount":0,"visitsCount":64,"tier":"","message":"","currency":"","rating":5.9},{"name":"The Alexandra Hotel - Shepherd Neame","phone":"+441634830545","address":"Railway Street","lat":51.380684123134216,"lng":0.5210811995577899,"city_fetched":"Medway,UK","state":"Kent","country":"United Kingdom","canonicalUrl":"https://foursquare.com/v/the-alexandra-hotel--shepherd-neame/4e141c42b3ad51e832e990f9","categoryId":"4bf58dd8d48988d11b941735","category":"Pub","checkinsCount":621,"usersCount":41,"tipCount":1,"visitsCount":621,"url":"http://www.shepherdneame.co.uk","tier":"","message":"","currency":"","rating":5.9},{"name":"Mu Mu","phone":"+441622669800","address":"108-110 Week St.","lat":51.27709871165582,"lng":0.5220866203308105,"city_fetched":"Medway,UK","state":"Kent","country":"United Kingdom","canonicalUrl":"https://foursquare.com/v/mu-mu/4bb8efdd3db7b71316ce219a","categoryId":"4bf58dd8d48988d116941735","category":"Bar","checkinsCount":357,"usersCount":196,"tipCount":11,"visitsCount":377,"tier":"","message":"","currency":"","rating":5.8},{"name":"Brewers Fayre","phone":"+448701977229","twitter":"brewersfayre","address":"Sheppey Way","lat":51.3512439,"lng":0.70699,"city_fetched":"Medway,UK","country":"United Kingdom","canonicalUrl":"https://foursquare.com/v/brewers-fayre/4c4f0c9ee33495217290be15","categoryId":"4bf58dd8d48988d11b941735","category":"Pub","checkinsCount":171,"usersCount":81,"tipCount":2,"visitsCount":174,"url":"http://www.brewersfayre.co.uk/pub-restaurant/Kent/Bobbing-Apple-Sittingbourne.html","tier":"","message":"","currency":"","rating":5.8},{"name":"Brewers Fayre","phone":"+441732521630","twitter":"brewersfayre","address":"Castle Way","lat":51.306391654871824,"lng":0.4241752624511719,"city_fetched":"Medway,UK","state":"Kent","country":"United Kingdom","canonicalUrl":"https://foursquare.com/v/brewers-fayre/4c1cbd1deac020a14bf146c2","categoryId":"4bf58dd8d48988d11b941735","category":"Pub","checkinsCount":191,"usersCount":100,"tipCount":6,"visitsCount":222,"url":"http://www.brewersfayre.co.uk/pub-restaurant/Kent/Castle-Lake-Maidstone.html","tier":"","message":"","currency":"","rating":5.7},{"name":"The Cricketers","phone":"+441634387272","address":"88 High St","lat":51.363216654140665,"lng":0.608067512512207,"city_fetched":"Medway,UK","state":"Kent","country":"United Kingdom","canonicalUrl":"https://foursquare.com/v/the-cricketers/4b9c22e0f964a520c14d36e3","categoryId":"4bf58dd8d48988d11b941735","category":"Pub","checkinsCount":473,"usersCount":137,"tipCount":5,"visitsCount":500,"url":"http://www.gkflamegrill.co.uk/locations/cricketers-rainham","tier":"","message":"","currency":"","rating":5.7},{"name":"The Furze Wren (Wetherspoon)","phone":"+442082982590","address":"Unit 6, Market Place","lat":51.45688652549926,"lng":0.1473734235425436,"neighborhood":"Bexley","city_fetched":"Medway,UK","state":"Greater London","country":"United Kingdom","canonicalUrl":"https://foursquare.com/v/the-furze-wren-wetherspoon/4adc754ff964a5206d2c21e3","categoryId":"4bf58dd8d48988d11b941735","category":"Pub","checkinsCount":1207,"usersCount":364,"tipCount":10,"visitsCount":1259,"url":"http://www.jdwetherspoon.co.uk","tier":"","message":"","currency":"","rating":5.7},{"name":"Sugar Hut Village","phone":"+441277200884","address":"93-95 High St.","lat":51.6200941348296,"lng":0.30044722766053544,"city_fetched":"Medway,UK","state":"Essex","country":"United Kingdom","canonicalUrl":"https://foursquare.com/v/sugar-hut-village/4cba16e8bac937046c43e97c","categoryId":"4bf58dd8d48988d11f941735","category":"Nightclub","checkinsCount":593,"usersCount":455,"tipCount":4,"visitsCount":673,"tier":"","message":"","currency":"","rating":5.6},{"name":"Reids","phone":"+441277632378","twitter":"reidsbillericay","address":"66-68 Laindon Rd.","lat":51.61883354187012,"lng":0.415983,"city_fetched":"Medway,UK","state":"Essex","country":"United Kingdom","canonicalUrl":"https://foursquare.com/v/reids/4be495ed910020a185eed114","categoryId":"4bf58dd8d48988d11a941735","category":"Other Nightlife","checkinsCount":199,"usersCount":164,"tipCount":6,"visitsCount":295,"url":"http://www.reidsbillericay.com","tier":"","message":"","currency":"","rating":5.6},{"name":"The Cock Inn","address":"Hall Road","lat":51.5830808741093,"lng":0.6782754630770059,"city_fetched":"Medway,UK","state":"Essex","country":"United Kingdom","canonicalUrl":"https://foursquare.com/v/the-cock-inn/4dadaf5643a18e54131b5a08","categoryId":"4bf58dd8d48988d117941735","category":"Beer Garden","checkinsCount":282,"usersCount":64,"tipCount":3,"visitsCount":314,"tier":"","message":"","currency":"","rating":5.6},{"name":"Danson Stables","phone":"+442083032071","address":"Danson Park","lat":51.4577774301609,"lng":0.1173090934753418,"neighborhood":"Bexley","city_fetched":"Medway,UK","state":"Greater London","country":"United Kingdom","canonicalUrl":"https://foursquare.com/v/danson-stables/4b9cce89f964a5208a7c36e3","categoryId":"50327c8591d4c4b30a586d5d","category":"Brewery","checkinsCount":290,"usersCount":154,"tipCount":7,"visitsCount":309,"url":"http://www.dansonstables.co.uk","tier":"","message":"","currency":"","rating":5.5},{"name":"The Star","phone":"+441634851174","address":"Watling St","lat":51.37172679483938,"lng":0.561525821685791,"city_fetched":"Medway,UK","state":"Kent","country":"United Kingdom","canonicalUrl":"https://foursquare.com/v/the-star/4b71bfd1f964a520295a2de3","categoryId":"4bf58dd8d48988d11b941735","category":"Pub","checkinsCount":323,"usersCount":153,"tipCount":3,"visitsCount":371,"url":"http://www.hungryhorse.co.uk/pubs/star-gillingham","tier":"","message":"","currency":"","rating":5.5},{"name":"Nags Head","phone":"+441634843150","address":"292 St. Margarets Banks","lat":51.384824307591295,"lng":0.5112736394586826,"city_fetched":"Medway,UK","state":"Kent","country":"United Kingdom","canonicalUrl":"https://foursquare.com/v/nags-head/4bca25c4fb84c9b683881c3e","categoryId":"4bf58dd8d48988d116941735","category":"Bar","checkinsCount":447,"usersCount":65,"tipCount":1,"visitsCount":467,"tier":"","message":"","currency":"","rating":5.4},{"name":"The Humphrey Bean (Wetherspoon)","phone":"+441732773850","address":"94 High St.","lat":51.195188,"lng":0.274279,"city_fetched":"Medway,UK","state":"Kent","country":"United Kingdom","canonicalUrl":"https://foursquare.com/v/the-humphrey-bean-wetherspoon/4bb8c51acf2fc9b614d39f02","categoryId":"4bf58dd8d48988d11b941735","category":"Pub","checkinsCount":790,"usersCount":279,"tipCount":7,"visitsCount":882,"url":"http://www.jdwetherspoon.co.uk","tier":"","message":"","currency":"","rating":5.4},{"name":"The Vineyard","phone":"+441795426969","address":"8-10 West St.","lat":51.34069668737744,"lng":0.7330428614929093,"city_fetched":"Medway,UK","state":"Kent","country":"United Kingdom","canonicalUrl":"https://foursquare.com/v/the-vineyard/4df871322271607ac917ec7f","categoryId":"4bf58dd8d48988d11b941735","category":"Pub","checkinsCount":237,"usersCount":66,"tipCount":2,"visitsCount":247,"tier":"","message":"","currency":"","rating":5.4},{"name":"FEDE - Bar, Restaurant, Grill","address":"1 Eastern Gateway","lat":51.508198707298014,"lng":0.03494517884175374,"neighborhood":"Custom House","city_fetched":"Medway,UK","state":"Greater London","country":"United Kingdom","canonicalUrl":"https://foursquare.com/v/fede--bar-restaurant-grill/4eb062b16da1b66bf70be794","categoryId":"4bf58dd8d48988d1d5941735","category":"Hotel Bar","checkinsCount":333,"usersCount":199,"tipCount":12,"visitsCount":333,"url":"http://www.aloftlondonexcel.com/excel-london-restaurant","tier":"","message":"","currency":"","rating":5.4},{"name":"The Cricketers","phone":"+441634851226","address":"Sturdee Ave","lat":51.380904988528144,"lng":0.5613461136817932,"city_fetched":"Medway,UK","state":"Kent","country":"United Kingdom","canonicalUrl":"https://foursquare.com/v/the-cricketers/4c8ba90a1797236a1cff6c88","categoryId":"4bf58dd8d48988d11b941735","category":"Pub","checkinsCount":256,"usersCount":65,"tipCount":4,"visitsCount":273,"url":"http://www.thecricketersgillingham.co.uk","tier":"","message":"","currency":"","rating":5.3},{"name":"Tiger Moth","address":"1-15 Highview Dr","lat":51.35218323457267,"lng":0.5088070394685102,"city_fetched":"Medway,UK","state":"Kent","country":"United Kingdom","canonicalUrl":"https://foursquare.com/v/tiger-moth/4d8e3da9cb9b224bd9de7f41","categoryId":"4bf58dd8d48988d116941735","category":"Bar","checkinsCount":98,"usersCount":69,"tipCount":0,"visitsCount":121,"tier":"","message":"","currency":"","rating":5.2},{"name":"The George Vaults","phone":"+441634817165","address":"35 High Street","lat":51.390399491018044,"lng":0.503449427860801,"city_fetched":"Medway,UK","state":"Kent","country":"United Kingdom","canonicalUrl":"https://foursquare.com/v/the-george-vaults/4c9f33fa0e9bb1f77951ee5f","categoryId":"4bf58dd8d48988d116941735","category":"Bar","checkinsCount":565,"usersCount":166,"tipCount":6,"visitsCount":595,"tier":"","message":"","currency":"","rating":5.1},{"name":"The City Wall","lat":51.38777822018171,"lng":0.5053442716598511,"city_fetched":"Medway,UK","country":"United Kingdom","canonicalUrl":"https://foursquare.com/v/the-city-wall/4bd466eda8b3a59380af6b5f","categoryId":"4bf58dd8d48988d11b941735","category":"Pub","checkinsCount":327,"usersCount":79,"tipCount":2,"visitsCount":330,"tier":"","message":"","currency":"","rating":5},{"name":"Manor Farm (Beefeater)","phone":"+441634373230","twitter":"beefeatergrill","address":"High St","lat":51.364806,"lng":0.60348,"city_fetched":"Medway,UK","state":"Kent","country":"United Kingdom","canonicalUrl":"https://foursquare.com/v/manor-farm-beefeater/4c4d883314b7b713d6d15f78","categoryId":"4bf58dd8d48988d11b941735","category":"Pub","checkinsCount":233,"usersCount":144,"tipCount":8,"visitsCount":293,"url":"http://www.beefeater.co.uk","tier":"","message":"","currency":"","rating":5},{"name":"American Sports Bar & Grill","phone":"+442083055360","address":"The O2","lat":51.50187038902359,"lng":0.0044341367556779586,"neighborhood":"Greenwich","city_fetched":"Medway,UK","state":"Greater London","country":"United Kingdom","canonicalUrl":"https://foursquare.com/v/american-sports-bar--grill/4bc362e0abf49521e3aec393","categoryId":"4bf58dd8d48988d11d941735","category":"Sports Bar","checkinsCount":769,"usersCount":589,"tipCount":8,"visitsCount":771,"url":"http://www.americanbarandgrill.co.uk","tier":"","message":"","currency":"","rating":4.5}]