[{"name":"The George Inn","address":"4 West St","lat":51.41505339509653,"lng":-2.123579978942871,"city_fetched":"Melksham,UK","state":"Wiltshire","country":"United Kingdom","canonicalUrl":"https://foursquare.com/v/the-george-inn/4b9beabaf964a520883536e3","categoryId":"4bf58dd8d48988d11b941735","category":"Pub","checkinsCount":750,"usersCount":473,"tipCount":14,"visitsCount":834,"tier":"","message":"","currency":"","rating":8.5},{"name":"The Barge Inn","phone":"+441380828230","twitter":"bargeinnseend","address":"Perry's Ln","lat":51.351389375000004,"lng":-2.0992037499999996,"city_fetched":"Melksham,UK","state":"Wiltshire","country":"United Kingdom","canonicalUrl":"https://foursquare.com/v/the-barge-inn/4bb4f17ab1edef3b2c572cdd","categoryId":"4bf58dd8d48988d11b941735","category":"Pub","checkinsCount":233,"usersCount":172,"tipCount":7,"visitsCount":302,"url":"http://www.bargeinnseend.co.uk","tier":"","message":"","currency":"","rating":8.4},{"name":"The Fox","phone":"+441225782949","twitter":"thefoxbroughton","address":"The Street","lat":51.372071932675595,"lng":-2.1748617019615266,"city_fetched":"Melksham,UK","state":"Wiltshire","country":"United Kingdom","canonicalUrl":"https://foursquare.com/v/the-fox/4b9cf4e2f964a520c98436e3","categoryId":"4bf58dd8d48988d11b941735","category":"Pub","checkinsCount":168,"usersCount":65,"tipCount":5,"visitsCount":189,"url":"http://www.thefox-broughtongifford.co.uk","tier":"","message":"","currency":"","rating":8},{"name":"Red Lion","phone":"+441249730456","address":"High St.","lat":51.41473221162909,"lng":-2.1213912963867188,"city_fetched":"Melksham,UK","state":"Wiltshire","country":"United Kingdom","canonicalUrl":"https://foursquare.com/v/red-lion/4bbb57c03db7b713be33249a","categoryId":"4bf58dd8d48988d11b941735","category":"Pub","checkinsCount":477,"usersCount":235,"tipCount":7,"visitsCount":493,"tier":"","message":"","currency":"","rating":7.7},{"name":"The Somerset Arms","phone":"+441380870067","address":"High Street","lat":51.34539306163788,"lng":-2.147736,"city_fetched":"Melksham,UK","state":"Wiltshire","country":"United Kingdom","canonicalUrl":"https://foursquare.com/v/the-somerset-arms/4c28cc29e19720a13674f858","categoryId":"4bf58dd8d48988d11b941735","category":"Pub","checkinsCount":51,"usersCount":47,"tipCount":3,"visitsCount":58,"url":"http://www.somersetarmssemington.co.uk","tier":"","message":"","currency":"","rating":7.1},{"name":"The Bear (Wetherspoon)","phone":"+441225792690","twitter":"jdwtweet","address":"3 Bath Rd","lat":51.37489388611776,"lng":-2.138995405777819,"city_fetched":"Melksham,UK","state":"Wiltshire","country":"United Kingdom","canonicalUrl":"https://foursquare.com/v/the-bear-wetherspoon/4fb29f5de4b06d535f7a2950","categoryId":"4bf58dd8d48988d11b941735","category":"Pub","checkinsCount":265,"usersCount":56,"tipCount":7,"visitsCount":268,"url":"http://www.jdwetherspoon.co.uk/home/pubs/the-bear-melksham","tier":"","message":"","currency":"","rating":6.1}]