[{"name":"Plough Inn","address":"Main St, Hickling, Melton Mowbray, Nottinghamshire LE14 3AQ","lat":52.85796646517161,"lng":-0.975793094531268,"city_fetched":"Melton Mowbray,UK","state":"Leicestershire","country":"United Kingdom","canonicalUrl":"https://foursquare.com/v/plough-inn/4efcdd240aaffcf6f195a52e","categoryId":"4bf58dd8d48988d11b941735","category":"Pub","checkinsCount":67,"usersCount":31,"tipCount":2,"visitsCount":91,"tier":"","message":"","currency":"","rating":6.8},{"name":"The Boat","address":"Burton Street","lat":52.76216340996357,"lng":-0.8845632852807874,"city_fetched":"Melton Mowbray,UK","country":"United Kingdom","canonicalUrl":"https://foursquare.com/v/the-boat/4f638733e4b0272f2b2d3b5f","categoryId":"4bf58dd8d48988d11b941735","category":"Pub","checkinsCount":64,"usersCount":25,"tipCount":1,"visitsCount":67,"tier":"","message":"","currency":"","rating":6.6},{"name":"Anne of Cleves","address":"Burton St","lat":52.76318300894658,"lng":-0.8853603183216053,"city_fetched":"Melton Mowbray,UK","state":"Leicestershire","country":"United Kingdom","canonicalUrl":"https://foursquare.com/v/anne-of-cleves/4cfb8874dccef04d7eccbb9c","categoryId":"4bf58dd8d48988d11b941735","category":"Pub","checkinsCount":190,"usersCount":91,"tipCount":4,"visitsCount":236,"tier":"","message":"","currency":"","rating":6.3},{"name":"The Kettleby Cross (Wetherspoon)","phone":"+441664485310","address":"Wilton Rd.","lat":52.76551449860644,"lng":-0.8900213241577148,"city_fetched":"Melton Mowbray,UK","state":"Leicestershire","country":"United Kingdom","canonicalUrl":"https://foursquare.com/v/the-kettleby-cross-wetherspoon/4b88443ff964a52063eb31e3","categoryId":"4bf58dd8d48988d11b941735","category":"Pub","checkinsCount":323,"usersCount":131,"tipCount":1,"visitsCount":341,"url":"http://www.jdwetherspoon.co.uk","tier":"","message":"","currency":"","rating":6.2}]