[{"name":"Three Wise Monkeys","phone":"+441206543014","twitter":"twm_colchester","address":"60 High Street","lat":51.88957062046433,"lng":0.9021876338533698,"city_fetched":"Mersea Island,UK","state":"Essex","country":"United Kingdom","canonicalUrl":"https://foursquare.com/v/three-wise-monkeys/5494a23b498e3b3acb94356e","categoryId":"4bf58dd8d48988d116941735","category":"Bar","checkinsCount":338,"usersCount":159,"tipCount":7,"visitsCount":446,"url":"http://www.threewisemonkeyscolchester.com","tier":"","message":"","currency":"","rating":9.1},{"name":"The Victoria Inn","phone":"+441206514510","address":"10 North Station Road","lat":51.894802157857505,"lng":0.8956633508205414,"city_fetched":"Mersea Island,UK","state":"Essex","country":"United Kingdom","canonicalUrl":"https://foursquare.com/v/the-victoria-inn/4e086d5d45ddb2875c50413a","categoryId":"4bf58dd8d48988d11b941735","category":"Pub","checkinsCount":406,"usersCount":122,"tipCount":12,"visitsCount":508,"tier":"","message":"","currency":"","rating":9},{"name":"Queen St Brewhouse","phone":"+447931120806","twitter":"queenstbrewhuis","address":"7 Queen St","lat":51.88942602374256,"lng":0.9043267843603081,"city_fetched":"Mersea Island,UK","state":"Essex","country":"United Kingdom","canonicalUrl":"https://foursquare.com/v/queen-st-brewhouse/5595b6af498ed3fb9518a697","categoryId":"4bf58dd8d48988d11b941735","category":"Pub","checkinsCount":99,"usersCount":24,"tipCount":5,"visitsCount":104,"tier":"","message":"","currency":"","rating":8.3},{"name":"The Peterboat","phone":"+441702475666","address":"27 High Street","lat":51.54034480723487,"lng":0.6491777300834656,"city_fetched":"Mersea Island,UK","state":"Southend-on-Sea","country":"United Kingdom","canonicalUrl":"https://foursquare.com/v/the-peterboat/4bb9f81b7421a5939f35c340","categoryId":"4bf58dd8d48988d11b941735","category":"Pub","checkinsCount":578,"usersCount":536,"tipCount":10,"visitsCount":793,"tier":"","message":"","currency":"","rating":8.3},{"name":"The Hospital Arms","phone":"+441206542398","address":"123 Crouch St.","lat":51.887777,"lng":0.8899253,"city_fetched":"Mersea Island,UK","state":"Essex","country":"United Kingdom","canonicalUrl":"https://foursquare.com/v/the-hospital-arms/4bbba507afe1b71309772f4b","categoryId":"4bf58dd8d48988d11b941735","category":"Pub","checkinsCount":494,"usersCount":206,"tipCount":5,"visitsCount":675,"tier":"","message":"","currency":"","rating":8.2},{"name":"The Lion Inn","phone":"+441245394900","address":"Main Road","lat":51.759976028126886,"lng":0.5352029724640488,"city_fetched":"Mersea Island,UK","state":"Essex","country":"United Kingdom","canonicalUrl":"https://foursquare.com/v/the-lion-inn/4c4b2306c668e21e6cafa8f9","categoryId":"4bf58dd8d48988d11b941735","category":"Pub","checkinsCount":400,"usersCount":325,"tipCount":8,"visitsCount":568,"url":"http://www.lioninnhotel.co.uk","tier":"","message":"","currency":"","rating":8.2},{"name":"The Purple Dog","phone":"+441206564995","twitter":"thepurpledog","address":"42 Eld Lane","lat":51.88800210683928,"lng":0.8993554665686482,"city_fetched":"Mersea Island,UK","state":"Essex","country":"United Kingdom","canonicalUrl":"https://foursquare.com/thepurpledog","categoryId":"4bf58dd8d48988d11b941735","category":"Pub","checkinsCount":1157,"usersCount":452,"tipCount":21,"visitsCount":1315,"tier":"","message":"","currency":"","rating":8.2},{"name":"The Bricklayers","phone":"+441206852008","address":"27 Bergholt Road","lat":51.90205530393316,"lng":0.8945271130228286,"city_fetched":"Mersea Island,UK","state":"Essex","country":"United Kingdom","canonicalUrl":"https://foursquare.com/v/the-bricklayers/4c0a1da135ac9c74848e85f7","categoryId":"4bf58dd8d48988d11b941735","category":"Pub","checkinsCount":1112,"usersCount":127,"tipCount":7,"visitsCount":1301,"tier":"","message":"","currency":"","rating":8.2},{"name":"The Fat Cat","phone":"+441206577990","address":"65 Butt Rd","lat":51.88543066325277,"lng":0.8941305408269818,"city_fetched":"Mersea Island,UK","state":"Essex","country":"United Kingdom","canonicalUrl":"https://foursquare.com/v/the-fat-cat/4b339728f964a5201f1b25e3","categoryId":"4bf58dd8d48988d11b941735","category":"Pub","checkinsCount":475,"usersCount":159,"tipCount":11,"visitsCount":587,"url":"http://www.fatcatcolchester.co.uk","tier":"","message":"","currency":"","rating":8.2},{"name":"Anchor Inn","address":"Court Street","lat":51.969877,"lng":0.872635,"city_fetched":"Mersea Island,UK","state":"Suffolk","country":"United Kingdom","canonicalUrl":"https://foursquare.com/v/anchor-inn/4b9b9ddff964a520e21336e3","categoryId":"4bf58dd8d48988d11b941735","category":"Pub","checkinsCount":55,"usersCount":102,"tipCount":4,"visitsCount":136,"tier":"","message":"","currency":"","rating":8.1},{"name":"Black Buoy","phone":"+441206822425","twitter":"blackbuoypub","address":"Black Buoy Hill","lat":51.854689848692274,"lng":0.9602411936218951,"city_fetched":"Mersea Island,UK","state":"Essex","country":"United Kingdom","canonicalUrl":"https://foursquare.com/v/black-buoy/4d7563f10e258cfaa5bcdfd4","categoryId":"4bf58dd8d48988d11b941735","category":"Pub","checkinsCount":164,"usersCount":64,"tipCount":3,"visitsCount":173,"url":"http://www.blackbuoy.co.uk","tier":"","message":"","currency":"","rating":8},{"name":"The Victory Inn","phone":"+441206382907","address":"92 Coast Road, West Mersea","lat":51.776661,"lng":0.9011685848236084,"city_fetched":"Mersea Island,UK","state":"Essex","country":"United Kingdom","canonicalUrl":"https://foursquare.com/v/the-victory-inn/4bd07d1a462cb713d16dd807","categoryId":"4bf58dd8d48988d11b941735","category":"Pub","checkinsCount":120,"usersCount":106,"tipCount":4,"visitsCount":138,"tier":"","message":"","currency":"","rating":8},{"name":"The Alma Inn","address":"25 King's Head Street","lat":51.94743820394963,"lng":1.2864626988926784,"neighborhood":"CO12 3EE","city_fetched":"Mersea Island,UK","state":"Essex","country":"United Kingdom","canonicalUrl":"https://foursquare.com/v/the-alma-inn/4c3b6b74be4620a196540c13","categoryId":"4bf58dd8d48988d11b941735","category":"Pub","checkinsCount":163,"usersCount":84,"tipCount":7,"visitsCount":182,"url":"http://www.almaharwich.co.uk","tier":"","message":"","currency":"","rating":8},{"name":"Six Bells","phone":"+441245467232","lat":51.76446124975929,"lng":0.5476399808647037,"city_fetched":"Mersea Island,UK","state":"Essex","country":"United Kingdom","canonicalUrl":"https://foursquare.com/v/six-bells/4c273ef9f1272d7f7edd87c5","categoryId":"4bf58dd8d48988d11b941735","category":"Pub","checkinsCount":114,"usersCount":96,"tipCount":2,"visitsCount":196,"tier":"","message":"","currency":"","rating":7.8},{"name":"The Lord Nelson","address":"97-107 Fore St","lat":52.053405,"lng":1.1608059499999999,"city_fetched":"Mersea Island,UK","state":"Suffolk","country":"United Kingdom","canonicalUrl":"https://foursquare.com/v/the-lord-nelson/4c2259e19a67a593025adc87","categoryId":"4bf58dd8d48988d116941735","category":"Bar","checkinsCount":137,"usersCount":67,"tipCount":1,"visitsCount":137,"tier":"","message":"","currency":"","rating":7.8},{"name":"The Thomas Wolsey","address":"St Peters Street","lat":52.054298,"lng":1.153141,"city_fetched":"Mersea Island,UK","state":"Suffolk","country":"United Kingdom","canonicalUrl":"https://foursquare.com/v/the-thomas-wolsey/4ed91ee7f5b921398719e967","categoryId":"4bf58dd8d48988d116941735","category":"Bar","checkinsCount":257,"usersCount":86,"tipCount":4,"visitsCount":297,"tier":"","message":"","currency":"","rating":7.7},{"name":"The Anchor Pub","phone":"+441702230205","address":"284 Ferry Rd.","lat":51.62951605466756,"lng":0.6141615813028759,"city_fetched":"Mersea Island,UK","state":"Essex","country":"United Kingdom","canonicalUrl":"https://foursquare.com/v/the-anchor-pub/4c056897191f20a1c50ce314","categoryId":"4bf58dd8d48988d11b941735","category":"Pub","checkinsCount":242,"usersCount":164,"tipCount":6,"visitsCount":329,"url":"http://www.theanchorhullbridge.co.uk","tier":"","message":"","currency":"","rating":7.7},{"name":"St Jude's Brewery Tavern","phone":"+447787468514","address":"60 St Matthew's Street","lat":52.06018411875883,"lng":1.1467293172663298,"city_fetched":"Mersea Island,UK","state":"Suffolk","country":"United Kingdom","canonicalUrl":"https://foursquare.com/v/st-judes-brewery-tavern/4d558f2558856dcb3a9f4b6d","categoryId":"4bf58dd8d48988d11b941735","category":"Pub","checkinsCount":204,"usersCount":36,"tipCount":7,"visitsCount":220,"url":"http://www.stjudestavern.com","tier":"","message":"","currency":"","rating":7.6},{"name":"The Bull","lat":51.887594,"lng":0.895635,"city_fetched":"Mersea Island,UK","country":"United Kingdom","canonicalUrl":"https://foursquare.com/v/the-bull/4be5d29abcef2d7f376104e5","categoryId":"4bf58dd8d48988d116941735","category":"Bar","checkinsCount":320,"usersCount":121,"tipCount":3,"visitsCount":324,"tier":"","message":"","currency":"","rating":7.6},{"name":"The Anchor  - Shepherd Neame","phone":"+441206728382","address":"High Street","lat":51.85651821799708,"lng":0.9488207101821899,"city_fetched":"Mersea Island,UK","state":"Essex","country":"United Kingdom","canonicalUrl":"https://foursquare.com/v/the-anchor---shepherd-neame/4dd40861d22dc96be814249d","categoryId":"4bf58dd8d48988d11b941735","category":"Pub","checkinsCount":84,"usersCount":52,"tipCount":2,"visitsCount":99,"url":"http://www.shepherdneame.co.uk","tier":"","message":"","currency":"","rating":7.6},{"name":"Mannings","phone":"+441473254170","address":"8 Cornhill","lat":52.057985,"lng":1.1524486541748047,"city_fetched":"Mersea Island,UK","state":"Suffolk","country":"United Kingdom","canonicalUrl":"https://foursquare.com/v/mannings/4b5f31aef964a52064ac29e3","categoryId":"4bf58dd8d48988d11b941735","category":"Pub","checkinsCount":189,"usersCount":111,"tipCount":5,"visitsCount":189,"tier":"","message":"","currency":"","rating":7.6},{"name":"Queens Head","phone":"+441621854112","address":"4-28 The Hythe","lat":51.729516841412796,"lng":0.6879115104675293,"city_fetched":"Mersea Island,UK","state":"Essex","country":"United Kingdom","canonicalUrl":"https://foursquare.com/v/queens-head/4bffd512daf9c9b6dcc2faef","categoryId":"4bf58dd8d48988d11b941735","category":"Pub","checkinsCount":207,"usersCount":153,"tipCount":11,"visitsCount":254,"tier":"","message":"","currency":"","rating":7.4},{"name":"The Rose And Crown","address":"The Quay","lat":51.854427,"lng":0.958935,"city_fetched":"Mersea Island,UK","state":"Essex","country":"United Kingdom","canonicalUrl":"https://foursquare.com/v/the-rose-and-crown/4c263bb9136d20a1c5eee461","categoryId":"4bf58dd8d48988d11b941735","category":"Pub","checkinsCount":395,"usersCount":194,"tipCount":10,"visitsCount":417,"tier":"","message":"","currency":"","rating":7.4},{"name":"Smiths Bar","lat":51.889003,"lng":0.895641,"city_fetched":"Mersea Island,UK","state":"Essex","country":"United Kingdom","canonicalUrl":"https://foursquare.com/v/smiths-bar/4c379106ae2da593701effc5","categoryId":"4bf58dd8d48988d116941735","category":"Bar","checkinsCount":290,"usersCount":69,"tipCount":4,"visitsCount":290,"tier":"","message":"","currency":"","rating":7.4},{"name":"The Greyhound","address":"62 High Street, Wivenhoe","lat":51.85771447801962,"lng":0.9599505487313073,"city_fetched":"Mersea Island,UK","state":"Essex","country":"United Kingdom","canonicalUrl":"https://foursquare.com/v/the-greyhound/4bc1dc51920eb7131f351b2c","categoryId":"4bf58dd8d48988d11b941735","category":"Pub","checkinsCount":286,"usersCount":59,"tipCount":3,"visitsCount":289,"tier":"","message":"","currency":"","rating":7.4},{"name":"Foresters Arms","phone":"+441206542646","address":"1-2 Castle Road","lat":51.89094674596597,"lng":0.9065422502389755,"city_fetched":"Mersea Island,UK","state":"Essex","country":"United Kingdom","canonicalUrl":"https://foursquare.com/v/foresters-arms/4bf79291abdaef3bab84a184","categoryId":"4bf58dd8d48988d11b941735","category":"Pub","checkinsCount":241,"usersCount":51,"tipCount":1,"visitsCount":243,"tier":"","message":"","currency":"","rating":7.3},{"name":"Briarbank Brewing Company","address":"70 Fore Street","lat":52.05325060056847,"lng":1.1603426792827676,"city_fetched":"Mersea Island,UK","state":"Suffolk","country":"United Kingdom","canonicalUrl":"https://foursquare.com/v/briarbank-brewing-company/518946a47dd22e7a042d3377","categoryId":"50327c8591d4c4b30a586d5d","category":"Brewery","checkinsCount":217,"usersCount":71,"tipCount":6,"visitsCount":228,"url":"http://briarbank.org","tier":"","message":"","currency":"","rating":7.3},{"name":"Sun Inn - Shepherd Neame","phone":"+441376570442","address":"3 Feering Hill","lat":51.84029705471841,"lng":0.7011454488998504,"city_fetched":"Mersea Island,UK","state":"Essex","country":"United Kingdom","canonicalUrl":"https://foursquare.com/v/sun-inn--shepherd-neame/4c5bfe3e7f661b8d143b471c","categoryId":"4bf58dd8d48988d11b941735","category":"Pub","checkinsCount":173,"usersCount":43,"tipCount":2,"visitsCount":195,"url":"http://www.shepherdneame.co.uk","tier":"","message":"","currency":"","rating":7.2},{"name":"The Riverside Inn","phone":"+441245266881","address":"Victoria Rd.","lat":51.73602998256683,"lng":0.4791766405105591,"city_fetched":"Mersea Island,UK","state":"Essex","country":"United Kingdom","canonicalUrl":"https://foursquare.com/v/the-riverside-inn/4bf01ecc3a002d7fe9af85a4","categoryId":"4bf58dd8d48988d11b941735","category":"Pub","checkinsCount":349,"usersCount":158,"tipCount":6,"visitsCount":400,"tier":"","message":"","currency":"","rating":7.1},{"name":"SU Bar","address":"University of Essex, Wivenhoe Park","lat":51.876122071428576,"lng":0.94614048,"city_fetched":"Mersea Island,UK","state":"Essex","country":"United Kingdom","canonicalUrl":"https://foursquare.com/v/su-bar/4cb71cc18db0a14381386f16","categoryId":"4bf58dd8d48988d116941735","category":"Bar","checkinsCount":1302,"usersCount":288,"tipCount":6,"visitsCount":1367,"tier":"","message":"","currency":"","rating":7},{"name":"Isaacs","phone":"+441473259952","address":"7 Wherry Quay","lat":52.052850042821554,"lng":1.1608117818832397,"city_fetched":"Mersea Island,UK","state":"Suffolk","country":"United Kingdom","canonicalUrl":"https://foursquare.com/v/isaacs/4b9cdffaf964a5201c8036e3","categoryId":"4bf58dd8d48988d11b941735","category":"Pub","checkinsCount":1335,"usersCount":694,"tipCount":14,"visitsCount":1559,"tier":2,"message":"Moderate","currency":"Â£","rating":7},{"name":"The Hole in the Wall","phone":"+441206576392","address":"Balkerne Hill","lat":51.88976797719101,"lng":0.8938304427945917,"city_fetched":"Mersea Island,UK","state":"Essex","country":"United Kingdom","canonicalUrl":"https://foursquare.com/v/the-hole-in-the-wall/4bc492b52a89ef3b4574f688","categoryId":"4bf58dd8d48988d11b941735","category":"Pub","checkinsCount":377,"usersCount":145,"tipCount":3,"visitsCount":385,"tier":"","message":"","currency":"","rating":6.9},{"name":"Qube","address":"8 Crouch Street","lat":51.88764362920152,"lng":0.8955788612365723,"city_fetched":"Mersea Island,UK","state":"Essex","country":"United Kingdom","canonicalUrl":"https://foursquare.com/v/qube/4bc0d7fe920eb71381ab192c","categoryId":"4bf58dd8d48988d116941735","category":"Bar","checkinsCount":220,"usersCount":94,"tipCount":2,"visitsCount":221,"tier":"","message":"","currency":"","rating":6.9},{"name":"The Kings Arms","lat":51.887892,"lng":0.892688,"city_fetched":"Mersea Island,UK","country":"United Kingdom","canonicalUrl":"https://foursquare.com/v/the-kings-arms/4bbbb938e436ef3bb3ba5564","categoryId":"4bf58dd8d48988d11b941735","category":"Pub","checkinsCount":560,"usersCount":235,"tipCount":10,"visitsCount":657,"tier":"","message":"","currency":"","rating":6.8},{"name":"Top Bar","address":"University of Essex","lat":51.876685677913,"lng":0.9463578558876077,"city_fetched":"Mersea Island,UK","state":"Essex","country":"United Kingdom","canonicalUrl":"https://foursquare.com/v/top-bar/4cc0261200d83704855f485c","categoryId":"4bf58dd8d48988d116941735","category":"Bar","checkinsCount":518,"usersCount":125,"tipCount":2,"visitsCount":525,"tier":"","message":"","currency":"","rating":6.7},{"name":"The Playhouse  (Wetherspoon)","phone":"+441206571003","address":"4 St Johns St.","lat":51.88742254346319,"lng":0.8969189318243871,"city_fetched":"Mersea Island,UK","state":"Essex","country":"United Kingdom","canonicalUrl":"https://foursquare.com/v/the-playhouse--wetherspoon/4c87aab2821e9eb0aecc8d89","categoryId":"4bf58dd8d48988d11b941735","category":"Pub","checkinsCount":1526,"usersCount":589,"tipCount":9,"visitsCount":1715,"url":"http://www.jdwetherspoon.co.uk","tier":"","message":"","currency":"","rating":6.4},{"name":"The Westcliff Hotel","phone":"+441702345247","address":"18-20 Westcliff Parade","lat":51.535072511129364,"lng":0.700637084379136,"city_fetched":"Mersea Island,UK","state":"Essex","country":"United Kingdom","canonicalUrl":"https://foursquare.com/v/the-westcliff-hotel/4ba2c1f2f964a520b81638e3","categoryId":"4bf58dd8d48988d1d5941735","category":"Hotel Bar","checkinsCount":167,"usersCount":124,"tipCount":7,"visitsCount":221,"url":"http://www.westcliff-hotel.co.uk","tier":"","message":"","currency":"","rating":6.4},{"name":"Blueboar Hotel","phone":"+441621855888","address":"Silver St.","lat":51.73193642511131,"lng":0.6760212839260811,"city_fetched":"Mersea Island,UK","state":"Essex","country":"United Kingdom","canonicalUrl":"https://foursquare.com/v/blueboar-hotel/4bd72430304fce72222233ab","categoryId":"50327c8591d4c4b30a586d5d","category":"Brewery","checkinsCount":170,"usersCount":75,"tipCount":6,"visitsCount":173,"url":"http://www.blueboarhotel.com","tier":"","message":"","currency":"","rating":6.3},{"name":"Missoula","phone":"+441245251119","address":"7 Springfield Rd.","lat":51.732663219506904,"lng":0.4759526252746582,"city_fetched":"Mersea Island,UK","state":"Essex","country":"United Kingdom","canonicalUrl":"https://foursquare.com/v/missoula/4d02c2a454d0236a7bc7e4d5","categoryId":"4bf58dd8d48988d11e941735","category":"Cocktail Bar","checkinsCount":398,"usersCount":194,"tipCount":4,"visitsCount":412,"url":"http://www.missoulabars.co.uk/missoulachelmsford","tier":"","message":"","currency":"","rating":6.2},{"name":"The Albert (Beefeater)","phone":"+441206561914","twitter":"beefeater","address":"Cowdray Ave","lat":51.89759915782711,"lng":0.896365258288435,"city_fetched":"Mersea Island,UK","state":"Essex","country":"United Kingdom","canonicalUrl":"https://foursquare.com/v/the-albert-beefeater/4bcaf1b7511f9521e88eb0c7","categoryId":"4bf58dd8d48988d11b941735","category":"Pub","checkinsCount":352,"usersCount":182,"tipCount":4,"visitsCount":379,"url":"http://www.beefeater.co.uk/steak-restaurant/Essex/Albert-Colchester.html","tier":"","message":"","currency":"","rating":6.1},{"name":"V Bar","phone":"+441206561611","twitter":"vbarcolchester","address":"105 High Street","lat":51.889681997069054,"lng":0.9021541237045501,"city_fetched":"Mersea Island,UK","state":"Essex","country":"United Kingdom","canonicalUrl":"https://foursquare.com/v/v-bar/4b92bf01f964a520cc1734e3","categoryId":"4bf58dd8d48988d11e941735","category":"Cocktail Bar","checkinsCount":376,"usersCount":158,"tipCount":5,"visitsCount":380,"url":"http://v-bar.com","tier":"","message":"","currency":"","rating":5.9},{"name":"The Castle Inn","phone":"+441206563988","address":"92 High St","lat":51.88972592353821,"lng":0.90363,"city_fetched":"Mersea Island,UK","state":"Essex","country":"United Kingdom","canonicalUrl":"https://foursquare.com/v/the-castle-inn/4bf536676a31d13a6b93962e","categoryId":"4bf58dd8d48988d11b941735","category":"Pub","checkinsCount":370,"usersCount":167,"tipCount":5,"visitsCount":381,"tier":"","message":"","currency":"","rating":5.7},{"name":"Yates's","phone":"+441206710471","address":"3 Head Street","lat":51.88957792535557,"lng":0.8964741242771884,"city_fetched":"Mersea Island,UK","state":"Essex","country":"United Kingdom","canonicalUrl":"https://foursquare.com/v/yatess/4b9c0881f964a520104336e3","categoryId":"4bf58dd8d48988d11b941735","category":"Pub","checkinsCount":249,"usersCount":156,"tipCount":3,"visitsCount":252,"url":"http://www.weareyates.co.uk","tier":"","message":"","currency":"","rating":5.6},{"name":"The Cock Inn","address":"Hall Road","lat":51.5830808741093,"lng":0.6782754630770059,"city_fetched":"Mersea Island,UK","state":"Essex","country":"United Kingdom","canonicalUrl":"https://foursquare.com/v/the-cock-inn/4dadaf5643a18e54131b5a08","categoryId":"4bf58dd8d48988d117941735","category":"Beer Garden","checkinsCount":282,"usersCount":64,"tipCount":3,"visitsCount":314,"tier":"","message":"","currency":"","rating":5.6},{"name":"The Duchess","phone":"+441206769995","address":"156 High St","lat":51.8896904778761,"lng":0.8973167146322526,"city_fetched":"Mersea Island,UK","state":"Essex","country":"United Kingdom","canonicalUrl":"https://foursquare.com/v/the-duchess/4e666d7aaeb77c17bf35c824","categoryId":"4bf58dd8d48988d11b941735","category":"Pub","checkinsCount":186,"usersCount":117,"tipCount":3,"visitsCount":188,"tier":"","message":"","currency":"","rating":5.3}]