[{"name":"Stockyard Truckstop","lat":53.43472355855464,"lng":-1.2422983180226788,"city_fetched":"Mexborough,UK","country":"United Kingdom","canonicalUrl":"https://foursquare.com/v/stockyard-truckstop/4c344b993896e21e804ceb90","categoryId":"4bf58dd8d48988d11b941735","category":"Pub","checkinsCount":138,"usersCount":60,"tipCount":6,"visitsCount":162,"tier":"","message":"","currency":"","rating":7.5},{"name":"Rockingham Arms","phone":"+441226742075","twitter":"johnbarraspubs","address":"8 Main St","lat":53.478086,"lng":-1.416217,"city_fetched":"Mexborough,UK","state":"Rotherham","country":"United Kingdom","canonicalUrl":"https://foursquare.com/v/rockingham-arms/4bd6e7671728986e8a2bb735","categoryId":"4bf58dd8d48988d11b941735","category":"Pub","checkinsCount":178,"usersCount":111,"tipCount":5,"visitsCount":241,"url":"http://www.therockinghamarms.com","tier":"","message":"","currency":"","rating":7},{"name":"Maple Tree","phone":"+441302572633","address":"Whisperwood Dr","lat":53.491161628749815,"lng":-1.1404580898936996,"city_fetched":"Mexborough,UK","country":"United Kingdom","canonicalUrl":"https://foursquare.com/v/maple-tree/4c03f0acf56c2d7f51881d66","categoryId":"4bf58dd8d48988d11b941735","category":"Pub","checkinsCount":552,"usersCount":63,"tipCount":5,"visitsCount":580,"url":"http://www.mapletreepub.co.uk","tier":"","message":"","currency":"","rating":6.9},{"name":"Snafu","phone":"+441709836991","address":"22 - 30 high street","lat":53.43029893010578,"lng":-1.3563179969787598,"city_fetched":"Mexborough,UK","country":"United Kingdom","canonicalUrl":"https://foursquare.com/v/snafu/4c6d8a50c52437043e7228eb","categoryId":"4bf58dd8d48988d116941735","category":"Bar","checkinsCount":509,"usersCount":64,"tipCount":6,"visitsCount":510,"url":"http://www.fubar-snafu.co.uk","tier":"","message":"","currency":"","rating":6.8},{"name":"Brewers Fayre","phone":"+448701977024","address":"Meadow Gate","lat":53.51601,"lng":-1.3780170679092407,"city_fetched":"Mexborough,UK","country":"United Kingdom","canonicalUrl":"https://foursquare.com/v/brewers-fayre/4c5299002d519521591c4390","categoryId":"4bf58dd8d48988d11b941735","category":"Pub","checkinsCount":167,"usersCount":122,"tipCount":6,"visitsCount":215,"tier":"","message":"","currency":"","rating":6.8},{"name":"The Bluebell Inn","phone":"+441709877664","address":"Manvers Way","lat":53.50879977868519,"lng":-1.3500738143920898,"city_fetched":"Mexborough,UK","state":"Rotherham","country":"United Kingdom","canonicalUrl":"https://foursquare.com/v/the-bluebell-inn/4c6d44277bfe199cd8dedace","categoryId":"4bf58dd8d48988d11b941735","category":"Pub","checkinsCount":339,"usersCount":145,"tipCount":5,"visitsCount":421,"tier":"","message":"","currency":"","rating":6.7},{"name":"The Masons Arms","phone":"+441144460291","address":"Bawtry Rd, Wickersley","lat":53.42175146755937,"lng":-1.2821013088718687,"city_fetched":"Mexborough,UK","state":"Rotherham","country":"United Kingdom","canonicalUrl":"https://foursquare.com/v/the-masons-arms/4b7a8cebf964a520cc302fe3","categoryId":"4bf58dd8d48988d11b941735","category":"Pub","checkinsCount":282,"usersCount":114,"tipCount":4,"visitsCount":319,"url":"http://www.masonsarmsthorpehesley.co.uk","tier":"","message":"","currency":"","rating":6.6},{"name":"George And Dragon","phone":"+441226742440","address":"85 Main Street","lat":53.47934919537868,"lng":-1.4210806134870961,"city_fetched":"Mexborough,UK","state":"Rotherham","country":"United Kingdom","canonicalUrl":"https://foursquare.com/v/george-and-dragon/4bf90c415efe2d7f02a56b34","categoryId":"4bf58dd8d48988d11b941735","category":"Pub","checkinsCount":174,"usersCount":107,"tipCount":4,"visitsCount":252,"url":"http://www.georgeanddragonwentworth.co.uk","tier":"","message":"","currency":"","rating":6.6},{"name":"The Bluecoat (Wetherspoon)","phone":"+441709539500","address":"The Crofts","lat":53.42863691438238,"lng":-1.3547086715698242,"city_fetched":"Mexborough,UK","country":"United Kingdom","canonicalUrl":"https://foursquare.com/v/the-bluecoat-wetherspoon/4c87abdf821e9eb0bbcd8d89","categoryId":"4bf58dd8d48988d11b941735","category":"Pub","checkinsCount":1306,"usersCount":222,"tipCount":9,"visitsCount":1430,"url":"http://www.jdwetherspoon.co.uk","tier":"","message":"","currency":"","rating":6.5},{"name":"New York Tavern","address":"New York Tavern","lat":53.42709354800814,"lng":-1.358292674379734,"city_fetched":"Mexborough,UK","country":"United Kingdom","canonicalUrl":"https://foursquare.com/v/new-york-tavern/5229c48811d28302fa9dda8a","categoryId":"4bf58dd8d48988d11b941735","category":"Pub","checkinsCount":79,"usersCount":30,"tipCount":4,"visitsCount":103,"tier":"","message":"","currency":"","rating":6.5},{"name":"The Church House (Wetherspoon)","phone":"+441709879518","address":"Montgomery Sq.","lat":53.5023037627437,"lng":-1.3453296204129945,"city_fetched":"Mexborough,UK","country":"United Kingdom","canonicalUrl":"https://foursquare.com/v/the-church-house-wetherspoon/4c87ac49821e9eb012ce8d89","categoryId":"4bf58dd8d48988d11b941735","category":"Pub","checkinsCount":606,"usersCount":105,"tipCount":1,"visitsCount":745,"url":"http://www.jdwetherspoon.co.uk","tier":"","message":"","currency":"","rating":6.5},{"name":"The Boat Inn","address":"Nursery Ln","lat":53.50680417819666,"lng":-1.1920618173684672,"city_fetched":"Mexborough,UK","state":"Doncaster","country":"United Kingdom","canonicalUrl":"https://foursquare.com/v/the-boat-inn/4c3080b466e40f476498c38b","categoryId":"4bf58dd8d48988d11b941735","category":"Pub","checkinsCount":122,"usersCount":127,"tipCount":4,"visitsCount":171,"tier":"","message":"","currency":"","rating":6.4},{"name":"The Corn Law Rhymer (Wetherspoon)","phone":"+441709724790","address":"35-37 High St.","lat":53.42997190371387,"lng":-1.3564877820512755,"city_fetched":"Mexborough,UK","country":"United Kingdom","canonicalUrl":"https://foursquare.com/v/the-corn-law-rhymer-wetherspoon/4c87abe0821e9eb0bccd8d89","categoryId":"4bf58dd8d48988d11b941735","category":"Pub","checkinsCount":427,"usersCount":154,"tipCount":0,"visitsCount":454,"url":"http://www.jdwetherspoon.co.uk","tier":"","message":"","currency":"","rating":6.3},{"name":"The Brecks (Beefeater)","phone":"+441709543216","twitter":"beefeatergrill","address":"Wickersley Rd","lat":53.419741150310706,"lng":-1.3079403670656828,"city_fetched":"Mexborough,UK","state":"Rotherham","country":"United Kingdom","canonicalUrl":"https://foursquare.com/v/the-brecks-beefeater/4b96a851f964a52000dc34e3","categoryId":"4bf58dd8d48988d11b941735","category":"Pub","checkinsCount":260,"usersCount":117,"tipCount":2,"visitsCount":343,"url":"http://www.beefeater.co.uk","tier":"","message":"","currency":"","rating":6},{"name":"Brentwood Hotel","address":"Moorgate Rd","lat":53.41816015391798,"lng":-1.3469271183694924,"city_fetched":"Mexborough,UK","state":"Rotherham","country":"United Kingdom","canonicalUrl":"https://foursquare.com/v/brentwood-hotel/4bdd753ff219c9b6aa9c1210","categoryId":"4bf58dd8d48988d11b941735","category":"Pub","checkinsCount":164,"usersCount":92,"tipCount":2,"visitsCount":186,"tier":"","message":"","currency":"","rating":5.9},{"name":"The Marquis","address":"Low Stubbin","lat":53.47655705064553,"lng":-1.3658867070715166,"city_fetched":"Mexborough,UK","country":"United Kingdom","canonicalUrl":"https://foursquare.com/v/the-marquis/4c0a4088009a0f470809e9bf","categoryId":"4bf58dd8d48988d11b941735","category":"Pub","checkinsCount":204,"usersCount":105,"tipCount":3,"visitsCount":256,"tier":"","message":"","currency":"","rating":5.9},{"name":"Golden Ball","address":"Turner Lane","lat":53.40497103872304,"lng":-1.3262956246311985,"city_fetched":"Mexborough,UK","state":"Rotherham","country":"United Kingdom","canonicalUrl":"https://foursquare.com/v/golden-ball/4bb210b7f964a520f6b53ce3","categoryId":"4bf58dd8d48988d11b941735","category":"Pub","checkinsCount":134,"usersCount":76,"tipCount":3,"visitsCount":163,"tier":"","message":"","currency":"","rating":5.8},{"name":"The Old Market Hall (Wetherspoon)","phone":"+441709599820","address":"Market St.","lat":53.49295063474597,"lng":-1.287311731346594,"city_fetched":"Mexborough,UK","country":"United Kingdom","canonicalUrl":"https://foursquare.com/v/the-old-market-hall-wetherspoon/4c89311597828cfa6f48a2aa","categoryId":"4bf58dd8d48988d11b941735","category":"Pub","checkinsCount":323,"usersCount":123,"tipCount":7,"visitsCount":372,"url":"http://www.jdwetherspoon.co.uk","tier":"","message":"","currency":"","rating":5.8},{"name":"The Rhinoceros (Wetherspoon)","phone":"+441709361422","address":"35-37 Bridgegate","lat":53.43180277152752,"lng":-1.356776941484325,"city_fetched":"Mexborough,UK","country":"United Kingdom","canonicalUrl":"https://foursquare.com/v/the-rhinoceros-wetherspoon/4c755432604a37043f5b8249","categoryId":"4bf58dd8d48988d11b941735","category":"Pub","checkinsCount":173,"usersCount":72,"tipCount":1,"visitsCount":178,"url":"http://www.jdwetherspoon.co.uk","tier":"","message":"","currency":"","rating":5.8},{"name":"The Horseshoe (Wetherspoon)","phone":"+441226273820","address":"30 High St.","lat":53.522663530935816,"lng":-1.3984799337745,"city_fetched":"Mexborough,UK","country":"United Kingdom","canonicalUrl":"https://foursquare.com/v/the-horseshoe-wetherspoon/4c87ac62821e9eb025ce8d89","categoryId":"4bf58dd8d48988d11b941735","category":"Pub","checkinsCount":540,"usersCount":108,"tipCount":5,"visitsCount":698,"url":"http://www.jdwetherspoon.co.uk","tier":"","message":"","currency":"","rating":5.7}]