[{"name":"The Golden Smog","twitter":"thegoldensmog","address":"1 Hambletonian Yard","lat":54.56334977111408,"lng":-1.3134968467867567,"city_fetched":"Middlesbrough,UK","state":"Stockton-on-Tees","country":"United Kingdom","canonicalUrl":"https://foursquare.com/v/the-golden-smog/5431908c498ed37e3c2a9ed1","categoryId":"4bf58dd8d48988d116941735","category":"Bar","checkinsCount":30,"usersCount":17,"tipCount":7,"visitsCount":30,"tier":"","message":"","currency":"","rating":8.4},{"name":"The Wasps Nest","phone":"+447789277364","address":"1 Calvets Sq","lat":54.56473,"lng":-1.311715,"city_fetched":"Middlesbrough,UK","state":"Stockton-on-Tees","country":"United Kingdom","canonicalUrl":"https://foursquare.com/v/the-wasps-nest/5569b994498eb674bb6c16cd","categoryId":"4bf58dd8d48988d11b941735","category":"Pub","checkinsCount":41,"usersCount":14,"tipCount":2,"visitsCount":59,"tier":"","message":"","currency":"","rating":8.3},{"name":"Black Bull","address":"40-42 High St.","lat":54.508903577167324,"lng":-1.353497721310341,"city_fetched":"Middlesbrough,UK","country":"United Kingdom","canonicalUrl":"https://foursquare.com/v/black-bull/4ba400c4f964a520a27638e3","categoryId":"4bf58dd8d48988d11b941735","category":"Pub","checkinsCount":548,"usersCount":216,"tipCount":9,"visitsCount":574,"tier":"","message":"","currency":"","rating":7.8},{"name":"The Highland Laddie","phone":"+441642539570","address":"High St","lat":54.58783566032772,"lng":-1.310971022856241,"city_fetched":"Middlesbrough,UK","state":"Stockton-on-Tees","country":"United Kingdom","canonicalUrl":"https://foursquare.com/v/the-highland-laddie/523399a111d2bfd16eb48e0f","categoryId":"4bf58dd8d48988d116941735","category":"Bar","checkinsCount":171,"usersCount":99,"tipCount":2,"visitsCount":277,"tier":"","message":"","currency":"","rating":7.5},{"name":"The Swatters Carr (Wetherspoon)","phone":"+441642239060","twitter":"jdwtweet","address":"228 Linthorpe Rd","lat":54.5697523705345,"lng":-1.2384818743812354,"city_fetched":"Middlesbrough,UK","state":"Middlesbrough","country":"United Kingdom","canonicalUrl":"https://foursquare.com/v/the-swatters-carr-wetherspoon/4e66476c1495676d575a920f","categoryId":"4bf58dd8d48988d11b941735","category":"Pub","checkinsCount":986,"usersCount":293,"tipCount":8,"visitsCount":1266,"url":"http://www.jdwetherspoon.co.uk","tier":"","message":"","currency":"","rating":7.4},{"name":"Cross Keys","phone":"+441287610035","address":"Middlesbrough Road","lat":54.534083,"lng":-1.12509,"city_fetched":"Middlesbrough,UK","state":"North Yorkshire","country":"United Kingdom","canonicalUrl":"https://foursquare.com/v/cross-keys/4be5d2f5d4f7c9b69dfc2520","categoryId":"4bf58dd8d48988d116941735","category":"Bar","checkinsCount":42,"usersCount":35,"tipCount":4,"visitsCount":48,"tier":"","message":"","currency":"","rating":7.3},{"name":"The Eagle","address":"1 Durham Ln","lat":54.519023568660266,"lng":-1.3602436041785282,"city_fetched":"Middlesbrough,UK","state":"Stockton-on-Tees","country":"United Kingdom","canonicalUrl":"https://foursquare.com/v/the-eagle/4c814e3774d7b60c137975d8","categoryId":"4bf58dd8d48988d11b941735","category":"Pub","checkinsCount":252,"usersCount":83,"tipCount":2,"visitsCount":359,"tier":"","message":"","currency":"","rating":7.1},{"name":"The Twisted Lip","address":"Baker Street","lat":54.573501,"lng":-1.236543,"city_fetched":"Middlesbrough,UK","state":"Middlesbrough","country":"United Kingdom","canonicalUrl":"https://foursquare.com/v/the-twisted-lip/5385ea5d498e42e068d728d1","categoryId":"4bf58dd8d48988d11b941735","category":"Pub","checkinsCount":72,"usersCount":35,"tipCount":3,"visitsCount":76,"tier":"","message":"","currency":"","rating":7.1},{"name":"The Roundel","phone":"+441642615109","address":"Mitchell Ave, Thornaby","lat":54.54832820998141,"lng":-1.2827825546264648,"city_fetched":"Middlesbrough,UK","state":"Stockton-on-Tees","country":"United Kingdom","canonicalUrl":"https://foursquare.com/v/the-roundel/4bd33899caff95212453d4f0","categoryId":"4bf58dd8d48988d11b941735","category":"Pub","checkinsCount":110,"usersCount":69,"tipCount":4,"visitsCount":152,"tier":"","message":"","currency":"","rating":7},{"name":"The Star","address":"14 Southfield Rd","lat":54.570656,"lng":-1.2349085,"city_fetched":"Middlesbrough,UK","state":"Middlesbrough","country":"United Kingdom","canonicalUrl":"https://foursquare.com/v/the-star/4bdb0f89c79cc92850ed80e9","categoryId":"4bf58dd8d48988d11b941735","category":"Pub","checkinsCount":250,"usersCount":120,"tipCount":4,"visitsCount":254,"url":"http://www.thestar-middlesbrough.co.uk","tier":"","message":"","currency":"","rating":7},{"name":"The Masham","lat":54.55421922555992,"lng":-1.3400944500365413,"city_fetched":"Middlesbrough,UK","country":"United Kingdom","canonicalUrl":"https://foursquare.com/v/the-masham/4b5a34acf964a5202ab428e3","categoryId":"4bf58dd8d48988d11b941735","category":"Pub","checkinsCount":317,"usersCount":71,"tipCount":5,"visitsCount":334,"tier":"","message":"","currency":"","rating":6.8},{"name":"The Empire","phone":"+441642253553","address":"2 Corporation Rd","lat":54.57637230933446,"lng":-1.233321663819773,"city_fetched":"Middlesbrough,UK","state":"Middlesbrough","country":"United Kingdom","canonicalUrl":"https://foursquare.com/v/the-empire/4b9c2c0df964a5205d5136e3","categoryId":"4bf58dd8d48988d11f941735","category":"Nightclub","checkinsCount":466,"usersCount":222,"tipCount":4,"visitsCount":486,"url":"http://www.theempire.co.uk","tier":"","message":"","currency":"","rating":6.8},{"name":"The King Johns Tavern (Wetherspoon)","phone":"+441429274388","address":"1 South Rd.","lat":54.6847549038987,"lng":-1.2155381745055738,"city_fetched":"Middlesbrough,UK","state":"Hartlepool","country":"United Kingdom","canonicalUrl":"https://foursquare.com/v/the-king-johns-tavern-wetherspoon/4c87ab1f821e9eb011cd8d89","categoryId":"4bf58dd8d48988d11b941735","category":"Pub","checkinsCount":558,"usersCount":105,"tipCount":6,"visitsCount":577,"url":"http://www.jdwetherspoon.co.uk","tier":1,"message":"Cheap","currency":"£","rating":6.7},{"name":"Dubliners","phone":"+441642676917","address":"Bridge St.","lat":54.558796,"lng":-1.30457367,"city_fetched":"Middlesbrough,UK","state":"Durham","country":"United Kingdom","canonicalUrl":"https://foursquare.com/v/dubliners/4c20e6cf4889a5931c1a2720","categoryId":"4bf58dd8d48988d11b941735","category":"Pub","checkinsCount":135,"usersCount":58,"tipCount":0,"visitsCount":138,"tier":"","message":"","currency":"","rating":6.7},{"name":"The Plimsoll Line (Wetherspoon)","phone":"+441642495250","address":"138-142 High St. E.","lat":54.61723829725989,"lng":-1.060502529144287,"city_fetched":"Middlesbrough,UK","country":"United Kingdom","canonicalUrl":"https://foursquare.com/v/the-plimsoll-line-wetherspoon/4c87abd5821e9eb0b2cd8d89","categoryId":"4bf58dd8d48988d11b941735","category":"Pub","checkinsCount":202,"usersCount":103,"tipCount":2,"visitsCount":205,"url":"http://www.jdwetherspoon.co.uk","tier":"","message":"","currency":"","rating":6.7},{"name":"Preston Farm (Brewers Fayre)","phone":"+448701977243","address":"Yarm Road","lat":54.54602454837723,"lng":-1.3322446779144044,"city_fetched":"Middlesbrough,UK","country":"United Kingdom","canonicalUrl":"https://foursquare.com/v/preston-farm-brewers-fayre/4ba3d1f2f964a5200a6338e3","categoryId":"4bf58dd8d48988d11b941735","category":"Pub","checkinsCount":235,"usersCount":137,"tipCount":6,"visitsCount":265,"url":"http://www.brewersfayre.co.uk/brewersfayre/our-pubs/stockon-on-tees/preston-farm.html","tier":"","message":"","currency":"","rating":6.6},{"name":"The Manor House","phone":"+441642764153","address":"High Lane","lat":54.51171493435743,"lng":-1.2909364700317383,"city_fetched":"Middlesbrough,UK","state":"Middlesbrough","country":"United Kingdom","canonicalUrl":"https://foursquare.com/v/the-manor-house/4bd581406f6495219a1b6fec","categoryId":"4bf58dd8d48988d11b941735","category":"Pub","checkinsCount":173,"usersCount":84,"tipCount":4,"visitsCount":201,"tier":"","message":"","currency":"","rating":6.6},{"name":"The Thomas Sheraton (Wetherspoon)","phone":"+441642606134","address":"4 Bridge Rd","lat":54.561431734087876,"lng":-1.3128018830622012,"city_fetched":"Middlesbrough,UK","country":"United Kingdom","canonicalUrl":"https://foursquare.com/v/the-thomas-sheraton-wetherspoon/4c87ac12821e9eb0e9cd8d89","categoryId":"4bf58dd8d48988d11b941735","category":"Pub","checkinsCount":1189,"usersCount":219,"tipCount":5,"visitsCount":1285,"url":"http://www.jdwetherspoon.co.uk","tier":"","message":"","currency":"","rating":6.5},{"name":"Lloyds Bar","lat":54.575881557865706,"lng":-1.2378768923344334,"city_fetched":"Middlesbrough,UK","state":"Middlesbrough","country":"United Kingdom","canonicalUrl":"https://foursquare.com/v/lloyds-bar/4b9c1019f964a5202b4636e3","categoryId":"4bf58dd8d48988d116941735","category":"Bar","checkinsCount":250,"usersCount":142,"tipCount":4,"visitsCount":250,"tier":"","message":"","currency":"","rating":6.4},{"name":"The Rudds Arms","lat":54.53427529704119,"lng":-1.2048166734503503,"city_fetched":"Middlesbrough,UK","country":"United Kingdom","canonicalUrl":"https://foursquare.com/v/the-rudds-arms/4bbf6276b083a5933c54a3e9","categoryId":"4bf58dd8d48988d11b941735","category":"Pub","checkinsCount":124,"usersCount":88,"tipCount":3,"visitsCount":140,"tier":"","message":"","currency":"","rating":6.3},{"name":"The Southfield","phone":"+441642242621","address":"Southfield Rd","lat":54.570714628301104,"lng":-1.2339999748442654,"city_fetched":"Middlesbrough,UK","state":"North Yorkshire","country":"United Kingdom","canonicalUrl":"https://foursquare.com/v/the-southfield/4b76b6e2f964a5202f5a2ee3","categoryId":"4bf58dd8d48988d11b941735","category":"Pub","checkinsCount":1735,"usersCount":363,"tipCount":10,"visitsCount":1926,"tier":2,"message":"Moderate","currency":"£","rating":6.3},{"name":"The Isaac Wilson (Wetherspoon)","phone":"+441642247708","address":"61 Wilson St.","lat":54.57792327263697,"lng":-1.2373426271300068,"city_fetched":"Middlesbrough,UK","country":"United Kingdom","canonicalUrl":"https://foursquare.com/v/the-isaac-wilson-wetherspoon/4c87ab82821e9eb06ccd8d89","categoryId":"4bf58dd8d48988d11b941735","category":"Pub","checkinsCount":637,"usersCount":248,"tipCount":4,"visitsCount":710,"url":"http://www.jdwetherspoon.co.uk","tier":"","message":"","currency":"","rating":6.1},{"name":"The Dickens Inn","phone":"+441642242621","address":"4 Southfield Rd","lat":54.570799123001436,"lng":-1.236509084701538,"city_fetched":"Middlesbrough,UK","state":"Middlesbrough","country":"United Kingdom","canonicalUrl":"https://foursquare.com/v/the-dickens-inn/4ba172a7f964a520e8b737e3","categoryId":"4bf58dd8d48988d11b941735","category":"Pub","checkinsCount":450,"usersCount":269,"tipCount":7,"visitsCount":499,"url":"http://thedickensinn.co.uk","tier":"","message":"","currency":"","rating":6},{"name":"The Resolution (Wetherspoon)","phone":"+441642260650","address":"19 Newport Crescent","lat":54.57588717615152,"lng":-1.2378182866040213,"city_fetched":"Middlesbrough,UK","country":"United Kingdom","canonicalUrl":"https://foursquare.com/v/the-resolution-wetherspoon/4c87ab83821e9eb06dcd8d89","categoryId":"4bf58dd8d48988d11b941735","category":"Pub","checkinsCount":473,"usersCount":204,"tipCount":4,"visitsCount":514,"url":"http://www.jdwetherspoon.co.uk","tier":"","message":"","currency":"","rating":5.8},{"name":"Talpore (Beefeater)","phone":"+441642671573","twitter":"beefeater","address":"White Water Way, Thornaby","lat":54.567035518025165,"lng":-1.2844139725702404,"city_fetched":"Middlesbrough,UK","state":"Stockton-on-Tees","country":"United Kingdom","canonicalUrl":"https://foursquare.com/v/talpore-beefeater/4baab4a2f964a5205d813ae3","categoryId":"4bf58dd8d48988d11b941735","category":"Pub","checkinsCount":444,"usersCount":248,"tipCount":11,"visitsCount":519,"url":"http://www.beefeater.co.uk/steak-restaurant/CountyDurham/Talpore.html","tier":"","message":"","currency":"","rating":5.8},{"name":"The Ward Jackson (Wetherspoon)","phone":"+441429850140","address":"3-9 Church Square","lat":54.685557952535596,"lng":-1.2089765517162356,"city_fetched":"Middlesbrough,UK","state":"Hartlepool","country":"United Kingdom","canonicalUrl":"https://foursquare.com/v/the-ward-jackson-wetherspoon/4c87ab1f821e9eb012cd8d89","categoryId":"4bf58dd8d48988d11b941735","category":"Pub","checkinsCount":476,"usersCount":137,"tipCount":2,"visitsCount":506,"url":"http://www.jdwetherspoon.co.uk","tier":"","message":"","currency":"","rating":5.7},{"name":"Traveller's Rest","phone":"+441429411210","address":"Hartlepool, Cleveland TS25 1LB","lat":54.66407852255206,"lng":-1.219571872191808,"city_fetched":"Middlesbrough,UK","country":"United Kingdom","canonicalUrl":"https://foursquare.com/v/travellers-rest/4c94f11d0341370421c476ef","categoryId":"4bf58dd8d48988d11b941735","category":"Pub","checkinsCount":105,"usersCount":45,"tipCount":0,"visitsCount":111,"url":"http://www.flaminggrillpubs.com/pub/travellers-rest-hartlepool/c1723/","tier":"","message":"","currency":"","rating":5.6},{"name":"Old West Quay (Brewers Fayre)","phone":"+448701977127","address":"Maritime Avenue","lat":54.68955295790428,"lng":-1.2017760995313853,"city_fetched":"Middlesbrough,UK","state":"Hartlepool","country":"United Kingdom","canonicalUrl":"https://foursquare.com/v/old-west-quay-brewers-fayre/4c52a3e62d51952111dc4390","categoryId":"4bf58dd8d48988d11b941735","category":"Pub","checkinsCount":120,"usersCount":77,"tipCount":5,"visitsCount":125,"url":"http://www.brewersfayre.co.uk/content/brewersfayre/our-pubs/hartlepool/old-west-quay.html","tier":"","message":"","currency":"","rating":5.1}]