[{"name":"The Barley Mow","phone":"+441908562957","address":"7 The Stocks","lat":52.07592964703171,"lng":-0.8454368385078336,"city_fetched":"Milton Keynes","state":"Northamptonshire","country":"United Kingdom","canonicalUrl":"https://foursquare.com/v/the-barley-mow/4c83ae8a47cc224be50c919f","category":"Pub","checkinsCount":178,"usersCount":86,"tipCount":5,"visitsCount":292,"tier":"","message":"","currency":"","rating":8.5},{"name":"Pink Punters","phone":"+441908377444","address":"2 Watling St","lat":51.99732705652521,"lng":-0.7120084762573242,"city_fetched":"Milton Keynes","state":"Buckinghamshire","country":"United Kingdom","canonicalUrl":"https://foursquare.com/v/pink-punters/4bde07c56198c9b634b312ff","category":"Gay Bar","checkinsCount":407,"usersCount":342,"tipCount":8,"visitsCount":584,"url":"http://www.pinkpunters.com","tier":"","message":"","currency":"","rating":7.8},{"name":"The Three Trees","phone":"+441908366816","address":"144 Buckingham Rd","lat":51.99101153759074,"lng":-0.7569622993469238,"city_fetched":"Milton Keynes","state":"Buckinghamshire","country":"United Kingdom","canonicalUrl":"https://foursquare.com/v/the-three-trees/4c50a644d2a7c9b65e12e30f","category":"Bar","checkinsCount":174,"usersCount":97,"tipCount":4,"visitsCount":185,"url":"http://www.threetreesbletchley.co.uk","tier":"","message":"","currency":"","rating":7.8},{"name":"Craufurd Arms","address":"Stratford Rd","lat":52.06233298536164,"lng":-0.8151769638061523,"city_fetched":"Milton Keynes","state":"Buckinghamshire","country":"United Kingdom","canonicalUrl":"https://foursquare.com/v/craufurd-arms/4c2f94f9a0ced13a8fcf106e","category":"Pub","checkinsCount":337,"usersCount":210,"tipCount":4,"visitsCount":372,"tier":"","message":"","currency":"","rating":7.8},{"name":"MK Biergarten","twitter":"mkbiergarten","address":"Unit 3, The Triangle Building","lat":52.064377738672604,"lng":-0.8058455586433411,"city_fetched":"Milton Keynes","state":"Buckinghamshire","country":"United Kingdom","canonicalUrl":"https://foursquare.com/v/mk-biergarten/57246b6c498e7b86bfef05a5","category":"Beer Store","checkinsCount":22,"usersCount":13,"tipCount":5,"visitsCount":23,"url":"http://www.mkbiergarten.co.uk","tier":"","message":"","currency":"","rating":7.8},{"name":"The Old Beams","phone":"+441908201054","address":"Paxton Crescent","lat":52.01637391545461,"lng":-0.7799702882766724,"city_fetched":"Milton Keynes","state":"Buckinghamshire","country":"United Kingdom","canonicalUrl":"https://foursquare.com/v/the-old-beams/4aeb316ff964a52079bf21e3","category":"Pub","checkinsCount":587,"usersCount":313,"tipCount":9,"visitsCount":839,"tier":"","message":"","currency":"","rating":7.8},{"name":"The Barge Inn","address":"15 Newport Road","lat":52.044947,"lng":-0.7273346185684204,"city_fetched":"Milton Keynes","country":"United Kingdom","canonicalUrl":"https://foursquare.com/v/the-barge-inn/4b9c02fff964a520974036e3","category":"Gastropub","checkinsCount":369,"usersCount":182,"tipCount":10,"visitsCount":517,"tier":"","message":"","currency":"","rating":7.6},{"name":"Ye Olde Swan","phone":"+441908679489","address":"Newport Rd","lat":52.029150483463766,"lng":-0.7235279839055101,"city_fetched":"Milton Keynes","state":"Buckinghamshire","country":"United Kingdom","canonicalUrl":"https://foursquare.com/v/ye-olde-swan/4c1cc9f88b3aa593d45e995f","category":"Pub","checkinsCount":374,"usersCount":285,"tipCount":10,"visitsCount":613,"url":"http://www.chefandbrewer.com/pub/ye-olde-swan-woughton-on-the-green-milton-keynes/c0156/","tier":"","message":"","currency":"","rating":7.6},{"name":"The Prince George","phone":"+441908504391","address":"Portishead Drive","lat":51.99788771338829,"lng":-0.7958430304811674,"city_fetched":"Milton Keynes","state":"Buckinghamshire","country":"United Kingdom","canonicalUrl":"https://foursquare.com/v/the-prince-george/53010380498ed4a3488fe7a7","category":"Pub","checkinsCount":113,"usersCount":153,"tipCount":8,"visitsCount":275,"tier":"","message":"","currency":"","rating":7.5},{"name":"The Swan Inn","address":"Broughton Road, Milton Keynes Village","lat":52.04250721798072,"lng":-0.7046216726303101,"city_fetched":"Milton Keynes","state":"Buckinghamshire","country":"United Kingdom","canonicalUrl":"https://foursquare.com/v/the-swan-inn/4b5228bef964a520586c27e3","category":"Gastropub","checkinsCount":450,"usersCount":328,"tipCount":12,"visitsCount":665,"tier":2,"message":"Moderate","currency":"£","rating":7.4},{"name":"Eight Belles","phone":"+441908379906","address":"28 Buckingham Rd.","lat":51.99272923553559,"lng":-0.7414484024047852,"city_fetched":"Milton Keynes","state":"Buckinghamshire","country":"United Kingdom","canonicalUrl":"https://foursquare.com/v/eight-belles/4c249ad6b7b8a59381ac3ce8","category":"Pub","checkinsCount":347,"usersCount":103,"tipCount":6,"visitsCount":380,"tier":"","message":"","currency":"","rating":7.3},{"name":"The Cock Hotel","phone":"+441908567733","address":"72-74 High St","lat":52.05750765606597,"lng":-0.8538678288459778,"city_fetched":"Milton Keynes","state":"Buckinghamshire","country":"United Kingdom","canonicalUrl":"https://foursquare.com/v/the-cock-hotel/4bcf1c620ffdce727f3fb2c0","category":"Pub","checkinsCount":397,"usersCount":210,"tipCount":8,"visitsCount":413,"tier":"","message":"","currency":"","rating":7.3},{"name":"The Black Horse","phone":"+441908398461","address":"Wolverton Road","lat":52.073037,"lng":-0.766606,"city_fetched":"Milton Keynes","state":"Buckinghamshire","country":"United Kingdom","canonicalUrl":"https://foursquare.com/v/the-black-horse/4b794964f964a52049f22ee3","category":"Pub","checkinsCount":435,"usersCount":382,"tipCount":18,"visitsCount":716,"tier":"","message":"","currency":"","rating":6.8},{"name":"Browns","twitter":"brownsmk","address":"Unit 300 CBX3, Midsummer Boulevard","lat":52.03853707482477,"lng":-0.7634620982278034,"city_fetched":"Milton Keynes","state":"Buckinghamshire","country":"United Kingdom","canonicalUrl":"https://foursquare.com/v/browns/4d71374e1529a143fb1998a0","category":"Bar","checkinsCount":374,"usersCount":265,"tipCount":12,"visitsCount":395,"tier":"","message":"","currency":"","rating":6.6},{"name":"The Talbot (Ember Inn)","phone":"+441908827296","address":"15-31 London Rd","lat":52.0272595272469,"lng":-0.7870290340290663,"city_fetched":"Milton Keynes","state":"Buckinghamshire","country":"United Kingdom","canonicalUrl":"https://foursquare.com/v/the-talbot-ember-inn/4d729e4327ddb60c43e0d01b","category":"Pub","checkinsCount":178,"usersCount":125,"tipCount":5,"visitsCount":241,"tier":"","message":"","currency":"","rating":6.5},{"name":"Wolverton House","lat":52.06113247882925,"lng":-0.8392284182352214,"city_fetched":"Milton Keynes","country":"United Kingdom","canonicalUrl":"https://foursquare.com/v/wolverton-house/4c5da7d4d25320a1ac9ac67a","category":"Pub","checkinsCount":159,"usersCount":135,"tipCount":5,"visitsCount":221,"tier":"","message":"","currency":"","rating":6.5},{"name":"Fox & Hounds","phone":"+441908260604","address":"87 High St.","lat":52.05795010563897,"lng":-0.8552325995895061,"city_fetched":"Milton Keynes","state":"Buckinghamshire","country":"United Kingdom","canonicalUrl":"https://foursquare.com/v/fox--hounds/4ef22a5cb8f7f381f69d2573","category":"Pub","checkinsCount":121,"usersCount":82,"tipCount":2,"visitsCount":173,"tier":"","message":"","currency":"","rating":6.5},{"name":"Missoula","phone":"+441908608643","twitter":"mkmissoula","address":"401 Witan Gate","lat":52.03773316666667,"lng":-0.7643279989636971,"city_fetched":"Milton Keynes","state":"Buckinghamshire","country":"United Kingdom","canonicalUrl":"https://foursquare.com/v/missoula/4b8e7940f964a520602433e3","category":"Wine Bar","checkinsCount":1082,"usersCount":376,"tipCount":14,"visitsCount":1125,"url":"http://www.thelivingroom.co.uk","tier":"","message":"","currency":"","rating":6.4},{"name":"The Cross Keys","lat":52.041897401354724,"lng":-0.7269690156793148,"city_fetched":"Milton Keynes","country":"United Kingdom","canonicalUrl":"https://foursquare.com/v/the-cross-keys/51a8d21c498e6c92adcbd1a0","category":"Pub","checkinsCount":65,"usersCount":65,"tipCount":0,"visitsCount":118,"tier":"","message":"","currency":"","rating":6.4},{"name":"The Ship Ashore","address":"Granville Square, Willen","lat":52.062948070194075,"lng":-0.732114315032959,"city_fetched":"Milton Keynes","state":"Buckinghamshire","country":"United Kingdom","canonicalUrl":"https://foursquare.com/v/the-ship-ashore/4b8153d5f964a520a39f30e3","category":"Pub","checkinsCount":254,"usersCount":143,"tipCount":4,"visitsCount":320,"tier":"","message":"","currency":"","rating":6.3},{"name":"The Galleon","address":"Old Wolverton Road","lat":52.064737,"lng":-0.82616316,"city_fetched":"Milton Keynes","state":"Buckinghamshire","country":"United Kingdom","canonicalUrl":"https://foursquare.com/v/the-galleon/4c30eae766e40f478a41c48b","category":"Pub","checkinsCount":223,"usersCount":127,"tipCount":5,"visitsCount":269,"tier":"","message":"","currency":"","rating":6.3},{"name":"The Inn On The Lake","phone":"+441908646868","address":"Mount Farm Lake","lat":52.007255614892806,"lng":-0.7208171908246538,"city_fetched":"Milton Keynes","state":"Buckinghamshire","country":"United Kingdom","canonicalUrl":"https://foursquare.com/v/the-inn-on-the-lake/4dcc076752b17cba4fb59a61","category":"Pub","checkinsCount":91,"usersCount":77,"tipCount":3,"visitsCount":113,"url":"http://www.innonthelake.biz","tier":"","message":"","currency":"","rating":6.2},{"name":"The Hungry Horse - Broughton Hotel","address":"Newport Road","lat":52.0494455877514,"lng":-0.693163275718689,"city_fetched":"Milton Keynes","state":"Buckinghamshire","country":"United Kingdom","canonicalUrl":"https://foursquare.com/v/the-hungry-horse--broughton-hotel/4b927134f964a520c7f933e3","category":"Pub","checkinsCount":336,"usersCount":233,"tipCount":4,"visitsCount":505,"tier":"","message":"","currency":"","rating":6.1},{"name":"Wetherspoons","phone":"+441908606074","address":"201 Midsummer Blvd","lat":52.037577450600125,"lng":-0.7678306102752686,"city_fetched":"Milton Keynes","state":"Buckinghamshire","country":"United Kingdom","canonicalUrl":"https://foursquare.com/v/wetherspoons/4b9cffabf964a520918736e3","category":"Pub","checkinsCount":1802,"usersCount":845,"tipCount":9,"visitsCount":2456,"url":"http://www.jdwetherspoon.co.uk/home/pubs/wetherspoons-milton-keynes","tier":2,"message":"Moderate","currency":"£","rating":6.1},{"name":"Peartree Bridge Inn","phone":"+441908691515","address":"180 Waterside","lat":52.02837640390888,"lng":-0.7312774658203125,"city_fetched":"Milton Keynes","state":"Buckinghamshire","country":"United Kingdom","canonicalUrl":"https://foursquare.com/v/peartree-bridge-inn/4c9b41f9b8e9224b1392543d","category":"Restaurant","checkinsCount":213,"usersCount":157,"tipCount":4,"visitsCount":305,"url":"http://www.crowncarveries.co.uk/find-us/thepeartreebridgeinn.html","tier":"","message":"","currency":"","rating":5.9},{"name":"The Moon Under Water (Wetherspoon)","phone":"+441908528854","address":"Xscape 10 Avebury Blvd.","lat":52.04206507897833,"lng":-0.7492589950561523,"city_fetched":"Milton Keynes","state":"Buckinghamshire","country":"United Kingdom","canonicalUrl":"https://foursquare.com/v/the-moon-under-water-wetherspoon/4b88421ff964a520dbea31e3","category":"Pub","checkinsCount":1487,"usersCount":627,"tipCount":15,"visitsCount":1605,"url":"http://www.jdwetherspoon.co.uk","tier":2,"message":"Moderate","currency":"£","rating":5.8},{"name":"The Crown","phone":"+441908561656","address":"9 Market Sq","lat":52.055818832589644,"lng":-0.8539670705795288,"city_fetched":"Milton Keynes","state":"Buckinghamshire","country":"United Kingdom","canonicalUrl":"https://foursquare.com/v/the-crown/4be04a09724d76b0858e8538","category":"Pub","checkinsCount":273,"usersCount":108,"tipCount":4,"visitsCount":293,"tier":"","message":"","currency":"","rating":5.8},{"name":"The Plough","phone":"+448721077077","address":"London Rd","lat":52.05575616017737,"lng":-0.8504801988601685,"city_fetched":"Milton Keynes","state":"Buckinghamshire","country":"United Kingdom","canonicalUrl":"https://foursquare.com/v/the-plough/4bee8f543686c9b6299f246e","category":"Beer Garden","checkinsCount":306,"usersCount":61,"tipCount":3,"visitsCount":332,"tier":"","message":"","currency":"","rating":5.8},{"name":"The Slug and Lettuce","phone":"+441908395147","address":"1 Savoy Crt.","lat":52.04396558577349,"lng":-0.750042200088501,"city_fetched":"Milton Keynes","state":"Buckinghamshire","country":"United Kingdom","canonicalUrl":"https://foursquare.com/v/the-slug-and-lettuce/4bb0e77ef964a5209b683ce3","category":"Pub","checkinsCount":544,"usersCount":229,"tipCount":5,"visitsCount":551,"tier":"","message":"","currency":"","rating":5.8},{"name":"The Lakeside","address":"Brickhall Street","lat":52.049582,"lng":-0.722611,"city_fetched":"Milton Keynes","state":"Buckinghamshire","country":"United Kingdom","canonicalUrl":"https://foursquare.com/v/the-lakeside/4cc47b47bc23952108b6bc33","category":"Pub","checkinsCount":161,"usersCount":117,"tipCount":6,"visitsCount":162,"tier":"","message":"","currency":"","rating":5.7},{"name":"Nut And Squirrel","phone":"+441908340031","address":"1 Barnsdale Drive","lat":52.003056,"lng":-0.793419,"city_fetched":"Milton Keynes","state":"Buckinghamshire","country":"United Kingdom","canonicalUrl":"https://foursquare.com/v/nut-and-squirrel/4c2500dca852c9288418e46c","category":"Bar","checkinsCount":423,"usersCount":111,"tipCount":5,"visitsCount":441,"tier":"","message":"","currency":"","rating":5.7},{"name":"Revolution","phone":"+448006300860","address":"Xscape","lat":52.041821116666924,"lng":-0.7499784145679217,"city_fetched":"Milton Keynes","state":"Buckinghamshire","country":"United Kingdom","canonicalUrl":"https://foursquare.com/v/revolution/4b7f2a9af964a520d91b30e3","category":"Bar","checkinsCount":360,"usersCount":202,"tipCount":7,"visitsCount":361,"tier":"","message":"","currency":"","rating":5.6},{"name":"The Plough at Simpson","phone":"+441908691555","address":"Simpson Road, Simpson","lat":52.01616262168626,"lng":-0.7175445556640625,"city_fetched":"Milton Keynes","state":"Buckinghamshire","country":"United Kingdom","canonicalUrl":"https://foursquare.com/v/the-plough-at-simpson/4c4ee20067929c74ed60a89b","category":"Pub","checkinsCount":97,"usersCount":101,"tipCount":3,"visitsCount":159,"tier":"","message":"","currency":"","rating":5.6},{"name":"WonderWorld","phone":"+441908660661","twitter":"wonderworldmk","address":"Xscape, 602 Marlborough Gate","lat":52.04185599,"lng":-0.749552,"city_fetched":"Milton Keynes","state":"Buckinghamshire","country":"United Kingdom","canonicalUrl":"https://foursquare.com/v/wonderworld/4b884d5ef964a520b9ed31e3","category":"Nightclub","checkinsCount":215,"usersCount":147,"tipCount":0,"visitsCount":216,"url":"http://www.discoverwonderworld.com/mk/","tier":"","message":"","currency":"","rating":5.5},{"name":"Lloyds No. 1 Bar","phone":"+441908558905","address":"7 Savoy Crescent","lat":52.0438,"lng":-0.7493,"city_fetched":"Milton Keynes","country":"United Kingdom","canonicalUrl":"https://foursquare.com/v/lloyds-no-1-bar/4b772755f964a520ec822ee3","category":"Pub","checkinsCount":690,"usersCount":342,"tipCount":1,"visitsCount":731,"url":"http://www.jdwetherspoon.co.uk","tier":"","message":"","currency":"","rating":5.4},{"name":"All Bar One","address":"Unit 2, 320 Midsummer Boulevard","lat":52.03873569782248,"lng":-0.7627075910568237,"city_fetched":"Milton Keynes","state":"Buckinghamshire","country":"United Kingdom","canonicalUrl":"https://foursquare.com/v/all-bar-one/4b5c9c41f964a520bb3929e3","category":"Bar","checkinsCount":752,"usersCount":408,"tipCount":9,"visitsCount":785,"tier":"","message":"","currency":"","rating":5.3},{"name":"Jury's Inn Milton Keynes","phone":"+441908843700","address":"Midsummer Blvd.","lat":52.038230824517726,"lng":-0.7637214660644531,"city_fetched":"Milton Keynes","state":"Buckinghamshire","country":"United Kingdom","canonicalUrl":"https://foursquare.com/v/jurys-inn-milton-keynes/4b770afef964a5206d772ee3","category":"Hotel","checkinsCount":2276,"usersCount":780,"tipCount":25,"visitsCount":2496,"tier":"","message":"","currency":"","rating":5.2},{"name":"The Caldecotte Arms","phone":"+441908366188","address":"Bletcham Way, Caldecotte","lat":52.01084931891553,"lng":-0.7077993235028698,"city_fetched":"Milton Keynes","state":"Buckinghamshire","country":"United Kingdom","canonicalUrl":"https://foursquare.com/v/the-caldecotte-arms/4badfd26f964a5206b783be3","category":"Pub","checkinsCount":717,"usersCount":361,"tipCount":8,"visitsCount":898,"url":"http://www.fayre-square.com/pub/caldecotte-arms-caldecotte-milton-keynes/p1299/","tier":"","message":"","currency":"","rating":5.1},{"name":"The Secklow Hundred (Wetherspoon)","phone":"+441908202180","address":"316 Midsummer Blvd.","lat":52.038950184755585,"lng":-0.7632923126220703,"city_fetched":"Milton Keynes","state":"Buckinghamshire","country":"United Kingdom","canonicalUrl":"https://foursquare.com/v/the-secklow-hundred-wetherspoon/4b6e0668f964a5204fa42ce3","category":"Pub","checkinsCount":1029,"usersCount":487,"tipCount":12,"visitsCount":1243,"url":"http://www.jdwetherspoon.co.uk","tier":1,"message":"Cheap","currency":"£","rating":4.9}]