[{"name":"WEST Brewery, Bar & Restaurant","phone":"+441415500135","twitter":"westbeer","address":"Templeton Building","lat":55.85092089280965,"lng":-4.233952760696411,"neighborhood":"Bridgeton","city_fetched":"Motherwell,UK","state":"Glasgow City","country":"United Kingdom","canonicalUrl":"https://foursquare.com/v/west-brewery-bar--restaurant/4b4def09f964a5207adb26e3","categoryId":"50327c8591d4c4b30a586d5d","category":"Brewery","checkinsCount":2040,"usersCount":1100,"tipCount":42,"visitsCount":2469,"url":"http://www.westbeer.com","tier":2,"message":"Moderate","currency":"£","rating":9},{"name":"DogHouse Merchant City","phone":"+441358724924","twitter":"doghousemcity","address":"99 Hutcheson St","lat":55.85934242169009,"lng":-4.247760673792262,"neighborhood":"Merchant City","city_fetched":"Motherwell,UK","state":"Glasgow City","country":"United Kingdom","canonicalUrl":"https://foursquare.com/v/doghouse-merchant-city/53e52950498ee2c0974731b8","categoryId":"56aa371ce4b08b9a8d57356c","category":"Beer Bar","checkinsCount":555,"usersCount":387,"tipCount":6,"visitsCount":791,"url":"http://www.brewdog.com","tier":2,"message":"Moderate","currency":"£","rating":8.9},{"name":"Sub Club","phone":"+441412484600","twitter":"subclub","address":"22 Jamaica St.","lat":55.857876386841944,"lng":-4.256998300552368,"neighborhood":"Merchant City","city_fetched":"Motherwell,UK","state":"Glasgow City","country":"United Kingdom","canonicalUrl":"https://foursquare.com/v/sub-club/4c54b19ea724e21e442cc8f6","categoryId":"4bf58dd8d48988d11f941735","category":"Nightclub","checkinsCount":308,"usersCount":200,"tipCount":10,"visitsCount":309,"url":"http://www.subclub.co.uk","tier":"","message":"","currency":"","rating":8.9},{"name":"Stereo","phone":"+441412222254","twitter":"stereoglasgow","address":"22-28 Renfield Ln","lat":55.861107565723685,"lng":-4.257830848534248,"neighborhood":"Merchant City","city_fetched":"Motherwell,UK","state":"Glasgow City","country":"United Kingdom","canonicalUrl":"https://foursquare.com/v/stereo/4ade0865f964a5208b6721e3","categoryId":"4bf58dd8d48988d116941735","category":"Bar","checkinsCount":1566,"usersCount":885,"tipCount":37,"visitsCount":1767,"url":"http://www.stereocafebar.com","tier":"","message":"","currency":"","rating":8.8},{"name":"The 13th Note","phone":"+441415531638","twitter":"official13thnot","address":"50-60 King St.","lat":55.85595547007519,"lng":-4.246832728385925,"neighborhood":"Merchant City","city_fetched":"Motherwell,UK","state":"Glasgow City","country":"United Kingdom","canonicalUrl":"https://foursquare.com/v/the-13th-note/4bd9f527ffafd13a6af49a85","categoryId":"4bf58dd8d48988d116941735","category":"Bar","checkinsCount":1073,"usersCount":613,"tipCount":19,"visitsCount":1175,"url":"http://www.13thnote.co.uk","tier":"","message":"","currency":"","rating":8.7},{"name":"Drygate","phone":"+441412128810","twitter":"drygate","address":"85 Drygate","lat":55.86025500120764,"lng":-4.233698453804788,"neighborhood":"East End","city_fetched":"Motherwell,UK","state":"Glasgow City","country":"United Kingdom","canonicalUrl":"https://foursquare.com/v/drygate/537dcf0d498e02df07785e2f","categoryId":"50327c8591d4c4b30a586d5d","category":"Brewery","checkinsCount":856,"usersCount":788,"tipCount":24,"visitsCount":1311,"url":"http://drygate.com","tier":"","message":"","currency":"","rating":8.3},{"name":"Blackfriars","phone":"+441415525924","twitter":"blackfriars_bar","address":"36 Bell St","lat":55.85803896019351,"lng":-4.244474881964993,"neighborhood":"Merchant City","city_fetched":"Motherwell,UK","state":"Glasgow City","country":"United Kingdom","canonicalUrl":"https://foursquare.com/v/blackfriars/4b4e0f8af964a5201ce026e3","categoryId":"4bf58dd8d48988d116941735","category":"Bar","checkinsCount":2316,"usersCount":915,"tipCount":23,"visitsCount":2674,"url":"http://www.blackfriarsglasgow.com","tier":"","message":"","currency":"","rating":8.3},{"name":"Max's Bar & Grill","phone":"+441412211379","twitter":"lacheetahclub","address":"73 Queen St","lat":55.859529,"lng":-4.252106,"neighborhood":"Merchant City","city_fetched":"Motherwell,UK","state":"Glasgow City","country":"United Kingdom","canonicalUrl":"https://foursquare.com/v/maxs-bar--grill/4b76f668f964a520036f2ee3","categoryId":"4bf58dd8d48988d11b941735","category":"Pub","checkinsCount":781,"usersCount":352,"tipCount":11,"visitsCount":886,"url":"http://www.maxsbar.co.uk","tier":"","message":"","currency":"","rating":8.2},{"name":"Browns","phone":"+441412217830","twitter":"brownsglasgow","address":"1 George Square","lat":55.860581,"lng":-4.249379,"neighborhood":"Merchant City","city_fetched":"Motherwell,UK","state":"Glasgow City","country":"United Kingdom","canonicalUrl":"https://foursquare.com/v/browns/4d9de1b8ffb92d43dba52388","categoryId":"4bf58dd8d48988d11e941735","category":"Cocktail Bar","checkinsCount":616,"usersCount":398,"tipCount":12,"visitsCount":635,"url":"http://www.browns-restaurants.co.uk/locations/glasgow/","tier":"","message":"","currency":"","rating":8.1},{"name":"Republic Bier Halle","phone":"+441412040706","address":"9 Gordon St","lat":55.86039029587364,"lng":-4.254530668258667,"neighborhood":"Merchant City","city_fetched":"Motherwell,UK","state":"Glasgow City","country":"United Kingdom","canonicalUrl":"https://foursquare.com/v/republic-bier-halle/4b4df610f964a52050dc26e3","categoryId":"4bf58dd8d48988d11b941735","category":"Pub","checkinsCount":1399,"usersCount":787,"tipCount":35,"visitsCount":1450,"url":"http://www.republicbierhalle.com","tier":"","message":"","currency":"","rating":7.9},{"name":"The Allison Arms","phone":"+441414231661","twitter":"theallisonarms","address":"720 Pollokshaws Rd","lat":55.83662389426425,"lng":-4.269992087583537,"neighborhood":"South Side","city_fetched":"Motherwell,UK","state":"Glasgow City","country":"United Kingdom","canonicalUrl":"https://foursquare.com/v/the-allison-arms/4bcb2e8e511f952190e1b0c7","categoryId":"4bf58dd8d48988d116941735","category":"Bar","checkinsCount":262,"usersCount":72,"tipCount":5,"visitsCount":277,"tier":"","message":"","currency":"","rating":7.9},{"name":"Babbity Bowster","phone":"+441415525055","address":"16–18 Blackfriars St","lat":55.858395,"lng":-4.242643,"neighborhood":"Merchant City","city_fetched":"Motherwell,UK","state":"Glasgow City","country":"United Kingdom","canonicalUrl":"https://foursquare.com/v/babbity-bowster/4b673d3af964a5202c432be3","categoryId":"4bf58dd8d48988d11b941735","category":"Pub","checkinsCount":460,"usersCount":338,"tipCount":13,"visitsCount":522,"url":"http://www.babbitybowster.com","tier":"","message":"","currency":"","rating":7.9},{"name":"The Ark","phone":"+441415594331","twitter":"glasgowstheark","address":"42 North Frederick St.","lat":55.862139603339614,"lng":-4.248514578021439,"neighborhood":"Townhead","city_fetched":"Motherwell,UK","state":"Glasgow City","country":"United Kingdom","canonicalUrl":"https://foursquare.com/v/the-ark/4bbe3eaa8ca376b0b88ac77a","categoryId":"4bf58dd8d48988d11b941735","category":"Pub","checkinsCount":1167,"usersCount":518,"tipCount":15,"visitsCount":1265,"url":"http://www.thearkglasgow.co.uk","tier":1,"message":"Cheap","currency":"£","rating":7.8},{"name":"Anchor Line","address":"12-16 St Vincent Place","lat":55.86107833661313,"lng":-4.25276250755877,"neighborhood":"Merchant City","city_fetched":"Motherwell,UK","state":"Glasgow City","country":"United Kingdom","canonicalUrl":"https://foursquare.com/v/anchor-line/543d3e26498e1b6b7dc59538","categoryId":"4bf58dd8d48988d11e941735","category":"Cocktail Bar","checkinsCount":152,"usersCount":114,"tipCount":5,"visitsCount":152,"tier":"","message":"","currency":"","rating":7.8},{"name":"Tabac","phone":"+441415721448","twitter":"glasgowtabac","address":"10 Mitchell Lane","lat":55.859781427529335,"lng":-4.254943523467205,"neighborhood":"Merchant City","city_fetched":"Motherwell,UK","state":"Glasgow City","country":"United Kingdom","canonicalUrl":"https://foursquare.com/v/tabac/55171561498e009720e96c09","categoryId":"4bf58dd8d48988d116941735","category":"Bar","checkinsCount":82,"usersCount":57,"tipCount":1,"visitsCount":82,"tier":"","message":"","currency":"","rating":7.8},{"name":"29 Private Members Club","phone":"+441412255615","address":"29 Royal Exchange Square","lat":55.85991161196125,"lng":-4.253361225128174,"neighborhood":"Merchant City","city_fetched":"Motherwell,UK","state":"Glasgow City","country":"United Kingdom","canonicalUrl":"https://foursquare.com/v/29-private-members-club/4bac6b08f964a52041f43ae3","categoryId":"4bf58dd8d48988d11f941735","category":"Nightclub","checkinsCount":847,"usersCount":329,"tipCount":9,"visitsCount":854,"tier":"","message":"","currency":"","rating":7.7},{"name":"The Bungo","phone":"+441414230023","twitter":"thebungo","address":"17-21 Nithsdale Rd.","lat":55.8365942199442,"lng":-4.271208360068231,"neighborhood":"South Side","city_fetched":"Motherwell,UK","state":"Glasgow City","country":"United Kingdom","canonicalUrl":"https://foursquare.com/v/the-bungo/4ee51e01e30005f8b882bbd3","categoryId":"4bf58dd8d48988d116941735","category":"Bar","checkinsCount":463,"usersCount":237,"tipCount":16,"visitsCount":590,"tier":"","message":"","currency":"","rating":7.7},{"name":"Bacchus","phone":"+441415720080","address":"80 Glassford Street","lat":55.85939677558766,"lng":-4.248686931436595,"neighborhood":"Merchant City","city_fetched":"Motherwell,UK","country":"United Kingdom","canonicalUrl":"https://foursquare.com/v/bacchus/4bfbe313d931c928945b838b","categoryId":"4bf58dd8d48988d116941735","category":"Bar","checkinsCount":1020,"usersCount":240,"tipCount":2,"visitsCount":1170,"url":"http://www.bacchusglasgow.co.uk","tier":"","message":"","currency":"","rating":7.7},{"name":"Solid Rock Cafe","phone":"+441412211105","address":"19 Hope St","lat":55.859100591314636,"lng":-4.259190811883333,"neighborhood":"Merchant City","city_fetched":"Motherwell,UK","state":"Glasgow City","country":"United Kingdom","canonicalUrl":"https://foursquare.com/v/solid-rock-cafe/4b75abdaf964a520cd1b2ee3","categoryId":"4bf58dd8d48988d116941735","category":"Bar","checkinsCount":1405,"usersCount":523,"tipCount":24,"visitsCount":1421,"tier":"","message":"","currency":"","rating":7.6},{"name":"Scotia Bar","phone":"+441415528681","twitter":"thescotiabar","address":"Stockwell ST","lat":55.855407479544105,"lng":-4.250292778015137,"neighborhood":"Merchant City","city_fetched":"Motherwell,UK","state":"Glasgow City","country":"United Kingdom","canonicalUrl":"https://foursquare.com/v/scotia-bar/4c3dba31a9509c74a39b395b","categoryId":"4bf58dd8d48988d116941735","category":"Bar","checkinsCount":307,"usersCount":233,"tipCount":12,"visitsCount":323,"url":"http://scotiabar.net","tier":"","message":"","currency":"","rating":7.6},{"name":"McChuills","phone":"+441415522324","twitter":"mcchuillsbar","address":"40 High St.","lat":55.857799307633044,"lng":-4.242398459572092,"neighborhood":"Bellgrove","city_fetched":"Motherwell,UK","state":"Glasgow City","country":"United Kingdom","canonicalUrl":"https://foursquare.com/v/mcchuills/4b96baaef964a520b8e034e3","categoryId":"4bf58dd8d48988d116941735","category":"Bar","checkinsCount":195,"usersCount":115,"tipCount":5,"visitsCount":212,"url":"http://mcchuills.co.uk","tier":"","message":"","currency":"","rating":7.6},{"name":"Urban Bar & Brasserie","phone":"+441412485636","twitter":"urbanbarglasgow","address":"23-25 St Vincent Pl","lat":55.860983374049724,"lng":-4.253060817718506,"neighborhood":"Merchant City","city_fetched":"Motherwell,UK","state":"Glasgow City","country":"United Kingdom","canonicalUrl":"https://foursquare.com/v/urban-bar--brasserie/4bab7f33f964a52000ae3ae3","categoryId":"4bf58dd8d48988d11e941735","category":"Cocktail Bar","checkinsCount":379,"usersCount":200,"tipCount":3,"visitsCount":381,"url":"http://www.urbanbrasserie.co.uk","tier":"","message":"","currency":"","rating":7.5},{"name":"The Corinthian","phone":"+441415521101","twitter":"corinthianclub","address":"191 Ingram St.","lat":55.85975505996792,"lng":-4.249691963195801,"neighborhood":"Merchant City","city_fetched":"Motherwell,UK","state":"Glasgow City","country":"United Kingdom","canonicalUrl":"https://foursquare.com/v/the-corinthian/4c6586789cb82d7fc10e8ed2","categoryId":"4bf58dd8d48988d116941735","category":"Bar","checkinsCount":1559,"usersCount":1132,"tipCount":22,"visitsCount":1730,"url":"http://www.thecorinthianclub.co.uk","tier":"","message":"","currency":"","rating":7.5},{"name":"Sloans","phone":"+441412218886","twitter":"sloansglasgow","address":"62 Argyll Arcade","lat":55.858363000000004,"lng":-4.253814,"neighborhood":"Merchant City","city_fetched":"Motherwell,UK","state":"Glasgow City","country":"United Kingdom","canonicalUrl":"https://foursquare.com/v/sloans/4b64b2d3f964a52043c92ae3","categoryId":"4bf58dd8d48988d11b941735","category":"Pub","checkinsCount":1243,"usersCount":934,"tipCount":16,"visitsCount":1588,"url":"http://www.sloansglasgow.com","tier":2,"message":"Moderate","currency":"£","rating":7.4},{"name":"Maggie May's","phone":"+441415481350","twitter":"maggiemayslive","address":"60 Trongate","lat":55.85697157284232,"lng":-4.245160700523957,"neighborhood":"Merchant City","city_fetched":"Motherwell,UK","state":"Glasgow City","country":"United Kingdom","canonicalUrl":"https://foursquare.com/v/maggie-mays/4b5b9194f964a520c30729e3","categoryId":"4bf58dd8d48988d11b941735","category":"Pub","checkinsCount":1380,"usersCount":844,"tipCount":27,"visitsCount":1473,"url":"http://www.maggiemays.info","tier":"","message":"","currency":"","rating":7.3},{"name":"Citation Taverne & Restaurant","phone":"+441415596799","address":"40 Wilson St.","lat":55.85869530680904,"lng":-4.2473530769348145,"neighborhood":"Merchant City","city_fetched":"Motherwell,UK","state":"Glasgow City","country":"United Kingdom","canonicalUrl":"https://foursquare.com/v/citation-taverne--restaurant/4b88517bf964a520bfee31e3","categoryId":"4bf58dd8d48988d116941735","category":"Bar","checkinsCount":553,"usersCount":391,"tipCount":5,"visitsCount":618,"url":"http://citation-glasgow.com","tier":"","message":"","currency":"","rating":7.3},{"name":"One Up","phone":"+441412255612","address":"23 Royal Exchange Sq","lat":55.86012,"lng":-4.2531517999999995,"neighborhood":"Merchant City","city_fetched":"Motherwell,UK","state":"Glasgow City","country":"United Kingdom","canonicalUrl":"https://foursquare.com/v/one-up/4bf4115e706e20a178e2a898","categoryId":"4bf58dd8d48988d116941735","category":"Bar","checkinsCount":229,"usersCount":178,"tipCount":4,"visitsCount":230,"url":"http://www.oneupglasgow.co.uk","tier":"","message":"","currency":"","rating":7.3},{"name":"Bavaria Brauhaus","address":"30 Bothwell Street","lat":55.86109379480067,"lng":-4.260265644431576,"neighborhood":"City Centre","city_fetched":"Motherwell,UK","state":"Glasgow City","country":"United Kingdom","canonicalUrl":"https://foursquare.com/v/bavaria-brauhaus/5644eccf498e44610759212b","categoryId":"4bf58dd8d48988d11b941735","category":"Pub","checkinsCount":82,"usersCount":64,"tipCount":4,"visitsCount":82,"tier":"","message":"","currency":"","rating":7.2},{"name":"Tudor Hotel","address":"39-49 Alexander St.","lat":55.864567472398576,"lng":-3.9875881559242146,"city_fetched":"Motherwell,UK","state":"North Lanarkshire","country":"United Kingdom","canonicalUrl":"https://foursquare.com/v/tudor-hotel/4ca641ed965c9c74c710c8fa","categoryId":"4bf58dd8d48988d1d5941735","category":"Hotel Bar","checkinsCount":111,"usersCount":84,"tipCount":1,"visitsCount":127,"tier":"","message":"","currency":"","rating":7.2},{"name":"Boudoir Wine Bar","phone":"+441415524774","address":"Merchant Sq.","lat":55.858371,"lng":-4.245736675,"neighborhood":"Merchant City","city_fetched":"Motherwell,UK","state":"Glasgow City","country":"United Kingdom","canonicalUrl":"https://foursquare.com/v/boudoir-wine-bar/4d18c864401db60c8370f5a4","categoryId":"4bf58dd8d48988d123941735","category":"Wine Bar","checkinsCount":151,"usersCount":101,"tipCount":4,"visitsCount":152,"url":"http://www.boudoirwinebar.com","tier":"","message":"","currency":"","rating":7.2},{"name":"Shilling Brewing Co","phone":"+441413531654","twitter":"shillingbrewco","address":"92 West George St","lat":55.86230798296755,"lng":-4.2551422119140625,"neighborhood":"Merchant City","city_fetched":"Motherwell,UK","state":"Glasgow City","country":"United Kingdom","canonicalUrl":"https://foursquare.com/v/shilling-brewing-co/5758817d498eee35ef6c2d0d","categoryId":"50327c8591d4c4b30a586d5d","category":"Brewery","checkinsCount":80,"usersCount":55,"tipCount":2,"visitsCount":81,"url":"http://www.shillingbrewingcompany.co.uk","tier":"","message":"","currency":"","rating":7.2},{"name":"Boteco do Brasil","phone":"+441415481330","address":"62 Trongate","lat":55.85708153624948,"lng":-4.245657920837402,"neighborhood":"Merchant City","city_fetched":"Motherwell,UK","state":"Glasgow City","country":"United Kingdom","canonicalUrl":"https://foursquare.com/v/boteco-do-brasil/4b804194f964a520716130e3","categoryId":"4bf58dd8d48988d116941735","category":"Bar","checkinsCount":1063,"usersCount":623,"tipCount":28,"visitsCount":1192,"url":"http://www.botecodobrasil.com","tier":"","message":"","currency":"","rating":7.2},{"name":"Bar Soba","address":"Merchant Sq","lat":55.858529674410505,"lng":-4.244646367984878,"neighborhood":"Merchant City","city_fetched":"Motherwell,UK","country":"United Kingdom","canonicalUrl":"https://foursquare.com/v/bar-soba/55bbeb6f498e8d6451f9c928","categoryId":"4bf58dd8d48988d116941735","category":"Bar","checkinsCount":70,"usersCount":46,"tipCount":3,"visitsCount":72,"tier":"","message":"","currency":"","rating":7.2},{"name":"Rab Ha's","phone":"+441415720400","twitter":"rab_has","address":"81 Hutcheson Street","lat":55.85915293103745,"lng":-4.248168468475342,"neighborhood":"Merchant City","city_fetched":"Motherwell,UK","state":"Glasgow City","country":"United Kingdom","canonicalUrl":"https://foursquare.com/v/rab-has/4b6d7b4cf964a5205f772ce3","categoryId":"4bf58dd8d48988d116941735","category":"Bar","checkinsCount":357,"usersCount":194,"tipCount":5,"visitsCount":359,"url":"http://www.rabhas.com","tier":"","message":"","currency":"","rating":7.2},{"name":"MacSorley's","phone":"+441412488581","twitter":"macsorleys","address":"42 Jamaica St.","lat":55.85739768869219,"lng":-4.257189703976044,"neighborhood":"Merchant City","city_fetched":"Motherwell,UK","state":"Glasgow City","country":"United Kingdom","canonicalUrl":"https://foursquare.com/v/macsorleys/4b5230b1f964a520836e27e3","categoryId":"4bf58dd8d48988d11b941735","category":"Pub","checkinsCount":463,"usersCount":293,"tipCount":3,"visitsCount":463,"url":"http://www.macsorleys.com","tier":"","message":"","currency":"","rating":7.1},{"name":"Bar 91","phone":"+441415525211","twitter":"bar91glasgow","address":"91 Candleriggs","lat":55.858705650000005,"lng":-4.2453688,"neighborhood":"Merchant City","city_fetched":"Motherwell,UK","state":"Glasgow City","country":"United Kingdom","canonicalUrl":"https://foursquare.com/v/bar-91/4b5216fcf964a520f66627e3","categoryId":"4bf58dd8d48988d116941735","category":"Bar","checkinsCount":794,"usersCount":360,"tipCount":16,"visitsCount":872,"url":"http://www.bar91.co.uk","tier":"","message":"","currency":"","rating":7.1},{"name":"Yesbar","phone":"+441412040060","twitter":"yesbarglasgow","address":"14 Drury Street,","lat":55.86097627329271,"lng":-4.256039318277645,"neighborhood":"Merchant City","city_fetched":"Motherwell,UK","state":"South Lanarkshire","country":"United Kingdom","canonicalUrl":"https://foursquare.com/v/yesbar/549815ea498e778f19c4f04e","categoryId":"4bf58dd8d48988d1d4941735","category":"Speakeasy","checkinsCount":128,"usersCount":67,"tipCount":4,"visitsCount":134,"url":"http://www.yesbar.scot","tier":"","message":"","currency":"","rating":7.1},{"name":"Waxy O Connor's","phone":"+441413545154","twitter":"waxysglasgow","address":"44 West George St","lat":55.86195576182254,"lng":-4.253130555152893,"neighborhood":"Merchant City","city_fetched":"Motherwell,UK","state":"Glasgow City","country":"United Kingdom","canonicalUrl":"https://foursquare.com/v/waxy-o-connors/4b1d5f51f964a5208b0f24e3","categoryId":"4bf58dd8d48988d11b941735","category":"Pub","checkinsCount":1450,"usersCount":985,"tipCount":30,"visitsCount":1493,"url":"http://www.waxyoconnors.co.uk/index.php/glasgow1","tier":"","message":"","currency":"","rating":7.1},{"name":"The Lab","phone":"+441412222116","address":"26 Springfield Court","lat":55.859541305266,"lng":-4.253929853439331,"neighborhood":"Merchant City","city_fetched":"Motherwell,UK","state":"Glasgow City","country":"United Kingdom","canonicalUrl":"https://foursquare.com/v/the-lab/4b8ffaa5f964a520b96d33e3","categoryId":"4bf58dd8d48988d116941735","category":"Bar","checkinsCount":469,"usersCount":215,"tipCount":5,"visitsCount":471,"tier":"","message":"","currency":"","rating":7.1},{"name":"Speakeasy","phone":"+448451666036","address":"10 John St.","lat":55.86016450231024,"lng":-4.247728586196899,"neighborhood":"Merchant City","city_fetched":"Motherwell,UK","state":"Glasgow City","country":"United Kingdom","canonicalUrl":"https://foursquare.com/v/speakeasy/4b5cbbd3f964a5202c4129e3","categoryId":"4bf58dd8d48988d1d8941735","category":"Gay Bar","checkinsCount":1961,"usersCount":289,"tipCount":2,"visitsCount":1975,"tier":"","message":"","currency":"","rating":7},{"name":"Bread + Butter","phone":"+441412214383","address":"74 Buchanan Street","lat":55.85967979436194,"lng":-4.253473877906799,"neighborhood":"Merchant City","city_fetched":"Motherwell,UK","state":"Glasgow City","country":"United Kingdom","canonicalUrl":"https://foursquare.com/v/bread--butter/4bfeae8368c7a59346813f44","categoryId":"4bf58dd8d48988d11b941735","category":"Pub","checkinsCount":469,"usersCount":248,"tipCount":8,"visitsCount":469,"tier":"","message":"","currency":"","rating":7},{"name":"Tingle Shooter Bar & Cafe","phone":"+441412222000","address":"33 Mitchell St.","lat":55.85900174447208,"lng":-4.255996762514877,"neighborhood":"Merchant City","city_fetched":"Motherwell,UK","state":"Glasgow City","country":"United Kingdom","canonicalUrl":"https://foursquare.com/v/tingle-shooter-bar--cafe/4c5d65876147be9a79d19109","categoryId":"4bf58dd8d48988d11e941735","category":"Cocktail Bar","checkinsCount":463,"usersCount":227,"tipCount":5,"visitsCount":473,"url":"http://www.tinglebar.co.uk","tier":"","message":"","currency":"","rating":6.9},{"name":"Cathouse","phone":"+441412486606","address":"15 Union St.","lat":55.85845444978695,"lng":-4.2568910121917725,"neighborhood":"Merchant City","city_fetched":"Motherwell,UK","state":"Glasgow City","country":"United Kingdom","canonicalUrl":"https://foursquare.com/v/cathouse/4b2e9f96f964a520cde324e3","categoryId":"4bf58dd8d48988d11f941735","category":"Nightclub","checkinsCount":1478,"usersCount":548,"tipCount":10,"visitsCount":1512,"tier":"","message":"","currency":"","rating":6.9},{"name":"West End Bar","phone":"+441236768921","twitter":"westendbar","address":"26 Alexander St","lat":55.86517380041476,"lng":-3.9861059188842773,"city_fetched":"Motherwell,UK","state":"North Lanarkshire","country":"United Kingdom","canonicalUrl":"https://foursquare.com/v/west-end-bar/4d22515b5c4ca1cdfeb1b03d","categoryId":"4bf58dd8d48988d11b941735","category":"Pub","checkinsCount":146,"usersCount":28,"tipCount":1,"visitsCount":152,"url":"http://www.westendbar.com","tier":"","message":"","currency":"","rating":6.9},{"name":"Mulberry St Bar and Bistro","address":"778 Pollokshaws Rd","lat":55.835839,"lng":-4.271498,"neighborhood":"South Side","city_fetched":"Motherwell,UK","state":"Glasgow City","country":"United Kingdom","canonicalUrl":"https://foursquare.com/v/mulberry-st-bar-and-bistro/4b6d6348f964a52045742ce3","categoryId":"4bf58dd8d48988d116941735","category":"Bar","checkinsCount":294,"usersCount":124,"tipCount":10,"visitsCount":300,"tier":"","message":"","currency":"","rating":6.9},{"name":"Drum & Monkey","phone":"+441412216636","twitter":"drum_glasgow","address":"91 St. Vincent St","lat":55.86141511591413,"lng":-4.25657916069063,"neighborhood":"Merchant City","city_fetched":"Motherwell,UK","state":"Glasgow City","country":"United Kingdom","canonicalUrl":"https://foursquare.com/v/drum--monkey/4b856efdf964a5209b5d31e3","categoryId":"4bf58dd8d48988d11b941735","category":"Pub","checkinsCount":1056,"usersCount":571,"tipCount":16,"visitsCount":1076,"url":"http://www.nicholsonspubs.co.uk/thedrumandmonkeystvincentstreetglasgow/","tier":"","message":"","currency":"","rating":6.9},{"name":"Hootenanny","phone":"+441412264687","address":"40 Howard St","lat":55.85684926585168,"lng":-4.255435970693667,"neighborhood":"Merchant City","city_fetched":"Motherwell,UK","country":"United Kingdom","canonicalUrl":"https://foursquare.com/v/hootenanny/4c1f634c920076b0f4a3c4e9","categoryId":"4bf58dd8d48988d11b941735","category":"Pub","checkinsCount":268,"usersCount":231,"tipCount":5,"visitsCount":278,"tier":"","message":"","currency":"","rating":6.8},{"name":"Committee Room No9","phone":"+448451666035","address":"18 John Street, Merchant City","lat":55.86021470599815,"lng":-4.247809596930118,"neighborhood":"Merchant City","city_fetched":"Motherwell,UK","country":"United Kingdom","canonicalUrl":"https://foursquare.com/v/committee-room-no9/4de95474c65b72347a275f9e","categoryId":"4bf58dd8d48988d116941735","category":"Bar","checkinsCount":727,"usersCount":281,"tipCount":6,"visitsCount":798,"url":"http://www.committeeroom9.co.uk","tier":"","message":"","currency":"","rating":6.8},{"name":"The Counting House (Wetherspoon)","phone":"+441412250160","address":"2 St Vincents Pl.","lat":55.86095834786679,"lng":-4.251627611994926,"neighborhood":"Merchant City","city_fetched":"Motherwell,UK","state":"Glasgow City","country":"United Kingdom","canonicalUrl":"https://foursquare.com/v/the-counting-house-wetherspoon/4bd99cb4e914a5934e1a57fa","categoryId":"4bf58dd8d48988d11b941735","category":"Pub","checkinsCount":4206,"usersCount":2079,"tipCount":38,"visitsCount":4467,"url":"http://www.jdwetherspoon.co.uk","tier":1,"message":"Cheap","currency":"£","rating":6.8},{"name":"Strata","phone":"+441412211888","address":"45 Queen Street","lat":55.85872084552119,"lng":-4.252294495326287,"neighborhood":"Merchant City","city_fetched":"Motherwell,UK","state":"Glasgow City","country":"United Kingdom","canonicalUrl":"https://foursquare.com/v/strata/4b8991e4f964a5208a4232e3","categoryId":"4bf58dd8d48988d116941735","category":"Bar","checkinsCount":266,"usersCount":151,"tipCount":3,"visitsCount":267,"tier":"","message":"","currency":"","rating":6.8},{"name":"The Bank","phone":"+441416378461","address":"443 Clarkston Rd.","lat":55.810074,"lng":-4.270844,"neighborhood":"South Side","city_fetched":"Motherwell,UK","state":"Glasgow City","country":"United Kingdom","canonicalUrl":"https://foursquare.com/v/the-bank/4bae53f1f964a52045a33be3","categoryId":"4bf58dd8d48988d116941735","category":"Bar","checkinsCount":173,"usersCount":84,"tipCount":5,"visitsCount":193,"url":"http://www.thebankglasgow.co.uk","tier":"","message":"","currency":"","rating":6.8},{"name":"The Beer House","phone":"+441413323143","twitter":"_thebeerhouse","address":"Glasgow Central Station","lat":55.85977648816247,"lng":-4.257992743046732,"neighborhood":"Merchant City","city_fetched":"Motherwell,UK","state":"Glasgow City","country":"United Kingdom","canonicalUrl":"https://foursquare.com/v/the-beer-house/537cdfe1498e688f37c9d148","categoryId":"4bf58dd8d48988d11b941735","category":"Pub","checkinsCount":121,"usersCount":100,"tipCount":4,"visitsCount":122,"url":"http://thebeerhouseuk.com","tier":"","message":"","currency":"","rating":6.8},{"name":"The White Cart","phone":"+441416442711","address":"61 East Kilbride Rd","lat":55.780180571994514,"lng":-4.260699167413827,"city_fetched":"Motherwell,UK","country":"United Kingdom","canonicalUrl":"https://foursquare.com/v/the-white-cart/4bdb11503904a593c994489e","categoryId":"4bf58dd8d48988d11b941735","category":"Pub","checkinsCount":127,"usersCount":83,"tipCount":3,"visitsCount":139,"tier":"","message":"","currency":"","rating":6.7},{"name":"Arta","address":"62 Albion St","lat":55.85828978147607,"lng":-4.244276502676707,"neighborhood":"Merchant City","city_fetched":"Motherwell,UK","state":"Glasgow City","country":"United Kingdom","canonicalUrl":"https://foursquare.com/v/arta/4bc0d75074a9a59394c6d0f6","categoryId":"4bf58dd8d48988d11e941735","category":"Cocktail Bar","checkinsCount":258,"usersCount":210,"tipCount":8,"visitsCount":261,"tier":"","message":"","currency":"","rating":6.7},{"name":"Tron Theatre Bar","address":"63 Trongate","lat":55.85655162682085,"lng":-4.245400428771973,"neighborhood":"Merchant City","city_fetched":"Motherwell,UK","state":"Glasgow City","country":"United Kingdom","canonicalUrl":"https://foursquare.com/v/tron-theatre-bar/4bb639e0f562ef3bfdd12f97","categoryId":"4bf58dd8d48988d116941735","category":"Bar","checkinsCount":361,"usersCount":163,"tipCount":6,"visitsCount":363,"tier":"","message":"","currency":"","rating":6.7},{"name":"Rhoderick Dhu","phone":"+441412215479","address":"21-23 Waterloo St","lat":55.86042147258074,"lng":-4.259916395637598,"neighborhood":"City Centre","city_fetched":"Motherwell,UK","country":"United Kingdom","canonicalUrl":"https://foursquare.com/v/rhoderick-dhu/4bbb682c935e95213f252990","categoryId":"4bf58dd8d48988d116941735","category":"Bar","checkinsCount":298,"usersCount":149,"tipCount":2,"visitsCount":300,"url":"http://www.rhoderickdhu-glasgow.co.uk","tier":"","message":"","currency":"","rating":6.7},{"name":"Drury Street Bar and Kitchen","phone":"+441412042929","twitter":"drurystreet","address":"Drury St","lat":55.86126467507055,"lng":-4.256869574222909,"neighborhood":"Merchant City","city_fetched":"Motherwell,UK","state":"Glasgow City","country":"United Kingdom","canonicalUrl":"https://foursquare.com/v/drury-street-bar-and-kitchen/54283a7c498eefacefa77791","categoryId":"4bf58dd8d48988d116941735","category":"Bar","checkinsCount":96,"usersCount":40,"tipCount":2,"visitsCount":98,"url":"http://www.drurystreet.co.uk","tier":"","message":"","currency":"","rating":6.7},{"name":"Clockwork Beer Co","phone":"+441416490184","twitter":"clockworkbeerco","address":"1153-1155 Cathcart Rd","lat":55.82334562181112,"lng":-4.258747100830078,"neighborhood":"Cathcart","city_fetched":"Motherwell,UK","country":"United Kingdom","canonicalUrl":"https://foursquare.com/v/clockwork-beer-co/4bae5929f964a5201ea63be3","categoryId":"4bf58dd8d48988d116941735","category":"Bar","checkinsCount":794,"usersCount":330,"tipCount":6,"visitsCount":1010,"url":"http://www.clockworkbeercompany.co.uk","tier":"","message":"","currency":"","rating":6.6},{"name":"The Brandon Works (Wetherspoon)","phone":"+441698210280","address":"45-61 Merry St.","lat":55.79168324330119,"lng":-3.990111991062145,"city_fetched":"Motherwell,UK","state":"North Lanarkshire","country":"United Kingdom","canonicalUrl":"https://foursquare.com/v/the-brandon-works-wetherspoon/4c3704b23849c928ace9bcb1","categoryId":"4bf58dd8d48988d11b941735","category":"Pub","checkinsCount":510,"usersCount":113,"tipCount":9,"visitsCount":525,"url":"http://www.jdwetherspoon.co.uk","tier":"","message":"","currency":"","rating":6.6},{"name":"Brewers Fayre","phone":"+448701977106","address":"10-12 Belziehill Rd.","lat":55.81943740243932,"lng":-4.040870660704493,"city_fetched":"Motherwell,UK","state":"North Lanarkshire","country":"United Kingdom","canonicalUrl":"https://foursquare.com/v/brewers-fayre/4bdc1a3563c5c9b628672a68","categoryId":"4bf58dd8d48988d11b941735","category":"Pub","checkinsCount":117,"usersCount":68,"tipCount":1,"visitsCount":119,"tier":"","message":"","currency":"","rating":6.6},{"name":"Tempus Bar and Restaurant | Grand Central Hotel","phone":"+441412403700","address":"Grand Central Hotel","lat":55.85981258333334,"lng":-4.259107566666667,"neighborhood":"City Centre","city_fetched":"Motherwell,UK","state":"Glasgow City","country":"United Kingdom","canonicalUrl":"https://foursquare.com/v/tempus-bar-and-restaurant--grand-central-hotel/4d98ed6de07ea35d311bfe02","categoryId":"4bf58dd8d48988d116941735","category":"Bar","checkinsCount":139,"usersCount":87,"tipCount":4,"visitsCount":139,"tier":"","message":"","currency":"","rating":6.6},{"name":"The Admiral","phone":"+441412217705","twitter":"theadmiralbar","address":"72a Waterloo St.","lat":55.86060100447776,"lng":-4.262975629843729,"neighborhood":"City Centre","city_fetched":"Motherwell,UK","country":"United Kingdom","canonicalUrl":"https://foursquare.com/v/the-admiral/4b4b7704f964a520c79c26e3","categoryId":"4bf58dd8d48988d11b941735","category":"Pub","checkinsCount":406,"usersCount":245,"tipCount":3,"visitsCount":409,"url":"http://www.theadmiralbar.com","tier":"","message":"","currency":"","rating":6.5},{"name":"The Horse Shoe Bar","phone":"+441412486368","address":"17-19 Drury St","lat":55.86095928983315,"lng":-4.25620436668396,"neighborhood":"Merchant City","city_fetched":"Motherwell,UK","state":"Glasgow City","country":"United Kingdom","canonicalUrl":"https://foursquare.com/v/the-horse-shoe-bar/4b6dbfe8f964a5203f8c2ce3","categoryId":"4bf58dd8d48988d11b941735","category":"Pub","checkinsCount":992,"usersCount":712,"tipCount":19,"visitsCount":1081,"url":"http://www.horseshoebar.co.uk","tier":"","message":"","currency":"","rating":6.5},{"name":"The Riding Room","address":"58 Virginia Street","lat":55.858842,"lng":-4.249865,"neighborhood":"Merchant City","city_fetched":"Motherwell,UK","state":"Glasgow City","country":"United Kingdom","canonicalUrl":"https://foursquare.com/v/the-riding-room/4f8f0f86e4b040530b8a4584","categoryId":"4bf58dd8d48988d1d8941735","category":"Gay Bar","checkinsCount":401,"usersCount":117,"tipCount":5,"visitsCount":402,"tier":"","message":"","currency":"","rating":6.5},{"name":"Black Bear Beefeater","phone":"+441417731133","twitter":"beefeatergrill","address":"601 Hamilton Rd.","lat":55.83706175349525,"lng":-4.110604189236629,"neighborhood":"Baillieston","city_fetched":"Motherwell,UK","state":"Glasgow City","country":"United Kingdom","canonicalUrl":"https://foursquare.com/v/black-bear-beefeater/4c442e1cfb6eb71368624e4a","categoryId":"4bf58dd8d48988d11b941735","category":"Pub","checkinsCount":121,"usersCount":91,"tipCount":2,"visitsCount":149,"url":"http://www.beefeater.co.uk","tier":"","message":"","currency":"","rating":6.5},{"name":"Angels Hotel","phone":"+441698812106","address":"114 Main Street","lat":55.82274292871394,"lng":-4.08390998840332,"city_fetched":"Motherwell,UK","country":"United Kingdom","canonicalUrl":"https://foursquare.com/v/angels-hotel/4b9d5e64f964a5206ba736e3","categoryId":"4bf58dd8d48988d116941735","category":"Bar","checkinsCount":167,"usersCount":96,"tipCount":3,"visitsCount":172,"tier":"","message":"","currency":"","rating":6.5},{"name":"Polo Lounge","phone":"+448456595905","twitter":"pologlasgow","address":"84 Wilson St","lat":55.85885788445488,"lng":-4.249477386474609,"neighborhood":"Merchant City","city_fetched":"Motherwell,UK","state":"Glasgow City","country":"United Kingdom","canonicalUrl":"https://foursquare.com/v/polo-lounge/4b5dfbabf964a5206d7729e3","categoryId":"4bf58dd8d48988d1d8941735","category":"Gay Bar","checkinsCount":1633,"usersCount":608,"tipCount":14,"visitsCount":1751,"tier":1,"message":"Cheap","currency":"£","rating":6.4},{"name":"The Wishaw Malt (Wetherspoon)","phone":"+441698358806","address":"62-66 Kirk Rd.","lat":55.774187,"lng":-3.91824806,"city_fetched":"Motherwell,UK","country":"United Kingdom","canonicalUrl":"https://foursquare.com/v/the-wishaw-malt-wetherspoon/4c87ac5e821e9eb022ce8d89","categoryId":"4bf58dd8d48988d11b941735","category":"Pub","checkinsCount":207,"usersCount":70,"tipCount":4,"visitsCount":213,"url":"http://www.jdwetherspoon.co.uk","tier":"","message":"","currency":"","rating":6.4},{"name":"Delmonicas","phone":"+441415524803","address":"68 Virginia St","lat":55.85912884568613,"lng":-4.249606132507324,"neighborhood":"Merchant City","city_fetched":"Motherwell,UK","state":"Glasgow City","country":"United Kingdom","canonicalUrl":"https://foursquare.com/v/delmonicas/4b37d796f964a520464725e3","categoryId":"4bf58dd8d48988d1d8941735","category":"Gay Bar","checkinsCount":1334,"usersCount":543,"tipCount":12,"visitsCount":1424,"url":"http://www.delmonicas.co.uk","tier":"","message":"","currency":"","rating":6.4},{"name":"Collage Corner Bar","phone":"+441412252407","address":"91 Oswald St.","lat":55.85860585373856,"lng":-4.259437691958936,"neighborhood":"City Centre","city_fetched":"Motherwell,UK","country":"United Kingdom","canonicalUrl":"https://foursquare.com/v/collage-corner-bar/4bd1e4d8b221c9b6ae71d6d0","categoryId":"4bf58dd8d48988d11e941735","category":"Cocktail Bar","checkinsCount":319,"usersCount":141,"tipCount":4,"visitsCount":319,"url":"http://www.carlsonrezidor.com","tier":"","message":"","currency":"","rating":6.4},{"name":"The Sir John Moore (Wetherspoon)","phone":"+441412221780","address":"260-292 Argyle St.","lat":55.85868767692137,"lng":-4.260237874159214,"neighborhood":"City Centre","city_fetched":"Motherwell,UK","country":"United Kingdom","canonicalUrl":"https://foursquare.com/v/the-sir-john-moore-wetherspoon/4b894198f964a520602632e3","categoryId":"4bf58dd8d48988d11b941735","category":"Pub","checkinsCount":2448,"usersCount":1033,"tipCount":12,"visitsCount":2540,"url":"http://www.jdwetherspoon.co.uk","tier":"","message":"","currency":"","rating":6.3},{"name":"The Gallery","address":"101 Brunswick St","lat":55.85908781608834,"lng":-4.247351992719872,"neighborhood":"Merchant City","city_fetched":"Motherwell,UK","state":"Glasgow City","country":"United Kingdom","canonicalUrl":"https://foursquare.com/v/the-gallery/50d636e8e4b0fb6ffc2a38c5","categoryId":"4bf58dd8d48988d116941735","category":"Bar","checkinsCount":184,"usersCount":55,"tipCount":1,"visitsCount":186,"tier":"","message":"","currency":"","rating":6.3},{"name":"The Robert Hamilton (Wetherspoon)","phone":"+441236771110","address":"12-14 Bank St.","lat":55.86683916666667,"lng":-3.980719,"city_fetched":"Motherwell,UK","state":"North Lanarkshire","country":"United Kingdom","canonicalUrl":"https://foursquare.com/v/the-robert-hamilton-wetherspoon/4c87aa32821e9eb036cc8d89","categoryId":"4bf58dd8d48988d11b941735","category":"Pub","checkinsCount":378,"usersCount":118,"tipCount":3,"visitsCount":435,"url":"http://www.jdwetherspoon.co.uk","tier":"","message":"","currency":"","rating":6.2},{"name":"The Vulcan (Wetherspoon)","phone":"+441236437972","address":"181 Main St.","lat":55.86156177330935,"lng":-4.022550473071285,"city_fetched":"Motherwell,UK","country":"United Kingdom","canonicalUrl":"https://foursquare.com/v/the-vulcan-wetherspoon/4b449227f964a520e0f625e3","categoryId":"4bf58dd8d48988d11b941735","category":"Pub","checkinsCount":256,"usersCount":85,"tipCount":6,"visitsCount":266,"url":"http://www.jdwetherspoon.co.uk","tier":"","message":"","currency":"","rating":6.2},{"name":"All Bar One","phone":"+441412296060","address":"56-72 St Vincent St","lat":55.86138076146743,"lng":-4.255228042602539,"neighborhood":"Merchant City","city_fetched":"Motherwell,UK","state":"Glasgow City","country":"United Kingdom","canonicalUrl":"https://foursquare.com/v/all-bar-one/4b754f77f964a520a7052ee3","categoryId":"4bf58dd8d48988d116941735","category":"Bar","checkinsCount":771,"usersCount":520,"tipCount":14,"visitsCount":782,"url":"http://www.allbarone.co.uk","tier":"","message":"","currency":"","rating":6.1},{"name":"The Crooked Lum (Beefeater)","phone":"+441355222809","twitter":"beefeatergrill","address":"Brunel Way","lat":55.75807280341254,"lng":-4.171373270036985,"city_fetched":"Motherwell,UK","state":"South Lanarkshire","country":"United Kingdom","canonicalUrl":"https://foursquare.com/v/the-crooked-lum-beefeater/4b630699f964a5205f5e2ae3","categoryId":"4bf58dd8d48988d11b941735","category":"Pub","checkinsCount":263,"usersCount":61,"tipCount":2,"visitsCount":263,"url":"http://www.beefeater.co.uk","tier":"","message":"","currency":"","rating":6.1},{"name":"Champagne Central | Grand Central Hotel","phone":"+441412403700","address":"99 Gordon Street","lat":55.85997186929586,"lng":-4.258019017155565,"neighborhood":"Merchant City","city_fetched":"Motherwell,UK","state":"Glasgow City","country":"United Kingdom","canonicalUrl":"https://foursquare.com/v/champagne-central--grand-central-hotel/4ca62209f47ea143d08f5d21","categoryId":"4bf58dd8d48988d1d5941735","category":"Hotel Bar","checkinsCount":409,"usersCount":292,"tipCount":6,"visitsCount":409,"tier":"","message":"","currency":"","rating":6.1},{"name":"The Dovecote (Beefeater)","phone":"+441236725339","twitter":"beefeatergrill","address":"4 South Muirhead Rd","lat":55.95043281701451,"lng":-3.9847487211227417,"city_fetched":"Motherwell,UK","state":"North Lanarkshire","country":"United Kingdom","canonicalUrl":"https://foursquare.com/v/the-dovecote-beefeater/4ba36bc7f964a520b23b38e3","categoryId":"4bf58dd8d48988d11b941735","category":"Pub","checkinsCount":191,"usersCount":93,"tipCount":6,"visitsCount":205,"url":"http://www.beefeater.co.uk","tier":"","message":"","currency":"","rating":6},{"name":"Piper On The Square","phone":"+441415521740","address":"57 Cochrane St","lat":55.86062263389696,"lng":-4.24936368123138,"neighborhood":"Merchant City","city_fetched":"Motherwell,UK","country":"United Kingdom","canonicalUrl":"https://foursquare.com/v/piper-on-the-square/4beead88b0b376b01cc2dab3","categoryId":"4bf58dd8d48988d11b941735","category":"Pub","checkinsCount":377,"usersCount":231,"tipCount":6,"visitsCount":381,"tier":"","message":"","currency":"","rating":6},{"name":"The Crystal Palace (Wetherspoon)","phone":"+441412212624","address":"36 Jamaica St","lat":55.85722148204384,"lng":-4.25729499611521,"neighborhood":"Merchant City","city_fetched":"Motherwell,UK","state":"Glasgow City","country":"United Kingdom","canonicalUrl":"https://foursquare.com/v/the-crystal-palace-wetherspoon/4c87ab04821e9eb0f6cc8d89","categoryId":"4bf58dd8d48988d11b941735","category":"Pub","checkinsCount":2384,"usersCount":1309,"tipCount":16,"visitsCount":2749,"url":"http://www.jdwetherspoon.co.uk","tier":1,"message":"Cheap","currency":"£","rating":6},{"name":"The Beer Cafe","phone":"+441415529815","twitter":"beercafeglasgow","address":"78 Candleriggs","lat":55.858583,"lng":-4.245402,"neighborhood":"Merchant City","city_fetched":"Motherwell,UK","state":"Glasgow City","country":"United Kingdom","canonicalUrl":"https://foursquare.com/v/the-beer-cafe/4b58b099f964a520d46528e3","categoryId":"4bf58dd8d48988d116941735","category":"Bar","checkinsCount":555,"usersCount":311,"tipCount":10,"visitsCount":567,"url":"http://www.beercafe.co.uk","tier":"","message":"","currency":"","rating":6},{"name":"Sugar Cube","address":"Queen Street","lat":55.859008998546386,"lng":-4.25232172065339,"neighborhood":"Merchant City","city_fetched":"Motherwell,UK","state":"Glasgow City","country":"United Kingdom","canonicalUrl":"https://foursquare.com/v/sugar-cube/4e597db1b61c4aaa3dfef53a","categoryId":"4bf58dd8d48988d11f941735","category":"Nightclub","checkinsCount":128,"usersCount":99,"tipCount":2,"visitsCount":128,"tier":"","message":"","currency":"","rating":6},{"name":"The Edward Wylie (Wetherspoon)","phone":"+441412295480","address":"107-109 Bothwell St.","lat":55.86145427361094,"lng":-4.262801937741648,"neighborhood":"City Centre","city_fetched":"Motherwell,UK","state":"Glasgow City","country":"United Kingdom","canonicalUrl":"https://foursquare.com/v/the-edward-wylie-wetherspoon/4b576d9bf964a520243728e3","categoryId":"4bf58dd8d48988d11b941735","category":"Pub","checkinsCount":1319,"usersCount":635,"tipCount":11,"visitsCount":1494,"url":"http://www.jdwetherspoon.co.uk","tier":"","message":"","currency":"","rating":5.9},{"name":"The Underground Bar","phone":"+441415532456","address":"6A John St.","lat":55.85997182409843,"lng":-4.247889518737793,"neighborhood":"Merchant City","city_fetched":"Motherwell,UK","state":"Glasgow City","country":"United Kingdom","canonicalUrl":"https://foursquare.com/v/the-underground-bar/4bf6f5db5ec320a1771b86d3","categoryId":"4bf58dd8d48988d1d8941735","category":"Gay Bar","checkinsCount":632,"usersCount":202,"tipCount":11,"visitsCount":668,"tier":"","message":"","currency":"","rating":5.9},{"name":"Hilton Glasgow - Executive Lounge","address":"1 William Street","lat":55.86151322303669,"lng":-4.268403053283691,"neighborhood":"City Centre","city_fetched":"Motherwell,UK","state":"Glasgow City","country":"United Kingdom","canonicalUrl":"https://foursquare.com/v/hilton-glasgow--executive-lounge/4e27e9bc091a1ba18da85029","categoryId":"4bf58dd8d48988d1d5941735","category":"Hotel Bar","checkinsCount":383,"usersCount":142,"tipCount":9,"visitsCount":383,"tier":"","message":"","currency":"","rating":5.9},{"name":"Connich Bar","phone":"+441412045555","twitter":"hiltonhotels","address":"1 William St","lat":55.861629107879395,"lng":-4.269209981779361,"neighborhood":"City Centre","city_fetched":"Motherwell,UK","country":"United Kingdom","canonicalUrl":"https://foursquare.com/v/connich-bar/50ca02c7245f2d4aa8c2ca58","categoryId":"4bf58dd8d48988d1d5941735","category":"Hotel Bar","checkinsCount":82,"usersCount":51,"tipCount":1,"visitsCount":84,"url":"http://www.hilton.com","tier":"","message":"","currency":"","rating":5.9},{"name":"Church On The Hill","phone":"+441416369171","address":"29 Algie St","lat":55.82754509720813,"lng":-4.271500291859005,"neighborhood":"Langside","city_fetched":"Motherwell,UK","state":"Glasgow City","country":"United Kingdom","canonicalUrl":"https://foursquare.com/v/church-on-the-hill/4ba55019f964a5207af938e3","categoryId":"4bf58dd8d48988d11b941735","category":"Pub","checkinsCount":363,"usersCount":233,"tipCount":10,"visitsCount":407,"tier":"","message":"","currency":"","rating":5.9},{"name":"Sugar rush","lat":55.844472637957395,"lng":-4.268653747840145,"neighborhood":"South Side","city_fetched":"Motherwell,UK","country":"United Kingdom","canonicalUrl":"https://foursquare.com/v/sugar-rush/4f08808be4b07c8f8c299637","categoryId":"4bf58dd8d48988d119941735","category":"Hookah Bar","checkinsCount":100,"usersCount":75,"tipCount":1,"visitsCount":202,"tier":"","message":"","currency":"","rating":5.8},{"name":"Central Bar","phone":"+441412042887","address":"Unit 12, Central Station","lat":55.85994773925475,"lng":-4.258403778076172,"neighborhood":"Merchant City","city_fetched":"Motherwell,UK","state":"Glasgow City","country":"United Kingdom","canonicalUrl":"https://foursquare.com/v/central-bar/4bc2ef91abf495212410c393","categoryId":"4bf58dd8d48988d116941735","category":"Bar","checkinsCount":478,"usersCount":209,"tipCount":3,"visitsCount":478,"tier":"","message":"","currency":"","rating":5.8},{"name":"The Royal Scot","phone":"+441412296011","address":"40-48 Union St","lat":55.85896024780877,"lng":-4.256880283355713,"neighborhood":"Merchant City","city_fetched":"Motherwell,UK","state":"Glasgow City","country":"United Kingdom","canonicalUrl":"https://foursquare.com/v/the-royal-scot/4beea769d355a593691b0b60","categoryId":"4bf58dd8d48988d11b941735","category":"Pub","checkinsCount":400,"usersCount":264,"tipCount":11,"visitsCount":400,"url":"http://www.thegooseglasgow.co.uk","tier":"","message":"","currency":"","rating":5.8},{"name":"The Railway Tavern","phone":"+441698267734","address":"31 Merry St","lat":55.790714448586236,"lng":-3.9921140670776367,"city_fetched":"Motherwell,UK","country":"United Kingdom","canonicalUrl":"https://foursquare.com/v/the-railway-tavern/4ca7b87614c33704efa5cc3b","categoryId":"4bf58dd8d48988d11b941735","category":"Pub","checkinsCount":67,"usersCount":35,"tipCount":2,"visitsCount":67,"tier":"","message":"","currency":"","rating":5.8},{"name":"axm","address":"80 Glassford St.","lat":55.85930722499117,"lng":-4.248646169596371,"neighborhood":"Merchant City","city_fetched":"Motherwell,UK","state":"Glasgow City","country":"United Kingdom","canonicalUrl":"https://foursquare.com/v/axm/4f7e1dbbe4b00502a84fdfe1","categoryId":"4bf58dd8d48988d1d8941735","category":"Gay Bar","checkinsCount":186,"usersCount":93,"tipCount":0,"visitsCount":187,"tier":"","message":"","currency":"","rating":5.8},{"name":"Drouthy's","phone":"+441412432964","address":"157 Queen St","lat":55.86065221476316,"lng":-4.251633882522583,"neighborhood":"Merchant City","city_fetched":"Motherwell,UK","state":"Glasgow City","country":"United Kingdom","canonicalUrl":"https://foursquare.com/v/drouthys/4c07ee4d7e3fc9280b7def82","categoryId":"4bf58dd8d48988d11b941735","category":"Pub","checkinsCount":322,"usersCount":173,"tipCount":7,"visitsCount":322,"tier":"","message":"","currency":"","rating":5.7},{"name":"The Auctioneers","phone":"+441412222989","address":"North Court","lat":55.860788,"lng":-4.252517,"neighborhood":"Merchant City","city_fetched":"Motherwell,UK","state":"Glasgow City","country":"United Kingdom","canonicalUrl":"https://foursquare.com/v/the-auctioneers/4c13853ea9c220a1fdd4559d","categoryId":"4bf58dd8d48988d116941735","category":"Bar","checkinsCount":540,"usersCount":258,"tipCount":4,"visitsCount":559,"tier":"","message":"","currency":"","rating":5.7},{"name":"Vespbar","phone":"+441412040060","twitter":"vespbar","address":"14 Drury St","lat":55.86100011226912,"lng":-4.255804329306039,"neighborhood":"Merchant City","city_fetched":"Motherwell,UK","state":"Glasgow City","country":"United Kingdom","canonicalUrl":"https://foursquare.com/vespbar","categoryId":"4bf58dd8d48988d116941735","category":"Bar","checkinsCount":387,"usersCount":212,"tipCount":8,"visitsCount":391,"url":"http://www.vespbar.com","tier":"","message":"","currency":"","rating":5.7},{"name":"Cosmopol","phone":"+441412219130","address":"165 Hope St.","lat":55.862313298584745,"lng":-4.257806081820066,"neighborhood":"Merchant City","city_fetched":"Motherwell,UK","state":"Glasgow City","country":"United Kingdom","canonicalUrl":"https://foursquare.com/v/cosmopol/4baa6c6df964a520c7683ae3","categoryId":"4bf58dd8d48988d116941735","category":"Bar","checkinsCount":168,"usersCount":108,"tipCount":2,"visitsCount":169,"tier":"","message":"","currency":"","rating":5.6},{"name":"Failte","phone":"+441412484989","address":"79 St. Vincent St","lat":55.86126870501087,"lng":-4.255765684336793,"neighborhood":"Merchant City","city_fetched":"Motherwell,UK","state":"Glasgow City","country":"United Kingdom","canonicalUrl":"https://foursquare.com/v/failte/4c00266bdaf9c9b6555cfbef","categoryId":"4bf58dd8d48988d116941735","category":"Bar","checkinsCount":353,"usersCount":90,"tipCount":3,"visitsCount":353,"tier":"","message":"","currency":"","rating":5.5},{"name":"Drop","address":"42 waterloo street","lat":55.860318042076116,"lng":-4.259782433509827,"neighborhood":"City Centre","city_fetched":"Motherwell,UK","state":"Glasgow City","country":"United Kingdom","canonicalUrl":"https://foursquare.com/v/drop/4c13c2e877cea5939a5ccf60","categoryId":"4bf58dd8d48988d116941735","category":"Bar","checkinsCount":164,"usersCount":104,"tipCount":4,"visitsCount":164,"tier":"","message":"","currency":"","rating":5.5},{"name":"Metropolitan","phone":"+441415531488","twitter":"metglasgow","address":"60 Candleriggs","lat":55.85847317265311,"lng":-4.24510694695311,"neighborhood":"Merchant City","city_fetched":"Motherwell,UK","state":"Glasgow City","country":"United Kingdom","canonicalUrl":"https://foursquare.com/v/metropolitan/4b900c21f964a5205a7233e3","categoryId":"4bf58dd8d48988d116941735","category":"Bar","checkinsCount":611,"usersCount":436,"tipCount":7,"visitsCount":615,"url":"http://www.metropolitan-bar.com","tier":"","message":"","currency":"","rating":5.4},{"name":"Camperdown Place (Wetherspoon)","phone":"+441413316600","twitter":"jdwtweet","address":"4-5 West George St.","lat":55.86158405,"lng":-4.25140469,"neighborhood":"Merchant City","city_fetched":"Motherwell,UK","state":"Glasgow City","country":"United Kingdom","canonicalUrl":"https://foursquare.com/v/camperdown-place-wetherspoon/4d6e7a59134ea1438f03911a","categoryId":"4bf58dd8d48988d11b941735","category":"Pub","checkinsCount":1360,"usersCount":645,"tipCount":8,"visitsCount":1377,"url":"http://www.jdwetherspoon.co.uk","tier":"","message":"","currency":"","rating":5.4},{"name":"Mansion House","address":"20 Glassford St","lat":55.858206,"lng":-4.249043,"neighborhood":"Merchant City","city_fetched":"Motherwell,UK","state":"Glasgow City","country":"United Kingdom","canonicalUrl":"https://foursquare.com/v/mansion-house/4d6fe20c0d996dcb61b9bd8e","categoryId":"4bf58dd8d48988d116941735","category":"Bar","checkinsCount":297,"usersCount":182,"tipCount":1,"visitsCount":297,"url":"http://www.mansionhouseglasgow.com","tier":"","message":"","currency":"","rating":5.4},{"name":"Waterloo","phone":"+441412487216","address":"306 Argyle St.","lat":55.858765,"lng":-4.260897,"neighborhood":"City Centre","city_fetched":"Motherwell,UK","state":"Glasgow City","country":"United Kingdom","canonicalUrl":"https://foursquare.com/v/waterloo/4c24e59b905a0f4737886060","categoryId":"4bf58dd8d48988d1d8941735","category":"Gay Bar","checkinsCount":226,"usersCount":112,"tipCount":2,"visitsCount":228,"url":"http://www.waterloobar.co.uk","tier":"","message":"","currency":"","rating":5.3},{"name":"October","phone":"0141221030","address":"Princes Square","lat":55.85932152807864,"lng":-4.253683090209961,"neighborhood":"Merchant City","city_fetched":"Motherwell,UK","state":"Glasgow City","country":"United Kingdom","canonicalUrl":"https://foursquare.com/v/october/4bc5a80b0a30d13a3b3f5a9c","categoryId":"4bf58dd8d48988d116941735","category":"Bar","checkinsCount":347,"usersCount":240,"tipCount":6,"visitsCount":347,"tier":"","message":"","currency":"","rating":5.3},{"name":"Kitty O'Sheas","phone":"+441415648100","twitter":"kittysglasgow","address":"15 Waterloo St","lat":55.860359,"lng":-4.2596414,"neighborhood":"City Centre","city_fetched":"Motherwell,UK","state":"Glasgow City","country":"United Kingdom","canonicalUrl":"https://foursquare.com/v/kitty-osheas/4c0d2703c700c9b685f6a1dd","categoryId":"4bf58dd8d48988d116941735","category":"Bar","checkinsCount":191,"usersCount":123,"tipCount":3,"visitsCount":191,"tier":"","message":"","currency":"","rating":5.3},{"name":"Bar Square","phone":"+441415523232","twitter":"bar_square","address":"5 Bell Street","lat":55.85835810656004,"lng":-4.245615005493164,"neighborhood":"Merchant City","city_fetched":"Motherwell,UK","state":"Glasgow City","country":"United Kingdom","canonicalUrl":"https://foursquare.com/v/bar-square/4bb7b1f8cf2fc9b61ca59e02","categoryId":"4bf58dd8d48988d116941735","category":"Bar","checkinsCount":306,"usersCount":203,"tipCount":6,"visitsCount":306,"url":"http://www.barsquare.co.uk","tier":"","message":"","currency":"","rating":5.1},{"name":"Katie's Bar","address":"17 John Street","lat":55.86009023319731,"lng":-4.247977498021423,"neighborhood":"Merchant City","city_fetched":"Motherwell,UK","state":"Glasgow City","country":"United Kingdom","canonicalUrl":"https://foursquare.com/v/katies-bar/51f44394498e3a45a84a045e","categoryId":"4bf58dd8d48988d1d8941735","category":"Gay Bar","checkinsCount":144,"usersCount":86,"tipCount":1,"visitsCount":145,"tier":"","message":"","currency":"","rating":4.9}]