[{"name":"The Plough","phone":"+441603661384","twitter":"ploughnorwich","address":"58 St Benedicts Street","lat":52.63125056095954,"lng":1.288090888701162,"neighborhood":"City Centre","city_fetched":"Mulbarton,UK","state":"Norfolk","country":"United Kingdom","canonicalUrl":"https://foursquare.com/v/the-plough/4be474dccf200f474afd113c","categoryId":"4bf58dd8d48988d11b941735","category":"Pub","checkinsCount":604,"usersCount":321,"tipCount":15,"visitsCount":694,"url":"http://theploughnorwich.co.uk","tier":"","message":"","currency":"","rating":9.2},{"name":"The Fat Cat","phone":"+441603624364","twitter":"fatcatnorwich","address":"49 West End St.","lat":52.635173,"lng":1.275448,"city_fetched":"Mulbarton,UK","state":"Norfolk","country":"United Kingdom","canonicalUrl":"https://foursquare.com/v/the-fat-cat/4b533826f964a520cb9227e3","categoryId":"4bf58dd8d48988d11b941735","category":"Pub","checkinsCount":1059,"usersCount":401,"tipCount":26,"visitsCount":1201,"url":"http://www.fatcatpub.co.uk","tier":"","message":"","currency":"","rating":9},{"name":"Frank's Bar","phone":"+441603618902","twitter":"franksbar","address":"19 Bedford St","lat":52.6297687,"lng":1.2947875,"neighborhood":"Norwich Lanes","city_fetched":"Mulbarton,UK","state":"Norfolk","country":"United Kingdom","canonicalUrl":"https://foursquare.com/v/franks-bar/4b6ca100f964a520c0472ce3","categoryId":"4bf58dd8d48988d116941735","category":"Bar","checkinsCount":746,"usersCount":433,"tipCount":19,"visitsCount":875,"tier":"","message":"","currency":"","rating":8.8},{"name":"BrewDog Norwich","phone":"+441603666868","twitter":"brewdognorwich","address":"1 Queen St","lat":52.6302377224606,"lng":1.2974227065995416,"neighborhood":"Cathedral Quarter","city_fetched":"Mulbarton,UK","state":"Norfolk","country":"United Kingdom","canonicalUrl":"https://foursquare.com/v/brewdog-norwich/57068ae6498e03db1abca8fc","categoryId":"56aa371ce4b08b9a8d57356c","category":"Beer Bar","checkinsCount":246,"usersCount":79,"tipCount":7,"visitsCount":275,"url":"https://www.brewdog.com/bars/uk/norwich","tier":"","message":"","currency":"","rating":8.5},{"name":"The Fat Cat and Canary","phone":"+441603436925","twitter":"fatcatcanary","address":"101 Thorpe Rd","lat":52.62545490718378,"lng":1.3213350846080547,"neighborhood":"Thorpe","city_fetched":"Mulbarton,UK","state":"Norfolk","country":"United Kingdom","canonicalUrl":"https://foursquare.com/v/the-fat-cat-and-canary/4fbd4ebee4b05ba1686355ab","categoryId":"4bf58dd8d48988d11b941735","category":"Pub","checkinsCount":475,"usersCount":133,"tipCount":4,"visitsCount":635,"url":"http://fatcatcanary.co.uk","tier":"","message":"","currency":"","rating":8.5},{"name":"St. Andrews Brewhouse","twitter":"standrewbrewhse","address":"41 St. Andrews Street","lat":52.6306721988138,"lng":1.2955882521475883,"neighborhood":"City Centre","city_fetched":"Mulbarton,UK","state":"Norfolk","country":"United Kingdom","canonicalUrl":"https://foursquare.com/v/st-andrews-brewhouse/55991999498e83c3be4d0a30","categoryId":"4bf58dd8d48988d11b941735","category":"Pub","checkinsCount":261,"usersCount":172,"tipCount":6,"visitsCount":318,"tier":"","message":"","currency":"","rating":8.4},{"name":"Rushcutters Arms","lat":52.62575089931488,"lng":1.34245094,"neighborhood":"Thorpe","city_fetched":"Mulbarton,UK","state":"Norfolk","country":"United Kingdom","canonicalUrl":"https://foursquare.com/v/rushcutters-arms/4bcb0371b6c49c74555b9191","categoryId":"4bf58dd8d48988d117941735","category":"Beer Garden","checkinsCount":365,"usersCount":261,"tipCount":7,"visitsCount":479,"tier":"","message":"","currency":"","rating":8.4},{"name":"The Jubilee","phone":"+441603618734","twitter":"jubilee_the","address":"26 St Leonards Rd","lat":52.629135847091675,"lng":1.311761,"neighborhood":"Thorpe","city_fetched":"Mulbarton,UK","state":"Norfolk","country":"United Kingdom","canonicalUrl":"https://foursquare.com/v/the-jubilee/4c83f3f4d8086dcbd0c48452","categoryId":"4bf58dd8d48988d11b941735","category":"Pub","checkinsCount":477,"usersCount":84,"tipCount":5,"visitsCount":501,"tier":"","message":"","currency":"","rating":8.4},{"name":"Belgian Monk","phone":"+441603767222","address":"7 Pottergate","lat":52.62988046142604,"lng":1.29250003447931,"neighborhood":"Norwich Lanes","city_fetched":"Mulbarton,UK","state":"Norfolk","country":"United Kingdom","canonicalUrl":"https://foursquare.com/v/belgian-monk/4bc0f10db492d13a5638a560","categoryId":"4bf58dd8d48988d11b941735","category":"Pub","checkinsCount":658,"usersCount":453,"tipCount":21,"visitsCount":733,"tier":"","message":"","currency":"","rating":8.2},{"name":"The Norwich Tap House","twitter":"norwichtaphouse","address":"8 Redwell St","lat":52.63049415190832,"lng":1.296618450837934,"neighborhood":"Cathedral Quarter","city_fetched":"Mulbarton,UK","state":"Norfolk","country":"United Kingdom","canonicalUrl":"https://foursquare.com/v/the-norwich-tap-house/5081b565e4b0211345f679f8","categoryId":"4bf58dd8d48988d11b941735","category":"Pub","checkinsCount":774,"usersCount":293,"tipCount":13,"visitsCount":844,"tier":"","message":"","currency":"","rating":8.1},{"name":"The Kings Head, Brooke","phone":"+441508550335","twitter":"kingsheadbrooke","address":"6 Norwich Road","lat":52.541726492606486,"lng":1.3692449523523624,"city_fetched":"Mulbarton,UK","country":"United Kingdom","canonicalUrl":"https://foursquare.com/kingsheadbrooke","categoryId":"4bf58dd8d48988d11b941735","category":"Pub","checkinsCount":61,"usersCount":33,"tipCount":1,"visitsCount":68,"url":"http://www.kingsheadbrooke.co.uk","tier":"","message":"","currency":"","rating":8.1},{"name":"The Mulberry","phone":"+441603630930","address":"111 Unthank Rd","lat":52.624506,"lng":1.2775706666666666,"city_fetched":"Mulbarton,UK","state":"Norfolk","country":"United Kingdom","canonicalUrl":"https://foursquare.com/v/the-mulberry/4c38ba451e06d13a1b44783e","categoryId":"4bf58dd8d48988d11b941735","category":"Pub","checkinsCount":234,"usersCount":155,"tipCount":7,"visitsCount":254,"url":"http://www.mymulberry.co.uk","tier":"","message":"","currency":"","rating":8.1},{"name":"The Green Dragon","address":"church street","lat":52.57106602191925,"lng":1.109742522239685,"city_fetched":"Mulbarton,UK","state":"Norfolk","country":"United Kingdom","canonicalUrl":"https://foursquare.com/v/the-green-dragon/4bf5867394b2a59374beabee","categoryId":"4bf58dd8d48988d11b941735","category":"Pub","checkinsCount":164,"usersCount":84,"tipCount":5,"visitsCount":177,"tier":"","message":"","currency":"","rating":8},{"name":"The Reindeer","address":"Dereham Road","lat":52.63220589888436,"lng":1.2841598444362046,"city_fetched":"Mulbarton,UK","state":"Norfolk","country":"United Kingdom","canonicalUrl":"https://foursquare.com/v/the-reindeer/4be5af03bcef2d7f382404e5","categoryId":"4bf58dd8d48988d11b941735","category":"Pub","checkinsCount":300,"usersCount":157,"tipCount":6,"visitsCount":350,"tier":"","message":"","currency":"","rating":7.7},{"name":"Trafford Arms","address":"Trafford Road","lat":52.620630639967885,"lng":1.2908077239990234,"city_fetched":"Mulbarton,UK","state":"Norfolk","country":"United Kingdom","canonicalUrl":"https://foursquare.com/v/trafford-arms/4bd483927b1876b0d92a8986","categoryId":"4bf58dd8d48988d11b941735","category":"Pub","checkinsCount":263,"usersCount":134,"tipCount":5,"visitsCount":340,"tier":"","message":"","currency":"","rating":7.7},{"name":"The Sir Garnet","phone":"+441603615892","twitter":"sirgarnetpub","address":"36 Market Close","lat":52.628263860778006,"lng":1.2929725719320297,"neighborhood":"City Centre","city_fetched":"Mulbarton,UK","state":"Norfolk","country":"United Kingdom","canonicalUrl":"https://foursquare.com/v/the-sir-garnet/4ff08e66e4b0c8e6f5e54660","categoryId":"4bf58dd8d48988d11b941735","category":"Pub","checkinsCount":431,"usersCount":222,"tipCount":8,"visitsCount":461,"url":"http://www.thesirgarnet.co.uk","tier":"","message":"","currency":"","rating":7.7},{"name":"The Alexandra Tavern","address":"Stafford St.","lat":52.632389,"lng":1.276384,"city_fetched":"Mulbarton,UK","state":"Norfolk","country":"United Kingdom","canonicalUrl":"https://foursquare.com/v/the-alexandra-tavern/4be065e998f2a593661cc25a","categoryId":"4bf58dd8d48988d11b941735","category":"Pub","checkinsCount":207,"usersCount":85,"tipCount":6,"visitsCount":262,"tier":"","message":"","currency":"","rating":7.7},{"name":"Ten Bells","phone":"+441603920292","twitter":"tenbellsnorwich","address":"74-78 St Benedicts Street","lat":52.63125265159069,"lng":1.287546157836914,"neighborhood":"Norwich Lanes","city_fetched":"Mulbarton,UK","state":"Norfolk","country":"United Kingdom","canonicalUrl":"https://foursquare.com/v/ten-bells/4b6c6f83f964a520f2392ce3","categoryId":"4bf58dd8d48988d11b941735","category":"Pub","checkinsCount":445,"usersCount":236,"tipCount":11,"visitsCount":475,"url":"http://www.thetenbells.co.uk","tier":"","message":"","currency":"","rating":7.6},{"name":"The Mash Tun & Gin Palace","twitter":"mashtunnorwich","address":"16 Charing Cross","lat":52.630824554184755,"lng":1.2919395062582988,"neighborhood":"City Centre","city_fetched":"Mulbarton,UK","state":"Norfolk","country":"United Kingdom","canonicalUrl":"https://foursquare.com/v/the-mash-tun--gin-palace/53c13340498ea554b4ad99a1","categoryId":"4bf58dd8d48988d11b941735","category":"Pub","checkinsCount":192,"usersCount":148,"tipCount":5,"visitsCount":268,"tier":"","message":"","currency":"","rating":7.6},{"name":"Coach and Horses","phone":"+441603477077","address":"82 Thorpe Road","lat":52.626915,"lng":1.310873,"neighborhood":"Thorpe","city_fetched":"Mulbarton,UK","state":"Norfolk","country":"United Kingdom","canonicalUrl":"https://foursquare.com/v/coach-and-horses/4b7fea68f964a520224430e3","categoryId":"4bf58dd8d48988d11b941735","category":"Pub","checkinsCount":1499,"usersCount":394,"tipCount":16,"visitsCount":1744,"tier":"","message":"","currency":"","rating":7.6},{"name":"The Birdcage","phone":"+441603633534","address":"23 Pottergate","lat":52.630102,"lng":1.291551,"neighborhood":"Norwich Lanes","city_fetched":"Mulbarton,UK","state":"Norfolk","country":"United Kingdom","canonicalUrl":"https://foursquare.com/v/the-birdcage/4bc30d0ab492d13a042ca860","categoryId":"4bf58dd8d48988d116941735","category":"Bar","checkinsCount":564,"usersCount":276,"tipCount":14,"visitsCount":573,"tier":"","message":"","currency":"","rating":7.5},{"name":"Lollards Pit","phone":"+441603857339","address":"69-71","lat":52.632258110012955,"lng":1.3092327818113723,"neighborhood":"Thorpe","city_fetched":"Mulbarton,UK","state":"Norfolk","country":"United Kingdom","canonicalUrl":"https://foursquare.com/v/lollards-pit/4faecbaee4b0c0e08e545d95","categoryId":"4bf58dd8d48988d116941735","category":"Bar","checkinsCount":47,"usersCount":46,"tipCount":1,"visitsCount":76,"tier":"","message":"","currency":"","rating":7.5},{"name":"Gonzo's Tea Room","twitter":"gonzostearoom","address":"68 London St","lat":52.62991969282528,"lng":1.2968140518922247,"neighborhood":"Norwich Lanes","city_fetched":"Mulbarton,UK","state":"Norfolk","country":"United Kingdom","canonicalUrl":"https://foursquare.com/v/gonzos-tea-room/53892770498e0c921f9bd7a0","categoryId":"4bf58dd8d48988d11e941735","category":"Cocktail Bar","checkinsCount":151,"usersCount":82,"tipCount":5,"visitsCount":167,"tier":"","message":"","currency":"","rating":7.5},{"name":"The Garden House","lat":52.62820780277252,"lng":1.27528573,"city_fetched":"Mulbarton,UK","country":"United Kingdom","canonicalUrl":"https://foursquare.com/v/the-garden-house/4bb75fb12ea19521a5d2ac2f","categoryId":"4bf58dd8d48988d11b941735","category":"Pub","checkinsCount":351,"usersCount":188,"tipCount":8,"visitsCount":404,"tier":"","message":"","currency":"","rating":7.4},{"name":"The Cellar House","phone":"+441603454511","twitter":"thecellarhouse","address":"2 Eaton Street","lat":52.60895007558171,"lng":1.2525464367167392,"neighborhood":"Eaton","city_fetched":"Mulbarton,UK","state":"Norfolk","country":"United Kingdom","canonicalUrl":"https://foursquare.com/v/the-cellar-house/4dcfc98aae603b786d50802e","categoryId":"4bf58dd8d48988d11b941735","category":"Pub","checkinsCount":139,"usersCount":67,"tipCount":0,"visitsCount":154,"url":"http://www.thecellarhouse.co.uk","tier":"","message":"","currency":"","rating":7.3},{"name":"The Library","phone":"+441603616606","address":"4A Guildhall Hill","lat":52.62943272552494,"lng":1.2923661010729324,"neighborhood":"Norwich Lanes","city_fetched":"Mulbarton,UK","state":"Norfolk","country":"United Kingdom","canonicalUrl":"https://foursquare.com/v/the-library/4bef1c76d1b7d13aab58cdec","categoryId":"4bf58dd8d48988d116941735","category":"Bar","checkinsCount":243,"usersCount":193,"tipCount":10,"visitsCount":244,"url":"http://thelibraryrestaurant.co.uk","tier":"","message":"","currency":"","rating":7.2},{"name":"The Eaton Cottage","address":"Unthank Road","lat":52.622602,"lng":1.27523874,"city_fetched":"Mulbarton,UK","state":"Norfolk","country":"United Kingdom","canonicalUrl":"https://foursquare.com/v/the-eaton-cottage/4b58c0bdf964a520326928e3","categoryId":"4bf58dd8d48988d11b941735","category":"Pub","checkinsCount":342,"usersCount":107,"tipCount":4,"visitsCount":387,"tier":"","message":"","currency":"","rating":7.2},{"name":"Black Horse","address":"Earlham Road","lat":52.63055802576776,"lng":1.2785510662136677,"city_fetched":"Mulbarton,UK","state":"Norfolk","country":"United Kingdom","canonicalUrl":"https://foursquare.com/v/black-horse/4c0aebabbbc676b070c54ad5","categoryId":"4bf58dd8d48988d11b941735","category":"Pub","checkinsCount":94,"usersCount":81,"tipCount":1,"visitsCount":123,"tier":"","message":"","currency":"","rating":7.1},{"name":"Kings Head","lat":52.63433622480097,"lng":1.183949190731562,"neighborhood":"Cringleford","city_fetched":"Mulbarton,UK","state":"Norfolk","country":"United Kingdom","canonicalUrl":"https://foursquare.com/v/kings-head/4beebef93686c9b6bedf246e","categoryId":"4bf58dd8d48988d11b941735","category":"Pub","checkinsCount":122,"usersCount":98,"tipCount":4,"visitsCount":166,"tier":"","message":"","currency":"","rating":7},{"name":"Revolution","phone":"+441603858483","address":"6 Queen St.","lat":52.630294,"lng":1.297556,"neighborhood":"Cathedral Quarter","city_fetched":"Mulbarton,UK","state":"Norfolk","country":"United Kingdom","canonicalUrl":"https://foursquare.com/v/revolution/4c8a67083dc2a1cd5c91ac32","categoryId":"4bf58dd8d48988d11e941735","category":"Cocktail Bar","checkinsCount":729,"usersCount":374,"tipCount":8,"visitsCount":788,"tier":"","message":"","currency":"","rating":7},{"name":"UEA LCR","phone":"+441603508050","address":"University of East Anglia","lat":52.62152036059221,"lng":1.2417094612496655,"neighborhood":"University","city_fetched":"Mulbarton,UK","state":"Norfolk","country":"United Kingdom","canonicalUrl":"https://foursquare.com/v/uea-lcr/4c0ad7007e3fc928a45ef482","categoryId":"4bf58dd8d48988d11f941735","category":"Nightclub","checkinsCount":1232,"usersCount":426,"tipCount":9,"visitsCount":1251,"tier":"","message":"","currency":"","rating":7},{"name":"Kings Arms","address":"22 Hall Rd","lat":52.62046,"lng":1.298467,"city_fetched":"Mulbarton,UK","state":"Norfolk","country":"United Kingdom","canonicalUrl":"https://foursquare.com/v/kings-arms/4ccb3cd3c0378cfa35657d48","categoryId":"4bf58dd8d48988d11b941735","category":"Pub","checkinsCount":186,"usersCount":89,"tipCount":4,"visitsCount":186,"tier":2,"message":"Moderate","currency":"£","rating":7},{"name":"The Earlham Arms","phone":"+441603622993","address":"41 Earlham Rd","lat":52.630850759215264,"lng":1.2799492123676597,"city_fetched":"Mulbarton,UK","state":"Norfolk","country":"United Kingdom","canonicalUrl":"https://foursquare.com/v/the-earlham-arms/4ef24d94b634355ded87fdae","categoryId":"4bf58dd8d48988d116941735","category":"Bar","checkinsCount":156,"usersCount":102,"tipCount":7,"visitsCount":229,"url":"http://earlhamarmsnorfolk.co.uk","tier":"","message":"","currency":"","rating":7},{"name":"The Dog House","phone":"+441603765378","address":"18 St Georges Street, Norwich, NR3 1","lat":52.631099224090576,"lng":1.295256,"neighborhood":"City Centre","city_fetched":"Mulbarton,UK","state":"Norfolk","country":"United Kingdom","canonicalUrl":"https://foursquare.com/v/the-dog-house/4b700255f964a52040032de3","categoryId":"4bf58dd8d48988d116941735","category":"Bar","checkinsCount":366,"usersCount":149,"tipCount":1,"visitsCount":369,"tier":"","message":"","currency":"","rating":6.9},{"name":"The Romany Rye (Wetherspoon)","phone":"+441362654160","twitter":"jdwtweet","address":"Church Rd.","lat":52.681049676590156,"lng":0.9391919356888486,"city_fetched":"Mulbarton,UK","state":"Norfolk","country":"United Kingdom","canonicalUrl":"https://foursquare.com/v/the-romany-rye-wetherspoon/4daa1cdb43a1128196f0995a","categoryId":"4bf58dd8d48988d11b941735","category":"Pub","checkinsCount":429,"usersCount":149,"tipCount":3,"visitsCount":501,"url":"http://www.jdwetherspoon.co.uk","tier":"","message":"","currency":"","rating":6.9},{"name":"The Murderers","phone":"+441603621447","address":"Timberhill","lat":52.626882125802,"lng":1.2951283439243872,"neighborhood":"City Centre","city_fetched":"Mulbarton,UK","state":"Norfolk","country":"United Kingdom","canonicalUrl":"https://foursquare.com/v/the-murderers/4be42608910020a10347d114","categoryId":"4bf58dd8d48988d11b941735","category":"Pub","checkinsCount":790,"usersCount":429,"tipCount":17,"visitsCount":847,"tier":"","message":"","currency":"","rating":6.9},{"name":"Karma Kafe","address":"18 Bedford St.","lat":52.62976545612845,"lng":1.295172077359971,"neighborhood":"Norwich Lanes","city_fetched":"Mulbarton,UK","state":"Norfolk","country":"United Kingdom","canonicalUrl":"https://foursquare.com/v/karma-kafe/4ba40d4ef964a520237c38e3","categoryId":"4bf58dd8d48988d11f941735","category":"Nightclub","checkinsCount":180,"usersCount":114,"tipCount":2,"visitsCount":180,"tier":"","message":"","currency":"","rating":6.8},{"name":"The Rivergarden","phone":"+441603703900","twitter":"therivergarden","address":"36 Yarmouth Rd","lat":52.626394589731326,"lng":1.3357079029083252,"neighborhood":"Thorpe","city_fetched":"Mulbarton,UK","state":"Norfolk","country":"United Kingdom","canonicalUrl":"https://foursquare.com/v/the-rivergarden/4b9e9853f964a5206df236e3","categoryId":"4bf58dd8d48988d11b941735","category":"Pub","checkinsCount":225,"usersCount":136,"tipCount":6,"visitsCount":280,"url":"http://www.the-rivergarden.co.uk","tier":"","message":"","currency":"","rating":6.8},{"name":"Edith Cavell","lat":52.63115589808343,"lng":1.2988787863369693,"neighborhood":"Cathedral Quarter","city_fetched":"Mulbarton,UK","country":"United Kingdom","canonicalUrl":"https://foursquare.com/v/edith-cavell/4d03fbbf30a58cfaac819ce7","categoryId":"4bf58dd8d48988d11b941735","category":"Pub","checkinsCount":100,"usersCount":66,"tipCount":4,"visitsCount":100,"tier":"","message":"","currency":"","rating":6.8},{"name":"The Rose","phone":"+441603767713","address":"235 Queens Rd.","lat":52.620846,"lng":1.300851,"neighborhood":"Lakenham","city_fetched":"Mulbarton,UK","state":"Norfolk","country":"United Kingdom","canonicalUrl":"https://foursquare.com/v/the-rose/4c1bbd63624b9c7413ab1204","categoryId":"4bf58dd8d48988d11b941735","category":"Pub","checkinsCount":145,"usersCount":70,"tipCount":1,"visitsCount":164,"url":"http://therosenorwich.co.uk","tier":"","message":"","currency":"","rating":6.8},{"name":"Revolucion De Cuba","phone":"+441603857565","address":"7-9 Queen St.","lat":52.630198,"lng":1.298217,"neighborhood":"Cathedral Quarter","city_fetched":"Mulbarton,UK","state":"Norfolk","country":"United Kingdom","canonicalUrl":"https://foursquare.com/v/revolucion-de-cuba/4e4bffe152b1119aaa74ef3c","categoryId":"4bf58dd8d48988d11b941735","category":"Pub","checkinsCount":807,"usersCount":440,"tipCount":15,"visitsCount":934,"tier":"","message":"","currency":"","rating":6.7},{"name":"The Queen of the Iceni (Wetherspoon)","phone":"+441603877690","address":"Unit 6, Wherry Rd","lat":52.625248373183005,"lng":1.3038110733032227,"neighborhood":"Thorpe","city_fetched":"Mulbarton,UK","state":"Norfolk","country":"United Kingdom","canonicalUrl":"https://foursquare.com/v/the-queen-of-the-iceni-wetherspoon/4c87aba4821e9eb08bcd8d89","categoryId":"4bf58dd8d48988d11b941735","category":"Pub","checkinsCount":2795,"usersCount":995,"tipCount":14,"visitsCount":3073,"url":"http://www.jdwetherspoon.co.uk","tier":1,"message":"Cheap","currency":"£","rating":6.7},{"name":"The Rumsey Wells","phone":"+441603614858","address":"4 St. Andrews Street","lat":52.630635,"lng":1.293280475,"neighborhood":"Norwich Lanes","city_fetched":"Mulbarton,UK","state":"Norfolk","country":"United Kingdom","canonicalUrl":"https://foursquare.com/v/the-rumsey-wells/4bf6ff225ec320a15f2c86d3","categoryId":"4bf58dd8d48988d11b941735","category":"Pub","checkinsCount":592,"usersCount":284,"tipCount":9,"visitsCount":619,"tier":"","message":"","currency":"","rating":6.7},{"name":"The Lamb Inn","phone":"+441603625365","address":"Lamb Yard","lat":52.6271692723616,"lng":1.294086308167696,"neighborhood":"City Centre","city_fetched":"Mulbarton,UK","state":"Norfolk","country":"United Kingdom","canonicalUrl":"https://foursquare.com/v/the-lamb-inn/4ef60398f9ab2e6680d6af95","categoryId":"4bf58dd8d48988d11b941735","category":"Pub","checkinsCount":509,"usersCount":342,"tipCount":7,"visitsCount":601,"tier":"","message":"","currency":"","rating":6.7},{"name":"The Coachmakers Arms","phone":"+441603662080","address":"9 St Stephens Rd","lat":52.62374163367462,"lng":1.2898902098965104,"city_fetched":"Mulbarton,UK","state":"Norfolk","country":"United Kingdom","canonicalUrl":"https://foursquare.com/v/the-coachmakers-arms/4bdc93eeafe8c9b64c155085","categoryId":"4bf58dd8d48988d11b941735","category":"Pub","checkinsCount":136,"usersCount":71,"tipCount":1,"visitsCount":139,"url":"http://www.coachmakers-arms-norwich.co.uk","tier":"","message":"","currency":"","rating":6.6},{"name":"The Bell Hotel (Wetherspoon)","phone":"+441603630017","address":"5 Orford Hill","lat":52.627415,"lng":1.295139,"neighborhood":"City Centre","city_fetched":"Mulbarton,UK","state":"Norfolk","country":"United Kingdom","canonicalUrl":"https://foursquare.com/v/the-bell-hotel-wetherspoon/4c87aba5821e9eb08ccd8d89","categoryId":"4bf58dd8d48988d11b941735","category":"Pub","checkinsCount":2438,"usersCount":758,"tipCount":13,"visitsCount":2626,"url":"http://www.jdwetherspoon.co.uk","tier":1,"message":"Cheap","currency":"£","rating":6.6},{"name":"The York Tavern","phone":"+441603620918","address":"1 Leicester St","lat":52.62257219531274,"lng":1.2820288049303683,"city_fetched":"Mulbarton,UK","state":"Norfolk","country":"United Kingdom","canonicalUrl":"https://foursquare.com/v/the-york-tavern/4ba41817f964a520d38038e3","categoryId":"4bf58dd8d48988d11b941735","category":"Pub","checkinsCount":270,"usersCount":116,"tipCount":2,"visitsCount":301,"tier":"","message":"","currency":"","rating":6.6},{"name":"Sugar & Spice","phone":"+441603611060","twitter":"sugarandspiceus","address":"39 Prince Of Wales Road","lat":52.629247399724484,"lng":1.3013992147222428,"neighborhood":"Thorpe","city_fetched":"Mulbarton,UK","state":"Norfolk","country":"United Kingdom","canonicalUrl":"https://foursquare.com/sugarandspiceus","categoryId":"4bf58dd8d48988d1d6941735","category":"Strip Club","checkinsCount":69,"usersCount":36,"tipCount":3,"visitsCount":71,"tier":"","message":"","currency":"","rating":6.6},{"name":"The Vine","address":"Dove St","lat":52.62937800045049,"lng":1.2929499814190468,"neighborhood":"Norwich Lanes","city_fetched":"Mulbarton,UK","state":"Norfolk","country":"United Kingdom","canonicalUrl":"https://foursquare.com/v/the-vine/4d07b8509d33a143fc86cd78","categoryId":"4bf58dd8d48988d11b941735","category":"Pub","checkinsCount":340,"usersCount":112,"tipCount":4,"visitsCount":352,"tier":"","message":"","currency":"","rating":6.6},{"name":"The Swan Inn","phone":"+441692630316","address":"10 Lower St","lat":52.705644760441544,"lng":1.4618103892800842,"city_fetched":"Mulbarton,UK","state":"Norfolk","country":"United Kingdom","canonicalUrl":"https://foursquare.com/v/the-swan-inn/4c6fb60dfa49a1cdb7bba3e3","categoryId":"4bf58dd8d48988d117941735","category":"Beer Garden","checkinsCount":144,"usersCount":159,"tipCount":4,"visitsCount":189,"url":"http://www.vintageinn.co.uk/theswaninnhorning","tier":"","message":"","currency":"","rating":6.5},{"name":"UEA Union Bar","phone":"+441603593272","address":"Union House","lat":52.62159353890164,"lng":1.2411029533458393,"neighborhood":"University","city_fetched":"Mulbarton,UK","state":"Norfolk","country":"United Kingdom","canonicalUrl":"https://foursquare.com/v/uea-union-bar/4c014100783720a14a58c62e","categoryId":"4bf58dd8d48988d116941735","category":"Bar","checkinsCount":1900,"usersCount":374,"tipCount":8,"visitsCount":1913,"url":"http://www.ueastudent.com","tier":"","message":"","currency":"","rating":6.4},{"name":"Cherry Tree Pub","lat":52.641057456936814,"lng":1.236069263636326,"neighborhood":"Wensum","city_fetched":"Mulbarton,UK","country":"United Kingdom","canonicalUrl":"https://foursquare.com/v/cherry-tree-pub/4be585fbcf200f47f448133c","categoryId":"4bf58dd8d48988d11b941735","category":"Pub","checkinsCount":233,"usersCount":127,"tipCount":5,"visitsCount":348,"tier":"","message":"","currency":"","rating":6.4},{"name":"The Wine Cellar","lat":52.629183,"lng":1.293091,"neighborhood":"Norwich Lanes","city_fetched":"Mulbarton,UK","country":"United Kingdom","canonicalUrl":"https://foursquare.com/v/the-wine-cellar/4c24f308a852c92843fee36c","categoryId":"4bf58dd8d48988d116941735","category":"Bar","checkinsCount":150,"usersCount":64,"tipCount":2,"visitsCount":151,"tier":"","message":"","currency":"","rating":6.3},{"name":"11 | Bar & Kitchen","phone":"+441603762250","address":"11 Upper King Street","lat":52.629973137579626,"lng":1.2989008940552011,"neighborhood":"Cathedral Quarter","city_fetched":"Mulbarton,UK","state":"Norfolk","country":"United Kingdom","canonicalUrl":"https://foursquare.com/v/11--bar--kitchen/4e84d3f62c5b5b4435275f5b","categoryId":"4bf58dd8d48988d11e941735","category":"Cocktail Bar","checkinsCount":247,"usersCount":116,"tipCount":4,"visitsCount":250,"tier":"","message":"","currency":"","rating":6.2},{"name":"Castle Pub","phone":"+441603768886","address":"1 Spitalfields","lat":52.63478154388928,"lng":1.309965338421942,"neighborhood":"Thorpe","city_fetched":"Mulbarton,UK","state":"Norfolk","country":"United Kingdom","canonicalUrl":"https://foursquare.com/v/castle-pub/4bf0fc6f24f19c74d250f983","categoryId":"4bf58dd8d48988d1d8941735","category":"Gay Bar","checkinsCount":94,"usersCount":82,"tipCount":0,"visitsCount":138,"tier":"","message":"","currency":"","rating":6.1},{"name":"The Copper Beech","address":"Alex Moorhouse way","lat":52.65409885542531,"lng":1.1818367874519047,"neighborhood":"Costessey","city_fetched":"Mulbarton,UK","state":"Norfolk","country":"United Kingdom","canonicalUrl":"https://foursquare.com/v/the-copper-beech/4e9db93a49017c00c8a0b342","categoryId":"4bf58dd8d48988d11b941735","category":"Pub","checkinsCount":283,"usersCount":169,"tipCount":8,"visitsCount":338,"tier":"","message":"","currency":"","rating":6.1},{"name":"The Glass House (Wetherspoon)","phone":"+441603877650","address":"11-13 Wensum St.","lat":52.63253734018494,"lng":1.297743458430569,"neighborhood":"Cathedral Quarter","city_fetched":"Mulbarton,UK","state":"Norfolk","country":"United Kingdom","canonicalUrl":"https://foursquare.com/v/the-glass-house-wetherspoon/4c87aba5821e9eb08dcd8d89","categoryId":"4bf58dd8d48988d11b941735","category":"Pub","checkinsCount":1733,"usersCount":631,"tipCount":9,"visitsCount":1870,"url":"http://www.jdwetherspoon.co.uk","tier":"","message":"","currency":"","rating":6},{"name":"The Wild Man","phone":"+441603627686","address":"Bedford Street","lat":52.62979048138804,"lng":1.295648891464947,"neighborhood":"Norwich Lanes","city_fetched":"Mulbarton,UK","state":"Norfolk","country":"United Kingdom","canonicalUrl":"https://foursquare.com/v/the-wild-man/4bf6766d9abec9b642ca25e8","categoryId":"4bf58dd8d48988d11b941735","category":"Pub","checkinsCount":140,"usersCount":102,"tipCount":7,"visitsCount":141,"tier":"","message":"","currency":"","rating":6},{"name":"Wonderland","lat":52.6260683910165,"lng":1.3046701786640031,"neighborhood":"Thorpe","city_fetched":"Mulbarton,UK","country":"United Kingdom","canonicalUrl":"https://foursquare.com/v/wonderland/506f5d21e4b037830ac91d57","categoryId":"4bf58dd8d48988d11f941735","category":"Nightclub","checkinsCount":120,"usersCount":69,"tipCount":1,"visitsCount":120,"tier":"","message":"","currency":"","rating":6},{"name":"The Woolpack Inn","address":"8 Golden Ball St","lat":52.62607772511452,"lng":1.2966984718603354,"neighborhood":"City Centre","city_fetched":"Mulbarton,UK","state":"Norfolk","country":"United Kingdom","canonicalUrl":"https://foursquare.com/v/the-woolpack-inn/4bc5faaff360ef3b08eada2d","categoryId":"4bf58dd8d48988d11b941735","category":"Pub","checkinsCount":359,"usersCount":151,"tipCount":2,"visitsCount":375,"tier":"","message":"","currency":"","rating":5.9},{"name":"The Rose Tavern","phone":"+441603612110","address":"88 Rupert Street","lat":52.62387440986853,"lng":1.2818760424544664,"city_fetched":"Mulbarton,UK","state":"Norfolk","country":"United Kingdom","canonicalUrl":"https://foursquare.com/v/the-rose-tavern/4bc8851c8b7c9c74153f38cf","categoryId":"4bf58dd8d48988d11b941735","category":"Pub","checkinsCount":390,"usersCount":133,"tipCount":9,"visitsCount":452,"url":"http://www.rosetavern.co.uk","tier":"","message":"","currency":"","rating":5.9},{"name":"The Compleat Angler","phone":"+441603622425","twitter":"compangler","address":"120 Prince of Wales Rd.","lat":52.628097,"lng":1.305726,"neighborhood":"Cathedral Quarter","city_fetched":"Mulbarton,UK","state":"Norfolk","country":"United Kingdom","canonicalUrl":"https://foursquare.com/v/the-compleat-angler/4b9abd10f964a5205ad135e3","categoryId":"4bf58dd8d48988d11b941735","category":"Pub","checkinsCount":392,"usersCount":294,"tipCount":3,"visitsCount":405,"tier":"","message":"","currency":"","rating":5.8},{"name":"Walnut Tree Shades","phone":"+441603622910","address":"Old Post Office Court","lat":52.62874643333333,"lng":1.294278,"neighborhood":"City Centre","city_fetched":"Mulbarton,UK","state":"Norfolk","country":"United Kingdom","canonicalUrl":"https://foursquare.com/v/walnut-tree-shades/4ccb15aaaa25a35d74c20b0f","categoryId":"4bf58dd8d48988d11b941735","category":"Pub","checkinsCount":171,"usersCount":102,"tipCount":2,"visitsCount":171,"tier":"","message":"","currency":"","rating":5.6},{"name":"Lola Lo's","phone":"+441603619961","twitter":"lolalonorwich","address":"23 Bank Plain","lat":52.629463072072724,"lng":1.297849830317593,"neighborhood":"Norwich Lanes","city_fetched":"Mulbarton,UK","state":"Norfolk","country":"United Kingdom","canonicalUrl":"https://foursquare.com/v/lola-los/4ceeedd713aea1437b55709f","categoryId":"4bf58dd8d48988d11f941735","category":"Nightclub","checkinsCount":238,"usersCount":125,"tipCount":1,"visitsCount":238,"tier":"","message":"","currency":"","rating":5.6},{"name":"The Nelson Table Table","phone":"+441603214438","twitter":"yourtabletable","address":"Prince of Wales Rd","lat":52.627631041708575,"lng":1.3054316157197485,"neighborhood":"Thorpe","city_fetched":"Mulbarton,UK","state":"Norfolk","country":"United Kingdom","canonicalUrl":"https://foursquare.com/v/the-nelson-table-table/4b758c86f964a5205f132ee3","categoryId":"4bf58dd8d48988d11b941735","category":"Pub","checkinsCount":361,"usersCount":180,"tipCount":5,"visitsCount":365,"url":"https://www.tabletable.co.uk/pub-restaurants/Norfolk/Nelson-Norwich.html","tier":"","message":"","currency":"","rating":5.4},{"name":"The Bridge Tavern","lat":52.62542558437677,"lng":1.3040394624768334,"neighborhood":"Thorpe","city_fetched":"Mulbarton,UK","country":"United Kingdom","canonicalUrl":"https://foursquare.com/v/the-bridge-tavern/4f3e9f65e4b04e44d2a077ab","categoryId":"4bf58dd8d48988d11b941735","category":"Pub","checkinsCount":208,"usersCount":140,"tipCount":4,"visitsCount":208,"tier":"","message":"","currency":"","rating":4.9}]