[{"name":"Teuchters Landing","phone":"+441315547427","address":"1C Dock Pl","lat":55.97746020085387,"lng":-3.1714224815368652,"neighborhood":"Leith","city_fetched":"Musselburgh,UK","state":"Edinburgh","country":"United Kingdom","canonicalUrl":"https://foursquare.com/v/teuchters-landing/4b2b7e7ef964a520d4b624e3","categoryId":"4bf58dd8d48988d11b941735","category":"Pub","checkinsCount":1629,"usersCount":609,"tipCount":22,"visitsCount":1874,"tier":"","message":"","currency":"","rating":9.3},{"name":"Scotch Malt Whisky Society","phone":"+441315543451","address":"The Vaults","lat":55.97367,"lng":-3.172722,"neighborhood":"Leith","city_fetched":"Musselburgh,UK","state":"Edinburgh","country":"United Kingdom","canonicalUrl":"https://foursquare.com/v/scotch-malt-whisky-society/4c24ec2edb519521df152c3a","categoryId":"4bf58dd8d48988d122941735","category":"Whisky Bar","checkinsCount":744,"usersCount":344,"tipCount":13,"visitsCount":796,"url":"https://www.smws.com/the-vaults","tier":"","message":"","currency":"","rating":8.8},{"name":"Regent Bar","phone":"+441316618198","address":"2 Montrose Terrace","lat":55.95619391366135,"lng":-3.172426728678572,"neighborhood":"Abbeyhill","city_fetched":"Musselburgh,UK","state":"Edinburgh","country":"United Kingdom","canonicalUrl":"https://foursquare.com/v/regent-bar/4b182762f964a520e5cd23e3","categoryId":"4bf58dd8d48988d1d8941735","category":"Gay Bar","checkinsCount":900,"usersCount":690,"tipCount":34,"visitsCount":1405,"url":"http://www.theregentbar.co.uk","tier":"","message":"","currency":"","rating":8.8},{"name":"The King's Wark","phone":"+441315549260","twitter":"kingswark","address":"36 Shore","lat":55.976055476247076,"lng":-3.1696414947509766,"neighborhood":"The Shore","city_fetched":"Musselburgh,UK","state":"Edinburgh","country":"United Kingdom","canonicalUrl":"https://foursquare.com/v/the-kings-wark/4baccf1df964a520070e3be3","categoryId":"4bf58dd8d48988d116941735","category":"Bar","checkinsCount":847,"usersCount":436,"tipCount":19,"visitsCount":849,"url":"http://www.thekingswark.co.uk","tier":"","message":"","currency":"","rating":8.6},{"name":"Sofi's Bar","phone":"+441315557019","twitter":"boda_bar_tweets","address":"63-65 Henderson St","lat":55.9744225698548,"lng":-3.1721949577331543,"neighborhood":"Leith","city_fetched":"Musselburgh,UK","state":"Edinburgh","country":"United Kingdom","canonicalUrl":"https://foursquare.com/v/sofis-bar/4b7f0adef964a520541230e3","categoryId":"4bf58dd8d48988d116941735","category":"Bar","checkinsCount":545,"usersCount":255,"tipCount":8,"visitsCount":605,"url":"http://www.bodabar.com/sofis/","tier":"","message":"","currency":"","rating":8.4},{"name":"Forester's Guild","phone":"+441316692750","address":"40 Portobello High Street","lat":55.955078,"lng":-3.117922,"neighborhood":"Portobello","city_fetched":"Musselburgh,UK","state":"Edinburgh","country":"United Kingdom","canonicalUrl":"https://foursquare.com/v/foresters-guild/5324a921498e58af852c8cdf","categoryId":"4bf58dd8d48988d116941735","category":"Bar","checkinsCount":207,"usersCount":87,"tipCount":0,"visitsCount":311,"url":"http://www.forestersguild.co.uk","tier":"","message":"","currency":"","rating":8},{"name":"Malt & Hops","phone":"+441315550083","address":"45 Shore","lat":55.975978,"lng":-3.170179,"neighborhood":"The Shore","city_fetched":"Musselburgh,UK","state":"Midlothian","country":"United Kingdom","canonicalUrl":"https://foursquare.com/v/malt--hops/4c02b079310fc9b6e8d1c461","categoryId":"4bf58dd8d48988d11b941735","category":"Pub","checkinsCount":252,"usersCount":130,"tipCount":7,"visitsCount":254,"url":"http://www.barcalisa.com","tier":"","message":"","currency":"","rating":7.9},{"name":"Victoria Bar","phone":"+441315545706","address":"265 Leith Walk","lat":55.96587570190784,"lng":-3.1757569313049316,"neighborhood":"Leith","city_fetched":"Musselburgh,UK","state":"Edinburgh","country":"United Kingdom","canonicalUrl":"https://foursquare.com/v/victoria-bar/4b1feae1f964a520c22a24e3","categoryId":"4bf58dd8d48988d116941735","category":"Bar","checkinsCount":520,"usersCount":240,"tipCount":4,"visitsCount":520,"tier":"","message":"","currency":"","rating":7.9},{"name":"Brass Monkey","phone":"+441315545286","address":"360-362 Leith Walk","lat":55.96384239392033,"lng":-3.1780513117679714,"neighborhood":"Pilrig","city_fetched":"Musselburgh,UK","state":"Edinburgh","country":"United Kingdom","canonicalUrl":"https://foursquare.com/v/brass-monkey/4d83c01ad5fab60c4422d39b","categoryId":"4bf58dd8d48988d116941735","category":"Bar","checkinsCount":1627,"usersCount":490,"tipCount":16,"visitsCount":1824,"tier":2,"message":"Moderate","currency":"Â£","rating":7.9},{"name":"Hemma","phone":"+441316293327","twitter":"hemmabar","address":"The Tun Building, 75 Holyrood Rd","lat":55.95062483257399,"lng":-3.177285706305563,"neighborhood":"Canongate","city_fetched":"Musselburgh,UK","state":"Midlothian","country":"United Kingdom","canonicalUrl":"https://foursquare.com/v/hemma/4fbd111ae4b0a73b8865a19f","categoryId":"4bf58dd8d48988d116941735","category":"Bar","checkinsCount":818,"usersCount":585,"tipCount":13,"visitsCount":1009,"url":"http://www.bodabar.com/hemma/","tier":"","message":"","currency":"","rating":7.9},{"name":"Bijou","address":"Leith Links","lat":55.96975403966456,"lng":-3.159879263314379,"city_fetched":"Musselburgh,UK","state":"Edinburgh","country":"United Kingdom","canonicalUrl":"https://foursquare.com/v/bijou/4c42fc76da3dc928c63ccbb9","categoryId":"4bf58dd8d48988d116941735","category":"Bar","checkinsCount":80,"usersCount":61,"tipCount":3,"visitsCount":94,"url":"http://www.bijoubistro.co.uk","tier":"","message":"","currency":"","rating":7.8},{"name":"Safari Lounge","phone":"+441316612855","twitter":"thesafarilounge","address":"21 Cadzow Place","lat":55.95717175441451,"lng":-3.167442822221366,"neighborhood":"Abbeyhill","city_fetched":"Musselburgh,UK","state":"Edinburgh","country":"United Kingdom","canonicalUrl":"https://foursquare.com/v/safari-lounge/51f0420b498e5ed73bf1af9d","categoryId":"4bf58dd8d48988d116941735","category":"Bar","checkinsCount":232,"usersCount":170,"tipCount":5,"visitsCount":360,"url":"http://www.thesafarilounge.co.uk","tier":"","message":"","currency":"","rating":7.8},{"name":"The Sheep Heid Inn","phone":"+441316617974","twitter":"sheepheid","address":"43-45 The Causeway","lat":55.941953536329194,"lng":-3.148455521043885,"neighborhood":"Duddingston","city_fetched":"Musselburgh,UK","state":"Edinburgh","country":"United Kingdom","canonicalUrl":"https://foursquare.com/v/the-sheep-heid-inn/4b05881ef964a520ddb222e3","categoryId":"4bf58dd8d48988d11b941735","category":"Pub","checkinsCount":698,"usersCount":733,"tipCount":33,"visitsCount":907,"url":"http://www.sheepheid.co.uk","tier":"","message":"","currency":"","rating":7.7},{"name":"The Dalriada","address":"77 Promenade","lat":55.95061753740685,"lng":-3.1000113487243652,"neighborhood":"Joppa","city_fetched":"Musselburgh,UK","state":"Edinburgh","country":"United Kingdom","canonicalUrl":"https://foursquare.com/v/the-dalriada/4b5c67f0f964a520582e29e3","categoryId":"4bf58dd8d48988d11b941735","category":"Pub","checkinsCount":275,"usersCount":176,"tipCount":4,"visitsCount":353,"tier":"","message":"","currency":"","rating":7.7},{"name":"Woodland Creatures","phone":"+441316295509","twitter":"woodlandsleith","address":"260-262 Leith Walk","lat":55.96605504680613,"lng":-3.1756792796889153,"neighborhood":"Pilrig","city_fetched":"Musselburgh,UK","state":"Edinburgh","country":"United Kingdom","canonicalUrl":"https://foursquare.com/v/woodland-creatures/511e6328e4b07cd154db645f","categoryId":"4bf58dd8d48988d116941735","category":"Bar","checkinsCount":410,"usersCount":151,"tipCount":8,"visitsCount":442,"tier":"","message":"","currency":"","rating":7.6},{"name":"Kilderkin","phone":"+441315562101","twitter":"kil_der_kin","address":"65 - 67 Canongate","lat":55.95219137947874,"lng":-3.177022933959961,"neighborhood":"Canongate","city_fetched":"Musselburgh,UK","state":"Edinburgh","country":"United Kingdom","canonicalUrl":"https://foursquare.com/v/kilderkin/4e594e601495a891127d67b7","categoryId":"4bf58dd8d48988d11b941735","category":"Pub","checkinsCount":700,"usersCount":404,"tipCount":15,"visitsCount":708,"tier":"","message":"","currency":"","rating":7.6},{"name":"The Salisbury Arms","phone":"+441316674518","twitter":"salisburyarms","address":"58 Dalkeith Road","lat":55.938321936134805,"lng":-3.1736848877328705,"neighborhood":"Newington","city_fetched":"Musselburgh,UK","state":"Edinburgh","country":"United Kingdom","canonicalUrl":"https://foursquare.com/v/the-salisbury-arms/4ddaa4c4922ef477d2b9fc4b","categoryId":"4bf58dd8d48988d116941735","category":"Bar","checkinsCount":858,"usersCount":599,"tipCount":15,"visitsCount":1176,"tier":"","message":"","currency":"","rating":7.4},{"name":"The Granary","phone":"+448451666005","address":"32-34 Shore","lat":55.97637856690036,"lng":-3.169876045152797,"neighborhood":"The Shore","city_fetched":"Musselburgh,UK","state":"Midlothian","country":"United Kingdom","canonicalUrl":"https://foursquare.com/v/the-granary/4bd8790035aad13a84f790f3","categoryId":"4bf58dd8d48988d116941735","category":"Bar","checkinsCount":705,"usersCount":405,"tipCount":11,"visitsCount":711,"tier":"","message":"","currency":"","rating":7.3},{"name":"The David Macbeth Moir (Wetherspoons)","phone":"+441316531060","twitter":"jdwtweet","address":"Bridge St.","lat":55.943568342500605,"lng":-3.058285781007005,"city_fetched":"Musselburgh,UK","state":"East Lothian","country":"United Kingdom","canonicalUrl":"https://foursquare.com/v/the-david-macbeth-moir-wetherspoons/4f4107d3e4b0daed435ae257","categoryId":"4bf58dd8d48988d11b941735","category":"Pub","checkinsCount":176,"usersCount":99,"tipCount":3,"visitsCount":199,"url":"http://www.jdwetherspoon.co.uk","tier":"","message":"","currency":"","rating":7.2},{"name":"Port O Leith Bar","phone":"+441315543568","address":"Constitution St","lat":55.97463547583777,"lng":-3.167298687768229,"neighborhood":"Leith","city_fetched":"Musselburgh,UK","state":"Edinburgh","country":"United Kingdom","canonicalUrl":"https://foursquare.com/v/port-o-leith-bar/4c5fa9ecb6f3be9a4ec65d73","categoryId":"4bf58dd8d48988d11b941735","category":"Pub","checkinsCount":105,"usersCount":73,"tipCount":6,"visitsCount":105,"tier":"","message":"","currency":"","rating":7.1},{"name":"Laird and Dog","address":"High St","lat":55.883441,"lng":-3.1153374910354614,"city_fetched":"Musselburgh,UK","state":"Midlothian","country":"United Kingdom","canonicalUrl":"https://foursquare.com/v/laird-and-dog/4b965c19f964a52003c834e3","categoryId":"4bf58dd8d48988d11b941735","category":"Pub","checkinsCount":230,"usersCount":102,"tipCount":4,"visitsCount":266,"tier":"","message":"","currency":"","rating":7.1},{"name":"Wolf+Water","lat":55.9772506454994,"lng":-3.1729993034045494,"neighborhood":"Leith","city_fetched":"Musselburgh,UK","country":"United Kingdom","canonicalUrl":"https://foursquare.com/v/wolfwater/554cec71498e53034f7f5665","categoryId":"4bf58dd8d48988d116941735","category":"Bar","checkinsCount":127,"usersCount":63,"tipCount":4,"visitsCount":129,"tier":"","message":"","currency":"","rating":7},{"name":"Boda Bar","phone":"+441315535900","twitter":"boda_bar_tweets","address":"229 Leith Walk","lat":55.9665752530819,"lng":-3.175102472305298,"neighborhood":"Leith","city_fetched":"Musselburgh,UK","state":"Edinburgh","country":"United Kingdom","canonicalUrl":"https://foursquare.com/v/boda-bar/4b157e8ef964a520acad23e3","categoryId":"4bf58dd8d48988d116941735","category":"Bar","checkinsCount":315,"usersCount":162,"tipCount":5,"visitsCount":315,"url":"http://www.bodabar.com","tier":"","message":"","currency":"","rating":7},{"name":"The Blacksmith's Forge (Wetherspoon)","phone":"+441315615100","address":"5 Newmills Rd","lat":55.893247406215764,"lng":-3.0690528049871664,"city_fetched":"Musselburgh,UK","state":"Midlothian","country":"United Kingdom","canonicalUrl":"https://foursquare.com/v/the-blacksmiths-forge-wetherspoon/4c87aac9821e9eb0c2cc8d89","categoryId":"4bf58dd8d48988d11b941735","category":"Pub","checkinsCount":495,"usersCount":137,"tipCount":3,"visitsCount":534,"url":"http://www.jdwetherspoon.co.uk","tier":"","message":"","currency":"","rating":6.9},{"name":"The Mash Tun","phone":"+441316613896","address":"154 Easter Rd","lat":55.960080297436015,"lng":-3.1714386980839406,"neighborhood":"Leith","city_fetched":"Musselburgh,UK","state":"Edinburgh","country":"United Kingdom","canonicalUrl":"https://foursquare.com/v/the-mash-tun/501fe26be4b05ddc7e272bb9","categoryId":"4bf58dd8d48988d116941735","category":"Bar","checkinsCount":313,"usersCount":158,"tipCount":8,"visitsCount":384,"url":"http://www.mashtunedinburgh.co.uk","tier":"","message":"","currency":"","rating":6.9},{"name":"The Lioness of Leith","phone":"+441316290580","twitter":"lionessofleith","address":"21-25 Duke St","lat":55.97020883171818,"lng":-3.1702769213782918,"neighborhood":"Leith","city_fetched":"Musselburgh,UK","state":"Edinburgh","country":"United Kingdom","canonicalUrl":"https://foursquare.com/v/the-lioness-of-leith/52af5c1511d2b6a3a5a54b64","categoryId":"4bf58dd8d48988d116941735","category":"Bar","checkinsCount":308,"usersCount":184,"tipCount":8,"visitsCount":413,"tier":"","message":"","currency":"","rating":6.7},{"name":"Harp & Castle","phone":"+441315552238","address":"300 Leith Walk","lat":55.965263,"lng":-3.176378,"neighborhood":"Pilrig","city_fetched":"Musselburgh,UK","state":"Edinburgh","country":"United Kingdom","canonicalUrl":"https://foursquare.com/v/harp--castle/4c5c4e7b7f661b8d792d481c","categoryId":"4bf58dd8d48988d11b941735","category":"Pub","checkinsCount":143,"usersCount":49,"tipCount":3,"visitsCount":143,"tier":"","message":"","currency":"","rating":6.5},{"name":"The Pond","address":"Salamander St","lat":55.9746386937763,"lng":-3.160715103149414,"city_fetched":"Musselburgh,UK","state":"Edinburgh","country":"United Kingdom","canonicalUrl":"https://foursquare.com/v/the-pond/4b92dad2f964a520d82134e3","categoryId":"4bf58dd8d48988d11b941735","category":"Pub","checkinsCount":207,"usersCount":69,"tipCount":1,"visitsCount":219,"tier":"","message":"","currency":"","rating":6.4},{"name":"Melville Inn","phone":"+441316604925","address":"Melville Nursery","lat":55.8950556869011,"lng":-3.096405212286534,"city_fetched":"Musselburgh,UK","state":"Midlothian","country":"United Kingdom","canonicalUrl":"https://foursquare.com/v/melville-inn/4bb76827941ad13afe9b20e3","categoryId":"4bf58dd8d48988d11b941735","category":"Pub","checkinsCount":196,"usersCount":122,"tipCount":2,"visitsCount":235,"tier":"","message":"","currency":"","rating":6},{"name":"Brewers Fayre","phone":"+448701977092","address":"Carberry Rd","lat":55.925535330632336,"lng":-3.034857875647387,"city_fetched":"Musselburgh,UK","state":"East Lothian","country":"United Kingdom","canonicalUrl":"https://foursquare.com/v/brewers-fayre/4c4f003a960e76b051c825e7","categoryId":"4bf58dd8d48988d11b941735","category":"Pub","checkinsCount":46,"usersCount":36,"tipCount":0,"visitsCount":53,"tier":"","message":"","currency":"","rating":6},{"name":"The Parlour","phone":"+441315553848","twitter":"parlourbar","address":"142 Duke St","lat":55.969175,"lng":-3.167752925,"neighborhood":"Leith","city_fetched":"Musselburgh,UK","state":"Edinburgh","country":"United Kingdom","canonicalUrl":"https://foursquare.com/v/the-parlour/4c6c512023c1a1cd283b19cf","categoryId":"4bf58dd8d48988d116941735","category":"Bar","checkinsCount":250,"usersCount":77,"tipCount":6,"visitsCount":253,"url":"http://theparlouredinburgh.com","tier":"","message":"","currency":"","rating":5.9},{"name":"Lady Nairne (Beefeater)","phone":"+441316613396","twitter":"beefeatergrill","address":"228-258 Willowbrae Rd","lat":55.946633236797,"lng":-3.13685165102328,"neighborhood":"Duddingston","city_fetched":"Musselburgh,UK","state":"Edinburgh","country":"United Kingdom","canonicalUrl":"https://foursquare.com/v/lady-nairne-beefeater/4bfecf29daf9c9b67a4cf9ef","categoryId":"4bf58dd8d48988d11b941735","category":"Pub","checkinsCount":231,"usersCount":93,"tipCount":1,"visitsCount":245,"url":"http://www.beefeater.co.uk","tier":"","message":"","currency":"","rating":5.8},{"name":"Ocean Bar","address":"Ocean Terminal","lat":55.980996,"lng":-3.178279,"neighborhood":"Leith","city_fetched":"Musselburgh,UK","state":"Edinburgh","country":"United Kingdom","canonicalUrl":"https://foursquare.com/v/ocean-bar/4c091f46bbc676b0219947d5","categoryId":"4bf58dd8d48988d11e941735","category":"Cocktail Bar","checkinsCount":150,"usersCount":99,"tipCount":5,"visitsCount":150,"tier":"","message":"","currency":"","rating":5.5},{"name":"Cameo Bar","phone":"+441315549999","address":"23 Commercial St","lat":55.97648255718259,"lng":-3.1713313675304837,"neighborhood":"The Shore","city_fetched":"Musselburgh,UK","state":"Edinburgh","country":"United Kingdom","canonicalUrl":"https://foursquare.com/v/cameo-bar/4b069375f964a52053ed22e3","categoryId":"4bf58dd8d48988d116941735","category":"Bar","checkinsCount":681,"usersCount":257,"tipCount":12,"visitsCount":687,"tier":"","message":"","currency":"","rating":5.5},{"name":"The Foot Of The Walk (Wetherspoon)","phone":"+441315530120","address":"183 Constitution St.","lat":55.97053895645469,"lng":-3.1711769234699028,"neighborhood":"Pilrig","city_fetched":"Musselburgh,UK","state":"Edinburgh","country":"United Kingdom","canonicalUrl":"https://foursquare.com/v/the-foot-of-the-walk-wetherspoon/4ca9fd7014c33704033ce33b","categoryId":"4bf58dd8d48988d11b941735","category":"Pub","checkinsCount":731,"usersCount":321,"tipCount":6,"visitsCount":863,"url":"http://www.jdwetherspoon.co.uk","tier":"","message":"","currency":"","rating":5.4},{"name":"Isobar","phone":"+441314678904","twitter":"isobarleith","address":"7 Bernard St","lat":55.975343832393165,"lng":-3.167088077217067,"neighborhood":"Leith","city_fetched":"Musselburgh,UK","state":"Edinburgh","country":"United Kingdom","canonicalUrl":"https://foursquare.com/v/isobar/4bbdc874078095218aebda91","categoryId":"4bf58dd8d48988d116941735","category":"Bar","checkinsCount":610,"usersCount":101,"tipCount":7,"visitsCount":614,"url":"http://www.isobar-leith.co.uk","tier":"","message":"","currency":"","rating":5.3},{"name":"The Constitution","phone":"+441315389374","address":"48-52 Constitution St","lat":55.97466270747082,"lng":-3.1673240661621094,"neighborhood":"Leith","city_fetched":"Musselburgh,UK","state":"Edinburgh","country":"United Kingdom","canonicalUrl":"https://foursquare.com/v/the-constitution/4c94d000f244b1f74e4f251d","categoryId":"4bf58dd8d48988d116941735","category":"Bar","checkinsCount":409,"usersCount":157,"tipCount":10,"visitsCount":412,"url":"http://www.constitutionbar.com","tier":"","message":"","currency":"","rating":4.8}]