[{"name":"The Old Farmhouse","phone":"+441275851889","address":"Trendlewood Way","lat":51.4264329517037,"lng":-2.7465011940249493,"city_fetched":"Nailsea,UK","country":"United Kingdom","canonicalUrl":"https://foursquare.com/v/the-old-farmhouse/4eb4011902d5f33e91eef7e2","categoryId":"4bf58dd8d48988d11b941735","category":"Pub","checkinsCount":68,"usersCount":51,"tipCount":5,"visitsCount":102,"tier":"","message":"","currency":"","rating":8.3},{"name":"The Old Barn","address":"Stanton Ln.","lat":51.440458698502596,"lng":-2.743294409920842,"city_fetched":"Nailsea,UK","state":"North Somerset","country":"United Kingdom","canonicalUrl":"https://foursquare.com/v/the-old-barn/4d1263afffa1224b3ad998ad","categoryId":"4bf58dd8d48988d11b941735","category":"Pub","checkinsCount":151,"usersCount":69,"tipCount":3,"visitsCount":162,"tier":"","message":"","currency":"","rating":7.9},{"name":"The Black Horse","lat":51.46165459054751,"lng":-2.7599287033081055,"city_fetched":"Nailsea,UK","country":"United Kingdom","canonicalUrl":"https://foursquare.com/v/the-black-horse/4bdebd58e75c0f471195c803","categoryId":"4bf58dd8d48988d11b941735","category":"Pub","checkinsCount":76,"usersCount":67,"tipCount":4,"visitsCount":109,"tier":"","message":"","currency":"","rating":7.4},{"name":"The Glassmaker (Wetherspoon)","phone":"+441275850230","twitter":"jdwtweet","address":"12 Crown Glass Pl","lat":51.43222452541361,"lng":-2.758676369560379,"city_fetched":"Nailsea,UK","state":"North Somerset","country":"United Kingdom","canonicalUrl":"https://foursquare.com/v/the-glassmaker-wetherspoon/4f7b41a2e4b02f1b2d31443a","categoryId":"4bf58dd8d48988d11b941735","category":"Pub","checkinsCount":203,"usersCount":106,"tipCount":4,"visitsCount":352,"url":"http://www.jdwetherspoon.co.uk","tier":"","message":"","currency":"","rating":7.4},{"name":"Gordano Gate (Brewers Fayre)","phone":"+441275846526","twitter":"brewersfayre","address":"Wyndham Way","lat":51.481995366944766,"lng":-2.7614909744364775,"city_fetched":"Nailsea,UK","state":"Bristol","country":"United Kingdom","canonicalUrl":"https://foursquare.com/v/gordano-gate-brewers-fayre/4bf56cfb6a31d13a2ade962e","categoryId":"4bf58dd8d48988d11b941735","category":"Pub","checkinsCount":292,"usersCount":149,"tipCount":7,"visitsCount":304,"url":"http://www.brewersfayre.co.uk/pub-restaurant/Bristol/Gordano-Gate-Portishead.html","tier":"","message":"","currency":"","rating":5.4}]