[{"name":"The Black Lion","phone":"+441270628711","address":"29 Welsh Row","lat":53.06778136187373,"lng":-2.5258684158325195,"city_fetched":"Nantwich,UK","state":"Cheshire","country":"United Kingdom","canonicalUrl":"https://foursquare.com/v/the-black-lion/4db315b20437fa536a0bc836","categoryId":"4bf58dd8d48988d11b941735","category":"Pub","checkinsCount":180,"usersCount":65,"tipCount":8,"visitsCount":186,"tier":"","message":"","currency":"","rating":7.9},{"name":"Cheshire Cat","lat":53.067847,"lng":-2.525921,"city_fetched":"Nantwich,UK","state":"Cheshire","country":"United Kingdom","canonicalUrl":"https://foursquare.com/v/cheshire-cat/4bdc6ab33904a593f7134e9e","categoryId":"4bf58dd8d48988d116941735","category":"Bar","checkinsCount":428,"usersCount":191,"tipCount":12,"visitsCount":486,"tier":"","message":"","currency":"","rating":7.2},{"name":"Bhurtpore Inn","address":"Wrenbury Rd.","lat":53.019086,"lng":-2.58331,"city_fetched":"Nantwich,UK","state":"Cheshire","country":"United Kingdom","canonicalUrl":"https://foursquare.com/v/bhurtpore-inn/4c388c53ae2da5930ecd00c6","categoryId":"4bf58dd8d48988d11b941735","category":"Pub","checkinsCount":86,"usersCount":40,"tipCount":4,"visitsCount":93,"tier":"","message":"","currency":"","rating":7.1},{"name":"The Farmhouse (Beefeater)","phone":"+441270251126","twitter":"beefeatergrill","address":"Coppenhall Ln","lat":53.095747,"lng":-2.485197,"city_fetched":"Nantwich,UK","state":"Cheshire","country":"United Kingdom","canonicalUrl":"https://foursquare.com/v/the-farmhouse-beefeater/4c4daab2fa9d9521967b140a","categoryId":"4bf58dd8d48988d11b941735","category":"Pub","checkinsCount":160,"usersCount":113,"tipCount":6,"visitsCount":180,"url":"http://www.beefeater.co.uk","tier":"","message":"","currency":"","rating":6.3},{"name":"The Gaffers Row  (Wetherspoon)","phone":"+441270503820","address":"48 Victoria St.","lat":53.09870120466023,"lng":-2.4441146850585938,"city_fetched":"Nantwich,UK","state":"Cheshire","country":"United Kingdom","canonicalUrl":"https://foursquare.com/v/the-gaffers-row--wetherspoon/4c87aac3821e9eb0bacc8d89","categoryId":"4bf58dd8d48988d11b941735","category":"Pub","checkinsCount":1579,"usersCount":167,"tipCount":6,"visitsCount":1740,"url":"http://www.jdwetherspoon.co.uk","tier":"","message":"","currency":"","rating":5.7},{"name":"Boot & Shoe","lat":53.06581703,"lng":-2.518422,"city_fetched":"Nantwich,UK","state":"Cheshire","country":"United Kingdom","canonicalUrl":"https://foursquare.com/v/boot--shoe/4c838420d4e23704db627188","categoryId":"4bf58dd8d48988d11b941735","category":"Pub","checkinsCount":196,"usersCount":95,"tipCount":8,"visitsCount":200,"tier":"","message":"","currency":"","rating":5.7},{"name":"Nakatcha","phone":"+441270629070","address":"20-24 Welsh Row","lat":53.067716,"lng":-2.525396,"city_fetched":"Nantwich,UK","state":"Cheshire","country":"United Kingdom","canonicalUrl":"https://foursquare.com/v/nakatcha/4b6ca927f964a5202f4a2ce3","categoryId":"4bf58dd8d48988d116941735","category":"Bar","checkinsCount":104,"usersCount":65,"tipCount":5,"visitsCount":107,"tier":"","message":"","currency":"","rating":5.4},{"name":"Cronkinsons Farm","address":"Pear Tree Field","lat":53.05986373628716,"lng":-2.5049878044788874,"city_fetched":"Nantwich,UK","state":"Cheshire","country":"United Kingdom","canonicalUrl":"https://foursquare.com/v/cronkinsons-farm/4c23b756c11dc9b6d94b2424","categoryId":"4bf58dd8d48988d11b941735","category":"Pub","checkinsCount":132,"usersCount":82,"tipCount":4,"visitsCount":171,"tier":"","message":"","currency":"","rating":5.3}]