[{"name":"The Pump House","phone":"+441792651080","address":"Pump House Quay, Maritime Quarter","lat":51.61660427852713,"lng":-3.936581611633301,"city_fetched":"Neath-Port Talbot,UK","state":"City and County of Swansea","country":"United Kingdom","canonicalUrl":"https://foursquare.com/v/the-pump-house/4b6c4fb4f964a520b52f2ce3","categoryId":"4bf58dd8d48988d11b941735","category":"Pub","checkinsCount":543,"usersCount":271,"tipCount":14,"visitsCount":625,"tier":"","message":"","currency":"","rating":7.9},{"name":"Bunch of Grapes","twitter":"bunchgrapescf37","address":"Ynysangharad Rd","lat":51.6025833,"lng":-3.331456,"city_fetched":"Neath-Port Talbot,UK","country":"United Kingdom","canonicalUrl":"https://foursquare.com/v/bunch-of-grapes/4bdec9ade75c0f473ec2c803","categoryId":"4bf58dd8d48988d11b941735","category":"Pub","checkinsCount":503,"usersCount":168,"tipCount":12,"visitsCount":566,"url":"http://www.bunchofgrapes.org.uk","tier":"","message":"","currency":"","rating":7.9},{"name":"No Sign Wine Bar","address":"56 Wind St","lat":51.619059360400385,"lng":-3.9404560230965697,"city_fetched":"Neath-Port Talbot,UK","country":"United Kingdom","canonicalUrl":"https://foursquare.com/v/no-sign-wine-bar/4b8bb56bf964a520dda732e3","categoryId":"4bf58dd8d48988d123941735","category":"Wine Bar","checkinsCount":583,"usersCount":301,"tipCount":5,"visitsCount":606,"tier":"","message":"","currency":"","rating":7.7},{"name":"Black Boy Pub","address":"Gower Rd","lat":51.617629,"lng":-4.019538,"city_fetched":"Neath-Port Talbot,UK","state":"City and County of Swansea","country":"United Kingdom","canonicalUrl":"https://foursquare.com/v/black-boy-pub/4b735e77f964a5201bab2de3","categoryId":"4bf58dd8d48988d11b941735","category":"Pub","checkinsCount":188,"usersCount":68,"tipCount":5,"visitsCount":194,"tier":"","message":"","currency":"","rating":7.7},{"name":"Uplands Tavern","phone":"+441792458242","address":"42 Uplands Crescent","lat":51.61834296347421,"lng":-3.9667779207229614,"city_fetched":"Neath-Port Talbot,UK","country":"United Kingdom","canonicalUrl":"https://foursquare.com/v/uplands-tavern/4b76db6ff964a520a0642ee3","categoryId":"4bf58dd8d48988d11b941735","category":"Pub","checkinsCount":579,"usersCount":220,"tipCount":4,"visitsCount":593,"tier":"","message":"","currency":"","rating":7.6},{"name":"The Brunswick","address":"3 Duke Street","lat":51.619605521665456,"lng":-3.9557040770806444,"city_fetched":"Neath-Port Talbot,UK","state":"City and County of Swansea","country":"United Kingdom","canonicalUrl":"https://foursquare.com/v/the-brunswick/4b8d19adf964a520f0e732e3","categoryId":"4bf58dd8d48988d11b941735","category":"Pub","checkinsCount":403,"usersCount":107,"tipCount":4,"visitsCount":477,"tier":"","message":"","currency":"","rating":7.5},{"name":"Noah's Yard","phone":"+441792447360","twitter":"noahsyard","address":"38 Uplands Crescent","lat":51.618069841130065,"lng":-3.9668262004852295,"city_fetched":"Neath-Port Talbot,UK","country":"United Kingdom","canonicalUrl":"https://foursquare.com/v/noahs-yard/4ba52684f964a52049e438e3","categoryId":"4bf58dd8d48988d123941735","category":"Wine Bar","checkinsCount":590,"usersCount":148,"tipCount":13,"visitsCount":598,"tier":"","message":"","currency":"","rating":7.4},{"name":"The Barn","phone":"+441443222333","address":"Mwyndy, Portyclun","lat":51.525606,"lng":-3.36247392,"city_fetched":"Neath-Port Talbot,UK","state":"County Borough of Rhondda Cynon Taff","country":"United Kingdom","canonicalUrl":"https://foursquare.com/v/the-barn/4cd6a1667da9a35dfe83f0b9","categoryId":"4bf58dd8d48988d11b941735","category":"Pub","checkinsCount":83,"usersCount":77,"tipCount":2,"visitsCount":194,"url":"http://www.barnpubpontyclun.co.uk","tier":"","message":"","currency":"","rating":7.3},{"name":"Bambu Beach Bar","address":"51-52 Wind Street","lat":51.61916695470122,"lng":-3.940130386476362,"city_fetched":"Neath-Port Talbot,UK","state":"City and County of Swansea","country":"United Kingdom","canonicalUrl":"https://foursquare.com/v/bambu-beach-bar/5075ecdce4b0f763ad9fc067","categoryId":"4bf58dd8d48988d116941735","category":"Bar","checkinsCount":108,"usersCount":71,"tipCount":3,"visitsCount":108,"tier":"","message":"","currency":"","rating":7.3},{"name":"The Woodman","lat":51.59610475916139,"lng":-3.996073007583618,"city_fetched":"Neath-Port Talbot,UK","country":"United Kingdom","canonicalUrl":"https://foursquare.com/v/the-woodman/4bae1626f964a52099823be3","categoryId":"4bf58dd8d48988d11b941735","category":"Pub","checkinsCount":250,"usersCount":196,"tipCount":5,"visitsCount":326,"tier":"","message":"","currency":"","rating":7.2},{"name":"The Caeffatri","address":"Caeffatri Close","lat":51.5130066361136,"lng":-3.576126343052203,"city_fetched":"Neath-Port Talbot,UK","state":"Bridgend county borough","country":"United Kingdom","canonicalUrl":"https://foursquare.com/v/the-caeffatri/4e172b741f6eb653a5ed660f","categoryId":"4bf58dd8d48988d11b941735","category":"Pub","checkinsCount":37,"usersCount":24,"tipCount":2,"visitsCount":62,"tier":"","message":"","currency":"","rating":7.2},{"name":"The Westbourne","phone":"+441792476637","twitter":"westbourne_pub","address":"1 Bryn Y Mor Road","lat":51.61630449852802,"lng":-3.9574089646339417,"city_fetched":"Neath-Port Talbot,UK","state":"City and County of Swansea","country":"United Kingdom","canonicalUrl":"https://foursquare.com/v/the-westbourne/4b9bed39f964a520bc3636e3","categoryId":"4bf58dd8d48988d11b941735","category":"Pub","checkinsCount":207,"usersCount":127,"tipCount":5,"visitsCount":218,"tier":"","message":"","currency":"","rating":7.2},{"name":"Bagle Brook (Beefeater)","phone":"+441639813017","twitter":"beefeater","address":"Baglan Rd","lat":51.61507743228428,"lng":-3.807515632410266,"city_fetched":"Neath-Port Talbot,UK","state":"Neath and Port Talbot","country":"United Kingdom","canonicalUrl":"https://foursquare.com/v/bagle-brook-beefeater/4bc8afd9ab62d13afeca17d4","categoryId":"4bf58dd8d48988d11b941735","category":"Pub","checkinsCount":400,"usersCount":117,"tipCount":5,"visitsCount":437,"url":"http://www.beefeater.co.uk/steak-restaurant/PortTalbot/Bagle-Brook-Port-Talbot.html","tier":"","message":"","currency":"","rating":7.1},{"name":"Alfreds Bar & Grill","phone":"+441443404060","address":"3-4 Market St.","lat":51.60194069687672,"lng":-3.3410021440319713,"city_fetched":"Neath-Port Talbot,UK","country":"United Kingdom","canonicalUrl":"https://foursquare.com/v/alfreds-bar--grill/4ebd65eeb8f7b504a773e3f5","categoryId":"4bf58dd8d48988d116941735","category":"Bar","checkinsCount":237,"usersCount":81,"tipCount":4,"visitsCount":240,"tier":"","message":"","currency":"","rating":7},{"name":"Thomas Arms Hotel","address":"Thomas St.","lat":51.68552825847311,"lng":-4.16120957142247,"city_fetched":"Neath-Port Talbot,UK","state":"Carmarthenshire","country":"United Kingdom","canonicalUrl":"https://foursquare.com/v/thomas-arms-hotel/4bd7ac1b304fce724add33ab","categoryId":"4bf58dd8d48988d1d5941735","category":"Hotel Bar","checkinsCount":102,"usersCount":57,"tipCount":3,"visitsCount":108,"tier":"","message":"","currency":"","rating":7},{"name":"Revolution Vodka Bar","phone":"+441792475181","address":"24 Wind Street","lat":51.619188,"lng":-3.9390331506729126,"city_fetched":"Neath-Port Talbot,UK","state":"City and County of Swansea","country":"United Kingdom","canonicalUrl":"https://foursquare.com/v/revolution-vodka-bar/4b8e6595f964a520ba2033e3","categoryId":"4bf58dd8d48988d116941735","category":"Bar","checkinsCount":497,"usersCount":243,"tipCount":2,"visitsCount":497,"tier":"","message":"","currency":"","rating":6.9},{"name":"Machynys Golf Club","phone":"015540744666","address":"Nicklaus Avenue","lat":51.66006459999738,"lng":-4.148448662873099,"city_fetched":"Neath-Port Talbot,UK","state":"Carmarthenshire","country":"United Kingdom","canonicalUrl":"https://foursquare.com/v/machynys-golf-club/4bcdd1dcb6c49c74f3f59591","categoryId":"4bf58dd8d48988d121941735","category":"Lounge","checkinsCount":243,"usersCount":130,"tipCount":5,"visitsCount":316,"tier":"","message":"","currency":"","rating":6.8},{"name":"Bryn-Y-Mor Pub","address":"Bryn-Y-Mor Road","lat":51.61628451312434,"lng":-3.958768844604492,"city_fetched":"Neath-Port Talbot,UK","state":"City and County of Swansea","country":"United Kingdom","canonicalUrl":"https://foursquare.com/v/brynymor-pub/4bb557d76edc76b0cea92f1c","categoryId":"4bf58dd8d48988d11b941735","category":"Pub","checkinsCount":361,"usersCount":136,"tipCount":3,"visitsCount":373,"tier":"","message":"","currency":"","rating":6.6},{"name":"The Bank Statement (Wetherspoon)","phone":"+441792455477","address":"57-58 Wind St.","lat":51.61958361221914,"lng":-3.94050679505301,"city_fetched":"Neath-Port Talbot,UK","country":"United Kingdom","canonicalUrl":"https://foursquare.com/v/the-bank-statement-wetherspoon/4b8e6603f964a520cd2033e3","categoryId":"4bf58dd8d48988d11b941735","category":"Pub","checkinsCount":1277,"usersCount":391,"tipCount":6,"visitsCount":1305,"url":"http://www.jdwetherspoon.co.uk","tier":"","message":"","currency":"","rating":6.5},{"name":"Jack Murphys","phone":"+441792017920","address":"Wind Street","lat":51.61935950731632,"lng":-3.939418535906598,"city_fetched":"Neath-Port Talbot,UK","state":"City and County of Swansea","country":"United Kingdom","canonicalUrl":"https://foursquare.com/v/jack-murphys/51411901e4b0ecff176301ad","categoryId":"4bf58dd8d48988d116941735","category":"Bar","checkinsCount":94,"usersCount":50,"tipCount":3,"visitsCount":96,"tier":"","message":"","currency":"","rating":6.3},{"name":"The Cross Keys Inn","phone":"+441792630921","address":"12 St Mary Street","lat":51.619452,"lng":-3.9420104026794434,"city_fetched":"Neath-Port Talbot,UK","state":"City and County of Swansea","country":"United Kingdom","canonicalUrl":"https://foursquare.com/v/the-cross-keys-inn/4b8e6713f964a520fd2033e3","categoryId":"4bf58dd8d48988d11b941735","category":"Pub","checkinsCount":281,"usersCount":151,"tipCount":6,"visitsCount":288,"tier":"","message":"","currency":"","rating":6.3},{"name":"The Queens Hotel","phone":"+441792521531","address":"Gloucester Pl.","lat":51.61759,"lng":-3.936823010444641,"city_fetched":"Neath-Port Talbot,UK","state":"City and County of Swansea","country":"United Kingdom","canonicalUrl":"https://foursquare.com/v/the-queens-hotel/4b9a4226f964a520d3a735e3","categoryId":"4bf58dd8d48988d11b941735","category":"Pub","checkinsCount":199,"usersCount":68,"tipCount":5,"visitsCount":204,"tier":"","message":"","currency":"","rating":6.3},{"name":"Pitcher & Piano","phone":"+441792461312","address":"59-60 Wind St.","lat":51.61937088176038,"lng":-3.9407597386404993,"city_fetched":"Neath-Port Talbot,UK","state":"City and County of Swansea","country":"United Kingdom","canonicalUrl":"https://foursquare.com/v/pitcher--piano/4b8e6691f964a520e22033e3","categoryId":"4bf58dd8d48988d11b941735","category":"Pub","checkinsCount":394,"usersCount":227,"tipCount":4,"visitsCount":397,"tier":"","message":"","currency":"","rating":6.3},{"name":"Varsity","phone":"+441792463520","twitter":"varsitybars","address":"Wind St.","lat":51.61986842145996,"lng":-3.941270112991333,"city_fetched":"Neath-Port Talbot,UK","country":"United Kingdom","canonicalUrl":"https://foursquare.com/v/varsity/4b8bb4d7f964a520c4a732e3","categoryId":"4bf58dd8d48988d116941735","category":"Bar","checkinsCount":335,"usersCount":167,"tipCount":6,"visitsCount":339,"url":"http://www.varsitybars.com","tier":"","message":"","currency":"","rating":6.1},{"name":"Ty Risha","phone":"+441656725287","address":"Pen-Y-Cae","lat":51.532223,"lng":-3.582801,"city_fetched":"Neath-Port Talbot,UK","country":"United Kingdom","canonicalUrl":"https://foursquare.com/v/ty-risha/4c7fe5d9d34ca143c25c1480","categoryId":"4bf58dd8d48988d11b941735","category":"Pub","checkinsCount":93,"usersCount":59,"tipCount":4,"visitsCount":100,"tier":"","message":"","currency":"","rating":5.9},{"name":"The Potters Wheel (Wetherspoon)","phone":"+441792465113","address":"85-86 The Kingsway","lat":51.61932419072685,"lng":-3.949755969513988,"city_fetched":"Neath-Port Talbot,UK","country":"United Kingdom","canonicalUrl":"https://foursquare.com/v/the-potters-wheel-wetherspoon/4b8d1a80f964a52023e832e3","categoryId":"4bf58dd8d48988d11b941735","category":"Pub","checkinsCount":1574,"usersCount":557,"tipCount":12,"visitsCount":1948,"url":"http://www.jdwetherspoon.co.uk","tier":"","message":"","currency":"","rating":5.9},{"name":"The Twelve Knights Inn","phone":"+441639882381","address":"Margam Rd","lat":51.573655619730005,"lng":-3.757903575897217,"city_fetched":"Neath-Port Talbot,UK","state":"Neath and Port Talbot","country":"United Kingdom","canonicalUrl":"https://foursquare.com/v/the-twelve-knights-inn/4bdecfc8fe0e62b5b4f70506","categoryId":"4bf58dd8d48988d11b941735","category":"Pub","checkinsCount":128,"usersCount":74,"tipCount":7,"visitsCount":137,"tier":"","message":"","currency":"","rating":5.8},{"name":"The David Protheroe (Wetherspoon)","phone":"+441639622130","address":"7 Windsor Rd.","lat":51.66191797961075,"lng":-3.8062386361987457,"city_fetched":"Neath-Port Talbot,UK","country":"United Kingdom","canonicalUrl":"https://foursquare.com/v/the-david-protheroe-wetherspoon/4b8d15baf964a52035e732e3","categoryId":"4bf58dd8d48988d11b941735","category":"Pub","checkinsCount":491,"usersCount":128,"tipCount":5,"visitsCount":498,"url":"http://www.jdwetherspoon.co.uk","tier":"","message":"","currency":"","rating":5.8},{"name":"The White Rose","address":"1-3 Newton Road","lat":51.575609,"lng":-3.99901807308197,"city_fetched":"Neath-Port Talbot,UK","state":"City and County of Swansea","country":"United Kingdom","canonicalUrl":"https://foursquare.com/v/the-white-rose/4bf59efd4d5f20a102c997fe","categoryId":"4bf58dd8d48988d11b941735","category":"Pub","checkinsCount":276,"usersCount":159,"tipCount":8,"visitsCount":289,"tier":"","message":"","currency":"","rating":5.8},{"name":"The Wyndham Arms (Wetherspoon)","phone":"+441656673500","address":"Dunraven Pl.","lat":51.506531,"lng":-3.579339,"city_fetched":"Neath-Port Talbot,UK","country":"United Kingdom","canonicalUrl":"https://foursquare.com/v/the-wyndham-arms-wetherspoon/4bcf142f0ffdce72983ab2c0","categoryId":"4bf58dd8d48988d11b941735","category":"Pub","checkinsCount":558,"usersCount":179,"tipCount":15,"visitsCount":640,"url":"http://www.jdwetherspoon.co.uk","tier":"","message":"","currency":"","rating":5.8},{"name":"The Red Lion (Wetherspoon)","phone":"+441792761870","twitter":"jdwtweet","address":"49 Sway Rd.","lat":51.668617,"lng":-3.922769,"city_fetched":"Neath-Port Talbot,UK","country":"United Kingdom","canonicalUrl":"https://foursquare.com/v/the-red-lion-wetherspoon/4b9a92adf964a52091c235e3","categoryId":"4bf58dd8d48988d11b941735","category":"Pub","checkinsCount":213,"usersCount":129,"tipCount":3,"visitsCount":359,"url":"http://www.jdwetherspoon.co.uk","tier":"","message":"","currency":"","rating":5.8},{"name":"Sin City","phone":"+441792468892","twitter":"sincityswansea","address":"14-16 Dillwyn St","lat":51.6190557384349,"lng":-3.9496707916259766,"city_fetched":"Neath-Port Talbot,UK","country":"United Kingdom","canonicalUrl":"https://foursquare.com/v/sin-city/4bd229e2a8b3a5937a4e675f","categoryId":"4bf58dd8d48988d118941735","category":"Dive Bar","checkinsCount":421,"usersCount":153,"tipCount":5,"visitsCount":422,"tier":"","message":"","currency":"","rating":5.6},{"name":"Peppermint","phone":"+441792455145","address":"13-17 Wind St","lat":51.61937,"lng":-3.939671,"city_fetched":"Neath-Port Talbot,UK","country":"United Kingdom","canonicalUrl":"https://foursquare.com/v/peppermint/4b5f2a7af964a5205faa29e3","categoryId":"4bf58dd8d48988d116941735","category":"Bar","checkinsCount":306,"usersCount":134,"tipCount":8,"visitsCount":309,"tier":"","message":"","currency":"","rating":5.6},{"name":"The Lord Caradoc (Wetherspoon)","phone":"+441639896007","address":"69-73 Station Rd.","lat":51.59430398373372,"lng":-3.782222541829373,"city_fetched":"Neath-Port Talbot,UK","country":"United Kingdom","canonicalUrl":"https://foursquare.com/v/the-lord-caradoc-wetherspoon/4bf544516a31d13a85a5962e","categoryId":"4bf58dd8d48988d11b941735","category":"Pub","checkinsCount":1008,"usersCount":164,"tipCount":3,"visitsCount":1077,"url":"http://www.jdwetherspoon.co.uk","tier":"","message":"","currency":"","rating":5.5},{"name":"The Angel","phone":"+441639722013","address":"Pontneathvaughan Rd, Pontneddfechan","lat":51.756472,"lng":-3.594187,"city_fetched":"Neath-Port Talbot,UK","state":"Neath and Port Talbot","country":"United Kingdom","canonicalUrl":"https://foursquare.com/v/the-angel/4c3862442c8020a150ad8a00","categoryId":"4bf58dd8d48988d11b941735","category":"Pub","checkinsCount":80,"usersCount":77,"tipCount":3,"visitsCount":86,"url":"http://theangelinnwales.co.uk","tier":"","message":"","currency":"","rating":5.4},{"name":"Yate's","phone":"+441792472440","address":"1 - 4 Caer St.","lat":51.62018170673921,"lng":-3.94178812169778,"city_fetched":"Neath-Port Talbot,UK","state":"City and County of Swansea","country":"United Kingdom","canonicalUrl":"https://foursquare.com/v/yates/4b8bec42f964a5209db232e3","categoryId":"4bf58dd8d48988d11b941735","category":"Pub","checkinsCount":281,"usersCount":159,"tipCount":4,"visitsCount":281,"tier":"","message":"","currency":"","rating":5.4},{"name":"Walkabout Inn","phone":"+441792450850","twitter":"walkaboutpub","address":"5-6 Castle Sq","lat":51.61990838910213,"lng":-3.9409804344177246,"city_fetched":"Neath-Port Talbot,UK","state":"City and County of Swansea","country":"United Kingdom","canonicalUrl":"https://foursquare.com/v/walkabout-inn/4b8e6491f964a520902033e3","categoryId":"4bf58dd8d48988d11d941735","category":"Sports Bar","checkinsCount":309,"usersCount":183,"tipCount":1,"visitsCount":311,"url":"http://walkaboutbars.com","tier":"","message":"","currency":"","rating":5.3},{"name":"JC's Bar","address":"Fulton House, Swansea University","lat":51.60948563429842,"lng":-3.9809131622314453,"city_fetched":"Neath-Port Talbot,UK","state":"City and County of Swansea","country":"United Kingdom","canonicalUrl":"https://foursquare.com/v/jcs-bar/4bfaf8b2ab180f475f37b3ce","categoryId":"4bf58dd8d48988d116941735","category":"Bar","checkinsCount":849,"usersCount":142,"tipCount":8,"visitsCount":854,"tier":"","message":"","currency":"","rating":5.3}]