[{"name":"Britannia Inn - Shepherd Neame","phone":"+441797321959","address":"Dungeness Road","lat":50.91379625548557,"lng":0.9734916687011719,"city_fetched":"New Romney,UK","state":"Kent","country":"United Kingdom","canonicalUrl":"https://foursquare.com/v/britannia-inn--shepherd-neame/4bb7198046d4a5936918c7c0","categoryId":"4bf58dd8d48988d11b941735","category":"Pub","checkinsCount":111,"usersCount":105,"tipCount":4,"visitsCount":119,"url":"http://www.shepherdneame.co.uk","tier":"","message":"","currency":"","rating":6.6},{"name":"The Warren Inn - Shepherd Neame","phone":"+441797362090","address":"Dymchurch Road","lat":50.99235599817226,"lng":0.9505319595336914,"city_fetched":"New Romney,UK","state":"Kent","country":"United Kingdom","canonicalUrl":"https://foursquare.com/v/the-warren-inn--shepherd-neame/4e687f9db3ad5d91975214f8","categoryId":"4bf58dd8d48988d11b941735","category":"Pub","checkinsCount":36,"usersCount":9,"tipCount":1,"visitsCount":37,"url":"http://www.shepherdneame.co.uk","tier":"","message":"","currency":"","rating":6.6},{"name":"Woolpack Inn","phone":"+441797344321","address":"Brookland","lat":50.985773551077735,"lng":0.8175822266370486,"city_fetched":"New Romney,UK","state":"Kent","country":"United Kingdom","canonicalUrl":"https://foursquare.com/v/woolpack-inn/4ce67a0c678aa0939d64dcea","categoryId":"4bf58dd8d48988d11b941735","category":"Pub","checkinsCount":39,"usersCount":40,"tipCount":1,"visitsCount":43,"url":"http://www.shepherdneame.co.uk","tier":"","message":"","currency":"","rating":6.6},{"name":"The Walnut Tree","lat":51.091485,"lng":0.944218,"city_fetched":"New Romney,UK","country":"United Kingdom","canonicalUrl":"https://foursquare.com/v/the-walnut-tree/4d73a6e05838a093ceb81bdb","categoryId":"4bf58dd8d48988d11b941735","category":"Pub","checkinsCount":32,"usersCount":20,"tipCount":1,"visitsCount":34,"url":"http://www.shepherdneame.co.uk","tier":"","message":"","currency":"","rating":6.6},{"name":"Bailiffs Sergeant - Shepherd Neame","phone":"+441303872503","address":"Jefferstone Lane","lat":51.009201644034846,"lng":0.9780514240264893,"city_fetched":"New Romney,UK","state":"Kent","country":"United Kingdom","canonicalUrl":"https://foursquare.com/v/bailiffs-sergeant--shepherd-neame/4c95ff3a01dd76b0b10fc048","categoryId":"4bf58dd8d48988d11b941735","category":"Pub","checkinsCount":20,"usersCount":6,"tipCount":0,"visitsCount":20,"url":"http://www.shepherdneame.co.uk","tier":"","message":"","currency":"","rating":6.4},{"name":"The Ship Hotel","phone":"+441797362776","address":"High St.","lat":50.98707486140058,"lng":0.9434616565704346,"city_fetched":"New Romney,UK","state":"Kent","country":"United Kingdom","canonicalUrl":"https://foursquare.com/v/the-ship-hotel/4bdf28977ea362b5345d43c4","categoryId":"4bf58dd8d48988d11b941735","category":"Pub","checkinsCount":55,"usersCount":41,"tipCount":0,"visitsCount":60,"url":"http://www.shepherdneame.co.uk","tier":"","message":"","currency":"","rating":6.3},{"name":"The Pilot Inn","phone":"+441797320314","address":"Battery Road","lat":50.929046161148015,"lng":0.9741262374097437,"city_fetched":"New Romney,UK","state":"Kent","country":"United Kingdom","canonicalUrl":"https://foursquare.com/v/the-pilot-inn/4bcf2f90046076b03fc66d71","categoryId":"4bf58dd8d48988d11b941735","category":"Pub","checkinsCount":273,"usersCount":219,"tipCount":8,"visitsCount":321,"url":"http://www.thepilot.uk.com","tier":"","message":"","currency":"","rating":6.3}]