[{"name":"Just Beer Micropub","phone":"+441636312047","twitter":"justbeermicro","address":"Swan & Salmon Yard","lat":53.07654305734904,"lng":-0.8136427402496338,"city_fetched":"Newark,UK","state":"Nottinghamshire","country":"United Kingdom","canonicalUrl":"https://foursquare.com/v/just-beer-micropub/4cba324a9552b60ccfafd88b","categoryId":"4bf58dd8d48988d11b941735","category":"Pub","checkinsCount":708,"usersCount":94,"tipCount":11,"visitsCount":721,"url":"http://www.justbeermicropub.biz","tier":2,"message":"Moderate","currency":"Â£","rating":8.4},{"name":"The Prince Rupert","phone":"+441636918121","address":"46 Stodman St.","lat":53.076432,"lng":-0.812096,"city_fetched":"Newark,UK","state":"Nottinghamshire","country":"United Kingdom","canonicalUrl":"https://foursquare.com/v/the-prince-rupert/4c3c5d8d86ce328f5b98ab2d","categoryId":"4bf58dd8d48988d11b941735","category":"Pub","checkinsCount":512,"usersCount":156,"tipCount":7,"visitsCount":540,"url":"http://www.kneadpubs.co.uk/our-pubs/the-prince-rupert","tier":"","message":"","currency":"","rating":8.2},{"name":"Oscar's Inn","phone":"+441636918130","address":"105 Balderton Gate","lat":53.07256680463578,"lng":-0.804573669125944,"city_fetched":"Newark,UK","state":"Nottinghamshire","country":"United Kingdom","canonicalUrl":"https://foursquare.com/v/oscars-inn/542ee6e9498ea1f1d21136c0","categoryId":"4bf58dd8d48988d11b941735","category":"Pub","checkinsCount":81,"usersCount":39,"tipCount":4,"visitsCount":117,"tier":"","message":"","currency":"","rating":7.7},{"name":"The Vaults","phone":"+441636678953","twitter":"thevaultsnewark","address":"14 North Gate","lat":53.07883853235146,"lng":-0.8091516413241815,"city_fetched":"Newark,UK","state":"Nottinghamshire","country":"United Kingdom","canonicalUrl":"https://foursquare.com/v/the-vaults/5452a8b8498ef902849de709","categoryId":"4bf58dd8d48988d116941735","category":"Bar","checkinsCount":45,"usersCount":24,"tipCount":3,"visitsCount":52,"url":"http://thevaultsnewark.co.uk","tier":"","message":"","currency":"","rating":7.6},{"name":"The Castle","phone":"+441636605856","address":"5 Castle Gate","lat":53.078052,"lng":-0.810707,"city_fetched":"Newark,UK","state":"Nottinghamshire","country":"United Kingdom","canonicalUrl":"https://foursquare.com/v/the-castle/4b94003df964a5203e6034e3","categoryId":"4bf58dd8d48988d11b941735","category":"Pub","checkinsCount":127,"usersCount":57,"tipCount":6,"visitsCount":127,"tier":"","message":"","currency":"","rating":7.1},{"name":"Castle Barge","phone":"+441636677320","address":"The Wharf","lat":53.07897126399592,"lng":-0.8117437362670898,"city_fetched":"Newark,UK","state":"Nottinghamshire","country":"United Kingdom","canonicalUrl":"https://foursquare.com/v/castle-barge/4c1e7a258b3aa59308279c5f","categoryId":"4bf58dd8d48988d11b941735","category":"Pub","checkinsCount":150,"usersCount":84,"tipCount":5,"visitsCount":151,"tier":"","message":"","currency":"","rating":6.4},{"name":"The Sir John Arderne (Wetherspoon)","phone":"+441636671334","twitter":"jdwetherspoon","address":"1-3 Church St.","lat":53.076489,"lng":-0.809139,"city_fetched":"Newark,UK","state":"Nottinghamshire","country":"United Kingdom","canonicalUrl":"https://foursquare.com/v/the-sir-john-arderne-wetherspoon/4c2b5dc58abca5936a060020","categoryId":"4bf58dd8d48988d11b941735","category":"Pub","checkinsCount":422,"usersCount":134,"tipCount":4,"visitsCount":434,"url":"http://www.jdwetherspoon.co.uk","tier":"","message":"","currency":"","rating":5.2},{"name":"The Old Post Office","phone":"+441636640988","address":"34 Kirkgate","lat":53.077140856828855,"lng":-0.8096516132354736,"city_fetched":"Newark,UK","state":"Nottinghamshire","country":"United Kingdom","canonicalUrl":"https://foursquare.com/v/the-old-post-office/4b9a5e2cf964a52055af35e3","categoryId":"4bf58dd8d48988d11b941735","category":"Pub","checkinsCount":227,"usersCount":90,"tipCount":2,"visitsCount":232,"tier":"","message":"","currency":"","rating":5.1}]