[{"name":"Lock, Stock and Barrel","phone":"+441635580550","address":"104 Northbrook St","lat":51.401517396043374,"lng":-1.324822,"city_fetched":"Newbury,UK","country":"United Kingdom","canonicalUrl":"https://foursquare.com/v/lock-stock-and-barrel/4af47235f964a52081f221e3","categoryId":"4bf58dd8d48988d11b941735","category":"Pub","checkinsCount":1321,"usersCount":601,"tipCount":25,"visitsCount":1665,"tier":"","message":"","currency":"","rating":8},{"name":"Craven Arms","phone":"+441635253336","address":"Enbourne","lat":51.38054,"lng":-1.387447714805603,"neighborhood":"Newbury, London, Greater London","city_fetched":"Newbury,UK","state":"West Berkshire","country":"United Kingdom","canonicalUrl":"https://foursquare.com/v/craven-arms/4c1e2ca98b3aa593b69e9b5f","categoryId":"4bf58dd8d48988d11b941735","category":"Pub","checkinsCount":97,"usersCount":47,"tipCount":4,"visitsCount":106,"url":"http://www.thecravenarmsenborne.com","tier":"","message":"","currency":"","rating":7.8},{"name":"Canal Bar","phone":"+44163535081","address":"26 Market Place","lat":51.401573916762544,"lng":-1.322983823032192,"city_fetched":"Newbury,UK","country":"United Kingdom","canonicalUrl":"https://foursquare.com/v/canal-bar/4b5b144cf964a52086e228e3","categoryId":"4bf58dd8d48988d116941735","category":"Bar","checkinsCount":402,"usersCount":137,"tipCount":6,"visitsCount":412,"tier":"","message":"","currency":"","rating":7.8},{"name":"The Bunk","phone":"+441635200400","twitter":"bunkcurridge","address":"Curridge","lat":51.446605,"lng":-1.293574,"city_fetched":"Newbury,UK","state":"West Berkshire","country":"United Kingdom","canonicalUrl":"https://foursquare.com/v/the-bunk/4c3ef81e83a3a5930fc0ee33","categoryId":"4bf58dd8d48988d11b941735","category":"Pub","checkinsCount":124,"usersCount":98,"tipCount":6,"visitsCount":196,"url":"http://www.thebunkinn.co.uk","tier":"","message":"","currency":"","rating":7.8},{"name":"Sun in The Wood","lat":51.426445204922025,"lng":-1.2954818169162337,"city_fetched":"Newbury,UK","country":"United Kingdom","canonicalUrl":"https://foursquare.com/v/sun-in-the-wood/4b7fab19f964a520d53830e3","categoryId":"4bf58dd8d48988d11b941735","category":"Pub","checkinsCount":275,"usersCount":116,"tipCount":7,"visitsCount":319,"tier":"","message":"","currency":"","rating":7.7},{"name":"The Catherine Wheel","phone":"+441635569897","address":"35 Cheap Street","lat":51.40017177709557,"lng":-1.3231836252478895,"city_fetched":"Newbury,UK","state":"West Berkshire","country":"United Kingdom","canonicalUrl":"https://foursquare.com/v/the-catherine-wheel/4bbf8863f8219c743924b010","categoryId":"4bf58dd8d48988d11b941735","category":"Pub","checkinsCount":202,"usersCount":44,"tipCount":2,"visitsCount":212,"url":"http://www.thecatherinewheel.com","tier":"","message":"","currency":"","rating":7.6},{"name":"Lord Lyon","phone":"+441488608366","address":"Ermine St","lat":51.414431,"lng":-1.374517,"city_fetched":"Newbury,UK","state":"West Berkshire","country":"United Kingdom","canonicalUrl":"https://foursquare.com/v/lord-lyon/4c3ef661ca012d7f382430be","categoryId":"4bf58dd8d48988d116941735","category":"Bar","checkinsCount":260,"usersCount":65,"tipCount":3,"visitsCount":266,"tier":"","message":"","currency":"","rating":7.2},{"name":"Winterbourne arms","lat":51.447622,"lng":-1.345223,"city_fetched":"Newbury,UK","country":"United Kingdom","canonicalUrl":"https://foursquare.com/v/winterbourne-arms/4c1a198e838020a12ea5e661","categoryId":"4bf58dd8d48988d11b941735","category":"Pub","checkinsCount":96,"usersCount":74,"tipCount":5,"visitsCount":108,"tier":"","message":"","currency":"","rating":7},{"name":"The Lion","phone":"+441635528468","address":"1 West Street","lat":51.4038240169052,"lng":-1.3268887996673584,"city_fetched":"Newbury,UK","state":"West Berkshire","country":"United Kingdom","canonicalUrl":"https://foursquare.com/v/the-lion/4ae2f717f964a520c08f21e3","categoryId":"4bf58dd8d48988d11b941735","category":"Pub","checkinsCount":377,"usersCount":77,"tipCount":5,"visitsCount":387,"tier":"","message":"","currency":"","rating":6.8},{"name":"The Gun PH","phone":"+44163547292","address":"142 Andover Road","lat":51.382412144897145,"lng":-1.3404528281295334,"city_fetched":"Newbury,UK","country":"United Kingdom","canonicalUrl":"https://foursquare.com/v/the-gun-ph/4bad0ff7f964a520c2293be3","categoryId":"4bf58dd8d48988d11b941735","category":"Pub","checkinsCount":160,"usersCount":44,"tipCount":4,"visitsCount":164,"tier":"","message":"","currency":"","rating":6.5},{"name":"The Swan Inn","phone":"+44163540313","address":"Newtown","lat":51.37241335645525,"lng":-1.3166828221015558,"city_fetched":"Newbury,UK","country":"United Kingdom","canonicalUrl":"https://foursquare.com/v/the-swan-inn/4cf6b45781cd6dcb52297d0d","categoryId":"4bf58dd8d48988d11b941735","category":"Pub","checkinsCount":451,"usersCount":220,"tipCount":8,"visitsCount":563,"url":"http://www.swannewbury.co.uk","tier":"","message":"","currency":"","rating":6.5},{"name":"The Hatchet Inn (Wetherspoon)","phone":"+441635277560","twitter":"jdwtweet","address":"12 Market Place","lat":51.40088967337874,"lng":-1.3228685319271405,"city_fetched":"Newbury,UK","state":"West Berkshire","country":"United Kingdom","canonicalUrl":"https://foursquare.com/v/the-hatchet-inn-wetherspoon/4e299b811f6e88a1546e0e99","categoryId":"4bf58dd8d48988d11b941735","category":"Pub","checkinsCount":1069,"usersCount":367,"tipCount":16,"visitsCount":1156,"url":"http://www.jdwetherspoon.co.uk","tier":"","message":"","currency":"","rating":5.9},{"name":"The Swan","address":"Bath Road","lat":51.40420178487166,"lng":-1.3014119044540613,"city_fetched":"Newbury,UK","country":"United Kingdom","canonicalUrl":"https://foursquare.com/v/the-swan/4c77ef96a8683704247c0b4d","categoryId":"4bf58dd8d48988d11b941735","category":"Pub","checkinsCount":319,"usersCount":114,"tipCount":3,"visitsCount":351,"url":"http://www.swannewbury.co.uk","tier":"","message":"","currency":"","rating":5.8},{"name":"The Blackbird","lat":51.420836800000004,"lng":-1.3493818044662476,"city_fetched":"Newbury,UK","country":"United Kingdom","canonicalUrl":"https://foursquare.com/v/the-blackbird/4c262385136d20a14fb8e461","categoryId":"4bf58dd8d48988d11b941735","category":"Pub","checkinsCount":67,"usersCount":43,"tipCount":5,"visitsCount":71,"tier":"","message":"","currency":"","rating":5.8},{"name":"The Diamond Tap (Wetherspoon)","phone":"+441635527320","address":"42 Cheap St.","lat":51.39997611329758,"lng":-1.322531028639872,"city_fetched":"Newbury,UK","country":"United Kingdom","canonicalUrl":"https://foursquare.com/v/the-diamond-tap-wetherspoon/4c87ab93821e9eb07ecd8d89","categoryId":"4bf58dd8d48988d11b941735","category":"Pub","checkinsCount":1299,"usersCount":303,"tipCount":9,"visitsCount":1358,"url":"http://www.jdwetherspoon.co.uk","tier":"","message":"","currency":"","rating":5.6},{"name":"The Swan","phone":"+441635862084","address":"Station Rd","lat":51.394345102809815,"lng":-1.2444311926109908,"city_fetched":"Newbury,UK","state":"West Berkshire","country":"United Kingdom","canonicalUrl":"https://foursquare.com/v/the-swan/4baa93c2f964a52040763ae3","categoryId":"4bf58dd8d48988d11b941735","category":"Pub","checkinsCount":477,"usersCount":233,"tipCount":10,"visitsCount":683,"url":"http://www.swanpubthatcham.co.uk","tier":"","message":"","currency":"","rating":5}]