[{"name":"The Bridge Tavern","phone":"+441912619966","twitter":"bridgetavernpub","address":"7 Akenside Hill","lat":54.969404574332415,"lng":-1.6076572915162688,"city_fetched":"Newcastle","country":"United Kingdom","canonicalUrl":"https://foursquare.com/v/the-bridge-tavern/52432a4b498e1de472ba3c22","category":"Pub","checkinsCount":1223,"usersCount":692,"tipCount":30,"visitsCount":1543,"url":"http://www.thebridgetavern.com","tier":2,"message":"Moderate","currency":"£","rating":9.3},{"name":"Tyneside Cinema","phone":"+448452179909","twitter":"tynesidecinema","address":"10 Pilgrim St","lat":54.973812751997365,"lng":-1.612170456313215,"neighborhood":"Grainger Town","city_fetched":"Newcastle","country":"United Kingdom","canonicalUrl":"https://foursquare.com/v/tyneside-cinema/4b5436b6f964a520b0b427e3","category":"Indie Movie Theater","checkinsCount":2458,"usersCount":803,"tipCount":26,"visitsCount":2528,"url":"http://www.tynesidecinema.co.uk","tier":"","message":"","currency":"","rating":9.2},{"name":"The Bacchus","phone":"+441912611008","twitter":"bacchus48","address":"42-48 High Bridge","lat":54.97239814895747,"lng":-1.610966920852661,"neighborhood":"Grainger Town","city_fetched":"Newcastle","country":"United Kingdom","canonicalUrl":"https://foursquare.com/v/the-bacchus/4b6483cbf964a520e1b92ae3","category":"Pub","checkinsCount":1573,"usersCount":547,"tipCount":21,"visitsCount":1669,"url":"http://www.thebacchusnewcastle.co.uk","tier":"","message":"","currency":"","rating":9},{"name":"The Cluny","phone":"+441912304474","twitter":"thecluny","address":"36 Lime St","lat":54.975234466701195,"lng":-1.5918017198611687,"city_fetched":"Newcastle","country":"United Kingdom","canonicalUrl":"https://foursquare.com/v/the-cluny/4b4b1521f964a520fb9126e3","category":"Pub","checkinsCount":1496,"usersCount":855,"tipCount":29,"visitsCount":1766,"url":"http://www.thecluny.com","tier":2,"message":"Moderate","currency":"£","rating":8.9},{"name":"Red House","phone":"+441912611037","address":"32 Sandhill Quayside","lat":54.968660925204794,"lng":-1.6076133777419523,"city_fetched":"Newcastle","country":"United Kingdom","canonicalUrl":"https://foursquare.com/v/red-house/4c49e10d1b430f47cc6c24c4","category":"Bar","checkinsCount":708,"usersCount":463,"tipCount":23,"visitsCount":817,"url":"http://www.theredhousencl.co.uk","tier":"","message":"","currency":"","rating":8.8},{"name":"Alvinos Bar","phone":"+441912615656","address":"88 Pilgrim St","lat":54.97203903935151,"lng":-1.6101485629815804,"city_fetched":"Newcastle","country":"United Kingdom","canonicalUrl":"https://foursquare.com/v/alvinos-bar/4bf2cfe794af2d7f2cc63872","category":"Lounge","checkinsCount":1501,"usersCount":522,"tipCount":23,"visitsCount":1616,"url":"http://www.alvinosbar.co.uk","tier":2,"message":"Moderate","currency":"£","rating":8.7},{"name":"Pleased to Meet You","phone":"+441913405137","twitter":"ptmynewcastle","address":"41-15 High Bridge","lat":54.971972,"lng":-1.612515,"neighborhood":"Grainger Town","city_fetched":"Newcastle","country":"United Kingdom","canonicalUrl":"https://foursquare.com/v/pleased-to-meet-you/51a8cbc2498e29af2fe09d0d","category":"Cocktail Bar","checkinsCount":1092,"usersCount":702,"tipCount":23,"visitsCount":1396,"tier":3,"message":"Expensive","currency":"£","rating":8.6},{"name":"The Town Wall","phone":"+441912323000","twitter":"thetownwallpub","address":"Pink Ln","lat":54.96929745579212,"lng":-1.6185200214385986,"neighborhood":"Grainger Town","city_fetched":"Newcastle","country":"United Kingdom","canonicalUrl":"https://foursquare.com/v/the-town-wall/4d2f44659401370477d6edda","category":"Pub","checkinsCount":2828,"usersCount":959,"tipCount":33,"visitsCount":2946,"url":"http://www.thetownwall.com","tier":3,"message":"Expensive","currency":"£","rating":8.6},{"name":"The Tyne Bar","phone":"+441912652550","twitter":"thetynebar","address":"1 Maling St","lat":54.971591437528524,"lng":-1.588296890258789,"neighborhood":"Byker","city_fetched":"Newcastle","country":"United Kingdom","canonicalUrl":"https://foursquare.com/v/the-tyne-bar/4baba18cf964a520e7ba3ae3","category":"Pub","checkinsCount":1028,"usersCount":654,"tipCount":13,"visitsCount":1343,"url":"http://www.thetyne.com","tier":"","message":"","currency":"","rating":8.6},{"name":"BrewDog Newcastle","phone":"+441912616586","twitter":"brewdog","address":"16 Dean St","lat":54.969756262621424,"lng":-1.6095399856567383,"city_fetched":"Newcastle","state":"Newcastle upon Tyne","country":"United Kingdom","canonicalUrl":"https://foursquare.com/v/brewdog-newcastle/4f7d9407e5e8894bb8508122","category":"Beer Bar","checkinsCount":2331,"usersCount":1305,"tipCount":45,"visitsCount":2804,"url":"http://www.brewdog.com","tier":3,"message":"Expensive","currency":"£","rating":8.6},{"name":"Brandling Villa","phone":"+441912840490","twitter":"brandlingvilla","address":"Haddricks Mill Rd","lat":55.006542275577075,"lng":-1.602931022644043,"city_fetched":"Newcastle","country":"United Kingdom","canonicalUrl":"https://foursquare.com/v/brandling-villa/4c47fad2eb489c745d10ca47","category":"Pub","checkinsCount":810,"usersCount":394,"tipCount":24,"visitsCount":1214,"tier":"","message":"","currency":"","rating":8.6},{"name":"World Headquarters","phone":"+441912813445","address":"Curtis Mayfield House, Carliol Sq","lat":54.97262254209843,"lng":-1.6083782080352915,"city_fetched":"Newcastle","country":"United Kingdom","canonicalUrl":"https://foursquare.com/v/world-headquarters/4c8c1636509e370441493055","category":"Nightclub","checkinsCount":202,"usersCount":110,"tipCount":3,"visitsCount":203,"tier":"","message":"","currency":"","rating":8.6},{"name":"Tilley's Bar","phone":"+441912320692","twitter":"tilleysbar","address":"105 Westgate Rd","lat":54.97056951727913,"lng":-1.6203396014931428,"neighborhood":"Chinatown","city_fetched":"Newcastle","country":"United Kingdom","canonicalUrl":"https://foursquare.com/v/tilleys-bar/4b773094f964a52044862ee3","category":"Pub","checkinsCount":1076,"usersCount":447,"tipCount":19,"visitsCount":1125,"tier":"","message":"","currency":"","rating":8.5},{"name":"The Free Trade Inn","phone":"+441912655764","twitter":"thefreetradeinn","address":"St Lawrence Rd","lat":54.97106183190162,"lng":-1.5870952606201172,"neighborhood":"Byker","city_fetched":"Newcastle","country":"United Kingdom","canonicalUrl":"https://foursquare.com/v/the-free-trade-inn/4b786345f964a52076ca2ee3","category":"Pub","checkinsCount":1061,"usersCount":400,"tipCount":27,"visitsCount":1243,"tier":"","message":"","currency":"","rating":8.5},{"name":"Bar Loco","phone":"+441912325871","address":"22 Leazes Park Rd","lat":54.97540008157728,"lng":-1.618155241012573,"city_fetched":"Newcastle","state":"Newcastle upon Tyne","country":"United Kingdom","canonicalUrl":"https://foursquare.com/v/bar-loco/4f248e65e4b01dc94bc895de","category":"Cocktail Bar","checkinsCount":697,"usersCount":391,"tipCount":15,"visitsCount":863,"url":"http://barloconewcastle.com","tier":"","message":"","currency":"","rating":8.4},{"name":"Schooner Inn","phone":"+441914777404","twitter":"schoonergate","address":"South Shore Rd","lat":54.96078347332209,"lng":-1.5861008008614896,"city_fetched":"Newcastle","country":"United Kingdom","canonicalUrl":"https://foursquare.com/v/schooner-inn/4d286972467d6ea8fef1c595","category":"Pub","checkinsCount":110,"usersCount":60,"tipCount":7,"visitsCount":130,"tier":"","message":"","currency":"","rating":8.4},{"name":"Tyneside Bar","lat":54.973867817561846,"lng":-1.6117873241794791,"neighborhood":"Grainger Town","city_fetched":"Newcastle","country":"United Kingdom","canonicalUrl":"https://foursquare.com/v/tyneside-bar/4f832ae6e4b0e160bbd75355","category":"Bar","checkinsCount":274,"usersCount":105,"tipCount":3,"visitsCount":287,"tier":"","message":"","currency":"","rating":8.4},{"name":"Northumbria Students' Union","phone":"+441912274757","address":"2 Sandyford Rd","lat":54.97851107852902,"lng":-1.6079816222190857,"city_fetched":"Newcastle","country":"United Kingdom","canonicalUrl":"https://foursquare.com/v/northumbria-students-union/4cd98ff42a87a143f56fb309","category":"Student Center","checkinsCount":1265,"usersCount":431,"tipCount":3,"visitsCount":1313,"url":"http://www.mynsu.co.uk","tier":"","message":"","currency":"","rating":8.4},{"name":"Lady Grey's","phone":"+441912323606","twitter":"ladygreysbar","address":"20 Shakespeare St","lat":54.97278938462266,"lng":-1.6112036073283567,"neighborhood":"Grainger Town","city_fetched":"Newcastle","country":"United Kingdom","canonicalUrl":"https://foursquare.com/v/lady-greys/4e3ad6e91495c19cfbc832ef","category":"Pub","checkinsCount":1031,"usersCount":421,"tipCount":15,"visitsCount":1134,"url":"http://www.ladygreys.co.uk","tier":"","message":"","currency":"","rating":8.3},{"name":"Sandman Signature Hotel","phone":"+441912292600","address":"Gallowgate","lat":54.97371177703276,"lng":-1.6217295964471692,"city_fetched":"Newcastle","state":"Newcastle upon Tyne","country":"United Kingdom","canonicalUrl":"https://foursquare.com/v/sandman-signature-hotel/4e01ad68d22db37fb028da28","category":"Hotel","checkinsCount":624,"usersCount":289,"tipCount":8,"visitsCount":639,"url":"http://www.sandmansignature.co.uk","tier":"","message":"","currency":"","rating":8.2},{"name":"Dacantus","lat":54.97142619502289,"lng":-1.6113947508693391,"neighborhood":"Grainger Town","city_fetched":"Newcastle","country":"United Kingdom","canonicalUrl":"https://foursquare.com/v/dacantus/5256ded311d2349e03165a0d","category":"Cocktail Bar","checkinsCount":82,"usersCount":51,"tipCount":3,"visitsCount":82,"tier":"","message":"","currency":"","rating":8.2},{"name":"The Botanist","phone":"+441912616307","address":"Monument Mall","lat":54.974000136431705,"lng":-1.6131369043121413,"neighborhood":"Grainger Town","city_fetched":"Newcastle","state":"Newcastle upon Tyne","country":"United Kingdom","canonicalUrl":"https://foursquare.com/v/the-botanist/548b12fc498ecb54daa59896","category":"Bar","checkinsCount":664,"usersCount":446,"tipCount":21,"visitsCount":728,"url":"http://thebotanist.uk.com","tier":"","message":"","currency":"","rating":8.2},{"name":"The Bridge Hotel","phone":"+441912326400","address":"Castle Sq","lat":54.9685260942431,"lng":-1.6103553771972656,"city_fetched":"Newcastle","country":"United Kingdom","canonicalUrl":"https://foursquare.com/v/the-bridge-hotel/4b4cb74bf964a5208abb26e3","category":"Pub","checkinsCount":1035,"usersCount":516,"tipCount":18,"visitsCount":1114,"url":"http://www.bridgehotelnewcastle.co.uk","tier":"","message":"","currency":"","rating":8.2},{"name":"The Keelman","phone":"+441912670772","address":"Grange Rd, Newburn","lat":54.98461999947405,"lng":-1.7521905899047852,"neighborhood":"Newburn","city_fetched":"Newcastle","country":"United Kingdom","canonicalUrl":"https://foursquare.com/v/the-keelman/4bcd9c2a511f95213ed1b4c7","category":"Pub","checkinsCount":343,"usersCount":168,"tipCount":10,"visitsCount":414,"url":"http://www.keelmanslodge.co.uk","tier":"","message":"","currency":"","rating":8.2},{"name":"Crown Posada","phone":"+441912321269","twitter":"sjfcrownposada","address":"31 Side","lat":54.969473643668096,"lng":-1.6088541235132054,"city_fetched":"Newcastle","country":"United Kingdom","canonicalUrl":"https://foursquare.com/v/crown-posada/4bcde8e9b6c49c74ef2b9691","category":"Pub","checkinsCount":643,"usersCount":308,"tipCount":13,"visitsCount":647,"url":"http://www.crownposadanewcastle.co.uk","tier":"","message":"","currency":"","rating":8.1},{"name":"The Queen Victoria","phone":"+441912858060","twitter":"qvicgosforth","address":"206 High St","lat":55.00699758048878,"lng":-1.6194748878479004,"city_fetched":"Newcastle","state":"Newcastle upon Tyne","country":"United Kingdom","canonicalUrl":"https://foursquare.com/v/the-queen-victoria/4b8039d3f964a520695e30e3","category":"Bar","checkinsCount":1780,"usersCount":174,"tipCount":17,"visitsCount":1862,"tier":"","message":"","currency":"","rating":8.1},{"name":"The Cumberland Arms","phone":"+441912656151","twitter":"thecumby","address":"James St","lat":54.97542227688025,"lng":-1.5892580150591515,"neighborhood":"Byker","city_fetched":"Newcastle","country":"United Kingdom","canonicalUrl":"https://foursquare.com/v/the-cumberland-arms/4b69fafdf964a52088bf2be3","category":"Pub","checkinsCount":868,"usersCount":448,"tipCount":16,"visitsCount":1060,"url":"http://www.thecumberlandarms.co.uk","tier":"","message":"","currency":"","rating":8.1},{"name":"Bierrex","phone":"+441914477720","twitter":"bierrex","address":"82 Pilgrim St.","lat":54.97212415383311,"lng":-1.6105043611876444,"neighborhood":"Grainger Town","city_fetched":"Newcastle","state":"Newcastle upon Tyne","country":"United Kingdom","canonicalUrl":"https://foursquare.com/v/bierrex/541db316498ef421d5018b7a","category":"BBQ Joint","checkinsCount":372,"usersCount":177,"tipCount":6,"visitsCount":417,"url":"http://bierrex.gustouk.com","tier":"","message":"","currency":"","rating":8},{"name":"The Brandling Arms","phone":"+441912854023","address":"High St, Gosforth","lat":55.00605254918721,"lng":-1.6197651513258944,"neighborhood":"Gosforth","city_fetched":"Newcastle","country":"United Kingdom","canonicalUrl":"https://foursquare.com/v/the-brandling-arms/4bc34b1a461576b04a677e32","category":"Pub","checkinsCount":798,"usersCount":350,"tipCount":14,"visitsCount":913,"url":"http://www.thebrandlingarmsgosforth.co.uk","tier":"","message":"","currency":"","rating":7.9},{"name":"As You Like It","phone":"+441912812277","twitter":"asyoulikeitjesmond","address":"Archbold Terrace","lat":54.981130840506005,"lng":-1.6054067015647888,"city_fetched":"Newcastle","country":"United Kingdom","canonicalUrl":"https://foursquare.com/v/as-you-like-it/4bc6f9810050b7136fcdb73b","category":"Pub","checkinsCount":1035,"usersCount":653,"tipCount":21,"visitsCount":1178,"url":"http://www.asyoulikeitjesmond.com","tier":"","message":"","currency":"","rating":7.9},{"name":"Opera Piano Bar & Lounge","address":"The Gate","lat":54.97237199979582,"lng":-1.6174650440483498,"neighborhood":"Chinatown","city_fetched":"Newcastle","country":"United Kingdom","canonicalUrl":"https://foursquare.com/v/opera-piano-bar--lounge/4b631e80f964a52066642ae3","category":"Lounge","checkinsCount":233,"usersCount":111,"tipCount":8,"visitsCount":233,"tier":"","message":"","currency":"","rating":7.9},{"name":"Nancy's Bordello","phone":"+441912602929","address":"13 Argyle St.","lat":54.973137,"lng":-1.603521,"city_fetched":"Newcastle","state":"Newcastle upon Tyne","country":"United Kingdom","canonicalUrl":"https://foursquare.com/v/nancys-bordello/4ad08a1df964a52061d820e3","category":"Bar","checkinsCount":866,"usersCount":424,"tipCount":11,"visitsCount":922,"url":"http://www.nancysbordello.com","tier":"","message":"","currency":"","rating":7.8},{"name":"dAt bAr","phone":"+441912442513","twitter":"datbarnewcastle","address":"11 Market Street","lat":54.97303396162269,"lng":-1.6120585799217224,"neighborhood":"Grainger Town","city_fetched":"Newcastle","country":"United Kingdom","canonicalUrl":"https://foursquare.com/datbarnewcastle","category":"Bar","checkinsCount":538,"usersCount":251,"tipCount":11,"visitsCount":604,"url":"http://www.datbarnewcastle.co.uk","tier":2,"message":"Moderate","currency":"£","rating":7.8},{"name":"The Broad Chare","phone":"+441912112144","twitter":"_thebroadchare","address":"25 Broad Chare","lat":54.970018301429484,"lng":-1.604266112634047,"city_fetched":"Newcastle","country":"United Kingdom","canonicalUrl":"https://foursquare.com/v/the-broad-chare/4ddea78ad22d28453ec509ee","category":"Pub","checkinsCount":902,"usersCount":509,"tipCount":17,"visitsCount":1034,"url":"http://www.thebroadchare.co.uk","tier":"","message":"","currency":"","rating":7.7},{"name":"The Cluny 2","lat":54.975052964023185,"lng":-1.59186473332329,"city_fetched":"Newcastle","state":"Newcastle upon Tyne","country":"United Kingdom","canonicalUrl":"https://foursquare.com/v/the-cluny-2/4ddffd09c65bcc724f33a113","category":"Lounge","checkinsCount":84,"usersCount":61,"tipCount":0,"visitsCount":87,"tier":"","message":"","currency":"","rating":7.7},{"name":"Baltic Kitchen","phone":"+441914404926","address":"South Shore Rd","lat":54.969202,"lng":-1.598815,"city_fetched":"Newcastle","country":"United Kingdom","canonicalUrl":"https://foursquare.com/v/baltic-kitchen/4e47ed4fa809fb2fa3fe9d9e","category":"Café","checkinsCount":102,"usersCount":73,"tipCount":6,"visitsCount":102,"url":"http://www.balticmill.com/visit/baltic-kitchen","tier":"","message":"","currency":"","rating":7.7},{"name":"The Northumberland Hussar","phone":"+441912650275","address":"Sackville Rd","lat":54.990284473542125,"lng":-1.5774283173718033,"city_fetched":"Newcastle","state":"Newcastle upon Tyne","country":"United Kingdom","canonicalUrl":"https://foursquare.com/v/the-northumberland-hussar/4e4fa1e0ae6051db8dce2d03","category":"Pub","checkinsCount":196,"usersCount":104,"tipCount":7,"visitsCount":330,"tier":"","message":"","currency":"","rating":7.7},{"name":"The Head of Steam","phone":"+441912304236","twitter":"theheadofsteam","address":"2 Neville Street","lat":54.96952335331061,"lng":-1.61565142303045,"neighborhood":"Grainger Town","city_fetched":"Newcastle","country":"United Kingdom","canonicalUrl":"https://foursquare.com/v/the-head-of-steam/4c1b502001379521c1da46f3","category":"Bar","checkinsCount":720,"usersCount":393,"tipCount":8,"visitsCount":736,"tier":"","message":"","currency":"","rating":7.7},{"name":"The County","phone":"+441912856919","address":"50-68 High St","lat":55.00362574045002,"lng":-1.6200622916221619,"city_fetched":"Newcastle","country":"United Kingdom","canonicalUrl":"https://foursquare.com/v/the-county/4bec6d8d49430f470cb507d2","category":"Pub","checkinsCount":748,"usersCount":190,"tipCount":7,"visitsCount":882,"tier":"","message":"","currency":"","rating":7.6},{"name":"The Strawberry","phone":"+441912326865","twitter":"theberrypub","address":"7-8 Strawberry Place","lat":54.97474039774607,"lng":-1.6197573730006647,"city_fetched":"Newcastle","country":"United Kingdom","canonicalUrl":"https://foursquare.com/v/the-strawberry/4b6dd2eaf964a5204a932ce3","category":"Pub","checkinsCount":1122,"usersCount":590,"tipCount":13,"visitsCount":1404,"url":"http://thestrawberrypub.typepad.com","tier":"","message":"","currency":"","rating":7.6},{"name":"Pitcher & Piano","phone":"+441912324110","twitter":"pitcherandpiano","address":"108 Quayside","lat":54.9704952693132,"lng":-1.599411964416504,"neighborhood":"Quayside","city_fetched":"Newcastle","country":"United Kingdom","canonicalUrl":"https://foursquare.com/v/pitcher--piano/4ba27df5f964a520f8fd37e3","category":"Bar","checkinsCount":2914,"usersCount":1893,"tipCount":32,"visitsCount":3242,"url":"http://www.pitcherandpiano.com/where-are-we/newcastle","tier":2,"message":"Moderate","currency":"£","rating":7.6},{"name":"Boulevard","phone":"+441912507068","address":"3-9 Churchill St","lat":54.96733457962144,"lng":-1.6228369915486724,"city_fetched":"Newcastle","country":"United Kingdom","canonicalUrl":"https://foursquare.com/v/boulevard/4cdafcdffc9737041c18cc05","category":"Other Nightlife","checkinsCount":209,"usersCount":107,"tipCount":2,"visitsCount":209,"url":"http://www.boulevardnewcastle.co.uk","tier":"","message":"","currency":"","rating":7.5},{"name":"The Bodega","phone":"+441912211552","twitter":"thebodega_sjf","address":"125 Westgate Rd.","lat":54.970593802511395,"lng":-1.6215133666992188,"neighborhood":"Grainger Town","city_fetched":"Newcastle","country":"United Kingdom","canonicalUrl":"https://foursquare.com/v/the-bodega/4c1b4d280137952146da46f3","category":"Pub","checkinsCount":888,"usersCount":349,"tipCount":10,"visitsCount":984,"tier":"","message":"","currency":"","rating":7.5},{"name":"Lola Jeans","lat":54.973163731761296,"lng":-1.6113440257556197,"neighborhood":"Grainger Town","city_fetched":"Newcastle","country":"United Kingdom","canonicalUrl":"https://foursquare.com/v/lola-jeans/54651688498eea2399f6060b","category":"Bar","checkinsCount":120,"usersCount":78,"tipCount":4,"visitsCount":125,"tier":"","message":"","currency":"","rating":7.5},{"name":"The High Main (Wetherspoon)","twitter":"jdwtweet","address":"63 Shields Rd","lat":54.97690240349991,"lng":-1.584234174484805,"city_fetched":"Newcastle","country":"United Kingdom","canonicalUrl":"https://foursquare.com/v/the-high-main-wetherspoon/5263c89a11d2f11e9e47ca9f","category":"Pub","checkinsCount":264,"usersCount":81,"tipCount":6,"visitsCount":293,"url":"http://www.jdwetherspoon.co.uk","tier":"","message":"","currency":"","rating":7.5},{"name":"The Forth Hotel","phone":"+441912326478","twitter":"theforthhotel","address":"Pink Ln","lat":54.96958258037107,"lng":-1.6184458489885856,"neighborhood":"Grainger Town","city_fetched":"Newcastle","country":"United Kingdom","canonicalUrl":"https://foursquare.com/v/the-forth-hotel/4b3d30ddf964a520e98f25e3","category":"Pub","checkinsCount":2560,"usersCount":903,"tipCount":42,"visitsCount":2644,"url":"http://www.theforthnewcastle.co.uk","tier":"","message":"","currency":"","rating":7.5},{"name":"Vineyard","lat":54.9708451625,"lng":-1.610626,"neighborhood":"Grainger Town","city_fetched":"Newcastle","country":"United Kingdom","canonicalUrl":"https://foursquare.com/v/vineyard/4b5e0102f964a520aa7829e3","category":"Wine Bar","checkinsCount":422,"usersCount":210,"tipCount":2,"visitsCount":429,"tier":"","message":"","currency":"","rating":7.5},{"name":"The Falcon's Nest","phone":"+441912367078","address":"Rotary Way","lat":55.03578409086288,"lng":-1.6253727696950238,"city_fetched":"Newcastle","country":"United Kingdom","canonicalUrl":"https://foursquare.com/v/the-falcons-nest/4b64341cf964a520eca32ae3","category":"Pub","checkinsCount":466,"usersCount":287,"tipCount":11,"visitsCount":709,"url":"http://www.vintageinn.co.uk/thefalconsnestgosforthpark/","tier":"","message":"","currency":"","rating":7.5},{"name":"Raffertys","phone":"+441912323269","address":"29 Pink Lane","lat":54.969632,"lng":-1.618898,"neighborhood":"Grainger Town","city_fetched":"Newcastle","country":"United Kingdom","canonicalUrl":"https://foursquare.com/v/raffertys/4be2fd4921d5a59380de1711","category":"Pub","checkinsCount":326,"usersCount":116,"tipCount":6,"visitsCount":329,"tier":"","message":"","currency":"","rating":7.4},{"name":"Shark Club Gastro Bar","phone":"+441912292615","twitter":"sharkclubuk","address":"Heber St","lat":54.97367284314439,"lng":-1.6217494010925293,"city_fetched":"Newcastle","country":"United Kingdom","canonicalUrl":"https://foursquare.com/v/shark-club-gastro-bar/4decb8bfb3ad083a33d7ab41","category":"Gastropub","checkinsCount":2917,"usersCount":1022,"tipCount":29,"visitsCount":3347,"url":"http://www.sharkclubs.co.uk","tier":4,"message":"Very Expensive","currency":"£","rating":7.4},{"name":"Newcastle University Students' Union","phone":"+441912393900","address":"King's Rd","lat":54.97895847436654,"lng":-1.615086483958521,"city_fetched":"Newcastle","country":"United Kingdom","canonicalUrl":"https://foursquare.com/v/newcastle-university-students-union/4b5f5420f964a5204fb429e3","category":"Student Center","checkinsCount":1934,"usersCount":489,"tipCount":9,"visitsCount":2078,"url":"http://www.nusu.co.uk","tier":"","message":"","currency":"","rating":7.3},{"name":"No 28","phone":"+441912323919","twitter":"no28_tweets","address":"27-29 Nelson St","lat":54.97339868142605,"lng":-1.6147278939883418,"neighborhood":"Grainger Town","city_fetched":"Newcastle","country":"United Kingdom","canonicalUrl":"https://foursquare.com/v/no-28/4ddfe03dc65bb5e319dce12e","category":"Bar","checkinsCount":412,"usersCount":226,"tipCount":4,"visitsCount":421,"url":"http://www.no28.co.uk","tier":"","message":"","currency":"","rating":7.3},{"name":"Livello","phone":"+441912333733","twitter":"barlivello","address":"Lower Dean St.","lat":54.96953215507651,"lng":-1.6092448307662075,"city_fetched":"Newcastle","state":"Newcastle upon Tyne","country":"United Kingdom","canonicalUrl":"https://foursquare.com/v/livello/509173abe4b045f756e07664","category":"Cocktail Bar","checkinsCount":304,"usersCount":222,"tipCount":8,"visitsCount":309,"url":"http://www.barlivello.co.uk","tier":"","message":"","currency":"","rating":7.3},{"name":"Trent House","phone":"+441912612154","twitter":"thetrent1861","address":"1-2 Leazes Ln","lat":54.97711486674121,"lng":-1.6183693645709956,"city_fetched":"Newcastle","state":"Newcastle upon Tyne","country":"United Kingdom","canonicalUrl":"https://foursquare.com/v/trent-house/4bd1e93d462cb713ba29db07","category":"Pub","checkinsCount":653,"usersCount":279,"tipCount":14,"visitsCount":727,"tier":"","message":"","currency":"","rating":7.3},{"name":"The Telegraph","phone":"+441912618991","twitter":"thetelegraphncl","address":"Orchard St","lat":54.96822012615889,"lng":-1.614336390979008,"city_fetched":"Newcastle","state":"Newcastle upon Tyne","country":"United Kingdom","canonicalUrl":"https://foursquare.com/v/the-telegraph/4bae2afef964a520c68c3be3","category":"Pub","checkinsCount":505,"usersCount":225,"tipCount":8,"visitsCount":506,"url":"http://thetelegraphnewcastle.co.uk","tier":"","message":"","currency":"","rating":7.2},{"name":"The Bascule","phone":"+447828678684","address":"Unit 1 St Peters Marina","lat":54.96579178582442,"lng":-1.5740887974211581,"neighborhood":"Byker","city_fetched":"Newcastle","state":"Newcastle upon Tyne","country":"United Kingdom","canonicalUrl":"https://foursquare.com/v/the-bascule/4b796824f964a520e0f72ee3","category":"Bistro","checkinsCount":92,"usersCount":46,"tipCount":5,"visitsCount":99,"tier":"","message":"","currency":"","rating":7.2},{"name":"The Slug and Lettuce","phone":"+441912617196","twitter":"slugncl","address":"Exchange Buildings, Quayside","lat":54.96879274519204,"lng":-1.6057288992974075,"city_fetched":"Newcastle","country":"United Kingdom","canonicalUrl":"https://foursquare.com/v/the-slug-and-lettuce/4bcc440968f976b0b4436283","category":"Gastropub","checkinsCount":1054,"usersCount":704,"tipCount":12,"visitsCount":1150,"url":"http://www.slugandlettuce.co.uk/slug-newcastle/","tier":"","message":"","currency":"","rating":7.2},{"name":"The Big Lamp Brewery","address":"Grange Road","lat":54.98450696468353,"lng":-1.752102,"neighborhood":"Newburn","city_fetched":"Newcastle","state":"Newcastle upon Tyne","country":"United Kingdom","canonicalUrl":"https://foursquare.com/v/the-big-lamp-brewery/4d5bf24a9895b1f729eadf0f","category":"Brewery","checkinsCount":122,"usersCount":71,"tipCount":5,"visitsCount":125,"url":"http://www.petersen-stainless.co.uk/blb/brewery.html","tier":"","message":"","currency":"","rating":7.2},{"name":"The Charles Grey","phone":"+441912615587","address":"118 Grey Street","lat":54.974041814566334,"lng":-1.6132378027428962,"neighborhood":"Grainger Town","city_fetched":"Newcastle","state":"Newcastle upon Tyne","country":"United Kingdom","canonicalUrl":"https://foursquare.com/v/the-charles-grey/4bb0df6af964a5204c653ce3","category":"Pub","checkinsCount":795,"usersCount":447,"tipCount":3,"visitsCount":802,"tier":"","message":"","currency":"","rating":7.2},{"name":"The Hancock","phone":"+441912815653","address":"2A Hancock St","lat":54.979854,"lng":-1.611219,"city_fetched":"Newcastle","country":"United Kingdom","canonicalUrl":"https://foursquare.com/v/the-hancock/4bc893830050b71378a2ba3b","category":"Pub","checkinsCount":1196,"usersCount":598,"tipCount":10,"visitsCount":1445,"url":"http://www.thehancocknewcastle.co.uk","tier":1,"message":"Cheap","currency":"£","rating":7.2},{"name":"The Quayside (Lloyd's No. 1 Bar)","phone":"+441912111050","address":"35-37 The Close","lat":54.9673977021771,"lng":-1.6100351672357325,"city_fetched":"Newcastle","country":"United Kingdom","canonicalUrl":"https://foursquare.com/v/the-quayside-lloyds-no-1-bar/4c87ab95821e9eb080cd8d89","category":"Pub","checkinsCount":1398,"usersCount":1047,"tipCount":19,"visitsCount":1853,"url":"http://www.jdwetherspoon.co.uk","tier":"","message":"","currency":"","rating":7.1},{"name":"Revolution","phone":"+441912618901","twitter":"revolutionbars","address":"Collingwood St","lat":54.9699286987324,"lng":-1.6139602661132812,"neighborhood":"Grainger Town","city_fetched":"Newcastle","country":"United Kingdom","canonicalUrl":"https://foursquare.com/v/revolution/4b69e6b0f964a5200ebb2be3","category":"Cocktail Bar","checkinsCount":1586,"usersCount":1012,"tipCount":15,"visitsCount":1686,"url":"http://www.revolution-bars.co.uk","tier":"","message":"","currency":"","rating":7.1},{"name":"Jazz Cafe","phone":"+441912326505","address":"23-25 Pink Lane","lat":54.96953445913262,"lng":-1.6184673047211249,"neighborhood":"Grainger Town","city_fetched":"Newcastle","country":"United Kingdom","canonicalUrl":"https://foursquare.com/v/jazz-cafe/4c602762cd522d7f437acd3f","category":"Jazz Club","checkinsCount":196,"usersCount":118,"tipCount":8,"visitsCount":196,"tier":"","message":"","currency":"","rating":7.1},{"name":"Trillians Rock Bar","lat":54.974887046129346,"lng":-1.6107960030414135,"city_fetched":"Newcastle","country":"United Kingdom","canonicalUrl":"https://foursquare.com/v/trillians-rock-bar/4b62d5fbf964a520b3542ae3","category":"Music Venue","checkinsCount":468,"usersCount":254,"tipCount":12,"visitsCount":472,"tier":"","message":"","currency":"","rating":7.1},{"name":"Pacific House","phone":"+441912450440","twitter":"pacifichousebar","address":"12-22 Northumberland Rd","lat":54.976899424399036,"lng":-1.6115355491638184,"city_fetched":"Newcastle","state":"Newcastle upon Tyne","country":"United Kingdom","canonicalUrl":"https://foursquare.com/pacifichousebar","category":"Bar","checkinsCount":400,"usersCount":171,"tipCount":6,"visitsCount":415,"url":"http://www.pacifichouse.co.uk","tier":"","message":"","currency":"","rating":7.1},{"name":"Hop & Cleaver","phone":"+441912611037","address":"40 Sandhill","lat":54.96871661586186,"lng":-1.6081204859463798,"neighborhood":"Newcastle upon Tyne","city_fetched":"Newcastle","country":"United Kingdom","canonicalUrl":"https://foursquare.com/v/hop--cleaver/53d28f1a498e70dcd48d305f","category":"Burger Joint","checkinsCount":231,"usersCount":140,"tipCount":11,"visitsCount":243,"url":"http://www.hopandcleaver.com","tier":"","message":"","currency":"","rating":7.1},{"name":"The Five Swans (Wetherspoon)","phone":"+441912111140","twitter":"jdwtweet","address":"14 St. Mary's Place","lat":54.97786492938945,"lng":-1.6116457873988377,"city_fetched":"Newcastle","country":"United Kingdom","canonicalUrl":"https://foursquare.com/v/the-five-swans-wetherspoon/4d8dc0ccd4ec8cfad9156189","category":"Pub","checkinsCount":2255,"usersCount":1043,"tipCount":24,"visitsCount":2681,"url":"http://www.jdwetherspoon.co.uk","tier":2,"message":"Moderate","currency":"£","rating":7},{"name":"The Skiff Inn","address":"Metro Riverside","lat":54.963229396278564,"lng":-1.6826675609304058,"city_fetched":"Newcastle","country":"United Kingdom","canonicalUrl":"https://foursquare.com/v/the-skiff-inn/4bd02b8acaff9521a54dcef0","category":"Pub","checkinsCount":135,"usersCount":81,"tipCount":5,"visitsCount":138,"tier":"","message":"","currency":"","rating":7},{"name":"Fardows Café & Shisha Lounge","address":"498A Westgate Rd","lat":54.97514,"lng":-1.649861,"neighborhood":"Wingrove","city_fetched":"Newcastle","state":"Newcastle upon Tyne","country":"United Kingdom","canonicalUrl":"https://foursquare.com/v/fardows-caf%C3%A9--shisha-lounge/4fda79a4e4b02b4ce2d1a879","category":"Café","checkinsCount":178,"usersCount":109,"tipCount":2,"visitsCount":267,"tier":"","message":"","currency":"","rating":7},{"name":"The Ware Rooms","address":"17 Carliol Square","lat":54.97333582117584,"lng":-1.6083410471805255,"city_fetched":"Newcastle","state":"Newcastle upon Tyne","country":"United Kingdom","canonicalUrl":"https://foursquare.com/v/the-ware-rooms/4d94e03bb550a09342a99087","category":"Pub","checkinsCount":711,"usersCount":184,"tipCount":5,"visitsCount":721,"url":"http://www.euro-hostels.co.uk","tier":"","message":"","currency":"","rating":7},{"name":"The Tanners Arms","phone":"+441912221817","twitter":"tannersbeerbar","address":"1 Byker Bridge","lat":54.97476199724441,"lng":-1.5965299308300018,"city_fetched":"Newcastle","state":"Newcastle upon Tyne","country":"United Kingdom","canonicalUrl":"https://foursquare.com/tannersbeerbar","category":"Pub","checkinsCount":244,"usersCount":154,"tipCount":5,"visitsCount":257,"url":"http://www.thetannersarms.co.uk","tier":"","message":"","currency":"","rating":7},{"name":"The New Bridge","phone":"+441912321020","address":"2-4 Argyle St","lat":54.97432241929156,"lng":-1.603669208212269,"city_fetched":"Newcastle","country":"United Kingdom","canonicalUrl":"https://foursquare.com/v/the-new-bridge/4b50ae19f964a520222d27e3","category":"Pub","checkinsCount":334,"usersCount":125,"tipCount":6,"visitsCount":340,"url":"http://www.thenewbridgenewcastle.co.uk","tier":"","message":"","currency":"","rating":7},{"name":"The Silk Room","address":"Pandon","lat":54.970602033933865,"lng":-1.6049631659160049,"city_fetched":"Newcastle","state":"Newcastle upon Tyne","country":"United Kingdom","canonicalUrl":"https://foursquare.com/v/the-silk-room/4ca4ca737f84224b5461d058","category":"Bar","checkinsCount":55,"usersCount":50,"tipCount":5,"visitsCount":55,"url":"http://www.silkroom.co.uk","tier":"","message":"","currency":"","rating":7},{"name":"The Victoria Comet","lat":54.969267,"lng":-1.617156,"neighborhood":"Grainger Town","city_fetched":"Newcastle","country":"United Kingdom","canonicalUrl":"https://foursquare.com/v/the-victoria-comet/5490b145498ecba4999f5710","category":"Bar","checkinsCount":122,"usersCount":75,"tipCount":2,"visitsCount":123,"tier":"","message":"","currency":"","rating":6.9},{"name":"Oasis","phone":"+441912211094","address":"50 Clayton St West","lat":54.96864772708791,"lng":-1.6205477714538574,"neighborhood":"Grainger Town","city_fetched":"Newcastle","state":"Newcastle upon Tyne","country":"United Kingdom","canonicalUrl":"https://foursquare.com/v/oasis/4b9ba452f964a520ed1536e3","category":"Hookah Bar","checkinsCount":334,"usersCount":184,"tipCount":6,"visitsCount":366,"tier":"","message":"","currency":"","rating":6.9},{"name":"Surtees Hotel","address":"Dean St.","lat":54.969997342800156,"lng":-1.609491112414919,"city_fetched":"Newcastle","country":"United Kingdom","canonicalUrl":"https://foursquare.com/v/surtees-hotel/4bcf4da30ffdce72cc5eb2c0","category":"Hotel","checkinsCount":123,"usersCount":77,"tipCount":2,"visitsCount":125,"tier":"","message":"","currency":"","rating":6.9},{"name":"The Hotspur","phone":"+441912324352","twitter":"thehotspur103","address":"103 Percy St","lat":54.977029591767966,"lng":-1.6149400058790697,"neighborhood":"Grainger Town","city_fetched":"Newcastle","state":"Newcastle upon Tyne","country":"United Kingdom","canonicalUrl":"https://foursquare.com/v/the-hotspur/4cdecaababa88cfa4b4e44d7","category":"Pub","checkinsCount":411,"usersCount":144,"tipCount":10,"visitsCount":412,"url":"http://www.leopardleisure.com/hotspur.html","tier":"","message":"","currency":"","rating":6.9}]