[{"name":"Urban Tap House Newport","twitter":"urbantapnewport","address":"22 High St","lat":51.5889763034746,"lng":-2.9970379864024053,"city_fetched":"Newport,UK","state":"Gwent","country":"United Kingdom","canonicalUrl":"https://foursquare.com/v/urban-tap-house-newport/55521ea3498ed60d70862cdf","categoryId":"4bf58dd8d48988d116941735","category":"Bar","checkinsCount":594,"usersCount":95,"tipCount":9,"visitsCount":665,"url":"http://www.urbantaphouse.co.uk","tier":"","message":"","currency":"","rating":8.1},{"name":"The Wheatsheaf","lat":51.630117,"lng":-2.93584,"city_fetched":"Newport,UK","state":"Monmouthshire","country":"United Kingdom","canonicalUrl":"https://foursquare.com/v/the-wheatsheaf/4c4c25d246240f4783505df4","categoryId":"4bf58dd8d48988d11b941735","category":"Pub","checkinsCount":46,"usersCount":26,"tipCount":3,"visitsCount":52,"tier":"","message":"","currency":"","rating":7.9},{"name":"The Pen & Wig","phone":"+441633666818","twitter":"thepenandwig","address":"22-24 Stow Hill","lat":51.587199761207685,"lng":-2.9971057176589966,"city_fetched":"Newport,UK","state":"Gwent","country":"United Kingdom","canonicalUrl":"https://foursquare.com/v/the-pen--wig/4cc5b34a8062468803d23d2f","categoryId":"4bf58dd8d48988d11b941735","category":"Pub","checkinsCount":998,"usersCount":141,"tipCount":11,"visitsCount":1088,"url":"http://jwbassettpubs.com/the-pen-wig/","tier":"","message":"","currency":"","rating":7.5},{"name":"The Hanbury Arms","address":"51.608423, -2.952007","lat":51.60839756312325,"lng":-2.951889188536894,"city_fetched":"Newport,UK","state":"Gwent","country":"United Kingdom","canonicalUrl":"https://foursquare.com/v/the-hanbury-arms/4b8d39c6f964a52074ee32e3","categoryId":"4bf58dd8d48988d11b941735","category":"Pub","checkinsCount":252,"usersCount":139,"tipCount":2,"visitsCount":294,"tier":"","message":"","currency":"","rating":7.4},{"name":"Ye Olde Murenger","phone":"+441633263977","address":"52-53 High St.","lat":51.58925113998177,"lng":-2.997128535293447,"city_fetched":"Newport,UK","country":"United Kingdom","canonicalUrl":"https://foursquare.com/v/ye-olde-murenger/4b472fb1f964a520892c26e3","categoryId":"4bf58dd8d48988d11b941735","category":"Pub","checkinsCount":686,"usersCount":153,"tipCount":12,"visitsCount":712,"tier":"","message":"","currency":"","rating":7.3},{"name":"The Queen's Hotel (Wetherspoon)","phone":"+441633844900","address":"19 Bridge St","lat":51.587816368587546,"lng":-2.998344898223877,"city_fetched":"Newport,UK","country":"United Kingdom","canonicalUrl":"https://foursquare.com/v/the-queens-hotel-wetherspoon/4c87ab9a821e9eb083cd8d89","categoryId":"4bf58dd8d48988d11b941735","category":"Pub","checkinsCount":1428,"usersCount":457,"tipCount":7,"visitsCount":1550,"url":"http://www.jdwetherspoon.co.uk","tier":1,"message":"Cheap","currency":"Â£","rating":7.2},{"name":"Merlins","phone":"+441633413000","twitter":"thecelticmanor","address":"Celtic Manor Resort","lat":51.60292842757711,"lng":-2.931803704082688,"city_fetched":"Newport,UK","state":"Monmouthshire","country":"United Kingdom","canonicalUrl":"https://foursquare.com/v/merlins/4c6961333bad2d7f36a5afee","categoryId":"4bf58dd8d48988d1d5941735","category":"Hotel Bar","checkinsCount":444,"usersCount":154,"tipCount":4,"visitsCount":446,"url":"http://www.http://www.celtic-manor.com","tier":"","message":"","currency":"","rating":7.1},{"name":"Man Of Gwent","lat":51.594174,"lng":-2.944989,"city_fetched":"Newport,UK","country":"United Kingdom","canonicalUrl":"https://foursquare.com/v/man-of-gwent/4c17ca824ff90f47de720d49","categoryId":"4bf58dd8d48988d11b941735","category":"Pub","checkinsCount":146,"usersCount":102,"tipCount":3,"visitsCount":267,"tier":"","message":"","currency":"","rating":7.1},{"name":"Le Pub","address":"Caxton Place","lat":51.587346,"lng":-2.999712824821472,"city_fetched":"Newport,UK","state":"Monmouthshire","country":"United Kingdom","canonicalUrl":"https://foursquare.com/v/le-pub/4bf82a345efe2d7fbb446a34","categoryId":"4bf58dd8d48988d11b941735","category":"Pub","checkinsCount":211,"usersCount":120,"tipCount":2,"visitsCount":216,"tier":"","message":"","currency":"","rating":6.6},{"name":"The Lamb","phone":"+441633255200","twitter":"thelambnewport","address":"6 Bridge St","lat":51.58782970054659,"lng":-2.9975509643554683,"city_fetched":"Newport,UK","state":"Gwent","country":"United Kingdom","canonicalUrl":"https://foursquare.com/v/the-lamb/4ce91221948f224b703cf45d","categoryId":"4bf58dd8d48988d11b941735","category":"Pub","checkinsCount":556,"usersCount":73,"tipCount":10,"visitsCount":568,"url":"http://www.thelambnewport.com","tier":"","message":"","currency":"","rating":6.5},{"name":"The Parkway Hotel","lat":51.63191353031299,"lng":-3.017405398726089,"city_fetched":"Newport,UK","state":"Torfaen County Borough","country":"United Kingdom","canonicalUrl":"https://foursquare.com/v/the-parkway-hotel/4bbf636f85fbb7138e187267","categoryId":"4bf58dd8d48988d1d5941735","category":"Hotel Bar","checkinsCount":339,"usersCount":140,"tipCount":7,"visitsCount":388,"tier":"","message":"","currency":"","rating":6.4},{"name":"The Tredegar Arms","phone":"+441633893247","address":"4 Caerphilly Road, Bassaleg","lat":51.57757628904195,"lng":-3.045022106802898,"city_fetched":"Newport,UK","state":"Gwent","country":"United Kingdom","canonicalUrl":"https://foursquare.com/v/the-tredegar-arms/4bc89a982f94d13a54f1137f","categoryId":"4bf58dd8d48988d11b941735","category":"Pub","checkinsCount":313,"usersCount":128,"tipCount":6,"visitsCount":328,"tier":"","message":"","currency":"","rating":6.3},{"name":"Carpenters Arms","address":"9 High Street","lat":51.589689470491784,"lng":-2.9968214035034175,"city_fetched":"Newport,UK","state":"Gwent","country":"United Kingdom","canonicalUrl":"https://foursquare.com/v/carpenters-arms/4cd81e22a42b236a1bdafd08","categoryId":"4bf58dd8d48988d11b941735","category":"Pub","checkinsCount":148,"usersCount":53,"tipCount":5,"visitsCount":148,"tier":"","message":"","currency":"","rating":6.2},{"name":"The Tom Toya Lewis (Wetherspoon)","phone":"+441633245030","address":"108-112 Commercial St","lat":51.58342994168768,"lng":-2.993302345275879,"city_fetched":"Newport,UK","state":"Gwent","country":"United Kingdom","canonicalUrl":"https://foursquare.com/v/the-tom-toya-lewis-wetherspoon/4b7fbdd1f964a520c23b30e3","categoryId":"4bf58dd8d48988d11b941735","category":"Pub","checkinsCount":884,"usersCount":231,"tipCount":14,"visitsCount":1005,"url":"http://www.jdwetherspoon.co.uk","tier":"","message":"","currency":"","rating":6},{"name":"The Godfrey Morgan (Wetherspoon)","phone":"+441633221928","address":"158 Chepstow Rd","lat":51.58961453841907,"lng":-2.978032524905897,"city_fetched":"Newport,UK","state":"Gwent","country":"United Kingdom","canonicalUrl":"https://foursquare.com/v/the-godfrey-morgan-wetherspoon/4c5da2167f661b8db3e04b1c","categoryId":"4bf58dd8d48988d11b941735","category":"Pub","checkinsCount":1506,"usersCount":178,"tipCount":12,"visitsCount":1653,"url":"http://www.jdwetherspoon.co.uk","tier":"","message":"","currency":"","rating":6},{"name":"The Dragonfly","phone":"+441633810611","address":"Hazell Drive","lat":51.559551888864036,"lng":-3.0362130950700634,"city_fetched":"Newport,UK","state":"Gwent","country":"United Kingdom","canonicalUrl":"https://foursquare.com/v/the-dragonfly/4bd178d4caff95214ab0d0f0","categoryId":"4bf58dd8d48988d11b941735","category":"Pub","checkinsCount":598,"usersCount":278,"tipCount":9,"visitsCount":711,"tier":"","message":"","currency":"","rating":5.9},{"name":"The John Wallace Linton (Wetherspoon)","phone":"+441633251752","address":"Units 10-12, Cambrian Rd","lat":51.588882912947206,"lng":-2.9981517791748047,"city_fetched":"Newport,UK","country":"United Kingdom","canonicalUrl":"https://foursquare.com/v/the-john-wallace-linton-wetherspoon/4bd1cb60b221c9b62a2dd6d0","categoryId":"4bf58dd8d48988d11b941735","category":"Pub","checkinsCount":1539,"usersCount":297,"tipCount":4,"visitsCount":1607,"url":"http://www.jdwetherspoon.co.uk","tier":"","message":"","currency":"","rating":5.9},{"name":"The Coldra (Beefeater)","phone":"+441633411390","twitter":"beefeatergrill","address":"Chepstow Rd","lat":51.6025324694524,"lng":-2.922792434692383,"city_fetched":"Newport,UK","state":"Gwent","country":"United Kingdom","canonicalUrl":"https://foursquare.com/v/the-coldra-beefeater/4bad215ef964a520be303be3","categoryId":"4bf58dd8d48988d11b941735","category":"Pub","checkinsCount":281,"usersCount":175,"tipCount":6,"visitsCount":281,"url":"http://www.beefeater.co.uk","tier":"","message":"","currency":"","rating":5.7}]