[{"name":"The Beech Tree","phone":"+441482654350","address":"Southella Way","lat":53.748647354261514,"lng":-0.4412877559661865,"city_fetched":"North Ferriby,UK","state":"East Yorkshire","country":"United Kingdom","canonicalUrl":"https://foursquare.com/v/the-beech-tree/4bf53f1c6a31d13ac29e962e","categoryId":"4bf58dd8d48988d11b941735","category":"Pub","checkinsCount":279,"usersCount":129,"tipCount":5,"visitsCount":329,"tier":"","message":"","currency":"","rating":6.9},{"name":"The Country Park Inn","phone":"+441482640526","address":"Cliff Rd.","lat":53.71528864417676,"lng":-0.4541945457458496,"city_fetched":"North Ferriby,UK","state":"East Yorkshire","country":"United Kingdom","canonicalUrl":"https://foursquare.com/v/the-country-park-inn/4bac0699f964a52001df3ae3","categoryId":"4bf58dd8d48988d11b941735","category":"Pub","checkinsCount":316,"usersCount":186,"tipCount":9,"visitsCount":343,"tier":"","message":"","currency":"","rating":6.2},{"name":"Sandpiper","phone":"+441482632511","address":"Melton Park","lat":53.72256431823605,"lng":-0.5227518081665039,"city_fetched":"North Ferriby,UK","state":"Kingston upon Hull","country":"United Kingdom","canonicalUrl":"https://foursquare.com/v/sandpiper/4c6443f07f7be21ecb8ff90f","categoryId":"4bf58dd8d48988d11b941735","category":"Pub","checkinsCount":265,"usersCount":97,"tipCount":3,"visitsCount":318,"tier":"","message":"","currency":"","rating":6.2},{"name":"Duke of Cumberland","address":"High Street","lat":53.72301017206579,"lng":-0.5051555258900416,"city_fetched":"North Ferriby,UK","state":"East Yorkshire","country":"United Kingdom","canonicalUrl":"https://foursquare.com/v/duke-of-cumberland/4b93ce68f964a520a75234e3","categoryId":"4bf58dd8d48988d11b941735","category":"Pub","checkinsCount":261,"usersCount":93,"tipCount":5,"visitsCount":303,"tier":"","message":"","currency":"","rating":6.1},{"name":"Brewers Fayre","phone":"+441482645285","address":"Ferriby Rd.","lat":53.72813767426907,"lng":-0.44196367263793945,"city_fetched":"North Ferriby,UK","state":"Kingston upon Hull","country":"United Kingdom","canonicalUrl":"https://foursquare.com/v/brewers-fayre/4b643552f964a52024a42ae3","categoryId":"4bf58dd8d48988d11b941735","category":"Pub","checkinsCount":134,"usersCount":53,"tipCount":4,"visitsCount":134,"tier":"","message":"","currency":"","rating":5.8},{"name":"Darleys","phone":"+441482643121","address":"312 Boothferry Road","lat":53.732199791774875,"lng":-0.4369211196899414,"city_fetched":"North Ferriby,UK","state":"East Yorkshire","country":"United Kingdom","canonicalUrl":"https://foursquare.com/v/darleys/4bac087af964a5208edf3ae3","categoryId":"4bf58dd8d48988d11b941735","category":"Pub","checkinsCount":201,"usersCount":121,"tipCount":4,"visitsCount":274,"tier":"","message":"","currency":"","rating":5.3}]