[{"name":"The Kingfisher","phone":"+441606354720","address":"15 Kingsmead Sq.","lat":53.242927150374406,"lng":-2.518690824508667,"city_fetched":"Northwich","state":"Cheshire","country":"United Kingdom","canonicalUrl":"https://foursquare.com/v/the-kingfisher/4bd9bf520115c9b67e7f7880","category":"Pub","checkinsCount":829,"usersCount":161,"tipCount":6,"visitsCount":923,"tier":"","message":"","currency":"","rating":6.9},{"name":"The Woodpecker (Brewers Fayre)","phone":"+44160645524","twitter":"brewersfayre","address":"London Road","lat":53.24093036321979,"lng":-2.512221336364746,"city_fetched":"Northwich","state":"Cheshire","country":"United Kingdom","canonicalUrl":"https://foursquare.com/v/the-woodpecker-brewers-fayre/4beebec2e8c3c928ab0c9992","category":"Pub","checkinsCount":305,"usersCount":80,"tipCount":0,"visitsCount":312,"url":"http://www.brewersfayre.co.uk/pub-restaurant/Cheshire/Woodpecker-Northwich.html","tier":"","message":"","currency":"","rating":6.2},{"name":"The Penny Black (Wetherspoon)","phone":"+44160642029","address":"110 Witton St.","lat":53.262006,"lng":-2.5084774666666667,"city_fetched":"Northwich","state":"Cheshire","country":"United Kingdom","canonicalUrl":"https://foursquare.com/v/the-penny-black-wetherspoon/4c266342905a0f47dd366360","category":"Pub","checkinsCount":528,"usersCount":176,"tipCount":5,"visitsCount":595,"url":"http://www.jdwetherspoon.co.uk","tier":"","message":"","currency":"","rating":5.7}]