[{"name":"The Malt Shovel Tavern","phone":"+441604234212","address":"121 Bridge Street","lat":52.23304073430857,"lng":-0.8969147028346843,"city_fetched":"Northampton,UK","country":"United Kingdom","canonicalUrl":"https://foursquare.com/v/the-malt-shovel-tavern/4bb0fae0f964a520d76f3ce3","categoryId":"4bf58dd8d48988d11b941735","category":"Pub","checkinsCount":1357,"usersCount":163,"tipCount":10,"visitsCount":1394,"tier":"","message":"","currency":"","rating":8.7},{"name":"The Barley Mow","phone":"+441908562957","address":"7 The Stocks","lat":52.07592964703171,"lng":-0.8454368385078336,"city_fetched":"Northampton,UK","state":"Northamptonshire","country":"United Kingdom","canonicalUrl":"https://foursquare.com/v/the-barley-mow/4c83ae8a47cc224be50c919f","categoryId":"4bf58dd8d48988d11b941735","category":"Pub","checkinsCount":178,"usersCount":86,"tipCount":5,"visitsCount":292,"tier":"","message":"","currency":"","rating":8.6},{"name":"The Lamplighter","phone":"+441604631125","twitter":"thelamplighter1","address":"66 Overstone Rd","lat":52.241785,"lng":-0.890241,"city_fetched":"Northampton,UK","state":"Northamptonshire","country":"United Kingdom","canonicalUrl":"https://foursquare.com/v/the-lamplighter/4bcac2610687ef3b5aa6dccc","categoryId":"4bf58dd8d48988d11b941735","category":"Pub","checkinsCount":354,"usersCount":208,"tipCount":10,"visitsCount":452,"url":"http://www.thelamplighter.co.uk","tier":"","message":"","currency":"","rating":8.3},{"name":"The Princess Alexandra","phone":"+441604245485","address":"1 Alexandra Road","lat":52.23924255371094,"lng":-0.8878080248832703,"city_fetched":"Northampton,UK","country":"United Kingdom","canonicalUrl":"https://foursquare.com/v/the-princess-alexandra/53adc5b7498ee976141f811c","categoryId":"4bf58dd8d48988d11b941735","category":"Pub","checkinsCount":105,"usersCount":98,"tipCount":5,"visitsCount":190,"url":"http://www.theprincessalexandra.co.uk","tier":"","message":"","currency":"","rating":8.2},{"name":"Hart Family Brewers","phone":"+441933228324","twitter":"hartfamilybeer","address":"1833 Brewery - 21 Nene Court","lat":52.29680426152707,"lng":-0.6748339678104016,"city_fetched":"Northampton,UK","state":"Northamptonshire","country":"United Kingdom","canonicalUrl":"https://foursquare.com/hartfamilybeer","categoryId":"50327c8591d4c4b30a586d5d","category":"Brewery","checkinsCount":31,"usersCount":16,"tipCount":0,"visitsCount":32,"url":"http://www.hartfamilybrewers.com","tier":"","message":"","currency":"","rating":8.1},{"name":"The Victoria Inn","phone":"+441604633660","address":"2 Poole St","lat":52.245251,"lng":-0.892218,"city_fetched":"Northampton,UK","country":"United Kingdom","canonicalUrl":"https://foursquare.com/v/the-victoria-inn/4c9fa2a27ada199c7274a1bc","categoryId":"4bf58dd8d48988d11b941735","category":"Pub","checkinsCount":135,"usersCount":38,"tipCount":6,"visitsCount":185,"url":"http://www.valebrewery.co.uk/pubs/victoria.php","tier":"","message":"","currency":"","rating":8.1},{"name":"The Wig and Pen","phone":"+441604622178","address":"19 St Giles St","lat":52.237373,"lng":-0.893605,"city_fetched":"Northampton,UK","state":"Northamptonshire","country":"United Kingdom","canonicalUrl":"https://foursquare.com/v/the-wig-and-pen/4c20ebc88082d13a066ef82a","categoryId":"4bf58dd8d48988d11b941735","category":"Pub","checkinsCount":826,"usersCount":327,"tipCount":13,"visitsCount":974,"tier":"","message":"","currency":"","rating":8.1},{"name":"Queen Adelaide","phone":"+441604714524","address":"50 Manor Rd","lat":52.262504113243764,"lng":-0.9047870405937262,"neighborhood":"Kingsthorpe","city_fetched":"Northampton,UK","state":"Northamptonshire","country":"United Kingdom","canonicalUrl":"https://foursquare.com/v/queen-adelaide/50ca2342e4b0b9e8b3772af9","categoryId":"4bf58dd8d48988d11b941735","category":"Pub","checkinsCount":128,"usersCount":42,"tipCount":3,"visitsCount":190,"tier":"","message":"","currency":"","rating":8.1},{"name":"Pomfret Arms","phone":"+441604765544","twitter":"pomfretarms","address":"10 Cotton End","lat":52.23002134712725,"lng":-0.8966913048317035,"neighborhood":"Far Cotton","city_fetched":"Northampton,UK","state":"Northamptonshire","country":"United Kingdom","canonicalUrl":"https://foursquare.com/v/pomfret-arms/522b8ae611d2094ec1b7f971","categoryId":"4bf58dd8d48988d11b941735","category":"Pub","checkinsCount":74,"usersCount":49,"tipCount":2,"visitsCount":103,"tier":"","message":"","currency":"","rating":8},{"name":"The Sun Inn","phone":"+441604700007","address":"9 High St.","lat":52.21368543842461,"lng":-0.8796254967642406,"city_fetched":"Northampton,UK","state":"Northamptonshire","country":"United Kingdom","canonicalUrl":"https://foursquare.com/v/the-sun-inn/4bf64ea094b2a593403cadee","categoryId":"4bf58dd8d48988d116941735","category":"Bar","checkinsCount":378,"usersCount":114,"tipCount":3,"visitsCount":505,"tier":"","message":"","currency":"","rating":7.9},{"name":"Bar Hygge","twitter":"barhygge_nn1","address":"21 Guildhall Road","lat":52.236085344251,"lng":-0.8943078453996975,"neighborhood":"Derngate","city_fetched":"Northampton,UK","state":"Northamptonshire","country":"United Kingdom","canonicalUrl":"https://foursquare.com/v/bar-hygge/564b3757498e4bd55e7d5493","categoryId":"4bf58dd8d48988d116941735","category":"Bar","checkinsCount":60,"usersCount":37,"tipCount":4,"visitsCount":70,"url":"http://www.barhygge.co.uk","tier":"","message":"","currency":"","rating":7.8},{"name":"The Old White Hart","phone":"+441604709990","address":"Cotton End","lat":52.22944230480931,"lng":-0.8961367607116699,"neighborhood":"Delapre","city_fetched":"Northampton,UK","state":"Northamptonshire","country":"United Kingdom","canonicalUrl":"https://foursquare.com/v/the-old-white-hart/4cfaa7acc6cca35debae8732","categoryId":"4bf58dd8d48988d11b941735","category":"Pub","checkinsCount":316,"usersCount":137,"tipCount":3,"visitsCount":333,"url":"http://www.theoldwhitehartinn.com","tier":"","message":"","currency":"","rating":7.7},{"name":"County Tavern","phone":"+441604628935","address":"220 Abington Avenue","lat":52.249099646397795,"lng":-0.8725440502166748,"neighborhood":"Abington","city_fetched":"Northampton,UK","state":"Northamptonshire","country":"United Kingdom","canonicalUrl":"https://foursquare.com/v/county-tavern/4bc96aa1937ca593f0d4a592","categoryId":"4bf58dd8d48988d11b941735","category":"Pub","checkinsCount":162,"usersCount":44,"tipCount":3,"visitsCount":217,"tier":"","message":"","currency":"","rating":7.7},{"name":"The Picturedrome","phone":"+441604230777","address":"222 Kettering Rd","lat":52.24661667933148,"lng":-0.8821892738342285,"neighborhood":"Abington","city_fetched":"Northampton,UK","country":"United Kingdom","canonicalUrl":"https://foursquare.com/v/the-picturedrome/4b9ff65bf964a520f74d37e3","categoryId":"4bf58dd8d48988d116941735","category":"Bar","checkinsCount":554,"usersCount":260,"tipCount":11,"visitsCount":627,"tier":"","message":"","currency":"","rating":7.5},{"name":"The Squirrels Public House","phone":"+441604751930","address":"Main Road","lat":52.243410950209444,"lng":-0.9451675415039062,"city_fetched":"Northampton,UK","state":"Northamptonshire","country":"United Kingdom","canonicalUrl":"https://foursquare.com/v/the-squirrels-public-house/4bf561d66a31d13a9acc962e","categoryId":"4bf58dd8d48988d11b941735","category":"Pub","checkinsCount":92,"usersCount":54,"tipCount":1,"visitsCount":99,"tier":"","message":"","currency":"","rating":7.3},{"name":"The King Billy","phone":"+441604621325","address":"2 Commercial St","lat":52.23472585999174,"lng":-0.8973773981365734,"city_fetched":"Northampton,UK","state":"Northamptonshire","country":"United Kingdom","canonicalUrl":"https://foursquare.com/v/the-king-billy/4bca2f7e937ca5937b58a792","categoryId":"4bf58dd8d48988d11b941735","category":"Pub","checkinsCount":532,"usersCount":130,"tipCount":6,"visitsCount":545,"tier":"","message":"","currency":"","rating":7.3},{"name":"The Cordwainer (Wetherspoon)","phone":"+441604609000","address":"The Ridings","lat":52.23791658467601,"lng":-0.8927188516752077,"city_fetched":"Northampton,UK","state":"Northamptonshire","country":"United Kingdom","canonicalUrl":"https://foursquare.com/v/the-cordwainer-wetherspoon/4bdc20a963c5c9b65c792a68","categoryId":"4bf58dd8d48988d11b941735","category":"Pub","checkinsCount":785,"usersCount":290,"tipCount":5,"visitsCount":859,"url":"http://www.jdwetherspoon.co.uk","tier":"","message":"","currency":"","rating":7.2},{"name":"The Charles Bradlaugh","phone":"+441604473225","address":"1-7 Earl St","lat":52.241091907525394,"lng":-0.8929288387298584,"city_fetched":"Northampton,UK","state":"Northamptonshire","country":"United Kingdom","canonicalUrl":"https://foursquare.com/v/the-charles-bradlaugh/4ba78e44f964a520079d39e3","categoryId":"4bf58dd8d48988d11b941735","category":"Pub","checkinsCount":340,"usersCount":195,"tipCount":0,"visitsCount":389,"tier":"","message":"","currency":"","rating":7.2},{"name":"Olde England","phone":"+447717014001","address":"199 Kettering Road","lat":52.246221,"lng":-0.882649,"city_fetched":"Northampton,UK","state":"Northamptonshire","country":"United Kingdom","canonicalUrl":"https://foursquare.com/v/olde-england/4eac3cae4690ef1f6ca2795f","categoryId":"4bf58dd8d48988d11b941735","category":"Pub","checkinsCount":123,"usersCount":67,"tipCount":4,"visitsCount":132,"url":"http://www.theoldeengland.com","tier":"","message":"","currency":"","rating":7.1},{"name":"The Grange Inn","address":"Baines Way","lat":52.192426,"lng":-0.884314,"city_fetched":"Northampton,UK","state":"Northamptonshire","country":"United Kingdom","canonicalUrl":"https://foursquare.com/v/the-grange-inn/4cbb8fff558576b0630c4a0e","categoryId":"4bf58dd8d48988d11b941735","category":"Pub","checkinsCount":242,"usersCount":85,"tipCount":4,"visitsCount":409,"tier":"","message":"","currency":"","rating":7},{"name":"The Britannia","phone":"+441604630437","address":"Old Bedford Rd","lat":52.22808199958114,"lng":-0.8616167306900024,"neighborhood":"Brackmills","city_fetched":"Northampton,UK","state":"Northamptonshire","country":"United Kingdom","canonicalUrl":"https://foursquare.com/v/the-britannia/4ba4d02ef964a52052b738e3","categoryId":"4bf58dd8d48988d11b941735","category":"Pub","checkinsCount":403,"usersCount":306,"tipCount":8,"visitsCount":559,"tier":"","message":"","currency":"","rating":7},{"name":"The Overstone Manor","address":"Ectone lane Sywell","lat":52.28073279612113,"lng":-0.8012477789882098,"city_fetched":"Northampton,UK","state":"Northamptonshire","country":"United Kingdom","canonicalUrl":"https://foursquare.com/v/the-overstone-manor/4bd6addf637ba5933384f870","categoryId":"4bf58dd8d48988d11b941735","category":"Pub","checkinsCount":188,"usersCount":117,"tipCount":3,"visitsCount":336,"tier":"","message":"","currency":"","rating":6.9},{"name":"NB's","phone":"+441604622234","address":"25-29 Bridge St.","lat":52.235835838149974,"lng":-0.8970916271209717,"neighborhood":"Derngate","city_fetched":"Northampton,UK","state":"Northamptonshire","country":"United Kingdom","canonicalUrl":"https://foursquare.com/v/nbs/4c608526de6920a1452d9664","categoryId":"4bf58dd8d48988d116941735","category":"Bar","checkinsCount":439,"usersCount":198,"tipCount":3,"visitsCount":462,"url":"http://www.nbsbar.co.ukâ€Ž","tier":"","message":"","currency":"","rating":6.6},{"name":"Abington Pub","phone":"+441604631240","address":"170 Wellingborough Rd","lat":52.245881479923725,"lng":-0.8705620140359016,"neighborhood":"Abington","city_fetched":"Northampton,UK","country":"United Kingdom","canonicalUrl":"https://foursquare.com/v/abington-pub/4c0803eebbc676b0dede45d5","categoryId":"4bf58dd8d48988d11b941735","category":"Pub","checkinsCount":152,"usersCount":117,"tipCount":1,"visitsCount":197,"tier":"","message":"","currency":"","rating":6.6},{"name":"Cock Inn","phone":"+441604712874","address":"Harborough Road","lat":52.259617871463654,"lng":-0.9008359909057617,"neighborhood":"Kingsthorpe","city_fetched":"Northampton,UK","state":"Northamptonshire","country":"United Kingdom","canonicalUrl":"https://foursquare.com/v/cock-inn/4b8560cdf964a520055a31e3","categoryId":"4bf58dd8d48988d11b941735","category":"Pub","checkinsCount":343,"usersCount":107,"tipCount":1,"visitsCount":370,"tier":"","message":"","currency":"","rating":6.6},{"name":"Wolverton House","lat":52.06113247882925,"lng":-0.8392284182352214,"city_fetched":"Northampton,UK","country":"United Kingdom","canonicalUrl":"https://foursquare.com/v/wolverton-house/4c5da7d4d25320a1ac9ac67a","categoryId":"4bf58dd8d48988d11b941735","category":"Pub","checkinsCount":159,"usersCount":135,"tipCount":5,"visitsCount":221,"tier":"","message":"","currency":"","rating":6.5},{"name":"The Worlds End","phone":"+441604414521","address":"Northampton Rd","lat":52.266423997689024,"lng":-0.7905006408691406,"city_fetched":"Northampton,UK","country":"United Kingdom","canonicalUrl":"https://foursquare.com/v/the-worlds-end/4b9b7cc4f964a520730a36e3","categoryId":"4bf58dd8d48988d117941735","category":"Beer Garden","checkinsCount":148,"usersCount":117,"tipCount":5,"visitsCount":181,"tier":"","message":"","currency":"","rating":6.5},{"name":"The Boston","address":"24 college street","lat":52.238259,"lng":-0.898584,"city_fetched":"Northampton,UK","state":"Northamptonshire","country":"United Kingdom","canonicalUrl":"https://foursquare.com/v/the-boston/4c30389a452620a111e81e0f","categoryId":"4bf58dd8d48988d1d8941735","category":"Gay Bar","checkinsCount":196,"usersCount":94,"tipCount":1,"visitsCount":201,"tier":"","message":"","currency":"","rating":6.5},{"name":"Hakamou","phone":"+441604638773","address":"1 Wood St","lat":52.23833911882341,"lng":-0.8938837051391602,"city_fetched":"Northampton,UK","state":"Northamptonshire","country":"United Kingdom","canonicalUrl":"https://foursquare.com/v/hakamou/4c252f30b7b8a593cacd3de8","categoryId":"4bf58dd8d48988d11e941735","category":"Cocktail Bar","checkinsCount":158,"usersCount":79,"tipCount":4,"visitsCount":158,"url":"http://www.hakamou.co.uk","tier":"","message":"","currency":"","rating":6.4},{"name":"The Moon on the Square (Wetherspoon)","phone":"+441604634062","address":"6 The Parade","lat":52.23883140178281,"lng":-0.8968423848839503,"city_fetched":"Northampton,UK","state":"Northamptonshire","country":"United Kingdom","canonicalUrl":"https://foursquare.com/v/the-moon-on-the-square-wetherspoon/4bf6833294b2a593228badee","categoryId":"4bf58dd8d48988d11b941735","category":"Pub","checkinsCount":631,"usersCount":292,"tipCount":6,"visitsCount":662,"url":"http://www.jdwetherspoon.co.uk","tier":"","message":"","currency":"","rating":6.4},{"name":"The Mailcoach","phone":"+441604604669","address":"6-8 Derngate","lat":52.23685096504751,"lng":-0.8937549591064453,"neighborhood":"Derngate","city_fetched":"Northampton,UK","state":"Northamptonshire","country":"United Kingdom","canonicalUrl":"https://foursquare.com/v/the-mailcoach/4b7f0247f964a520fe0f30e3","categoryId":"4bf58dd8d48988d116941735","category":"Bar","checkinsCount":379,"usersCount":155,"tipCount":3,"visitsCount":391,"tier":"","message":"","currency":"","rating":6.4},{"name":"The Hopping Hare","phone":"+441604580090","address":"18 Hopping Hill Gardens","lat":52.25355684757233,"lng":-0.938441,"city_fetched":"Northampton,UK","country":"United Kingdom","canonicalUrl":"https://foursquare.com/v/the-hopping-hare/4bd74549304fce72064b33ab","categoryId":"4bf58dd8d48988d11b941735","category":"Pub","checkinsCount":280,"usersCount":177,"tipCount":5,"visitsCount":399,"url":"http://www.hoppinghare.com","tier":"","message":"","currency":"","rating":6.3},{"name":"Carlsberg Brewery","phone":"+441582637839","address":"140 Bridge St.","lat":52.23210508106581,"lng":-0.8974205926042572,"city_fetched":"Northampton,UK","country":"United Kingdom","canonicalUrl":"https://foursquare.com/v/carlsberg-brewery/4bc9df31937ca593b379a692","categoryId":"50327c8591d4c4b30a586d5d","category":"Brewery","checkinsCount":428,"usersCount":125,"tipCount":0,"visitsCount":443,"tier":"","message":"","currency":"","rating":6.3},{"name":"The Navigation","phone":"+441604864988","address":"Bridge Rd","lat":52.14136374116541,"lng":-0.9140110015869141,"city_fetched":"Northampton,UK","state":"Northamptonshire","country":"United Kingdom","canonicalUrl":"https://foursquare.com/v/the-navigation/4bd337cba8b3a593fe62695f","categoryId":"4bf58dd8d48988d117941735","category":"Beer Garden","checkinsCount":324,"usersCount":256,"tipCount":8,"visitsCount":403,"url":"http://www.navigationpubtowcester.co.uk","tier":"","message":"","currency":"","rating":6.3},{"name":"The Galleon","address":"Old Wolverton Road","lat":52.064737,"lng":-0.82616316,"city_fetched":"Northampton,UK","state":"Buckinghamshire","country":"United Kingdom","canonicalUrl":"https://foursquare.com/v/the-galleon/4c30eae766e40f478a41c48b","categoryId":"4bf58dd8d48988d11b941735","category":"Pub","checkinsCount":223,"usersCount":127,"tipCount":5,"visitsCount":269,"tier":"","message":"","currency":"","rating":6.3},{"name":"Billing Mill","phone":"+441604415059","address":"The Causeway, Great Billing","lat":52.24227833641155,"lng":-0.8094855941557629,"neighborhood":"Riverside","city_fetched":"Northampton,UK","country":"United Kingdom","canonicalUrl":"https://foursquare.com/v/billing-mill/4cd46b1976ab721ee600676a","categoryId":"4bf58dd8d48988d11b941735","category":"Pub","checkinsCount":145,"usersCount":107,"tipCount":2,"visitsCount":181,"url":"http://www.fayre-square.com/pub/billing-mill-great-billing/m8252/","tier":"","message":"","currency":"","rating":6.3},{"name":"The Windhover","address":"Brampton Lane","lat":52.280781398116126,"lng":-0.9209150075912476,"city_fetched":"Northampton,UK","state":"Northamptonshire","country":"United Kingdom","canonicalUrl":"https://foursquare.com/v/the-windhover/4c55924b728920a1975ea384","categoryId":"4bf58dd8d48988d11b941735","category":"Pub","checkinsCount":281,"usersCount":178,"tipCount":7,"visitsCount":379,"tier":"","message":"","currency":"","rating":6.2},{"name":"The Auctioneers","phone":"+441604259849","address":"10-12 Horse Mkt.","lat":52.237954636801874,"lng":-0.8965245921634263,"city_fetched":"Northampton,UK","state":"Northamptonshire","country":"United Kingdom","canonicalUrl":"https://foursquare.com/v/the-auctioneers/4da989590437dccbd7eccfb5","categoryId":"4bf58dd8d48988d116941735","category":"Bar","checkinsCount":88,"usersCount":57,"tipCount":0,"visitsCount":88,"url":"http://www.auctioneerspub.co.uk","tier":"","message":"","currency":"","rating":6.1},{"name":"The Yeoman of England","phone":"+441604762317","address":"31 High St","lat":52.20249129779878,"lng":-0.8868402242660522,"neighborhood":"Wootton","city_fetched":"Northampton,UK","state":"Northamptonshire","country":"United Kingdom","canonicalUrl":"https://foursquare.com/v/the-yeoman-of-england/4b35447ff964a520c02b25e3","categoryId":"4bf58dd8d48988d11b941735","category":"Pub","checkinsCount":302,"usersCount":88,"tipCount":1,"visitsCount":328,"url":"http://www.taylor-walker.co.uk/pub/yeoman-of-england-wootton/c0155/","tier":"","message":"","currency":"","rating":6.1},{"name":"Revolution","phone":"+441604250341","address":"38 Bridge St","lat":52.235674861201765,"lng":-0.8973383903503418,"city_fetched":"Northampton,UK","state":"Northamptonshire","country":"United Kingdom","canonicalUrl":"https://foursquare.com/v/revolution/4bdc9bda2a3a0f4714a0b3b6","categoryId":"4bf58dd8d48988d116941735","category":"Bar","checkinsCount":327,"usersCount":214,"tipCount":1,"visitsCount":342,"url":"http://www.revolution-bars.co.uk/northampton","tier":"","message":"","currency":"","rating":6.1},{"name":"White Elephant","phone":"+441604711202","address":"Kingsley Park Terrace","lat":52.250848478283544,"lng":-0.8800676465034485,"neighborhood":"Kingsley","city_fetched":"Northampton,UK","state":"Northamptonshire","country":"United Kingdom","canonicalUrl":"https://foursquare.com/v/white-elephant/4c51d2e5048b1b8d3cf1952f","categoryId":"4bf58dd8d48988d11b941735","category":"Pub","checkinsCount":210,"usersCount":130,"tipCount":1,"visitsCount":259,"tier":"","message":"","currency":"","rating":6},{"name":"The Old House","phone":"+441604633855","twitter":"oldhousenn","address":"214-216 Wellingborough Rd","lat":52.24181486982518,"lng":-0.877556679351982,"neighborhood":"Abington","city_fetched":"Northampton,UK","country":"United Kingdom","canonicalUrl":"https://foursquare.com/oldhousenn","categoryId":"4bf58dd8d48988d11b941735","category":"Pub","checkinsCount":188,"usersCount":168,"tipCount":1,"visitsCount":262,"tier":"","message":"","currency":"","rating":6},{"name":"The Sixfields","phone":"+441604751799","address":"Sixfields Leisure","lat":52.237670508070714,"lng":-0.9339196507504519,"city_fetched":"Northampton,UK","state":"Northamptonshire","country":"United Kingdom","canonicalUrl":"https://foursquare.com/v/the-sixfields/4e171e761f6eb653a5ecd121","categoryId":"4bf58dd8d48988d11b941735","category":"Pub","checkinsCount":166,"usersCount":57,"tipCount":3,"visitsCount":168,"url":"http://www.hungryhorse.co.uk/index.php/pub-finder/details/sixfields-northamptonshire","tier":"","message":"","currency":"","rating":6},{"name":"The Penny Whistle","phone":"+441604824471","twitter":"pennywhistlepub","address":"31-33 Abington Sq","lat":52.24036594999423,"lng":-0.887870192527771,"city_fetched":"Northampton,UK","state":"Northamptonshire","country":"United Kingdom","canonicalUrl":"https://foursquare.com/v/the-penny-whistle/4bbe512e53e9952192162da9","categoryId":"4bf58dd8d48988d11b941735","category":"Pub","checkinsCount":330,"usersCount":120,"tipCount":3,"visitsCount":330,"tier":"","message":"","currency":"","rating":5.9},{"name":"Barratts Snooker Club & Bar","phone":"+441604721777","address":"Barack Rd","lat":52.25102207542153,"lng":-0.8973179006173491,"neighborhood":"Trinity","city_fetched":"Northampton,UK","state":"Northamptonshire","country":"United Kingdom","canonicalUrl":"https://foursquare.com/v/barratts-snooker-club--bar/4c03cc600d0e0f471c01039a","categoryId":"4bf58dd8d48988d11d941735","category":"Sports Bar","checkinsCount":388,"usersCount":158,"tipCount":10,"visitsCount":449,"url":"http://www.barrattsclub.co.uk","tier":"","message":"","currency":"","rating":5.9},{"name":"The Trumpet","address":"Wellingborough Road","lat":52.251503656702475,"lng":-0.8487367630004883,"neighborhood":"Park","city_fetched":"Northampton,UK","state":"Northamptonshire","country":"United Kingdom","canonicalUrl":"https://foursquare.com/v/the-trumpet/4c818cb0d6ebbfb74c6d45a4","categoryId":"4bf58dd8d48988d11b941735","category":"Pub","checkinsCount":124,"usersCount":68,"tipCount":4,"visitsCount":134,"tier":"","message":"","currency":"","rating":5.8},{"name":"The Lakeside (Fayre & Square)","phone":"+441604601737","address":"2 The Lakes","lat":52.2275260156078,"lng":-0.8543015008573475,"city_fetched":"Northampton,UK","state":"Northamptonshire","country":"United Kingdom","canonicalUrl":"https://foursquare.com/v/the-lakeside-fayre--square/4de3901ce4cd056f745da7e5","categoryId":"4bf58dd8d48988d11b941735","category":"Pub","checkinsCount":179,"usersCount":109,"tipCount":3,"visitsCount":230,"url":"http://www.fayre-square.com","tier":"","message":"","currency":"","rating":5.7},{"name":"The Queen Eleanor","lat":52.21183603257464,"lng":-0.8942634084092836,"neighborhood":"Wootton","city_fetched":"Northampton,UK","state":"Northamptonshire","country":"United Kingdom","canonicalUrl":"https://foursquare.com/v/the-queen-eleanor/4bad1efbf964a520c02f3be3","categoryId":"4bf58dd8d48988d11b941735","category":"Pub","checkinsCount":597,"usersCount":231,"tipCount":8,"visitsCount":656,"tier":"","message":"","currency":"","rating":5.7},{"name":"The Eastgate (Wetherspoon)","phone":"+441604633535","address":"98-102 Abington St","lat":52.23912871172203,"lng":-0.8902778967820033,"city_fetched":"Northampton,UK","state":"Northamptonshire","country":"United Kingdom","canonicalUrl":"https://foursquare.com/v/the-eastgate-wetherspoon/4c87aba1821e9eb08acd8d89","categoryId":"4bf58dd8d48988d11b941735","category":"Pub","checkinsCount":346,"usersCount":148,"tipCount":6,"visitsCount":351,"url":"http://www.mcmanuspub.co.uk","tier":"","message":"","currency":"","rating":5.6},{"name":"Fiddler's","phone":"+441604949808","address":"130 Wellingborough Rd","lat":52.241168025070806,"lng":-0.8827393948371712,"city_fetched":"Northampton,UK","country":"United Kingdom","canonicalUrl":"https://foursquare.com/v/fiddlers/4bdc9211ccf52d7f5e60786d","categoryId":"4bf58dd8d48988d11b941735","category":"Pub","checkinsCount":87,"usersCount":90,"tipCount":1,"visitsCount":155,"tier":"","message":"","currency":"","rating":5.5},{"name":"Sir Pickering Phipps","phone":"+441604628855","address":"237 Wellingborough Road","lat":52.242014,"lng":-0.876471,"neighborhood":"Abington","city_fetched":"Northampton,UK","country":"United Kingdom","canonicalUrl":"https://foursquare.com/v/sir-pickering-phipps/4bef07ae2ff520a15203e8a2","categoryId":"4bf58dd8d48988d11b941735","category":"Pub","checkinsCount":164,"usersCount":107,"tipCount":1,"visitsCount":171,"tier":"","message":"","currency":"","rating":5.5},{"name":"Lumbertubs","address":"2 Lumbertubs Lane","lat":52.27178241442648,"lng":-0.8528692620724372,"neighborhood":"Boothville","city_fetched":"Northampton,UK","country":"United Kingdom","canonicalUrl":"https://foursquare.com/v/lumbertubs/4bc0bfb374a9a5930895d0f6","categoryId":"4bf58dd8d48988d11b941735","category":"Pub","checkinsCount":279,"usersCount":135,"tipCount":5,"visitsCount":326,"tier":"","message":"","currency":"","rating":5.4},{"name":"Sunnyside Pub","address":"Boughton Green Rd","lat":52.271962,"lng":-0.889994,"city_fetched":"Northampton,UK","state":"Northamptonshire","country":"United Kingdom","canonicalUrl":"https://foursquare.com/v/sunnyside-pub/4c96304d58d4b60ca8a73829","categoryId":"4bf58dd8d48988d11b941735","category":"Pub","checkinsCount":377,"usersCount":197,"tipCount":4,"visitsCount":446,"tier":"","message":"","currency":"","rating":5.4},{"name":"The Turnpike (Beefeater)","phone":"+441604832340","twitter":"beefeater","address":"Harpole Turn, Weedon Road","lat":52.23562438500287,"lng":-0.985723281901815,"city_fetched":"Northampton,UK","state":"Northamptonshire","country":"United Kingdom","canonicalUrl":"https://foursquare.com/v/the-turnpike-beefeater/4bc077b0b492d13aa342a460","categoryId":"4bf58dd8d48988d11b941735","category":"Pub","checkinsCount":477,"usersCount":164,"tipCount":14,"visitsCount":506,"url":"http://www.beefeater.co.uk/steak-restaurant/Northamptonshire/Turnpike-Harpole.html","tier":"","message":"","currency":"","rating":5.4},{"name":"The Old Bank","phone":"+441604239534","address":"4-5 St Giles Sq","lat":52.23700372485239,"lng":-0.8951926231384277,"neighborhood":"Derngate","city_fetched":"Northampton,UK","state":"Northamptonshire","country":"United Kingdom","canonicalUrl":"https://foursquare.com/v/the-old-bank/4bba57cb935e9521f1062890","categoryId":"4bf58dd8d48988d11b941735","category":"Pub","checkinsCount":331,"usersCount":194,"tipCount":6,"visitsCount":338,"tier":"","message":"","currency":"","rating":5.3},{"name":"Momo's","phone":"+441604637785","address":"79-81 Abington St","lat":52.23929854220312,"lng":-0.8903342535772536,"city_fetched":"Northampton,UK","state":"Northamptonshire","country":"United Kingdom","canonicalUrl":"https://foursquare.com/v/momos/4d1cc037c68aa1cdab53a5e2","categoryId":"4bf58dd8d48988d116941735","category":"Bar","checkinsCount":222,"usersCount":100,"tipCount":2,"visitsCount":222,"tier":"","message":"","currency":"","rating":5.3},{"name":"The Quays - Fayre & Square Pub","phone":"+441604417400","twitter":"fayreandsquare","address":"Crow Lane","lat":52.244975390554586,"lng":-0.8116431970899872,"neighborhood":"Riverside","city_fetched":"Northampton,UK","country":"United Kingdom","canonicalUrl":"https://foursquare.com/v/the-quays--fayre--square-pub/4c6050ec90b2c9b665793c22","categoryId":"4bf58dd8d48988d11b941735","category":"Pub","checkinsCount":196,"usersCount":132,"tipCount":12,"visitsCount":220,"url":"http://www.fayre-square.com/pub/quays-billing-billing/p1326/","tier":"","message":"","currency":"","rating":5.2},{"name":"The Goose on Two Streets","address":"23-25 St Giles Street","lat":52.23758980887599,"lng":-0.8933453401248783,"city_fetched":"Northampton,UK","state":"Northamptonshire","country":"United Kingdom","canonicalUrl":"https://foursquare.com/v/the-goose-on-two-streets/4b7efb87f964a5201d0e30e3","categoryId":"4bf58dd8d48988d11b941735","category":"Pub","checkinsCount":261,"usersCount":133,"tipCount":6,"visitsCount":261,"url":"http://www.thegooseontwostreets.co.uk","tier":"","message":"","currency":"","rating":4.8}]