[{"name":"The Quaker House","phone":"+447783960105","address":"2 Mechanics Yard","lat":54.52443384727825,"lng":-1.5560580790042877,"city_fetched":"Norton,UK","state":"Darlington","country":"United Kingdom","canonicalUrl":"https://foursquare.com/v/the-quaker-house/4bb636576edc76b0bd92301c","categoryId":"4bf58dd8d48988d11b941735","category":"Pub","checkinsCount":882,"usersCount":88,"tipCount":13,"visitsCount":906,"tier":"","message":"","currency":"","rating":8.7},{"name":"Isis","phone":"+441915147684","twitter":"isispub","address":"26 Silksworth Row","lat":54.9069900095759,"lng":-1.3925049618705365,"city_fetched":"Norton,UK","country":"United Kingdom","canonicalUrl":"https://foursquare.com/v/isis/4e38160fb0fbcceaf0e72839","categoryId":"4bf58dd8d48988d116941735","category":"Bar","checkinsCount":325,"usersCount":101,"tipCount":5,"visitsCount":353,"tier":"","message":"","currency":"","rating":8.4},{"name":"The Wasps Nest","phone":"+447789277364","address":"1 Calvets Sq","lat":54.56473,"lng":-1.311715,"city_fetched":"Norton,UK","state":"Stockton-on-Tees","country":"United Kingdom","canonicalUrl":"https://foursquare.com/v/the-wasps-nest/5569b994498eb674bb6c16cd","categoryId":"4bf58dd8d48988d11b941735","category":"Pub","checkinsCount":41,"usersCount":14,"tipCount":2,"visitsCount":59,"tier":"","message":"","currency":"","rating":8.3},{"name":"The Old Mill","lat":54.710218,"lng":-1.530673,"city_fetched":"Norton,UK","country":"United Kingdom","canonicalUrl":"https://foursquare.com/v/the-old-mill/4c066e5c761ac9b6fae82074","categoryId":"4bf58dd8d48988d11b941735","category":"Pub","checkinsCount":120,"usersCount":91,"tipCount":10,"visitsCount":191,"tier":"","message":"","currency":"","rating":8.3},{"name":"Ravensworth Arms","phone":"+441914876023","address":"Lamesley","lat":54.91344657797887,"lng":-1.6099219624996626,"city_fetched":"Norton,UK","country":"United Kingdom","canonicalUrl":"https://foursquare.com/v/ravensworth-arms/4ba366d3f964a520343a38e3","categoryId":"4bf58dd8d48988d11b941735","category":"Pub","checkinsCount":254,"usersCount":168,"tipCount":6,"visitsCount":331,"url":"http://www.chefandbrewer.com/pub-food/ravensworth-arms-gateshead/pid-S2699","tier":"","message":"","currency":"","rating":8.2},{"name":"The Head Of Steam","phone":"+441913832173","address":"3 Reform Place","lat":54.777004,"lng":-1.580086,"city_fetched":"Norton,UK","state":"Durham","country":"United Kingdom","canonicalUrl":"https://foursquare.com/v/the-head-of-steam/4d272a3c342d6dcb9fc4eaca","categoryId":"4bf58dd8d48988d116941735","category":"Bar","checkinsCount":425,"usersCount":252,"tipCount":17,"visitsCount":541,"tier":"","message":"","currency":"","rating":8.2},{"name":"Black Cats Bar","phone":"+448719111555","twitter":"safcofficial","address":"Stadium of Light","lat":54.9150936933424,"lng":-1.3890194892883299,"city_fetched":"Norton,UK","country":"United Kingdom","canonicalUrl":"https://foursquare.com/v/black-cats-bar/520e30642fc635ed9de2887f","categoryId":"4bf58dd8d48988d11d941735","category":"Sports Bar","checkinsCount":56,"usersCount":35,"tipCount":2,"visitsCount":56,"url":"http://t.co/crmTiaUzKq","tier":"","message":"","currency":"","rating":8.1},{"name":"The Station House","twitter":"stationhousedhm","address":"North Road","lat":54.77810838989983,"lng":-1.5834815476772035,"city_fetched":"Norton,UK","state":"Durham","country":"United Kingdom","canonicalUrl":"https://foursquare.com/v/the-station-house/5666fdbf498ef642ffc2ea85","categoryId":"4bf58dd8d48988d11b941735","category":"Pub","checkinsCount":57,"usersCount":27,"tipCount":4,"visitsCount":69,"url":"http://www.stationhousedurham.co.uk","tier":"","message":"","currency":"","rating":8.1},{"name":"The Dun Cow Inn","phone":"+441913869219","address":"37 Old Elvet","lat":54.77507995076938,"lng":-1.5688039453867515,"city_fetched":"Norton,UK","state":"Durham","country":"United Kingdom","canonicalUrl":"https://foursquare.com/v/the-dun-cow-inn/4b8730c3f964a5208db531e3","categoryId":"4bf58dd8d48988d11b941735","category":"Pub","checkinsCount":202,"usersCount":145,"tipCount":8,"visitsCount":251,"tier":"","message":"","currency":"","rating":8.1},{"name":"The John Duck","phone":"+441913741114","address":"91a Claypath","lat":54.7778456641969,"lng":-1.5738546873445087,"city_fetched":"Norton,UK","state":"Durham","country":"United Kingdom","canonicalUrl":"https://foursquare.com/v/the-john-duck/4f7c8728e4b0abe223b004be","categoryId":"4bf58dd8d48988d11b941735","category":"Pub","checkinsCount":212,"usersCount":87,"tipCount":5,"visitsCount":221,"tier":"","message":"","currency":"","rating":8.1},{"name":"The Rosedene","lat":54.891038,"lng":-1.388386825,"city_fetched":"Norton,UK","state":"Sunderland","country":"United Kingdom","canonicalUrl":"https://foursquare.com/v/the-rosedene/4dcebc1645ddbe15f8908ab4","categoryId":"4bf58dd8d48988d116941735","category":"Bar","checkinsCount":140,"usersCount":115,"tipCount":2,"visitsCount":195,"tier":"","message":"","currency":"","rating":8.1},{"name":"Dun Cow Inn","address":"43 Front ST","lat":54.65370759063599,"lng":-1.446884282462619,"city_fetched":"Norton,UK","state":"Durham","country":"United Kingdom","canonicalUrl":"https://foursquare.com/v/dun-cow-inn/4b58be5df964a520a56828e3","categoryId":"4bf58dd8d48988d11b941735","category":"Pub","checkinsCount":421,"usersCount":88,"tipCount":4,"visitsCount":524,"tier":"","message":"","currency":"","rating":8},{"name":"New Derby","address":"roker baths road","lat":54.922018145561644,"lng":-1.3724650567345766,"city_fetched":"Norton,UK","state":"Sunderland","country":"United Kingdom","canonicalUrl":"https://foursquare.com/v/new-derby/4c796d3293ef236a2890af0f","categoryId":"4bf58dd8d48988d11b941735","category":"Pub","checkinsCount":212,"usersCount":65,"tipCount":4,"visitsCount":249,"url":"http://www.gkmeetandeat.co.uk/locations/new-derby-sunderland","tier":"","message":"","currency":"","rating":8},{"name":"The Stables","phone":"+441207233733","twitter":"beamishhall","address":"Beamish Hall","lat":54.88831649988195,"lng":-1.6715288788338505,"city_fetched":"Norton,UK","state":"Durham","country":"United Kingdom","canonicalUrl":"https://foursquare.com/v/the-stables/4c7bac1e97028cfa0e77e1fe","categoryId":"50327c8591d4c4b30a586d5d","category":"Brewery","checkinsCount":242,"usersCount":123,"tipCount":6,"visitsCount":246,"tier":"","message":"","currency":"","rating":7.9},{"name":"Fitzgeralds","phone":"+441915670852","address":"12-14 Green Ter","lat":54.90424805319855,"lng":-1.3887730341083266,"city_fetched":"Norton,UK","country":"United Kingdom","canonicalUrl":"https://foursquare.com/v/fitzgeralds/4b9d3457f964a520399936e3","categoryId":"4bf58dd8d48988d11b941735","category":"Pub","checkinsCount":769,"usersCount":185,"tipCount":13,"visitsCount":829,"tier":"","message":"","currency":"","rating":7.9},{"name":"The Feathers Inn","phone":"+441661843607","twitter":"thefeathersinn","address":"Lead Rd","lat":54.927317472447605,"lng":-1.8778895417531332,"city_fetched":"Norton,UK","state":"Northumberland","country":"United Kingdom","canonicalUrl":"https://foursquare.com/v/the-feathers-inn/4beff9003a002d7f9d8585a4","categoryId":"4bf58dd8d48988d11b941735","category":"Pub","checkinsCount":64,"usersCount":60,"tipCount":3,"visitsCount":87,"url":"http://www.thefeathers.net","tier":"","message":"","currency":"","rating":7.8},{"name":"Duke Of Wellington","address":"Darlington Road","lat":54.7667448998688,"lng":-1.5928334982230283,"city_fetched":"Norton,UK","state":"Durham","country":"United Kingdom","canonicalUrl":"https://foursquare.com/v/duke-of-wellington/4bcb40bc937ca5931024a992","categoryId":"4bf58dd8d48988d11b941735","category":"Pub","checkinsCount":164,"usersCount":124,"tipCount":3,"visitsCount":244,"tier":"","message":"","currency":"","rating":7.8},{"name":"Black Bull","address":"40-42 High St.","lat":54.508903577167324,"lng":-1.353497721310341,"city_fetched":"Norton,UK","country":"United Kingdom","canonicalUrl":"https://foursquare.com/v/black-bull/4ba400c4f964a520a27638e3","categoryId":"4bf58dd8d48988d11b941735","category":"Pub","checkinsCount":548,"usersCount":216,"tipCount":9,"visitsCount":574,"tier":"","message":"","currency":"","rating":7.8},{"name":"The County","phone":"+441325312273","twitter":"countyaycliffe","address":"The Green","lat":54.597017,"lng":-1.56151106,"city_fetched":"Norton,UK","country":"United Kingdom","canonicalUrl":"https://foursquare.com/v/the-county/4dc4587ed4c0ad9c0f6c4fac","categoryId":"4bf58dd8d48988d11b941735","category":"Pub","checkinsCount":85,"usersCount":38,"tipCount":4,"visitsCount":93,"url":"http://www.thecontyaycliffevillage.com","tier":"","message":"","currency":"","rating":7.7},{"name":"The Court Inn","phone":"+441913847350","address":"Court Lane","lat":54.773989,"lng":-1.570123,"city_fetched":"Norton,UK","state":"Durham","country":"United Kingdom","canonicalUrl":"https://foursquare.com/v/the-court-inn/4b873117f964a5209fb531e3","categoryId":"4bf58dd8d48988d116941735","category":"Bar","checkinsCount":287,"usersCount":178,"tipCount":7,"visitsCount":299,"tier":"","message":"","currency":"","rating":7.7},{"name":"Revolution","phone":"+441916402300","address":"1-6 Low Row","lat":54.905929,"lng":-1.389912,"city_fetched":"Norton,UK","country":"United Kingdom","canonicalUrl":"https://foursquare.com/v/revolution/4bc8d5db68f976b06d145c83","categoryId":"4bf58dd8d48988d11e941735","category":"Cocktail Bar","checkinsCount":849,"usersCount":382,"tipCount":13,"visitsCount":944,"url":"http://www.revolution-bars.co.uk/sunderland","tier":"","message":"","currency":"","rating":7.7},{"name":"The Lambton Worm (Wetherspoon)","phone":"+441915689910","address":"Victoria Bluiding","lat":54.90526061051987,"lng":-1.3894477481336112,"city_fetched":"Norton,UK","country":"United Kingdom","canonicalUrl":"https://foursquare.com/v/the-lambton-worm-wetherspoon/4b65abf1f964a520e1f82ae3","categoryId":"4bf58dd8d48988d11b941735","category":"Pub","checkinsCount":1682,"usersCount":523,"tipCount":14,"visitsCount":1770,"url":"http://www.jdwetherspoon.co.uk","tier":"","message":"","currency":"","rating":7.7},{"name":"Life of Riley","twitter":"lifeofrileysun","address":"3 Green Ter.","lat":54.903998976580525,"lng":-1.3885416841474991,"city_fetched":"Norton,UK","country":"United Kingdom","canonicalUrl":"https://foursquare.com/v/life-of-riley/514c7967e4b06258661497f1","categoryId":"4bf58dd8d48988d116941735","category":"Bar","checkinsCount":243,"usersCount":73,"tipCount":4,"visitsCount":248,"tier":"","message":"","currency":"","rating":7.6},{"name":"The Victoria","lat":54.93165392219373,"lng":-1.5970770810892756,"city_fetched":"Norton,UK","state":"Gateshead","country":"United Kingdom","canonicalUrl":"https://foursquare.com/v/the-victoria/4c1670b996040f47aad672a5","categoryId":"4bf58dd8d48988d116941735","category":"Bar","checkinsCount":165,"usersCount":76,"tipCount":0,"visitsCount":235,"tier":"","message":"","currency":"","rating":7.6},{"name":"Old Farmhouse Inn","address":"Yarm Rd","lat":54.520078778200244,"lng":-1.4885508692070986,"city_fetched":"Norton,UK","state":"Darlington","country":"United Kingdom","canonicalUrl":"https://foursquare.com/v/old-farmhouse-inn/4d583b4ae319a1cd16160e34","categoryId":"4bf58dd8d48988d116941735","category":"Bar","checkinsCount":197,"usersCount":119,"tipCount":2,"visitsCount":247,"tier":"","message":"","currency":"","rating":7.6},{"name":"The Highland Laddie","phone":"+441642539570","address":"High St","lat":54.58783566032772,"lng":-1.310971022856241,"city_fetched":"Norton,UK","state":"Stockton-on-Tees","country":"United Kingdom","canonicalUrl":"https://foursquare.com/v/the-highland-laddie/523399a111d2bfd16eb48e0f","categoryId":"4bf58dd8d48988d116941735","category":"Bar","checkinsCount":171,"usersCount":99,"tipCount":2,"visitsCount":277,"tier":"","message":"","currency":"","rating":7.5},{"name":"Tawny Owl","address":"Neasham Rd","lat":54.504011134457414,"lng":-1.529422402381897,"city_fetched":"Norton,UK","state":"Darlington","country":"United Kingdom","canonicalUrl":"https://foursquare.com/v/tawny-owl/4bae06b7f964a520397c3be3","categoryId":"4bf58dd8d48988d11b941735","category":"Pub","checkinsCount":151,"usersCount":96,"tipCount":9,"visitsCount":260,"tier":"","message":"","currency":"","rating":7.5},{"name":"The William Stead  (Wetherspoon)","phone":"+441325341440","address":"8 Crown St.","lat":54.52560845414164,"lng":-1.5525383178811312,"city_fetched":"Norton,UK","state":"Darlington","country":"United Kingdom","canonicalUrl":"https://foursquare.com/v/the-william-stead--wetherspoon/4b755d63f964a52063082ee3","categoryId":"4bf58dd8d48988d11b941735","category":"Pub","checkinsCount":1256,"usersCount":382,"tipCount":5,"visitsCount":1427,"url":"http://www.jdwetherspoon.co.uk","tier":"","message":"","currency":"","rating":7.5},{"name":"The Swatters Carr (Wetherspoon)","phone":"+441642239060","twitter":"jdwtweet","address":"228 Linthorpe Rd","lat":54.5697523705345,"lng":-1.2384818743812354,"city_fetched":"Norton,UK","state":"Middlesbrough","country":"United Kingdom","canonicalUrl":"https://foursquare.com/v/the-swatters-carr-wetherspoon/4e66476c1495676d575a920f","categoryId":"4bf58dd8d48988d11b941735","category":"Pub","checkinsCount":986,"usersCount":293,"tipCount":8,"visitsCount":1266,"url":"http://www.jdwetherspoon.co.uk","tier":"","message":"","currency":"","rating":7.4},{"name":"The Cooper Rose (Lloyds No.1 Bar)","phone":"+441915148530","twitter":"jdwtweet","address":"2-4 Albion Place","lat":54.903550618358196,"lng":-1.3880590808206854,"city_fetched":"Norton,UK","country":"United Kingdom","canonicalUrl":"https://foursquare.com/v/the-cooper-rose-lloyds-no1-bar/4d6ff35d5b5ca1cdf6157444","categoryId":"4bf58dd8d48988d11b941735","category":"Pub","checkinsCount":1432,"usersCount":395,"tipCount":15,"visitsCount":1509,"url":"http://www.jdwetherspoon.co.uk","tier":"","message":"","currency":"","rating":7.4},{"name":"The Chesters","address":"Chester Road","lat":54.90231079776778,"lng":-1.4031336537859278,"city_fetched":"Norton,UK","state":"Sunderland","country":"United Kingdom","canonicalUrl":"https://foursquare.com/v/the-chesters/4be7ff09947820a18950b4db","categoryId":"4bf58dd8d48988d11b941735","category":"Pub","checkinsCount":283,"usersCount":138,"tipCount":3,"visitsCount":321,"tier":"","message":"","currency":"","rating":7.3},{"name":"Lambton Worm","address":"52 North Rd","lat":54.87103855475104,"lng":-1.5755231180520262,"city_fetched":"Norton,UK","state":"Durham","country":"United Kingdom","canonicalUrl":"https://foursquare.com/v/lambton-worm/4bb5f58bef159c74593675f7","categoryId":"4bf58dd8d48988d116941735","category":"Bar","checkinsCount":223,"usersCount":122,"tipCount":4,"visitsCount":336,"url":"http://www.thelambton.com","tier":"","message":"","currency":"","rating":7.3},{"name":"Ye Old Elm Tree","phone":"+441913864621","address":"12 Crossgate","lat":54.775789,"lng":-1.581563,"city_fetched":"Norton,UK","state":"Durham","country":"United Kingdom","canonicalUrl":"https://foursquare.com/v/ye-old-elm-tree/4b633cbdf964a520a86c2ae3","categoryId":"4bf58dd8d48988d11b941735","category":"Pub","checkinsCount":160,"usersCount":86,"tipCount":4,"visitsCount":166,"tier":"","message":"","currency":"","rating":7.2},{"name":"The Boathouse","phone":"+441913866210","address":"Elvet Riverside","lat":54.77627098762498,"lng":-1.5733730792999268,"city_fetched":"Norton,UK","state":"Durham","country":"United Kingdom","canonicalUrl":"https://foursquare.com/v/the-boathouse/4cf036ab8333224b96c6028e","categoryId":"4bf58dd8d48988d11e941735","category":"Cocktail Bar","checkinsCount":261,"usersCount":182,"tipCount":4,"visitsCount":266,"url":"http://www.boathousedurham.co.uk","tier":"","message":"","currency":"","rating":7.2},{"name":"Half Moon","phone":"+441325469965","address":"130 Northgate","lat":54.528745693348284,"lng":-1.5530584626586126,"city_fetched":"Norton,UK","state":"Darlington","country":"United Kingdom","canonicalUrl":"https://foursquare.com/v/half-moon/523df08211d2cd494cf44621","categoryId":"4bf58dd8d48988d11b941735","category":"Pub","checkinsCount":89,"usersCount":29,"tipCount":3,"visitsCount":93,"tier":"","message":"","currency":"","rating":7.2},{"name":"Whisky River Cocktail Bar & Café","address":"Elvet Riverside","lat":54.776379278847536,"lng":-1.573743224143982,"city_fetched":"Norton,UK","state":"Durham","country":"United Kingdom","canonicalUrl":"https://foursquare.com/v/whisky-river-cocktail-bar--caf%C3%A9/4e6bd15c88772457c50d9933","categoryId":"4bf58dd8d48988d11e941735","category":"Cocktail Bar","checkinsCount":137,"usersCount":100,"tipCount":0,"visitsCount":138,"tier":"","message":"","currency":"","rating":7.2},{"name":"The Eagle","address":"1 Durham Ln","lat":54.519023568660266,"lng":-1.3602436041785282,"city_fetched":"Norton,UK","state":"Stockton-on-Tees","country":"United Kingdom","canonicalUrl":"https://foursquare.com/v/the-eagle/4c814e3774d7b60c137975d8","categoryId":"4bf58dd8d48988d11b941735","category":"Pub","checkinsCount":252,"usersCount":83,"tipCount":2,"visitsCount":359,"tier":"","message":"","currency":"","rating":7.1},{"name":"The Market Tavern","phone":"+441913862069","address":"Market Place","lat":54.77712833468185,"lng":-1.5760475891827619,"city_fetched":"Norton,UK","state":"Durham","country":"United Kingdom","canonicalUrl":"https://foursquare.com/v/the-market-tavern/4b3919eff964a520345625e3","categoryId":"4bf58dd8d48988d11b941735","category":"Pub","checkinsCount":489,"usersCount":283,"tipCount":9,"visitsCount":498,"tier":"","message":"","currency":"","rating":7.1},{"name":"The Wicket Gate (Wetherspoon)","phone":"+441913872960","address":"193 Front St.","lat":54.85231036323784,"lng":-1.5732522386773748,"city_fetched":"Norton,UK","state":"Durham","country":"United Kingdom","canonicalUrl":"https://foursquare.com/v/the-wicket-gate-wetherspoon/4c0ede1675f99c74ed89ecc4","categoryId":"4bf58dd8d48988d11b941735","category":"Pub","checkinsCount":652,"usersCount":211,"tipCount":7,"visitsCount":800,"url":"http://www.jdwetherspoon.co.uk","tier":"","message":"","currency":"","rating":7},{"name":"The Star","address":"14 Southfield Rd","lat":54.570656,"lng":-1.2349085,"city_fetched":"Norton,UK","state":"Middlesbrough","country":"United Kingdom","canonicalUrl":"https://foursquare.com/v/the-star/4bdb0f89c79cc92850ed80e9","categoryId":"4bf58dd8d48988d11b941735","category":"Pub","checkinsCount":250,"usersCount":120,"tipCount":4,"visitsCount":254,"url":"http://www.thestar-middlesbrough.co.uk","tier":"","message":"","currency":"","rating":7},{"name":"The William Jameson (Wetherspoon)","phone":"+441915145016","address":"30-32 Fawcett St.","lat":54.90446068358748,"lng":-1.3811016082763672,"city_fetched":"Norton,UK","country":"United Kingdom","canonicalUrl":"https://foursquare.com/v/the-william-jameson-wetherspoon/4b6f1a6df964a5202bdd2ce3","categoryId":"4bf58dd8d48988d11b941735","category":"Pub","checkinsCount":1332,"usersCount":344,"tipCount":12,"visitsCount":1363,"url":"http://www.jdwetherspoon.co.uk","tier":"","message":"","currency":"","rating":6.9},{"name":"Cellar Door","lat":54.77585946575675,"lng":-1.5743079148869583,"city_fetched":"Norton,UK","country":"United Kingdom","canonicalUrl":"https://foursquare.com/v/cellar-door/4d4de44f9ee13704b6a2898b","categoryId":"4bf58dd8d48988d121941735","category":"Lounge","checkinsCount":119,"usersCount":89,"tipCount":5,"visitsCount":120,"tier":"","message":"","currency":"","rating":6.9},{"name":"The Bishop Langley","phone":"+441913864779","address":"North Road","lat":54.77599758040618,"lng":-1.5786450823204892,"city_fetched":"Norton,UK","state":"Durham","country":"United Kingdom","canonicalUrl":"https://foursquare.com/v/the-bishop-langley/516993bb498e19f9e96c0ed7","categoryId":"4bf58dd8d48988d116941735","category":"Bar","checkinsCount":201,"usersCount":106,"tipCount":9,"visitsCount":203,"tier":"","message":"","currency":"","rating":6.9},{"name":"Swan and Three Cygnets","phone":"+441913840242","address":"Elvet Bridge","lat":54.77585792541504,"lng":-1.572615,"city_fetched":"Norton,UK","state":"Durham","country":"United Kingdom","canonicalUrl":"https://foursquare.com/v/swan-and-three-cygnets/4b64a1ecf964a520f3c32ae3","categoryId":"4bf58dd8d48988d11b941735","category":"Pub","checkinsCount":512,"usersCount":271,"tipCount":11,"visitsCount":539,"tier":"","message":"","currency":"","rating":6.9},{"name":"The Water House  (Wetherspoon)","phone":"+441913706540","address":"65 North Rd.","lat":54.777148,"lng":-1.581338,"city_fetched":"Norton,UK","state":"Durham","country":"United Kingdom","canonicalUrl":"https://foursquare.com/v/the-water-house--wetherspoon/4b914aaaf964a52080b033e3","categoryId":"4bf58dd8d48988d11b941735","category":"Pub","checkinsCount":634,"usersCount":238,"tipCount":13,"visitsCount":721,"url":"http://www.jdwetherspoon.co.uk","tier":"","message":"","currency":"","rating":6.8},{"name":"Passion","address":"Sunderland","lat":54.90415942257745,"lng":-1.3842434322951633,"city_fetched":"Norton,UK","country":"United Kingdom","canonicalUrl":"https://foursquare.com/v/passion/4f3dcdf6e4b046e8232be541","categoryId":"4bf58dd8d48988d11f941735","category":"Nightclub","checkinsCount":400,"usersCount":159,"tipCount":5,"visitsCount":401,"tier":"","message":"","currency":"","rating":6.8},{"name":"Sloanes Sports Bar","address":"44 W Sunniside","lat":54.90757382950931,"lng":-1.3793355425346088,"city_fetched":"Norton,UK","country":"United Kingdom","canonicalUrl":"https://foursquare.com/v/sloanes-sports-bar/4c8a5abf9ef0224b5a065a7b","categoryId":"4bf58dd8d48988d11d941735","category":"Sports Bar","checkinsCount":171,"usersCount":42,"tipCount":3,"visitsCount":179,"tier":"","message":"","currency":"","rating":6.8},{"name":"The Empire","phone":"+441642253553","address":"2 Corporation Rd","lat":54.57637230933446,"lng":-1.233321663819773,"city_fetched":"Norton,UK","state":"Middlesbrough","country":"United Kingdom","canonicalUrl":"https://foursquare.com/v/the-empire/4b9c2c0df964a5205d5136e3","categoryId":"4bf58dd8d48988d11f941735","category":"Nightclub","checkinsCount":466,"usersCount":222,"tipCount":4,"visitsCount":486,"url":"http://www.theempire.co.uk","tier":"","message":"","currency":"","rating":6.8},{"name":"Preston Farm (Brewers Fayre)","phone":"+448701977243","address":"Yarm Road","lat":54.54602454837723,"lng":-1.3322446779144044,"city_fetched":"Norton,UK","country":"United Kingdom","canonicalUrl":"https://foursquare.com/v/preston-farm-brewers-fayre/4ba3d1f2f964a5200a6338e3","categoryId":"4bf58dd8d48988d11b941735","category":"Pub","checkinsCount":235,"usersCount":137,"tipCount":6,"visitsCount":265,"url":"http://www.brewersfayre.co.uk/brewersfayre/our-pubs/stockon-on-tees/preston-farm.html","tier":"","message":"","currency":"","rating":6.6},{"name":"The Manor House","phone":"+441642764153","address":"High Lane","lat":54.51171493435743,"lng":-1.2909364700317383,"city_fetched":"Norton,UK","state":"Middlesbrough","country":"United Kingdom","canonicalUrl":"https://foursquare.com/v/the-manor-house/4bd581406f6495219a1b6fec","categoryId":"4bf58dd8d48988d11b941735","category":"Pub","checkinsCount":173,"usersCount":84,"tipCount":4,"visitsCount":201,"tier":"","message":"","currency":"","rating":6.6},{"name":"The Black Bull Pub","phone":"+441915862759","address":"The Green","lat":54.75113930019604,"lng":-1.3609048175124752,"city_fetched":"Norton,UK","state":"Durham","country":"United Kingdom","canonicalUrl":"https://foursquare.com/v/the-black-bull-pub/4b8fd122f964a520c86333e3","categoryId":"4bf58dd8d48988d11b941735","category":"Pub","checkinsCount":148,"usersCount":54,"tipCount":5,"visitsCount":149,"tier":"","message":"","currency":"","rating":6.6},{"name":"Grey Horse","address":"Front street","lat":54.94512057223458,"lng":-1.4333203840094422,"city_fetched":"Norton,UK","state":"South Tyneside","country":"United Kingdom","canonicalUrl":"https://foursquare.com/v/grey-horse/4e2b23d76284b96d7b83bc49","categoryId":"4bf58dd8d48988d116941735","category":"Bar","checkinsCount":258,"usersCount":86,"tipCount":6,"visitsCount":373,"tier":"","message":"","currency":"","rating":6.5},{"name":"The Thomas Sheraton (Wetherspoon)","phone":"+441642606134","address":"4 Bridge Rd","lat":54.561431734087876,"lng":-1.3128018830622012,"city_fetched":"Norton,UK","country":"United Kingdom","canonicalUrl":"https://foursquare.com/v/the-thomas-sheraton-wetherspoon/4c87ac12821e9eb0e9cd8d89","categoryId":"4bf58dd8d48988d11b941735","category":"Pub","checkinsCount":1189,"usersCount":219,"tipCount":5,"visitsCount":1285,"url":"http://www.jdwetherspoon.co.uk","tier":"","message":"","currency":"","rating":6.5},{"name":"Lloyds Bar","lat":54.575881557865706,"lng":-1.2378768923344334,"city_fetched":"Norton,UK","state":"Middlesbrough","country":"United Kingdom","canonicalUrl":"https://foursquare.com/v/lloyds-bar/4b9c1019f964a5202b4636e3","categoryId":"4bf58dd8d48988d116941735","category":"Bar","checkinsCount":250,"usersCount":142,"tipCount":4,"visitsCount":250,"tier":"","message":"","currency":"","rating":6.4},{"name":"Gatsby","phone":"+441915652372","address":"13-14 Derwent St.","lat":54.90389577223729,"lng":-1.3858052337162974,"city_fetched":"Norton,UK","country":"United Kingdom","canonicalUrl":"https://foursquare.com/v/gatsby/4bec1fc46295c9b6e77d8808","categoryId":"4bf58dd8d48988d121941735","category":"Lounge","checkinsCount":305,"usersCount":130,"tipCount":2,"visitsCount":306,"tier":"","message":"","currency":"","rating":6.4},{"name":"Ebony Champagne & Cocktail Bar","phone":"+441913757121","address":"Unit 8 Walkergate","lat":54.778408,"lng":-1.575564,"city_fetched":"Norton,UK","state":"Durham","country":"United Kingdom","canonicalUrl":"https://foursquare.com/v/ebony-champagne--cocktail-bar/4c030690302295210980de81","categoryId":"4bf58dd8d48988d11e941735","category":"Cocktail Bar","checkinsCount":314,"usersCount":188,"tipCount":10,"visitsCount":317,"tier":"","message":"","currency":"","rating":6.4},{"name":"Liberty Brown","twitter":"liberty__brown","address":"10 Timber Beach Rd. Sunderland","lat":54.91857163206791,"lng":-1.428673267364502,"city_fetched":"Norton,UK","country":"United Kingdom","canonicalUrl":"https://foursquare.com/v/liberty-brown/4eda1fadb6344371f67fb531","categoryId":"4bf58dd8d48988d11e941735","category":"Cocktail Bar","checkinsCount":239,"usersCount":157,"tipCount":4,"visitsCount":276,"url":"http://www.libertybrown.com","tier":"","message":"","currency":"","rating":6.3},{"name":"The Bay Horse","phone":"+441642712319","address":"88 High St","lat":54.44603893815252,"lng":-1.1553668975830078,"city_fetched":"Norton,UK","country":"United Kingdom","canonicalUrl":"https://foursquare.com/v/the-bay-horse/4c8130de309aef3b4e39ba81","categoryId":"4bf58dd8d48988d11b941735","category":"Pub","checkinsCount":58,"usersCount":37,"tipCount":5,"visitsCount":76,"url":"http://thebayhorse-greatbroughton.co.uk","tier":"","message":"","currency":"","rating":6.3},{"name":"Champs Sports Bar and Grill (formerly Chevys)","phone":"+441914153341","address":"Ayton","lat":54.887174,"lng":-1.55071,"city_fetched":"Norton,UK","state":"Sunderland","country":"United Kingdom","canonicalUrl":"https://foursquare.com/v/champs-sports-bar-and-grill-formerly-chevys/4c7905b8794e224b38ec6328","categoryId":"4bf58dd8d48988d11d941735","category":"Sports Bar","checkinsCount":108,"usersCount":55,"tipCount":2,"visitsCount":153,"url":"http://champswashington.co.uk","tier":"","message":"","currency":"","rating":6.3},{"name":"The Rudds Arms","lat":54.53427529704119,"lng":-1.2048166734503503,"city_fetched":"Norton,UK","country":"United Kingdom","canonicalUrl":"https://foursquare.com/v/the-rudds-arms/4bbf6276b083a5933c54a3e9","categoryId":"4bf58dd8d48988d11b941735","category":"Pub","checkinsCount":124,"usersCount":88,"tipCount":3,"visitsCount":140,"tier":"","message":"","currency":"","rating":6.3},{"name":"Tindale Crossing (Brewers Fayre)","phone":"+441388451969","address":"West Auckland Road","lat":54.63866873039646,"lng":-1.6870777054786787,"city_fetched":"Norton,UK","state":"Durham","country":"United Kingdom","canonicalUrl":"https://foursquare.com/v/tindale-crossing-brewers-fayre/4c2734c9905a0f478d856460","categoryId":"4bf58dd8d48988d11b941735","category":"Pub","checkinsCount":64,"usersCount":45,"tipCount":1,"visitsCount":69,"url":"http://www.brewersfayre.co.uk/content/brewersfayre/our-pubs/newcastle/tindale-crossing.html","tier":"","message":"","currency":"","rating":6.3},{"name":"Half Moon Inn","phone":"+441913741918","address":"81-82 New Elvet","lat":54.775395365091455,"lng":-1.5725469589233398,"city_fetched":"Norton,UK","state":"Durham","country":"United Kingdom","canonicalUrl":"https://foursquare.com/v/half-moon-inn/4b873074f964a5207fb531e3","categoryId":"4bf58dd8d48988d11b941735","category":"Pub","checkinsCount":256,"usersCount":137,"tipCount":5,"visitsCount":257,"tier":"","message":"","currency":"","rating":6.3},{"name":"The Five Quarter (Wetherspoon)","phone":"+441915185880","address":"Units 3b-3c Hailsham Place","lat":54.758233197579436,"lng":-1.3327730312248949,"city_fetched":"Norton,UK","state":"Durham","country":"United Kingdom","canonicalUrl":"https://foursquare.com/v/the-five-quarter-wetherspoon/4c7bf8be566db60c1b514c0e","categoryId":"4bf58dd8d48988d11b941735","category":"Pub","checkinsCount":304,"usersCount":63,"tipCount":5,"visitsCount":323,"url":"http://www.jdwetherspoon.co.uk","tier":"","message":"","currency":"","rating":6.2},{"name":"Cobblers Hall","phone":"+441325315899","address":"Burnhill Way","lat":54.628815,"lng":-1.580382,"city_fetched":"Norton,UK","state":"Durham","country":"United Kingdom","canonicalUrl":"https://foursquare.com/v/cobblers-hall/4c07f4b3ffb8c9b64b7c6761","categoryId":"4bf58dd8d48988d116941735","category":"Bar","checkinsCount":303,"usersCount":93,"tipCount":6,"visitsCount":339,"tier":"","message":"","currency":"","rating":6.2},{"name":"Klute","phone":"+441913869859","address":"Elvet Bridge","lat":54.77597086472177,"lng":-1.5737593173980713,"city_fetched":"Norton,UK","state":"Durham","country":"United Kingdom","canonicalUrl":"https://foursquare.com/v/klute/4b8726edf964a52071b331e3","categoryId":"4bf58dd8d48988d11f941735","category":"Nightclub","checkinsCount":154,"usersCount":68,"tipCount":3,"visitsCount":155,"tier":"","message":"","currency":"","rating":6.2},{"name":"The Bishops' Mill  (Wetherspoon)","phone":"+441913708510","address":"Walkergate Leisure","lat":54.77841293374358,"lng":-1.5755937252856567,"city_fetched":"Norton,UK","state":"Darlington","country":"United Kingdom","canonicalUrl":"https://foursquare.com/v/the-bishops-mill--wetherspoon/4c87aadd821e9eb0d5cc8d89","categoryId":"4bf58dd8d48988d11b941735","category":"Pub","checkinsCount":1136,"usersCount":524,"tipCount":15,"visitsCount":1144,"url":"http://www.jdwetherspoon.co.uk","tier":1,"message":"Cheap","currency":"£","rating":6.1},{"name":"The Dickens Inn","phone":"+441642242621","address":"4 Southfield Rd","lat":54.570799123001436,"lng":-1.236509084701538,"city_fetched":"Norton,UK","state":"Middlesbrough","country":"United Kingdom","canonicalUrl":"https://foursquare.com/v/the-dickens-inn/4ba172a7f964a520e8b737e3","categoryId":"4bf58dd8d48988d11b941735","category":"Pub","checkinsCount":450,"usersCount":269,"tipCount":7,"visitsCount":499,"url":"http://thedickensinn.co.uk","tier":"","message":"","currency":"","rating":6},{"name":"The Garden House","address":"North Road","lat":54.78304100117251,"lng":-1.5857251453294865,"city_fetched":"Norton,UK","state":"Durham","country":"United Kingdom","canonicalUrl":"https://foursquare.com/v/the-garden-house/4bdb38e8c79cc928efb481e9","categoryId":"4bf58dd8d48988d11b941735","category":"Pub","checkinsCount":90,"usersCount":84,"tipCount":3,"visitsCount":137,"tier":"","message":"","currency":"","rating":6},{"name":"The White Heifer That Travelled","phone":"+441325462464","address":"Tillage Green","lat":54.54757523247699,"lng":-1.5862369537353516,"city_fetched":"Norton,UK","state":"Darlington","country":"United Kingdom","canonicalUrl":"https://foursquare.com/v/the-white-heifer-that-travelled/4c69685c0e98a593e9532459","categoryId":"4bf58dd8d48988d11b941735","category":"Pub","checkinsCount":214,"usersCount":94,"tipCount":6,"visitsCount":251,"url":"http://www.whiteheiferthattravelledpub.co.uk","tier":"","message":"","currency":"","rating":5.9},{"name":"The Tanners Hall (Wetherspoon)","address":"63-64 Skinnergate","lat":54.52555538764521,"lng":-1.557188630104065,"city_fetched":"Norton,UK","state":"Darlington","country":"United Kingdom","canonicalUrl":"https://foursquare.com/v/the-tanners-hall-wetherspoon/4bee4a253686c9b64d63246e","categoryId":"4bf58dd8d48988d11b941735","category":"Pub","checkinsCount":637,"usersCount":207,"tipCount":6,"visitsCount":723,"url":"http://www.jdwetherspoon.co.uk","tier":"","message":"","currency":"","rating":5.9},{"name":"Talpore (Beefeater)","phone":"+441642671573","twitter":"beefeater","address":"White Water Way, Thornaby","lat":54.567035518025165,"lng":-1.2844139725702404,"city_fetched":"Norton,UK","state":"Stockton-on-Tees","country":"United Kingdom","canonicalUrl":"https://foursquare.com/v/talpore-beefeater/4baab4a2f964a5205d813ae3","categoryId":"4bf58dd8d48988d11b941735","category":"Pub","checkinsCount":444,"usersCount":248,"tipCount":11,"visitsCount":519,"url":"http://www.beefeater.co.uk/steak-restaurant/CountyDurham/Talpore.html","tier":"","message":"","currency":"","rating":5.8},{"name":"The Company Row  (Wetherspoon)","phone":"+441207585600","address":"The Victoria Centre","lat":54.85204961,"lng":-1.8308168649673462,"city_fetched":"Norton,UK","state":"Durham","country":"United Kingdom","canonicalUrl":"https://foursquare.com/v/the-company-row--wetherspoon/4c87aab8821e9eb0b1cc8d89","categoryId":"4bf58dd8d48988d11b941735","category":"Pub","checkinsCount":790,"usersCount":92,"tipCount":3,"visitsCount":826,"url":"http://www.jdwetherspoon.co.uk","tier":"","message":"","currency":"","rating":5.8},{"name":"The New Inn","address":"29 Church Street Head","lat":54.76890027523041,"lng":-1.573661,"city_fetched":"Norton,UK","state":"Durham","country":"United Kingdom","canonicalUrl":"https://foursquare.com/v/the-new-inn/4af1b971f964a52082e221e3","categoryId":"4bf58dd8d48988d11b941735","category":"Pub","checkinsCount":191,"usersCount":113,"tipCount":7,"visitsCount":191,"tier":"","message":"","currency":"","rating":5.7},{"name":"The Grange","phone":"+441915498962","address":"225-227 Newcastle Rd.","lat":54.926642712130764,"lng":-1.3890938183667472,"city_fetched":"Norton,UK","country":"United Kingdom","canonicalUrl":"https://foursquare.com/v/the-grange/4c7273e81b11199c2e935813","categoryId":"4bf58dd8d48988d11b941735","category":"Pub","checkinsCount":587,"usersCount":142,"tipCount":2,"visitsCount":785,"tier":"","message":"","currency":"","rating":5.6},{"name":"The Slug and Lettuce","address":"Unit 7 Walkergate","lat":54.77850327522117,"lng":-1.5754115581512451,"city_fetched":"Norton,UK","state":"Durham","country":"United Kingdom","canonicalUrl":"https://foursquare.com/v/the-slug-and-lettuce/4ba4b9d2f964a5206faf38e3","categoryId":"4bf58dd8d48988d116941735","category":"Bar","checkinsCount":513,"usersCount":336,"tipCount":9,"visitsCount":518,"tier":"","message":"","currency":"","rating":5.2}]