[{"name":"The Plough","phone":"+441603661384","twitter":"ploughnorwich","address":"58 St Benedicts Street","lat":52.63125056095954,"lng":1.288090888701162,"neighborhood":"City Centre","city_fetched":"Norwich","state":"Norfolk","country":"United Kingdom","canonicalUrl":"https://foursquare.com/v/the-plough/4be474dccf200f474afd113c","category":"Pub","checkinsCount":604,"usersCount":321,"tipCount":15,"visitsCount":694,"url":"http://theploughnorwich.co.uk","tier":"","message":"","currency":"","rating":9.2},{"name":"The Fat Cat","phone":"+441603624364","twitter":"fatcatnorwich","address":"49 West End St.","lat":52.635173,"lng":1.275448,"city_fetched":"Norwich","state":"Norfolk","country":"United Kingdom","canonicalUrl":"https://foursquare.com/v/the-fat-cat/4b533826f964a520cb9227e3","category":"Pub","checkinsCount":1059,"usersCount":401,"tipCount":26,"visitsCount":1201,"url":"http://www.fatcatpub.co.uk","tier":"","message":"","currency":"","rating":9},{"name":"Frank's Bar","phone":"+441603618902","twitter":"franksbar","address":"19 Bedford St","lat":52.6297687,"lng":1.2947875,"neighborhood":"Norwich Lanes","city_fetched":"Norwich","state":"Norfolk","country":"United Kingdom","canonicalUrl":"https://foursquare.com/v/franks-bar/4b6ca100f964a520c0472ce3","category":"Bar","checkinsCount":746,"usersCount":433,"tipCount":19,"visitsCount":875,"tier":"","message":"","currency":"","rating":8.9},{"name":"The Bicycle Shop","phone":"+441603625777","twitter":"bikeshopnorwich","address":"17 St Benedicts St","lat":52.630893,"lng":1.290657,"neighborhood":"City Centre","city_fetched":"Norwich","state":"Norfolk","country":"United Kingdom","canonicalUrl":"https://foursquare.com/v/the-bicycle-shop/4b4de591f964a5206fda26e3","category":"Café","checkinsCount":568,"usersCount":328,"tipCount":30,"visitsCount":620,"url":"http://thebicycleshopcafe.com","tier":"","message":"","currency":"","rating":8.7},{"name":"BrewDog Norwich","phone":"+441603666868","twitter":"brewdognorwich","address":"1 Queen St","lat":52.6302377224606,"lng":1.2974227065995416,"neighborhood":"Cathedral Quarter","city_fetched":"Norwich","state":"Norfolk","country":"United Kingdom","canonicalUrl":"https://foursquare.com/v/brewdog-norwich/57068ae6498e03db1abca8fc","category":"Beer Bar","checkinsCount":246,"usersCount":79,"tipCount":7,"visitsCount":275,"url":"https://www.brewdog.com/bars/uk/norwich","tier":"","message":"","currency":"","rating":8.6},{"name":"Adam & Eve","phone":"+441603667423","address":"17 Bishop Gate","lat":52.633856534957886,"lng":1.30297,"neighborhood":"Cathedral Quarter","city_fetched":"Norwich","state":"Norfolk","country":"United Kingdom","canonicalUrl":"https://foursquare.com/v/adam--eve/4b9bd1f9f964a5202f2936e3","category":"Pub","checkinsCount":419,"usersCount":303,"tipCount":8,"visitsCount":485,"tier":"","message":"","currency":"","rating":8.5},{"name":"The Fat Cat and Canary","phone":"+441603436925","twitter":"fatcatcanary","address":"101 Thorpe Rd","lat":52.62545490718378,"lng":1.3213350846080547,"neighborhood":"Thorpe","city_fetched":"Norwich","state":"Norfolk","country":"United Kingdom","canonicalUrl":"https://foursquare.com/v/the-fat-cat-and-canary/4fbd4ebee4b05ba1686355ab","category":"Pub","checkinsCount":475,"usersCount":133,"tipCount":4,"visitsCount":635,"url":"http://fatcatcanary.co.uk","tier":"","message":"","currency":"","rating":8.5},{"name":"Fat Cat Brewery Tap","phone":"+441603413153","twitter":"fatcattap","address":"98-100 Lawson Rd","lat":52.64328477705039,"lng":1.300055980682373,"neighborhood":"Sewell","city_fetched":"Norwich","state":"Norfolk","country":"United Kingdom","canonicalUrl":"https://foursquare.com/v/fat-cat-brewery-tap/4db426031e7248d1359b3d6b","category":"Pub","checkinsCount":453,"usersCount":209,"tipCount":9,"visitsCount":522,"url":"http://www.fatcattap.co.uk","tier":"","message":"","currency":"","rating":8.5},{"name":"Rushcutters Arms","lat":52.62575089931488,"lng":1.34245094,"neighborhood":"Thorpe","city_fetched":"Norwich","state":"Norfolk","country":"United Kingdom","canonicalUrl":"https://foursquare.com/v/rushcutters-arms/4bcb0371b6c49c74555b9191","category":"Beer Garden","checkinsCount":364,"usersCount":261,"tipCount":7,"visitsCount":478,"tier":"","message":"","currency":"","rating":8.4},{"name":"St. Andrews Brewhouse","twitter":"standrewbrewhse","address":"41 St. Andrews Street","lat":52.6306721988138,"lng":1.2955882521475883,"neighborhood":"City Centre","city_fetched":"Norwich","state":"Norfolk","country":"United Kingdom","canonicalUrl":"https://foursquare.com/v/st-andrews-brewhouse/55991999498e83c3be4d0a30","category":"Pub","checkinsCount":261,"usersCount":172,"tipCount":6,"visitsCount":318,"tier":"","message":"","currency":"","rating":8.4},{"name":"Belgian Monk","phone":"+441603767222","address":"7 Pottergate","lat":52.62988046142604,"lng":1.29250003447931,"neighborhood":"Norwich Lanes","city_fetched":"Norwich","state":"Norfolk","country":"United Kingdom","canonicalUrl":"https://foursquare.com/v/belgian-monk/4bc0f10db492d13a5638a560","category":"Pub","checkinsCount":658,"usersCount":453,"tipCount":21,"visitsCount":733,"tier":"","message":"","currency":"","rating":8.3},{"name":"The Jubilee","phone":"+441603618734","twitter":"jubilee_the","address":"26 St Leonards Rd","lat":52.629135847091675,"lng":1.311761,"neighborhood":"Thorpe","city_fetched":"Norwich","state":"Norfolk","country":"United Kingdom","canonicalUrl":"https://foursquare.com/v/the-jubilee/4c83f3f4d8086dcbd0c48452","category":"Pub","checkinsCount":477,"usersCount":84,"tipCount":5,"visitsCount":501,"tier":"","message":"","currency":"","rating":8.3},{"name":"The Norwich Tap House","twitter":"norwichtaphouse","address":"8 Redwell St","lat":52.63049415190832,"lng":1.296618450837934,"neighborhood":"Cathedral Quarter","city_fetched":"Norwich","state":"Norfolk","country":"United Kingdom","canonicalUrl":"https://foursquare.com/v/the-norwich-tap-house/5081b565e4b0211345f679f8","category":"Pub","checkinsCount":774,"usersCount":293,"tipCount":13,"visitsCount":844,"tier":"","message":"","currency":"","rating":8.2},{"name":"The Mulberry","phone":"+441603630930","address":"111 Unthank Rd","lat":52.624506,"lng":1.2775706666666666,"city_fetched":"Norwich","state":"Norfolk","country":"United Kingdom","canonicalUrl":"https://foursquare.com/v/the-mulberry/4c38ba451e06d13a1b44783e","category":"Pub","checkinsCount":234,"usersCount":155,"tipCount":7,"visitsCount":254,"url":"http://www.mymulberry.co.uk","tier":"","message":"","currency":"","rating":8.1},{"name":"The White Lion","lat":52.63508498668671,"lng":1.28922,"neighborhood":"City Centre","city_fetched":"Norwich","country":"United Kingdom","canonicalUrl":"https://foursquare.com/v/the-white-lion/4c72cc359e706dcb82cb4b62","category":"Pub","checkinsCount":351,"usersCount":116,"tipCount":4,"visitsCount":404,"tier":"","message":"","currency":"","rating":7.9},{"name":"The Alexandra Tavern","address":"Stafford St.","lat":52.632389,"lng":1.276384,"city_fetched":"Norwich","state":"Norfolk","country":"United Kingdom","canonicalUrl":"https://foursquare.com/v/the-alexandra-tavern/4be065e998f2a593661cc25a","category":"Pub","checkinsCount":207,"usersCount":85,"tipCount":6,"visitsCount":262,"tier":"","message":"","currency":"","rating":7.9},{"name":"The Mash Tun & Gin Palace","twitter":"mashtunnorwich","address":"16 Charing Cross","lat":52.630824554184755,"lng":1.2919395062582988,"neighborhood":"City Centre","city_fetched":"Norwich","state":"Norfolk","country":"United Kingdom","canonicalUrl":"https://foursquare.com/v/the-mash-tun--gin-palace/53c13340498ea554b4ad99a1","category":"Pub","checkinsCount":192,"usersCount":148,"tipCount":5,"visitsCount":268,"tier":"","message":"","currency":"","rating":7.8},{"name":"Ribs Of Beef","phone":"+441603619517","twitter":"ribsofbeef","address":"24 Wensum St.","lat":52.63275038251931,"lng":1.2971687919884918,"neighborhood":"Cathedral Quarter","city_fetched":"Norwich","state":"Norfolk","country":"United Kingdom","canonicalUrl":"https://foursquare.com/v/ribs-of-beef/4bad1b5ef964a5203e2e3be3","category":"Pub","checkinsCount":549,"usersCount":295,"tipCount":12,"visitsCount":584,"tier":"","message":"","currency":"","rating":7.8},{"name":"The Whalebone","address":"144 magdalen road","lat":52.64403569737269,"lng":1.297284,"neighborhood":"Sewell","city_fetched":"Norwich","state":"Norfolk","country":"United Kingdom","canonicalUrl":"https://foursquare.com/v/the-whalebone/4baaaeddf964a5207a7f3ae3","category":"Pub","checkinsCount":389,"usersCount":112,"tipCount":4,"visitsCount":433,"tier":"","message":"","currency":"","rating":7.8},{"name":"The Reindeer","address":"Dereham Road","lat":52.63220589888436,"lng":1.2841598444362046,"city_fetched":"Norwich","state":"Norfolk","country":"United Kingdom","canonicalUrl":"https://foursquare.com/v/the-reindeer/4be5af03bcef2d7f382404e5","category":"Pub","checkinsCount":300,"usersCount":157,"tipCount":6,"visitsCount":350,"tier":"","message":"","currency":"","rating":7.7},{"name":"Gonzo's Tea Room","twitter":"gonzostearoom","address":"68 London St","lat":52.62991969282528,"lng":1.2968140518922247,"neighborhood":"Norwich Lanes","city_fetched":"Norwich","state":"Norfolk","country":"United Kingdom","canonicalUrl":"https://foursquare.com/v/gonzos-tea-room/53892770498e0c921f9bd7a0","category":"Cocktail Bar","checkinsCount":151,"usersCount":82,"tipCount":5,"visitsCount":167,"tier":"","message":"","currency":"","rating":7.7},{"name":"Trafford Arms","address":"Trafford Road","lat":52.620630639967885,"lng":1.2908077239990234,"city_fetched":"Norwich","state":"Norfolk","country":"United Kingdom","canonicalUrl":"https://foursquare.com/v/trafford-arms/4bd483927b1876b0d92a8986","category":"Pub","checkinsCount":263,"usersCount":134,"tipCount":5,"visitsCount":340,"tier":"","message":"","currency":"","rating":7.7},{"name":"Lollards Pit","phone":"+441603857339","address":"69-71","lat":52.632258110012955,"lng":1.3092327818113723,"neighborhood":"Thorpe","city_fetched":"Norwich","state":"Norfolk","country":"United Kingdom","canonicalUrl":"https://foursquare.com/v/lollards-pit/4faecbaee4b0c0e08e545d95","category":"Bar","checkinsCount":47,"usersCount":46,"tipCount":1,"visitsCount":76,"tier":"","message":"","currency":"","rating":7.6},{"name":"The Sir Garnet","phone":"+441603615892","twitter":"sirgarnetpub","address":"36 Market Close","lat":52.628263860778006,"lng":1.2929725719320297,"neighborhood":"City Centre","city_fetched":"Norwich","state":"Norfolk","country":"United Kingdom","canonicalUrl":"https://foursquare.com/v/the-sir-garnet/4ff08e66e4b0c8e6f5e54660","category":"Pub","checkinsCount":431,"usersCount":222,"tipCount":8,"visitsCount":461,"url":"http://www.thesirgarnet.co.uk","tier":"","message":"","currency":"","rating":7.6},{"name":"The Kings Head","phone":"+441603767094","address":"42 Magdalen St.","lat":52.63492153306836,"lng":1.2963515513379593,"neighborhood":"City Centre","city_fetched":"Norwich","state":"Norfolk","country":"United Kingdom","canonicalUrl":"https://foursquare.com/v/the-kings-head/4c1b45cee9c4ef3b5f9b45aa","category":"Pub","checkinsCount":432,"usersCount":163,"tipCount":3,"visitsCount":459,"tier":"","message":"","currency":"","rating":7.5},{"name":"The Garden House","lat":52.62820780277252,"lng":1.27528573,"city_fetched":"Norwich","country":"United Kingdom","canonicalUrl":"https://foursquare.com/v/the-garden-house/4bb75fb12ea19521a5d2ac2f","category":"Pub","checkinsCount":351,"usersCount":188,"tipCount":8,"visitsCount":404,"tier":"","message":"","currency":"","rating":7.5},{"name":"Ten Bells","phone":"+441603920292","twitter":"tenbellsnorwich","address":"74-78 St Benedicts Street","lat":52.63125265159069,"lng":1.287546157836914,"neighborhood":"Norwich Lanes","city_fetched":"Norwich","state":"Norfolk","country":"United Kingdom","canonicalUrl":"https://foursquare.com/v/ten-bells/4b6c6f83f964a520f2392ce3","category":"Pub","checkinsCount":445,"usersCount":236,"tipCount":11,"visitsCount":475,"url":"http://www.thetenbells.co.uk","tier":"","message":"","currency":"","rating":7.4},{"name":"Coach and Horses","phone":"+441603477077","address":"82 Thorpe Road","lat":52.626915,"lng":1.310873,"neighborhood":"Thorpe","city_fetched":"Norwich","state":"Norfolk","country":"United Kingdom","canonicalUrl":"https://foursquare.com/v/coach-and-horses/4b7fea68f964a520224430e3","category":"Pub","checkinsCount":1499,"usersCount":394,"tipCount":16,"visitsCount":1744,"tier":"","message":"","currency":"","rating":7.4},{"name":"The Cellar House","phone":"+441603454511","twitter":"thecellarhouse","address":"2 Eaton Street","lat":52.60895007558171,"lng":1.2525464367167392,"neighborhood":"Eaton","city_fetched":"Norwich","state":"Norfolk","country":"United Kingdom","canonicalUrl":"https://foursquare.com/v/the-cellar-house/4dcfc98aae603b786d50802e","category":"Pub","checkinsCount":139,"usersCount":67,"tipCount":0,"visitsCount":154,"url":"http://www.thecellarhouse.co.uk","tier":"","message":"","currency":"","rating":7.4},{"name":"The Library","phone":"+441603616606","address":"4A Guildhall Hill","lat":52.62943272552494,"lng":1.2923661010729324,"neighborhood":"Norwich Lanes","city_fetched":"Norwich","state":"Norfolk","country":"United Kingdom","canonicalUrl":"https://foursquare.com/v/the-library/4bef1c76d1b7d13aab58cdec","category":"Bar","checkinsCount":243,"usersCount":193,"tipCount":10,"visitsCount":244,"url":"http://thelibraryrestaurant.co.uk","tier":"","message":"","currency":"","rating":7.3},{"name":"UEA LCR","phone":"+441603508050","address":"University of East Anglia","lat":52.62152036059221,"lng":1.2417094612496655,"neighborhood":"University","city_fetched":"Norwich","state":"Norfolk","country":"United Kingdom","canonicalUrl":"https://foursquare.com/v/uea-lcr/4c0ad7007e3fc928a45ef482","category":"Nightclub","checkinsCount":1232,"usersCount":426,"tipCount":9,"visitsCount":1251,"tier":"","message":"","currency":"","rating":7.3},{"name":"The Georgian Townhouse","phone":"+441603615655","address":"32 Unthank Rd","lat":52.627800157926046,"lng":1.2832036077862843,"city_fetched":"Norwich","state":"Norfolk","country":"United Kingdom","canonicalUrl":"https://foursquare.com/v/the-georgian-townhouse/4bcf4e870ffdce72ea5fb2c0","category":"Hotel","checkinsCount":178,"usersCount":159,"tipCount":1,"visitsCount":281,"url":"http://www.thegeorgiantownhousenorwich.com","tier":"","message":"","currency":"","rating":7.3},{"name":"The Birdcage","phone":"+441603633534","address":"23 Pottergate","lat":52.630102,"lng":1.291551,"neighborhood":"Norwich Lanes","city_fetched":"Norwich","state":"Norfolk","country":"United Kingdom","canonicalUrl":"https://foursquare.com/v/the-birdcage/4bc30d0ab492d13a042ca860","category":"Bar","checkinsCount":564,"usersCount":276,"tipCount":14,"visitsCount":573,"tier":"","message":"","currency":"","rating":7.3},{"name":"The Cottage","address":"Silver Rd","lat":52.63741,"lng":1.302588,"neighborhood":"Thorpe","city_fetched":"Norwich","state":"Norfolk","country":"United Kingdom","canonicalUrl":"https://foursquare.com/v/the-cottage/4c64250dedd320a14716b129","category":"Pub","checkinsCount":249,"usersCount":109,"tipCount":6,"visitsCount":347,"tier":"","message":"","currency":"","rating":7.2},{"name":"Black Horse","address":"Earlham Road","lat":52.63055802576776,"lng":1.2785510662136677,"city_fetched":"Norwich","state":"Norfolk","country":"United Kingdom","canonicalUrl":"https://foursquare.com/v/black-horse/4c0aebabbbc676b070c54ad5","category":"Pub","checkinsCount":94,"usersCount":81,"tipCount":1,"visitsCount":123,"tier":"","message":"","currency":"","rating":7.2},{"name":"The Earlham Arms","phone":"+441603622993","address":"41 Earlham Rd","lat":52.630850759215264,"lng":1.2799492123676597,"city_fetched":"Norwich","state":"Norfolk","country":"United Kingdom","canonicalUrl":"https://foursquare.com/v/the-earlham-arms/4ef24d94b634355ded87fdae","category":"Bar","checkinsCount":156,"usersCount":102,"tipCount":7,"visitsCount":229,"url":"http://earlhamarmsnorfolk.co.uk","tier":"","message":"","currency":"","rating":7.1},{"name":"The Eaton Cottage","address":"Unthank Road","lat":52.622602,"lng":1.27523874,"city_fetched":"Norwich","state":"Norfolk","country":"United Kingdom","canonicalUrl":"https://foursquare.com/v/the-eaton-cottage/4b58c0bdf964a520326928e3","category":"Pub","checkinsCount":342,"usersCount":107,"tipCount":4,"visitsCount":387,"tier":"","message":"","currency":"","rating":7.1},{"name":"Kings Arms","address":"22 Hall Rd","lat":52.62046,"lng":1.298467,"city_fetched":"Norwich","state":"Norfolk","country":"United Kingdom","canonicalUrl":"https://foursquare.com/v/kings-arms/4ccb3cd3c0378cfa35657d48","category":"Pub","checkinsCount":186,"usersCount":89,"tipCount":4,"visitsCount":186,"tier":2,"message":"Moderate","currency":"£","rating":7},{"name":"Duke of Wellington","phone":"+441603404556","address":"91-93 Waterloo Road","lat":52.64226927223016,"lng":1.2938839527992219,"neighborhood":"Sewell","city_fetched":"Norwich","state":"Norfolk","country":"United Kingdom","canonicalUrl":"https://foursquare.com/v/duke-of-wellington/4bf55361d2fbef3b7deca4c5","category":"Pub","checkinsCount":283,"usersCount":75,"tipCount":7,"visitsCount":328,"tier":"","message":"","currency":"","rating":7},{"name":"Kings Head","lat":52.63433622480097,"lng":1.183949190731562,"neighborhood":"Cringleford","city_fetched":"Norwich","state":"Norfolk","country":"United Kingdom","canonicalUrl":"https://foursquare.com/v/kings-head/4beebef93686c9b6bedf246e","category":"Pub","checkinsCount":122,"usersCount":98,"tipCount":4,"visitsCount":166,"tier":"","message":"","currency":"","rating":7},{"name":"Revolution","phone":"+441603858483","address":"6 Queen St.","lat":52.630294,"lng":1.297556,"neighborhood":"Cathedral Quarter","city_fetched":"Norwich","state":"Norfolk","country":"United Kingdom","canonicalUrl":"https://foursquare.com/v/revolution/4c8a67083dc2a1cd5c91ac32","category":"Cocktail Bar","checkinsCount":729,"usersCount":374,"tipCount":8,"visitsCount":788,"tier":"","message":"","currency":"","rating":7},{"name":"The Wig and Pen","phone":"+441603625891","twitter":"the_wig_norwich","address":"6 St Martin's Palace Plain","lat":52.63329730455655,"lng":1.3002490997314453,"neighborhood":"Cathedral Quarter","city_fetched":"Norwich","country":"United Kingdom","canonicalUrl":"https://foursquare.com/v/the-wig-and-pen/4b7465f3f964a5200eda2de3","category":"Pub","checkinsCount":287,"usersCount":201,"tipCount":2,"visitsCount":334,"url":"http://www.thewigandpen.com","tier":"","message":"","currency":"","rating":6.8},{"name":"The Dog House","phone":"+441603765378","address":"18 St Georges Street, Norwich, NR3 1","lat":52.631099224090576,"lng":1.295256,"neighborhood":"City Centre","city_fetched":"Norwich","state":"Norfolk","country":"United Kingdom","canonicalUrl":"https://foursquare.com/v/the-dog-house/4b700255f964a52040032de3","category":"Bar","checkinsCount":366,"usersCount":149,"tipCount":1,"visitsCount":369,"tier":"","message":"","currency":"","rating":6.8}]