[{"name":"Malt Cross","phone":"+441159411048","twitter":"maltcross","address":"St James's Street","lat":52.95315955616998,"lng":-1.1522480224219827,"neighborhood":"City Centre","city_fetched":"Nottingham,UK","state":"Nottinghamshire","country":"United Kingdom","canonicalUrl":"https://foursquare.com/v/malt-cross/54514d19498e1bb54bc03834","categoryId":"4bf58dd8d48988d116941735","category":"Bar","checkinsCount":365,"usersCount":242,"tipCount":8,"visitsCount":439,"url":"http://www.maltcross.com","tier":"","message":"","currency":"","rating":9},{"name":"The Organ Grinder","phone":"+441159700630","twitter":"ogrindernotts","address":"21 Alfreton Rd","lat":52.956412133955475,"lng":-1.1627862802194493,"neighborhood":"Radford","city_fetched":"Nottingham,UK","state":"Nottinghamshire","country":"United Kingdom","canonicalUrl":"https://foursquare.com/v/the-organ-grinder/4e04b1ac18381783e7320887","categoryId":"4bf58dd8d48988d11b941735","category":"Pub","checkinsCount":721,"usersCount":310,"tipCount":14,"visitsCount":804,"url":"http://www.bluemonkeybrewery.com/pubs/organ-grinder-nottingham","tier":"","message":"","currency":"","rating":9},{"name":"Ye Olde Trip to Jerusalem","phone":"+441159473171","twitter":"triptojerusalem","address":"1 Brewhouse Yard","lat":52.949258467937916,"lng":-1.1525774002075195,"neighborhood":"City Centre West","city_fetched":"Nottingham,UK","state":"Nottinghamshire","country":"United Kingdom","canonicalUrl":"https://foursquare.com/v/ye-olde-trip-to-jerusalem/4b1fc555f964a520e12824e3","categoryId":"4bf58dd8d48988d11b941735","category":"Pub","checkinsCount":2890,"usersCount":2624,"tipCount":80,"visitsCount":3380,"url":"http://www.triptojerusalem.com","tier":2,"message":"Moderate","currency":"£","rating":9},{"name":"Pitcher & Piano","phone":"+441159586081","twitter":"pitcherandpiano","address":"The Unitarian Church, High Pavement","lat":52.950941,"lng":-1.145311,"neighborhood":"City Centre","city_fetched":"Nottingham,UK","state":"Nottinghamshire","country":"United Kingdom","canonicalUrl":"https://foursquare.com/v/pitcher--piano/4b58dfd2f964a520457028e3","categoryId":"4bf58dd8d48988d116941735","category":"Bar","checkinsCount":2166,"usersCount":1765,"tipCount":44,"visitsCount":2659,"url":"http://www.pitcherandpiano.com","tier":3,"message":"Expensive","currency":"£","rating":8.8},{"name":"The Canalhouse","phone":"+441159555011","twitter":"canalhousebar","address":"48-52 Canal St","lat":52.94830981263958,"lng":-1.1484789848327637,"neighborhood":"City Centre","city_fetched":"Nottingham,UK","state":"Nottinghamshire","country":"United Kingdom","canonicalUrl":"https://foursquare.com/v/the-canalhouse/4b9d3900f964a520d99a36e3","categoryId":"4bf58dd8d48988d116941735","category":"Bar","checkinsCount":1756,"usersCount":1092,"tipCount":26,"visitsCount":2133,"url":"http://thecanalhouse.co.uk","tier":2,"message":"Moderate","currency":"£","rating":8.8},{"name":"Junkyard Bottle Shop and Pour House","phone":"+441159501758","twitter":"jydpoho","address":"12 Bridlesmith Walk","lat":52.95256904102519,"lng":-1.1461594307228287,"neighborhood":"City Centre","city_fetched":"Nottingham,UK","state":"Nottinghamshire","country":"United Kingdom","canonicalUrl":"https://foursquare.com/v/junkyard-bottle-shop-and-pour-house/541c9a42498e537b40511b9a","categoryId":"4bf58dd8d48988d116941735","category":"Bar","checkinsCount":659,"usersCount":277,"tipCount":15,"visitsCount":797,"url":"http://www.junkbars.com","tier":"","message":"","currency":"","rating":8.7},{"name":"Kean's Head","phone":"+441159414400","address":"46 St Mary's Gate","lat":52.951327,"lng":-1.143976,"neighborhood":"City Centre","city_fetched":"Nottingham,UK","state":"Nottinghamshire","country":"United Kingdom","canonicalUrl":"https://foursquare.com/v/keans-head/4b71d784f964a520875f2de3","categoryId":"4bf58dd8d48988d11b941735","category":"Pub","checkinsCount":1310,"usersCount":453,"tipCount":18,"visitsCount":1399,"url":"http://www.castlerockbrewery.co.uk/pubs/keans-head/","tier":"","message":"","currency":"","rating":8.6},{"name":"Crafty Crow","phone":"+441158371992","twitter":"crafty_crow","address":"102 Friar Ln","lat":52.95101896314002,"lng":-1.1538176584179,"neighborhood":"City Centre West","city_fetched":"Nottingham,UK","state":"Nottinghamshire","country":"United Kingdom","canonicalUrl":"https://foursquare.com/v/crafty-crow/53025bd9498e043a31e275ff","categoryId":"4bf58dd8d48988d11b941735","category":"Pub","checkinsCount":587,"usersCount":237,"tipCount":9,"visitsCount":627,"url":"http://www.craftycrownotts.co.uk","tier":"","message":"","currency":"","rating":8.6},{"name":"BrewDog Nottingham","phone":"+441159585690","twitter":"brewdog","address":"20-22 Broad St","lat":52.954478124035155,"lng":-1.1441633105278015,"neighborhood":"City Centre","city_fetched":"Nottingham,UK","state":"Nottinghamshire","country":"United Kingdom","canonicalUrl":"https://foursquare.com/v/brewdog-nottingham/4f1091efe4b0fd294d71adf1","categoryId":"56aa371ce4b08b9a8d57356c","category":"Beer Bar","checkinsCount":2419,"usersCount":831,"tipCount":29,"visitsCount":2670,"url":"http://www.brewdog.com","tier":3,"message":"Expensive","currency":"£","rating":8.6},{"name":"Antenna","phone":"+441159932350","twitter":"antenna_uk","address":"9a Beck St","lat":52.955825657822146,"lng":-1.142724764212277,"neighborhood":"City Centre Northeast","city_fetched":"Nottingham,UK","state":"Nottinghamshire","country":"United Kingdom","canonicalUrl":"https://foursquare.com/v/antenna/4aea0294f964a52078b821e3","categoryId":"4bf58dd8d48988d116941735","category":"Bar","checkinsCount":1949,"usersCount":431,"tipCount":16,"visitsCount":2371,"url":"http://www.antenna.uk.com","tier":"","message":"","currency":"","rating":8.5},{"name":"Tilt Bar","phone":"+441159501226","address":"9 Pelham Street","lat":52.95373,"lng":-1.1469447612762451,"neighborhood":"City Centre","city_fetched":"Nottingham,UK","state":"Nottinghamshire","country":"United Kingdom","canonicalUrl":"https://foursquare.com/v/tilt-bar/4b9922cff964a520dd6335e3","categoryId":"4bf58dd8d48988d11e941735","category":"Cocktail Bar","checkinsCount":633,"usersCount":356,"tipCount":22,"visitsCount":667,"tier":"","message":"","currency":"","rating":8.5},{"name":"Boilermaker","phone":"+441159587528","twitter":"boilermakerbar","address":"36b Carlton St, Hockley","lat":52.953523787141094,"lng":-1.1438138743352597,"neighborhood":"City Centre","city_fetched":"Nottingham,UK","state":"Nottinghamshire","country":"United Kingdom","canonicalUrl":"https://foursquare.com/v/boilermaker/51c495ea498e2a060cbe2672","categoryId":"4bf58dd8d48988d1d4941735","category":"Speakeasy","checkinsCount":432,"usersCount":292,"tipCount":21,"visitsCount":461,"url":"http://boilermakerbar.co.uk","tier":2,"message":"Moderate","currency":"£","rating":8.5},{"name":"The Sir John Borlase Warren","phone":"+441159881889","twitter":"thesirjohn","address":"1 Ilkeston Road","lat":52.95574306993269,"lng":-1.162132940882487,"neighborhood":"City Centre West","city_fetched":"Nottingham,UK","state":"Nottinghamshire","country":"United Kingdom","canonicalUrl":"https://foursquare.com/v/the-sir-john-borlase-warren/538f1169498e9e17bc7bd2e3","categoryId":"4bf58dd8d48988d11b941735","category":"Pub","checkinsCount":227,"usersCount":80,"tipCount":2,"visitsCount":240,"tier":2,"message":"Moderate","currency":"£","rating":8.5},{"name":"The Embankment Pub & Kitchen","phone":"+441159864502","twitter":"embankmentnottm","address":"282-284 Arkwright St","lat":52.93939919484564,"lng":-1.1387264728546143,"city_fetched":"Nottingham,UK","state":"Nottinghamshire","country":"United Kingdom","canonicalUrl":"https://foursquare.com/v/the-embankment-pub--kitchen/4c8a6e8752a98cfacd8d2ce9","categoryId":"4bf58dd8d48988d116941735","category":"Bar","checkinsCount":209,"usersCount":88,"tipCount":0,"visitsCount":236,"url":"http://www.theembankmentpub.co.uk","tier":"","message":"","currency":"","rating":8.2},{"name":"Hockley Arts Club","address":"20 Carlton St","lat":52.95343634168915,"lng":-1.1442112619142921,"neighborhood":"City Centre","city_fetched":"Nottingham,UK","state":"Nottinghamshire","country":"United Kingdom","canonicalUrl":"https://foursquare.com/v/hockley-arts-club/5654db1d498e006b1a3ba88e","categoryId":"4bf58dd8d48988d121941735","category":"Lounge","checkinsCount":109,"usersCount":77,"tipCount":2,"visitsCount":114,"tier":"","message":"","currency":"","rating":8.2},{"name":"Pepper Rocks","phone":"+441159586477","twitter":"pepper_rocks","address":"12 Pepper St., Bridlesmith Gate","lat":52.95197862824366,"lng":-1.1475728019469424,"neighborhood":"City Centre","city_fetched":"Nottingham,UK","state":"Nottinghamshire","country":"United Kingdom","canonicalUrl":"https://foursquare.com/v/pepper-rocks/50677ea9e4b0759e8ae8b230","categoryId":"4bf58dd8d48988d116941735","category":"Bar","checkinsCount":220,"usersCount":127,"tipCount":8,"visitsCount":240,"url":"http://pepperrocks.co.uk","tier":"","message":"","currency":"","rating":8.2},{"name":"The King William IV","twitter":"thekingbillypub","address":"Manvers Street","lat":52.95301276565807,"lng":-1.1367877088343679,"neighborhood":"Sneinton","city_fetched":"Nottingham,UK","state":"Nottinghamshire","country":"United Kingdom","canonicalUrl":"https://foursquare.com/v/the-king-william-iv/4dc2bf331838ada6b26a643d","categoryId":"4bf58dd8d48988d11b941735","category":"Pub","checkinsCount":325,"usersCount":114,"tipCount":7,"visitsCount":411,"tier":"","message":"","currency":"","rating":8.2},{"name":"Cock & Hoop","phone":"+441158523231","address":"25-27 High Pavement","lat":52.95092624078055,"lng":-1.1442679166793823,"neighborhood":"City Centre","city_fetched":"Nottingham,UK","state":"Nottinghamshire","country":"United Kingdom","canonicalUrl":"https://foursquare.com/v/cock--hoop/4bd9efdd8668c9b6edabf209","categoryId":"4bf58dd8d48988d11b941735","category":"Pub","checkinsCount":532,"usersCount":278,"tipCount":6,"visitsCount":533,"tier":"","message":"","currency":"","rating":8.1},{"name":"Das Kino","address":"22 Fletcher Gate","lat":52.952129,"lng":-1.14602,"neighborhood":"City Centre","city_fetched":"Nottingham,UK","state":"Nottinghamshire","country":"United Kingdom","canonicalUrl":"https://foursquare.com/v/das-kino/5411e611498eba589d841575","categoryId":"4bf58dd8d48988d116941735","category":"Bar","checkinsCount":260,"usersCount":155,"tipCount":6,"visitsCount":285,"tier":"","message":"","currency":"","rating":8.1},{"name":"The Vat And Fiddle","phone":"+441159850611","address":"12–14 Queensbridge Rd","lat":52.945749794010055,"lng":-1.1482590436935425,"neighborhood":"City Centre","city_fetched":"Nottingham,UK","state":"Nottinghamshire","country":"United Kingdom","canonicalUrl":"https://foursquare.com/v/the-vat-and-fiddle/4c1d1c82b9f876b0af0c7d46","categoryId":"4bf58dd8d48988d11b941735","category":"Pub","checkinsCount":637,"usersCount":314,"tipCount":16,"visitsCount":747,"tier":"","message":"","currency":"","rating":8.1},{"name":"Spanky Van Dykes","phone":"+441159243730","address":"17 Goldsmith St","lat":52.95599703874461,"lng":-1.1528295278549194,"neighborhood":"City Centre Northwest","city_fetched":"Nottingham,UK","state":"Nottinghamshire","country":"United Kingdom","canonicalUrl":"https://foursquare.com/v/spanky-van-dykes/4bc75fd0af07a593ff0e7f2d","categoryId":"4bf58dd8d48988d116941735","category":"Bar","checkinsCount":1746,"usersCount":936,"tipCount":27,"visitsCount":1932,"tier":2,"message":"Moderate","currency":"£","rating":8.1},{"name":"Filthy's","address":"13-15 Weekday Cross","lat":52.95131012303797,"lng":-1.1457122824117187,"neighborhood":"City Centre","city_fetched":"Nottingham,UK","state":"Nottinghamshire","country":"United Kingdom","canonicalUrl":"https://foursquare.com/v/filthys/525b174011d2ebd2c4e0951c","categoryId":"4bf58dd8d48988d116941735","category":"Bar","checkinsCount":163,"usersCount":109,"tipCount":5,"visitsCount":165,"tier":"","message":"","currency":"","rating":8},{"name":"Willowbrook","phone":"+441159878596","address":"13 Main road","lat":52.972726509196995,"lng":-1.0816194962582766,"city_fetched":"Nottingham,UK","state":"Nottinghamshire","country":"United Kingdom","canonicalUrl":"https://foursquare.com/v/willowbrook/4ccdab947c2ff04de4a2a07e","categoryId":"4bf58dd8d48988d11b941735","category":"Pub","checkinsCount":104,"usersCount":33,"tipCount":6,"visitsCount":106,"tier":"","message":"","currency":"","rating":7.9},{"name":"Kraft Werks","phone":"+441158373090","twitter":"kraftwerksnotts","address":"513 Mansfield Road","lat":52.980392,"lng":-1.146899,"neighborhood":"Sherwood","city_fetched":"Nottingham,UK","state":"Nottinghamshire","country":"United Kingdom","canonicalUrl":"https://foursquare.com/v/kraft-werks/5535313e498e13376748caad","categoryId":"4bf58dd8d48988d116941735","category":"Bar","checkinsCount":167,"usersCount":62,"tipCount":1,"visitsCount":245,"url":"http://www.kraft-werks.com","tier":"","message":"","currency":"","rating":7.9},{"name":"Curious Manor","lat":52.95580475869724,"lng":-1.1492615950753586,"neighborhood":"City Centre Northeast","city_fetched":"Nottingham,UK","country":"United Kingdom","canonicalUrl":"https://foursquare.com/v/curious-manor/55cb97eb498e79b3bbae39b7","categoryId":"4bf58dd8d48988d121941735","category":"Lounge","checkinsCount":72,"usersCount":52,"tipCount":2,"visitsCount":72,"tier":"","message":"","currency":"","rating":7.9},{"name":"The Gladstone","phone":"+441159129994","address":"45 Loscoe Rd","lat":52.974727749824524,"lng":-1.152539849281311,"neighborhood":"Sherwood","city_fetched":"Nottingham,UK","state":"Nottinghamshire","country":"United Kingdom","canonicalUrl":"https://foursquare.com/v/the-gladstone/4bd2ff44046076b065e87471","categoryId":"4bf58dd8d48988d11b941735","category":"Pub","checkinsCount":326,"usersCount":104,"tipCount":9,"visitsCount":364,"tier":"","message":"","currency":"","rating":7.9},{"name":"Larwood & Voce","phone":"+441159819960","address":"Fox Rd","lat":52.936801752878175,"lng":-1.1305610062156093,"city_fetched":"Nottingham,UK","state":"Nottinghamshire","country":"United Kingdom","canonicalUrl":"https://foursquare.com/v/larwood--voce/4beaa43e415e20a15638e5bb","categoryId":"4bf58dd8d48988d11b941735","category":"Pub","checkinsCount":572,"usersCount":250,"tipCount":11,"visitsCount":664,"tier":"","message":"","currency":"","rating":7.9},{"name":"Pit & Pendulum","phone":"+441159506383","twitter":"pit_n_pendulum","address":"17 Victoria St","lat":52.95339366728799,"lng":-1.146006052772339,"neighborhood":"City Centre","city_fetched":"Nottingham,UK","state":"Nottinghamshire","country":"United Kingdom","canonicalUrl":"https://foursquare.com/pit_n_pendulum","categoryId":"4bf58dd8d48988d11b941735","category":"Pub","checkinsCount":1812,"usersCount":866,"tipCount":30,"visitsCount":1898,"url":"http://www.pitandpendulum.co.uk","tier":2,"message":"Moderate","currency":"£","rating":7.9},{"name":"Barrel Drop","address":"7 Hurts Yard","lat":52.954584965851986,"lng":-1.152442001317162,"neighborhood":"City Centre","city_fetched":"Nottingham,UK","state":"Nottinghamshire","country":"United Kingdom","canonicalUrl":"https://foursquare.com/v/barrel-drop/548b3fe2498e88452c7c179e","categoryId":"4bf58dd8d48988d11b941735","category":"Pub","checkinsCount":303,"usersCount":81,"tipCount":6,"visitsCount":336,"tier":"","message":"","currency":"","rating":7.8},{"name":"Rocket at Saltwater","twitter":"saltwater_bar","address":"The Corner House Burton St.","lat":52.955464416999185,"lng":-1.1501107883628392,"neighborhood":"City Centre Northeast","city_fetched":"Nottingham,UK","state":"Nottinghamshire","country":"United Kingdom","canonicalUrl":"https://foursquare.com/v/rocket-at-saltwater/5054e99ae4b0a133029fa3d7","categoryId":"4bf58dd8d48988d11e941735","category":"Cocktail Bar","checkinsCount":112,"usersCount":78,"tipCount":3,"visitsCount":112,"url":"http://www.rocketrestaurants.co.uk/venues/nottingham/","tier":"","message":"","currency":"","rating":7.8},{"name":"Saltwater","phone":"+441159242664","twitter":"saltwater_bar","address":"The Cornerhouse","lat":52.95555752848397,"lng":-1.1500507593154907,"neighborhood":"City Centre Northeast","city_fetched":"Nottingham,UK","state":"Nottinghamshire","country":"United Kingdom","canonicalUrl":"https://foursquare.com/v/saltwater/4bc9db313740b713985f5f65","categoryId":"4bf58dd8d48988d11e941735","category":"Cocktail Bar","checkinsCount":1136,"usersCount":571,"tipCount":21,"visitsCount":1139,"url":"http://www.saltwater-restaurant.com","tier":"","message":"","currency":"","rating":7.8},{"name":"The Factory","phone":"+447883773625","address":"22 Union Rd","lat":52.958507,"lng":-1.144508,"neighborhood":"City Centre Northeast","city_fetched":"Nottingham,UK","state":"Nottinghamshire","country":"United Kingdom","canonicalUrl":"https://foursquare.com/v/the-factory/4c930a401221b1f7ddee16e2","categoryId":"4bf58dd8d48988d119941735","category":"Hookah Bar","checkinsCount":365,"usersCount":210,"tipCount":2,"visitsCount":564,"tier":"","message":"","currency":"","rating":7.8},{"name":"The Burnt Stump","address":"Burntstump Hill","lat":53.051122,"lng":-1.141623,"city_fetched":"Nottingham,UK","state":"Nottinghamshire","country":"United Kingdom","canonicalUrl":"https://foursquare.com/v/the-burnt-stump/51a0b3e0498e3a83dcc14b69","categoryId":"4bf58dd8d48988d11b941735","category":"Pub","checkinsCount":65,"usersCount":60,"tipCount":0,"visitsCount":83,"tier":"","message":"","currency":"","rating":7.8},{"name":"Dinos","phone":"+441159504455","address":"9 Warser Gate","lat":52.953151,"lng":-1.145166,"neighborhood":"City Centre","city_fetched":"Nottingham,UK","state":"Nottinghamshire","country":"United Kingdom","canonicalUrl":"https://foursquare.com/v/dinos/4bd8956951170f4733be33e4","categoryId":"4bf58dd8d48988d116941735","category":"Bar","checkinsCount":148,"usersCount":85,"tipCount":7,"visitsCount":148,"tier":"","message":"","currency":"","rating":7.7},{"name":"The Trent Navigation Inn","phone":"+441159865658","address":"Meadow Lane","lat":52.941217092011854,"lng":-1.1383973337433515,"city_fetched":"Nottingham,UK","state":"Nottinghamshire","country":"United Kingdom","canonicalUrl":"https://foursquare.com/v/the-trent-navigation-inn/4bc09615f8219c74bdc1b110","categoryId":"4bf58dd8d48988d11b941735","category":"Pub","checkinsCount":355,"usersCount":174,"tipCount":7,"visitsCount":431,"url":"http://www.trentnavigation.com","tier":"","message":"","currency":"","rating":7.6},{"name":"Ned Ludd","phone":"+441159243415","twitter":"nedluddnottm","address":"27 friar lane","lat":52.95202919427281,"lng":-1.1521579569065166,"neighborhood":"City Centre","city_fetched":"Nottingham,UK","state":"Nottinghamshire","country":"United Kingdom","canonicalUrl":"https://foursquare.com/v/ned-ludd/524f038411d2bf1129b2bd57","categoryId":"4bf58dd8d48988d11b941735","category":"Pub","checkinsCount":499,"usersCount":200,"tipCount":12,"visitsCount":519,"url":"http://www.thenedludd.co.uk","tier":"","message":"","currency":"","rating":7.6},{"name":"The Lincolnshire Poacher","phone":"+441159411584","address":"161-163 Mansfield Rd","lat":52.96218283334165,"lng":-1.1513207852840424,"neighborhood":"City Centre Northeast","city_fetched":"Nottingham,UK","state":"Nottinghamshire","country":"United Kingdom","canonicalUrl":"https://foursquare.com/v/the-lincolnshire-poacher/4bb78e06314e9521b14b479d","categoryId":"4bf58dd8d48988d11b941735","category":"Pub","checkinsCount":569,"usersCount":308,"tipCount":18,"visitsCount":688,"tier":"","message":"","currency":"","rating":7.6},{"name":"The Bell Inn","phone":"+441159475241","address":"18 Angel Row","lat":52.9534536344141,"lng":-1.152014136314392,"neighborhood":"City Centre","city_fetched":"Nottingham,UK","state":"Nottinghamshire","country":"United Kingdom","canonicalUrl":"https://foursquare.com/v/the-bell-inn/4b6d91a3f964a520267d2ce3","categoryId":"4bf58dd8d48988d11b941735","category":"Pub","checkinsCount":1244,"usersCount":720,"tipCount":21,"visitsCount":1290,"url":"http://www.bellinnnottingham.co.uk","tier":"","message":"","currency":"","rating":7.5},{"name":"The Trent Bridge Inn (Wetherspoon)","phone":"+441159822786","twitter":"trentbridgeinn","address":"2 Radcliffe Rd","lat":52.937312423094205,"lng":-1.1343562810609382,"city_fetched":"Nottingham,UK","state":"Nottinghamshire","country":"United Kingdom","canonicalUrl":"https://foursquare.com/v/the-trent-bridge-inn-wetherspoon/4bce2493c564ef3b81beedf0","categoryId":"4bf58dd8d48988d11b941735","category":"Pub","checkinsCount":1647,"usersCount":641,"tipCount":12,"visitsCount":1962,"tier":1,"message":"Cheap","currency":"£","rating":7.5},{"name":"The Lord Nelson","address":"Lord Nelson St.","lat":52.951154,"lng":-1.126338,"neighborhood":"Sneinton","city_fetched":"Nottingham,UK","state":"Nottinghamshire","country":"United Kingdom","canonicalUrl":"https://foursquare.com/v/the-lord-nelson/4c794bca2dc195219c4aa577","categoryId":"4bf58dd8d48988d11b941735","category":"Pub","checkinsCount":278,"usersCount":57,"tipCount":5,"visitsCount":329,"tier":"","message":"","currency":"","rating":7.5},{"name":"Bugman's Bar","phone":"+441159004139","address":"Willow Road","lat":52.941293366897,"lng":-1.17429540800956,"neighborhood":"Dunkirk and Old Lenton","city_fetched":"Nottingham,UK","state":"Nottinghamshire","country":"United Kingdom","canonicalUrl":"https://foursquare.com/v/bugmans-bar/4c055cec70839521ebfd7ace","categoryId":"4bf58dd8d48988d116941735","category":"Bar","checkinsCount":408,"usersCount":141,"tipCount":8,"visitsCount":423,"tier":"","message":"","currency":"","rating":7.5},{"name":"The Free Man (Wetherspoon)","phone":"+441158531030","address":"334-336 Carlton Hill","lat":52.96605607807759,"lng":-1.109243631362915,"city_fetched":"Nottingham,UK","state":"Nottinghamshire","country":"United Kingdom","canonicalUrl":"https://foursquare.com/v/the-free-man-wetherspoon/4c5e9f137735c9b6be4b9272","categoryId":"4bf58dd8d48988d11b941735","category":"Pub","checkinsCount":455,"usersCount":154,"tipCount":3,"visitsCount":585,"url":"http://www.jdwetherspoon.co.uk","tier":"","message":"","currency":"","rating":7.5},{"name":"The Orange Tree","phone":"+441159473239","address":"38 Shakespeare St","lat":52.95772271965366,"lng":-1.151118278503418,"neighborhood":"City Centre Northeast","city_fetched":"Nottingham,UK","state":"Nottinghamshire","country":"United Kingdom","canonicalUrl":"https://foursquare.com/v/the-orange-tree/4b5b055ef964a52042df28e3","categoryId":"4bf58dd8d48988d11b941735","category":"Pub","checkinsCount":1426,"usersCount":749,"tipCount":28,"visitsCount":1732,"url":"http://www.orangetree.co.uk/nottingham/","tier":2,"message":"Moderate","currency":"£","rating":7.5},{"name":"Ye Olde Salutation Inn","phone":"+441159881948","address":"73-75 Maid Marian Way","lat":52.95122673276398,"lng":-1.1518178574275266,"neighborhood":"City Centre","city_fetched":"Nottingham,UK","state":"Nottinghamshire","country":"United Kingdom","canonicalUrl":"https://foursquare.com/v/ye-olde-salutation-inn/4bab3a78f964a5207a9a3ae3","categoryId":"4bf58dd8d48988d11b941735","category":"Pub","checkinsCount":920,"usersCount":550,"tipCount":13,"visitsCount":1053,"tier":"","message":"","currency":"","rating":7.4},{"name":"Poppy And Pint","lat":52.93509968201967,"lng":-1.1180077778933255,"city_fetched":"Nottingham,UK","state":"Nottinghamshire","country":"United Kingdom","canonicalUrl":"https://foursquare.com/v/poppy-and-pint/4dd40cdd45dd98b61e7ad710","categoryId":"4bf58dd8d48988d116941735","category":"Bar","checkinsCount":349,"usersCount":220,"tipCount":7,"visitsCount":516,"tier":"","message":"","currency":"","rating":7.4},{"name":"Brass Monkey","phone":"+441158404101","twitter":"brassmonkeyng1","address":"11 High Pavement","lat":52.951074,"lng":-1.1452377857142857,"neighborhood":"City Centre","city_fetched":"Nottingham,UK","state":"Nottinghamshire","country":"United Kingdom","canonicalUrl":"https://foursquare.com/v/brass-monkey/4b89856df964a520733e32e3","categoryId":"4bf58dd8d48988d116941735","category":"Bar","checkinsCount":365,"usersCount":244,"tipCount":10,"visitsCount":366,"tier":"","message":"","currency":"","rating":7.4},{"name":"Copper","phone":"+441159814254","address":"21-23 Central Ave, West Bridgford","lat":52.931742668151855,"lng":-1.1263409666666666,"city_fetched":"Nottingham,UK","state":"Nottinghamshire","country":"United Kingdom","canonicalUrl":"https://foursquare.com/v/copper/4b4f4bacf964a520220027e3","categoryId":"4bf58dd8d48988d123941735","category":"Wine Bar","checkinsCount":340,"usersCount":173,"tipCount":12,"visitsCount":354,"tier":"","message":"","currency":"","rating":7.3},{"name":"Hart's","phone":"+441159881900","address":"2-3 Park Row","lat":52.95156419277191,"lng":-1.156464,"neighborhood":"City Centre West","city_fetched":"Nottingham,UK","state":"Nottinghamshire","country":"United Kingdom","canonicalUrl":"https://foursquare.com/v/harts/4b715e2df964a52026432de3","categoryId":"4bf58dd8d48988d1d5941735","category":"Hotel Bar","checkinsCount":319,"usersCount":229,"tipCount":4,"visitsCount":338,"url":"http://www.hartsnottingham.co.uk","tier":"","message":"","currency":"","rating":7.3},{"name":"The Woodthorpe Top (Wetherspoon)","phone":"+441159629700","address":"151A Woodthorpe Dr.","lat":52.98365198797777,"lng":-1.123203582741717,"city_fetched":"Nottingham,UK","state":"Nottinghamshire","country":"United Kingdom","canonicalUrl":"https://foursquare.com/v/the-woodthorpe-top-wetherspoon/4c87aba9821e9eb091cd8d89","categoryId":"4bf58dd8d48988d11b941735","category":"Pub","checkinsCount":559,"usersCount":193,"tipCount":6,"visitsCount":607,"url":"http://www.jdwetherspoon.co.uk","tier":"","message":"","currency":"","rating":7.3},{"name":"Doctor's Orders","twitter":"domicropub","address":"351 Mansfield Road","lat":52.97257856322191,"lng":-1.152190337113764,"neighborhood":"Sherwood","city_fetched":"Nottingham,UK","state":"Nottinghamshire","country":"United Kingdom","canonicalUrl":"https://foursquare.com/v/doctors-orders/50d74680e4b0496abe88aa29","categoryId":"4bf58dd8d48988d11b941735","category":"Pub","checkinsCount":541,"usersCount":108,"tipCount":5,"visitsCount":695,"url":"http://www.doctorsordersmicropub.co.uk","tier":"","message":"","currency":"","rating":7.3},{"name":"The Star Inn","address":"Middle Street","lat":52.924921092999256,"lng":-1.2134330525502912,"city_fetched":"Nottingham,UK","state":"Nottinghamshire","country":"United Kingdom","canonicalUrl":"https://foursquare.com/v/the-star-inn/4e22e038483b041af1faf7d6","categoryId":"4bf58dd8d48988d11b941735","category":"Pub","checkinsCount":207,"usersCount":68,"tipCount":1,"visitsCount":243,"tier":"","message":"","currency":"","rating":7.2},{"name":"The Falcon Inn","phone":"+441159704009","twitter":"thefalconnotts","address":"1 Alfreton Road","lat":52.95605197721311,"lng":-1.1623191833496094,"neighborhood":"City Centre West","city_fetched":"Nottingham,UK","state":"Nottinghamshire","country":"United Kingdom","canonicalUrl":"https://foursquare.com/v/the-falcon-inn/4c10e3fa5a43d13a99d3174b","categoryId":"4bf58dd8d48988d11b941735","category":"Pub","checkinsCount":139,"usersCount":57,"tipCount":3,"visitsCount":140,"tier":"","message":"","currency":"","rating":7.2},{"name":"The Wollaton Pub & Kitchen","phone":"+441159288610","address":"Lambourne Drive","lat":52.95539304130417,"lng":-1.2078683319662635,"city_fetched":"Nottingham,UK","state":"Nottinghamshire","country":"United Kingdom","canonicalUrl":"https://foursquare.com/v/the-wollaton-pub--kitchen/4b53099cf964a520338d27e3","categoryId":"4bf58dd8d48988d11b941735","category":"Pub","checkinsCount":544,"usersCount":289,"tipCount":11,"visitsCount":626,"url":"http://www.thewollaton.co.uk","tier":"","message":"","currency":"","rating":7.2},{"name":"The Roundhouse","phone":"+441159240120","address":"Royal Standard Place","lat":52.951697540242655,"lng":-1.1548658780695904,"neighborhood":"City Centre West","city_fetched":"Nottingham,UK","state":"Nottinghamshire","country":"United Kingdom","canonicalUrl":"https://foursquare.com/v/the-roundhouse/4be1d4c5ae55a593b3b25b62","categoryId":"4bf58dd8d48988d11b941735","category":"Pub","checkinsCount":506,"usersCount":289,"tipCount":8,"visitsCount":555,"tier":"","message":"","currency":"","rating":7.1},{"name":"Cafe. Bar. Contemporary","address":"Middle Hill","lat":52.95077880762714,"lng":-1.1459122390235315,"neighborhood":"City Centre","city_fetched":"Nottingham,UK","state":"Nottinghamshire","country":"United Kingdom","canonicalUrl":"https://foursquare.com/v/cafe-bar-contemporary/4c223fe513c00f47ee2b87de","categoryId":"4bf58dd8d48988d116941735","category":"Bar","checkinsCount":279,"usersCount":137,"tipCount":4,"visitsCount":280,"tier":"","message":"","currency":"","rating":7.1},{"name":"The Lion Inn","phone":"+441159703506","twitter":"pub_people","address":"44 Mosley St.","lat":52.97188427367562,"lng":-1.172490119934082,"city_fetched":"Nottingham,UK","state":"Nottinghamshire","country":"United Kingdom","canonicalUrl":"https://foursquare.com/v/the-lion-inn/4c10dc085a43d13aecd1174b","categoryId":"4bf58dd8d48988d11b941735","category":"Pub","checkinsCount":421,"usersCount":148,"tipCount":11,"visitsCount":588,"url":"http://www.thelionatbasford.co.uk","tier":"","message":"","currency":"","rating":7.1},{"name":"The Forum","lat":52.9558808548422,"lng":-1.1510539047323325,"neighborhood":"City Centre Northeast","city_fetched":"Nottingham,UK","country":"United Kingdom","canonicalUrl":"https://foursquare.com/v/the-forum/4e5e11fe483bbc5f6967fa7a","categoryId":"4bf58dd8d48988d11f941735","category":"Nightclub","checkinsCount":351,"usersCount":198,"tipCount":9,"visitsCount":353,"tier":"","message":"","currency":"","rating":7.1},{"name":"The Tap 'N' Tumbler","phone":"+441159413414","twitter":"thetapntumbler","address":"33 Wollaton St.","lat":52.955217,"lng":-1.153443,"neighborhood":"City Centre Northwest","city_fetched":"Nottingham,UK","state":"Nottinghamshire","country":"United Kingdom","canonicalUrl":"https://foursquare.com/v/the-tap-n-tumbler/4bbe38e8061fb71396eeedce","categoryId":"4bf58dd8d48988d116941735","category":"Bar","checkinsCount":391,"usersCount":180,"tipCount":1,"visitsCount":393,"url":"http://tapntumbler.co.uk","tier":"","message":"","currency":"","rating":7},{"name":"The Roebuck Inn (Wetherspoon)","phone":"+441159793400","address":"9-11 St James St.","lat":52.952878358308915,"lng":-1.1521482467651367,"neighborhood":"City Centre","city_fetched":"Nottingham,UK","state":"Nottinghamshire","country":"United Kingdom","canonicalUrl":"https://foursquare.com/v/the-roebuck-inn-wetherspoon/4c2db17c4e132d7f1ed39cdf","categoryId":"4bf58dd8d48988d11b941735","category":"Pub","checkinsCount":2126,"usersCount":948,"tipCount":25,"visitsCount":2347,"url":"http://www.jdwetherspoon.co.uk","tier":1,"message":"Cheap","currency":"£","rating":7},{"name":"The Johnson Arms","phone":"+441159786355","address":"59 Abbey St","lat":52.942395,"lng":-1.180169,"neighborhood":"Dunkirk and Old Lenton","city_fetched":"Nottingham,UK","state":"Nottinghamshire","country":"United Kingdom","canonicalUrl":"https://foursquare.com/v/the-johnson-arms/4bb4c09c86a8d13a04ccde7f","categoryId":"4bf58dd8d48988d11b941735","category":"Pub","checkinsCount":970,"usersCount":245,"tipCount":6,"visitsCount":1259,"tier":"","message":"","currency":"","rating":7},{"name":"Tree Tops","phone":"+441159558989","address":"Plains Rd.","lat":52.99006810173218,"lng":-1.113612949848175,"city_fetched":"Nottingham,UK","state":"Nottinghamshire","country":"United Kingdom","canonicalUrl":"https://foursquare.com/v/tree-tops/4c9b5caf775abfb79ebe5167","categoryId":"4bf58dd8d48988d116941735","category":"Bar","checkinsCount":166,"usersCount":122,"tipCount":3,"visitsCount":287,"tier":"","message":"","currency":"","rating":7},{"name":"Ocean","phone":"+441159411941","address":"Greyfriar Gate","lat":52.94924877139618,"lng":-1.1496537923812866,"neighborhood":"City Centre","city_fetched":"Nottingham,UK","state":"Nottinghamshire","country":"United Kingdom","canonicalUrl":"https://foursquare.com/v/ocean/4c00d1e4df6c0f4728fb8b22","categoryId":"4bf58dd8d48988d11f941735","category":"Nightclub","checkinsCount":312,"usersCount":161,"tipCount":2,"visitsCount":347,"tier":"","message":"","currency":"","rating":6.9},{"name":"The Cross Keys","phone":"+441159417898","address":"15 Byard Ln","lat":52.95204451756164,"lng":-1.1460864543914795,"neighborhood":"City Centre","city_fetched":"Nottingham,UK","state":"Nottinghamshire","country":"United Kingdom","canonicalUrl":"https://foursquare.com/v/the-cross-keys/4be42ec6910020a1a452d114","categoryId":"4bf58dd8d48988d11b941735","category":"Pub","checkinsCount":692,"usersCount":359,"tipCount":13,"visitsCount":697,"tier":"","message":"","currency":"","rating":6.9},{"name":"Bad Juju Tiki Bar","phone":"+441159241555","address":"9 Broad St","lat":52.954209,"lng":-1.144182,"neighborhood":"City Centre","city_fetched":"Nottingham,UK","state":"Nottinghamshire","country":"United Kingdom","canonicalUrl":"https://foursquare.com/v/bad-juju-tiki-bar/4bb8e652cf2fc9b62800a002","categoryId":"4bf58dd8d48988d11e941735","category":"Cocktail Bar","checkinsCount":463,"usersCount":193,"tipCount":9,"visitsCount":464,"tier":"","message":"","currency":"","rating":6.9},{"name":"The Wilford Green","phone":"+441159815479","address":"Wilford Ln, Wilford","lat":52.925483325944576,"lng":-1.1582841032714082,"city_fetched":"Nottingham,UK","state":"Nottinghamshire","country":"United Kingdom","canonicalUrl":"https://foursquare.com/v/the-wilford-green/505ca65de4b008a51879fcab","categoryId":"4bf58dd8d48988d116941735","category":"Bar","checkinsCount":134,"usersCount":65,"tipCount":2,"visitsCount":158,"url":"http://www.wilfordgreen.com","tier":"","message":"","currency":"","rating":6.8},{"name":"The Dragon","phone":"+441159417080","address":"67 Long Row","lat":52.95403698242588,"lng":-1.1531969904899597,"neighborhood":"City Centre","city_fetched":"Nottingham,UK","state":"Nottinghamshire","country":"United Kingdom","canonicalUrl":"https://foursquare.com/v/the-dragon/4bb3b62f2397b7133b8338b3","categoryId":"4bf58dd8d48988d11b941735","category":"Pub","checkinsCount":732,"usersCount":309,"tipCount":12,"visitsCount":742,"url":"http://www.the-dragon.co.uk","tier":"","message":"","currency":"","rating":6.8},{"name":"Revolution","phone":"+441159598072","twitter":"revolutionbars","address":"The Cornerhouse, Forman St","lat":52.955483,"lng":-1.150365,"neighborhood":"City Centre Northeast","city_fetched":"Nottingham,UK","state":"Nottinghamshire","country":"United Kingdom","canonicalUrl":"https://foursquare.com/v/revolution/4bae8c55f964a52064bf3be3","categoryId":"4bf58dd8d48988d116941735","category":"Bar","checkinsCount":890,"usersCount":547,"tipCount":13,"visitsCount":893,"tier":"","message":"","currency":"","rating":6.8},{"name":"Bunkers Hill","phone":"+441159100114","twitter":"thebunkershill","address":"36-38 Hockley","lat":52.953739,"lng":-1.139826,"neighborhood":"City Centre","city_fetched":"Nottingham,UK","state":"Nottinghamshire","country":"United Kingdom","canonicalUrl":"https://foursquare.com/v/bunkers-hill/4b898686f964a520d73e32e3","categoryId":"4bf58dd8d48988d11b941735","category":"Pub","checkinsCount":875,"usersCount":346,"tipCount":9,"visitsCount":985,"url":"http://www.bunkershillnottingham.co.uk","tier":"","message":"","currency":"","rating":6.8},{"name":"The Lacehouse","phone":"+441159412244","twitter":"thelacehouse","address":"Broadway","lat":52.951877502063276,"lng":-1.1428825102155091,"neighborhood":"City Centre","city_fetched":"Nottingham,UK","state":"Nottinghamshire","country":"United Kingdom","canonicalUrl":"https://foursquare.com/v/the-lacehouse/4fba7046e4b08e9fbc65d796","categoryId":"4bf58dd8d48988d11e941735","category":"Cocktail Bar","checkinsCount":163,"usersCount":91,"tipCount":2,"visitsCount":164,"tier":"","message":"","currency":"","rating":6.8},{"name":"Bread And Bitter","phone":"+441159607541","twitter":"breadandbitter","address":"153-155 Woodthorpe Dr, Mapperley","lat":52.98369978802823,"lng":-1.1230087280273438,"city_fetched":"Nottingham,UK","state":"Nottinghamshire","country":"United Kingdom","canonicalUrl":"https://foursquare.com/v/bread-and-bitter/4bf1babe3fa220a14fa31820","categoryId":"4bf58dd8d48988d11b941735","category":"Pub","checkinsCount":550,"usersCount":138,"tipCount":6,"visitsCount":567,"url":"http://www.castlerockbrewery.co.uk/site/?page_id=5","tier":"","message":"","currency":"","rating":6.8},{"name":"Revival","address":"Upper Parliament St","lat":52.95494961125396,"lng":-1.1516221299975098,"neighborhood":"City Centre Northwest","city_fetched":"Nottingham,UK","state":"Nottinghamshire","country":"United Kingdom","canonicalUrl":"https://foursquare.com/v/revival/4dfbb06bd4c051aafed4d183","categoryId":"4bf58dd8d48988d11e941735","category":"Cocktail Bar","checkinsCount":100,"usersCount":88,"tipCount":4,"visitsCount":100,"tier":"","message":"","currency":"","rating":6.8},{"name":"Oceana","phone":"+441159501075","address":"Lower Parliament St.","lat":52.95544765022087,"lng":-1.1443188786506653,"neighborhood":"City Centre Northeast","city_fetched":"Nottingham,UK","state":"Nottinghamshire","country":"United Kingdom","canonicalUrl":"https://foursquare.com/v/oceana/4b9c517cf964a520fc5e36e3","categoryId":"4bf58dd8d48988d11f941735","category":"Nightclub","checkinsCount":761,"usersCount":577,"tipCount":7,"visitsCount":939,"url":"http://www.oceanaclubs.com/nottingham/","tier":"","message":"","currency":"","rating":6.7},{"name":"Sherwood Manor","phone":"+441159604078","address":"Mansfield Rd, Sherwood","lat":52.98373854328353,"lng":-1.1449813842773438,"neighborhood":"Sherwood","city_fetched":"Nottingham,UK","state":"Nottinghamshire","country":"United Kingdom","canonicalUrl":"https://foursquare.com/v/sherwood-manor/4bdc374063c5c9b6abc52a68","categoryId":"4bf58dd8d48988d11b941735","category":"Pub","checkinsCount":216,"usersCount":142,"tipCount":4,"visitsCount":281,"tier":"","message":"","currency":"","rating":6.7},{"name":"Waters Edge","phone":"+441159411175","address":"Castle Bridge Rd.","lat":52.94611818882075,"lng":-1.167029768203478,"city_fetched":"Nottingham,UK","state":"Nottinghamshire","country":"United Kingdom","canonicalUrl":"https://foursquare.com/v/waters-edge/4d021c4857e2a0930212d436","categoryId":"4bf58dd8d48988d11b941735","category":"Pub","checkinsCount":649,"usersCount":321,"tipCount":9,"visitsCount":772,"url":"http://watersedgenottingham.com","tier":"","message":"","currency":"","rating":6.7},{"name":"Southbank","phone":"+441159455541","twitter":"southbankbar","address":"1 Bridgford House","lat":52.93820946507178,"lng":-1.1351752281188965,"city_fetched":"Nottingham,UK","state":"Nottinghamshire","country":"United Kingdom","canonicalUrl":"https://foursquare.com/v/southbank/4bb0d8eef964a520c5623ce3","categoryId":"4bf58dd8d48988d11d941735","category":"Sports Bar","checkinsCount":1177,"usersCount":310,"tipCount":1,"visitsCount":1280,"url":"http://www.southbankbar.co.uk","tier":"","message":"","currency":"","rating":6.6},{"name":"The Navigation","phone":"+441158371930","address":"6 Wilford St","lat":52.94792782061689,"lng":-1.1517543178387066,"neighborhood":"City Centre West","city_fetched":"Nottingham,UK","state":"Nottinghamshire","country":"United Kingdom","canonicalUrl":"https://foursquare.com/v/the-navigation/4e42750218a8627fce45e2ff","categoryId":"4bf58dd8d48988d116941735","category":"Bar","checkinsCount":635,"usersCount":440,"tipCount":8,"visitsCount":750,"url":"http://www.the-navigation.com","tier":"","message":"","currency":"","rating":6.6},{"name":"The Samuel Hall (Wetherspoon)","phone":"+441159246230","address":"The Old Bus Depot","lat":52.98136839710642,"lng":-1.1466257424989774,"city_fetched":"Nottingham,UK","state":"Nottinghamshire","country":"United Kingdom","canonicalUrl":"https://foursquare.com/v/the-samuel-hall-wetherspoon/4c87aa2d821e9eb032cc8d89","categoryId":"4bf58dd8d48988d11b941735","category":"Pub","checkinsCount":887,"usersCount":274,"tipCount":8,"visitsCount":1102,"url":"http://www.jdwetherspoon.co.uk","tier":"","message":"","currency":"","rating":6.6},{"name":"The Horn In Hand","phone":"+441159243730","twitter":"horninhand","address":"17 Goldsmith St","lat":52.956085,"lng":-1.152549,"neighborhood":"City Centre Northwest","city_fetched":"Nottingham,UK","state":"Nottinghamshire","country":"United Kingdom","canonicalUrl":"https://foursquare.com/v/the-horn-in-hand/4b60c139f964a52084f729e3","categoryId":"4bf58dd8d48988d11b941735","category":"Pub","checkinsCount":677,"usersCount":345,"tipCount":11,"visitsCount":682,"tier":1,"message":"Cheap","currency":"£","rating":6.6},{"name":"NG1","phone":"+441159588440","address":"76-80 Lower Parliament St","lat":52.95486763742651,"lng":-1.1420540799703391,"neighborhood":"City Centre","city_fetched":"Nottingham,UK","state":"Nottinghamshire","country":"United Kingdom","canonicalUrl":"https://foursquare.com/v/ng1/4ba41185f964a5200e7e38e3","categoryId":"4bf58dd8d48988d11f941735","category":"Nightclub","checkinsCount":1492,"usersCount":323,"tipCount":7,"visitsCount":1568,"tier":"","message":"","currency":"","rating":6.5},{"name":"Propaganda","address":"8 Broadway","lat":52.951918470468556,"lng":-1.143578588962555,"neighborhood":"City Centre","city_fetched":"Nottingham,UK","state":"Nottinghamshire","country":"United Kingdom","canonicalUrl":"https://foursquare.com/v/propaganda/4b9d514af964a5201da336e3","categoryId":"4bf58dd8d48988d1d8941735","category":"Gay Bar","checkinsCount":1428,"usersCount":230,"tipCount":8,"visitsCount":1473,"tier":"","message":"","currency":"","rating":6.5},{"name":"The Lord Roberts","phone":"+441159414886","address":"24 Broad St","lat":52.9546054899061,"lng":-1.144286854278916,"neighborhood":"City Centre","city_fetched":"Nottingham,UK","state":"Nottinghamshire","country":"United Kingdom","canonicalUrl":"https://foursquare.com/v/the-lord-roberts/4b9b76bbf964a520e30836e3","categoryId":"4bf58dd8d48988d11b941735","category":"Pub","checkinsCount":2312,"usersCount":203,"tipCount":7,"visitsCount":2317,"tier":"","message":"","currency":"","rating":6.5},{"name":"Fade (And The Hard to Find Cafe)","phone":"+441159104025","address":"171 Mansfield Rd","lat":52.96243405953018,"lng":-1.151493787765503,"neighborhood":"City Centre Northeast","city_fetched":"Nottingham,UK","state":"Nottinghamshire","country":"United Kingdom","canonicalUrl":"https://foursquare.com/v/fade-and-the-hard-to-find-cafe/4b64ba1af964a5207ecb2ae3","categoryId":"4bf58dd8d48988d116941735","category":"Bar","checkinsCount":310,"usersCount":147,"tipCount":7,"visitsCount":310,"tier":"","message":"","currency":"","rating":6.4},{"name":"The William Peverel (Wetherspoon)","phone":"+441159777380","twitter":"jdwtweet","address":"259 Main St.","lat":53.002513,"lng":-1.196391,"neighborhood":"Bulwell","city_fetched":"Nottingham,UK","state":"Nottinghamshire","country":"United Kingdom","canonicalUrl":"https://foursquare.com/v/the-william-peverel-wetherspoon/4e772cf2e4cd3254380fdb60","categoryId":"4bf58dd8d48988d11b941735","category":"Pub","checkinsCount":203,"usersCount":103,"tipCount":2,"visitsCount":259,"url":"http://www.jdwetherspoon.co.uk","tier":"","message":"","currency":"","rating":6.4},{"name":"The Golden Fleece","phone":"+441159472843","address":"105 Mansfield Rd","lat":52.96086366994457,"lng":-1.1506227403879166,"neighborhood":"City Centre Northeast","city_fetched":"Nottingham,UK","state":"Nottinghamshire","country":"United Kingdom","canonicalUrl":"https://foursquare.com/v/the-golden-fleece/4b64b0b5f964a520b1c82ae3","categoryId":"4bf58dd8d48988d11b941735","category":"Pub","checkinsCount":632,"usersCount":276,"tipCount":10,"visitsCount":695,"tier":"","message":"","currency":"","rating":6.4},{"name":"White Hart","lat":52.94449673609567,"lng":-1.1791971335621578,"neighborhood":"Dunkirk and Old Lenton","city_fetched":"Nottingham,UK","country":"United Kingdom","canonicalUrl":"https://foursquare.com/v/white-hart/4ce41281c46e6dcb0ea1d915","categoryId":"4bf58dd8d48988d116941735","category":"Bar","checkinsCount":181,"usersCount":87,"tipCount":3,"visitsCount":200,"tier":"","message":"","currency":"","rating":6.4},{"name":"The Boathouse (Beefeater)","phone":"+441159473419","twitter":"beefeater","address":"Castle Marina Park, Castle Bridge Road","lat":52.94509968535379,"lng":-1.166248912792059,"city_fetched":"Nottingham,UK","state":"Nottinghamshire","country":"United Kingdom","canonicalUrl":"https://foursquare.com/v/the-boathouse-beefeater/4b64348cf964a52002a42ae3","categoryId":"4bf58dd8d48988d11b941735","category":"Pub","checkinsCount":317,"usersCount":183,"tipCount":5,"visitsCount":331,"url":"http://www.beefeater.co.uk/steak-restaurant/Nottingham/Boathouse-Lenton.html","tier":"","message":"","currency":"","rating":6.3},{"name":"Test Match","phone":"+441159811481","address":"Gordon Sq, West Bridgford","lat":52.92891034143575,"lng":-1.1254280805587769,"city_fetched":"Nottingham,UK","state":"Nottinghamshire","country":"United Kingdom","canonicalUrl":"https://foursquare.com/v/test-match/4bdb1fb2c79cc928504081e9","categoryId":"4bf58dd8d48988d11b941735","category":"Pub","checkinsCount":305,"usersCount":162,"tipCount":4,"visitsCount":367,"tier":"","message":"","currency":"","rating":6.3},{"name":"The Corn Mill","phone":"+441159462913","address":"Swiney Way, Chilwell","lat":52.90486433624294,"lng":-1.243429183959961,"city_fetched":"Nottingham,UK","state":"Nottinghamshire","country":"United Kingdom","canonicalUrl":"https://foursquare.com/v/the-corn-mill/4b94339af964a520576e34e3","categoryId":"4bf58dd8d48988d11b941735","category":"Pub","checkinsCount":531,"usersCount":272,"tipCount":5,"visitsCount":666,"url":"http://www.cornmill-nottingham.co.uk","tier":"","message":"","currency":"","rating":6.3},{"name":"Fellows, Morton & Clayton","phone":"+441159506795","address":"Canal St","lat":52.948595865917056,"lng":-1.1484146118164062,"neighborhood":"City Centre","city_fetched":"Nottingham,UK","state":"Nottinghamshire","country":"United Kingdom","canonicalUrl":"https://foursquare.com/v/fellows-morton--clayton/4b66395ef964a520a9192be3","categoryId":"4bf58dd8d48988d11b941735","category":"Pub","checkinsCount":575,"usersCount":342,"tipCount":11,"visitsCount":581,"tier":"","message":"","currency":"","rating":6.3},{"name":"New Forresters","phone":"+441159580432","address":"18 St. Anns Street","lat":52.95757083664463,"lng":-1.1463546752929688,"neighborhood":"City Centre Northeast","city_fetched":"Nottingham,UK","state":"Nottinghamshire","country":"United Kingdom","canonicalUrl":"https://foursquare.com/v/new-forresters/4bbf7dabf8219c741d10b010","categoryId":"4bf58dd8d48988d1d8941735","category":"Gay Bar","checkinsCount":335,"usersCount":118,"tipCount":2,"visitsCount":338,"tier":"","message":"","currency":"","rating":6.3},{"name":"Fatcat","phone":"+441159856388","twitter":"fatcatsherwood","address":"482 Mansfield Road","lat":52.97849203090108,"lng":-1.1479114009159934,"neighborhood":"Sherwood","city_fetched":"Nottingham,UK","state":"Nottinghamshire","country":"United Kingdom","canonicalUrl":"https://foursquare.com/v/fatcat/546f9618498ef31e59bf7a74","categoryId":"4bf58dd8d48988d116941735","category":"Bar","checkinsCount":59,"usersCount":62,"tipCount":1,"visitsCount":159,"tier":"","message":"","currency":"","rating":6.3},{"name":"Purecraft Bar & Kitchen","twitter":"purecraftnotts","address":"13 St Peter's Gate","lat":52.95251277069385,"lng":-1.1481927610311367,"neighborhood":"City Centre","city_fetched":"Nottingham,UK","state":"Nottinghamshire","country":"United Kingdom","canonicalUrl":"https://foursquare.com/v/purecraft-bar--kitchen/56ee7d91498e0692c0ad3818","categoryId":"56aa371ce4b08b9a8d57356c","category":"Beer Bar","checkinsCount":57,"usersCount":36,"tipCount":1,"visitsCount":67,"tier":"","message":"","currency":"","rating":6.3},{"name":"Yates's","phone":"+441159473334","twitter":"yatesnottingham","address":"49 Long Row","lat":52.95380913829401,"lng":-1.151617169380188,"neighborhood":"City Centre","city_fetched":"Nottingham,UK","state":"Nottinghamshire","country":"United Kingdom","canonicalUrl":"https://foursquare.com/v/yatess/4b93e3d9f964a520c05734e3","categoryId":"4bf58dd8d48988d11b941735","category":"Pub","checkinsCount":703,"usersCount":411,"tipCount":17,"visitsCount":717,"url":"http://www.weareyates.co.uk/nottingham","tier":"","message":"","currency":"","rating":6.3},{"name":"Magna Charta","phone":"+441159663238","twitter":"magnachartapub","address":"1 Southwell Rd, Lowdham","lat":53.00948757275077,"lng":-1.0013511075228612,"city_fetched":"Nottingham,UK","state":"Nottinghamshire","country":"United Kingdom","canonicalUrl":"https://foursquare.com/v/magna-charta/4bbdbb1d593fef3bc5ba0356","categoryId":"4bf58dd8d48988d11b941735","category":"Pub","checkinsCount":206,"usersCount":116,"tipCount":3,"visitsCount":245,"tier":"","message":"","currency":"","rating":6.2},{"name":"The Travellers Rest","phone":"+441159264412","address":"Mapperley Plains","lat":53.010148620253695,"lng":-1.0998022556304932,"city_fetched":"Nottingham,UK","state":"Nottinghamshire","country":"United Kingdom","canonicalUrl":"https://foursquare.com/v/the-travellers-rest/4be305a8d27a20a19a04915b","categoryId":"4bf58dd8d48988d11b941735","category":"Pub","checkinsCount":221,"usersCount":137,"tipCount":6,"visitsCount":300,"tier":"","message":"","currency":"","rating":6.2},{"name":"Langtry's Public House","phone":"+441159472124","twitter":"langtrys","address":"4 South Sherwood St","lat":52.95527152124611,"lng":-1.150694489479065,"neighborhood":"City Centre Northeast","city_fetched":"Nottingham,UK","state":"Nottinghamshire","country":"United Kingdom","canonicalUrl":"https://foursquare.com/v/langtrys-public-house/4bafd89af964a52087253ce3","categoryId":"4bf58dd8d48988d11b941735","category":"Pub","checkinsCount":649,"usersCount":275,"tipCount":10,"visitsCount":654,"url":"http://langtrys.pub","tier":"","message":"","currency":"","rating":6.2},{"name":"Via Fossa","phone":"+441159473904","address":"44 Canal St","lat":52.94804641589469,"lng":-1.1488311363612442,"neighborhood":"City Centre","city_fetched":"Nottingham,UK","state":"Nottinghamshire","country":"United Kingdom","canonicalUrl":"https://foursquare.com/v/via-fossa/4bb5d2542f70c9b69a888430","categoryId":"4bf58dd8d48988d11b941735","category":"Pub","checkinsCount":245,"usersCount":191,"tipCount":1,"visitsCount":245,"url":"http://www.viafossanottingham.co.uk/index-5.html","tier":"","message":"","currency":"","rating":6.2},{"name":"Baa Bar","phone":"+441159585573","twitter":"baabargoosegate","address":"17-19 Goose Gate","lat":52.95382554961756,"lng":-1.1430542082844848,"neighborhood":"City Centre","city_fetched":"Nottingham,UK","state":"Nottinghamshire","country":"United Kingdom","canonicalUrl":"https://foursquare.com/v/baa-bar/4c49f61f6594be9a18f4c825","categoryId":"4bf58dd8d48988d116941735","category":"Bar","checkinsCount":556,"usersCount":321,"tipCount":3,"visitsCount":571,"url":"http://www.baabar.co.uk","tier":"","message":"","currency":"","rating":6.2},{"name":"The Hemlock Stone Pub","phone":"+441159284463","twitter":"emberinns","address":"Bramcote Lane","lat":52.948485016822815,"lng":-1.2290525436401367,"city_fetched":"Nottingham,UK","state":"Nottinghamshire","country":"United Kingdom","canonicalUrl":"https://foursquare.com/v/the-hemlock-stone-pub/4c5859f36418a593b674810e","categoryId":"4bf58dd8d48988d11b941735","category":"Pub","checkinsCount":210,"usersCount":138,"tipCount":10,"visitsCount":270,"tier":"","message":"","currency":"","rating":6.2},{"name":"Dogma","phone":"+441159886830","address":"9 Byard Ln","lat":52.95204128558948,"lng":-1.1464539170265198,"neighborhood":"City Centre","city_fetched":"Nottingham,UK","state":"Nottinghamshire","country":"United Kingdom","canonicalUrl":"https://foursquare.com/v/dogma/4b7f0e46f964a520371330e3","categoryId":"4bf58dd8d48988d116941735","category":"Bar","checkinsCount":400,"usersCount":280,"tipCount":9,"visitsCount":401,"tier":"","message":"","currency":"","rating":6.1},{"name":"The Peacock","phone":"+441159472152","address":"11 Mansfield Rd","lat":52.95788268096936,"lng":-1.1491763591766357,"neighborhood":"City Centre Northeast","city_fetched":"Nottingham,UK","state":"Nottinghamshire","country":"United Kingdom","canonicalUrl":"https://foursquare.com/v/the-peacock/4baa6049f964a52044643ae3","categoryId":"4bf58dd8d48988d11b941735","category":"Pub","checkinsCount":416,"usersCount":198,"tipCount":6,"visitsCount":452,"tier":"","message":"","currency":"","rating":6.1},{"name":"Sobar","phone":"+441158240364","twitter":"sobarnottm","address":"22 Friar Lane","lat":52.95265579223633,"lng":-1.1514133214950562,"neighborhood":"City Centre","city_fetched":"Nottingham,UK","state":"Nottinghamshire","country":"United Kingdom","canonicalUrl":"https://foursquare.com/v/sobar/52e7c0e6498e68ccb540d784","categoryId":"4bf58dd8d48988d116941735","category":"Bar","checkinsCount":81,"usersCount":50,"tipCount":5,"visitsCount":81,"url":"http://www.sobar-nottingham.co.uk","tier":"","message":"","currency":"","rating":6.1},{"name":"The Gooseberry Bush (Wetherspoon)","phone":"+441158523000","twitter":"jdwtweet","address":"Peel St.","lat":52.959529,"lng":-1.15594475,"city_fetched":"Nottingham,UK","state":"Nottinghamshire","country":"United Kingdom","canonicalUrl":"https://foursquare.com/v/the-gooseberry-bush-wetherspoon/4e32a20bc65bfd5a4e2828ff","categoryId":"4bf58dd8d48988d11b941735","category":"Pub","checkinsCount":463,"usersCount":254,"tipCount":5,"visitsCount":561,"url":"http://www.jdwetherspoon.co.uk","tier":"","message":"","currency":"","rating":6},{"name":"The Company Inn (Wetherspoon)","phone":"+441159349020","address":"British Waterways Building","lat":52.94796880880332,"lng":-1.150694489479065,"neighborhood":"City Centre","city_fetched":"Nottingham,UK","state":"Nottinghamshire","country":"United Kingdom","canonicalUrl":"https://foursquare.com/v/the-company-inn-wetherspoon/4c21d1df99282d7f1b1e66b0","categoryId":"4bf58dd8d48988d11b941735","category":"Pub","checkinsCount":676,"usersCount":372,"tipCount":7,"visitsCount":770,"url":"http://www.jdwetherspoon.co.uk","tier":1,"message":"Cheap","currency":"£","rating":6},{"name":"Revolution","address":"7 Broad St","lat":52.954111,"lng":-1.144123,"neighborhood":"City Centre","city_fetched":"Nottingham,UK","state":"Nottinghamshire","country":"United Kingdom","canonicalUrl":"https://foursquare.com/v/revolution/4c2e4d7916adc928fd9fbb9c","categoryId":"4bf58dd8d48988d116941735","category":"Bar","checkinsCount":795,"usersCount":387,"tipCount":10,"visitsCount":802,"tier":"","message":"","currency":"","rating":5.9},{"name":"Lloyd's No. 1 Bar","phone":"+441159881660","address":"1 Carlton St.","lat":52.95360068410064,"lng":-1.14519864320755,"neighborhood":"City Centre","city_fetched":"Nottingham,UK","state":"Nottinghamshire","country":"United Kingdom","canonicalUrl":"https://foursquare.com/v/lloyds-no-1-bar/4b893925f964a520042432e3","categoryId":"4bf58dd8d48988d11b941735","category":"Pub","checkinsCount":1479,"usersCount":699,"tipCount":16,"visitsCount":1620,"url":"http://www.jdwetherspoon.co.uk","tier":2,"message":"Moderate","currency":"£","rating":5.9},{"name":"The Castle","phone":"+441159484279","address":"1 Castle Rd","lat":52.950742,"lng":-1.153568,"neighborhood":"City Centre West","city_fetched":"Nottingham,UK","state":"Nottinghamshire","country":"United Kingdom","canonicalUrl":"https://foursquare.com/v/the-castle/4bcaf982fb84c9b6a4f61d3e","categoryId":"4bf58dd8d48988d11b941735","category":"Pub","checkinsCount":628,"usersCount":408,"tipCount":8,"visitsCount":632,"tier":"","message":"","currency":"","rating":5.9},{"name":"The Plainsman","lat":52.983545413016195,"lng":-1.1235588960926015,"city_fetched":"Nottingham,UK","state":"Nottinghamshire","country":"United Kingdom","canonicalUrl":"https://foursquare.com/v/the-plainsman/4bf138a1b315c9b66eba93ff","categoryId":"4bf58dd8d48988d116941735","category":"Bar","checkinsCount":187,"usersCount":102,"tipCount":0,"visitsCount":192,"tier":"","message":"","currency":"","rating":5.9},{"name":"The Fox and Crown","phone":"+441159422002","address":"33 Church St, Old Basford","lat":52.980729530154655,"lng":-1.1804522949654226,"neighborhood":"Basford","city_fetched":"Nottingham,UK","state":"Nottinghamshire","country":"United Kingdom","canonicalUrl":"https://foursquare.com/v/the-fox-and-crown/4b706872f964a5208c182de3","categoryId":"4bf58dd8d48988d11b941735","category":"Pub","checkinsCount":200,"usersCount":76,"tipCount":8,"visitsCount":206,"tier":"","message":"","currency":"","rating":5.9},{"name":"The Punchbowl","phone":"+441159507728","address":"214 Porchester Road","lat":52.973923,"lng":-1.120179,"city_fetched":"Nottingham,UK","state":"Nottinghamshire","country":"United Kingdom","canonicalUrl":"https://foursquare.com/v/the-punchbowl/4c1beadde9c4ef3bdeba45aa","categoryId":"4bf58dd8d48988d11b941735","category":"Pub","checkinsCount":135,"usersCount":66,"tipCount":1,"visitsCount":154,"tier":"","message":"","currency":"","rating":5.9},{"name":"The Joseph Else (Wetherspoon)","phone":"+441159475034","address":"11-12 South Parade","lat":52.953030257799284,"lng":-1.1497557163238525,"neighborhood":"City Centre","city_fetched":"Nottingham,UK","state":"Nottinghamshire","country":"United Kingdom","canonicalUrl":"https://foursquare.com/v/the-joseph-else-wetherspoon/4b922b19f964a5206cea33e3","categoryId":"4bf58dd8d48988d11b941735","category":"Pub","checkinsCount":1744,"usersCount":809,"tipCount":16,"visitsCount":1768,"url":"http://www.jdwetherspoon.co.uk","tier":"","message":"","currency":"","rating":5.9},{"name":"Rileys Nottingham","phone":"+441159470620","twitter":"rileysnottm","address":"17a Saint James' Street","lat":52.952659,"lng":-1.152452,"neighborhood":"City Centre","city_fetched":"Nottingham,UK","state":"Nottinghamshire","country":"United Kingdom","canonicalUrl":"https://foursquare.com/v/rileys-nottingham/4dd677e281dcd5bca5990888","categoryId":"4bf58dd8d48988d11d941735","category":"Sports Bar","checkinsCount":220,"usersCount":74,"tipCount":2,"visitsCount":229,"tier":"","message":"","currency":"","rating":5.9},{"name":"All Bar One","phone":"+441159501911","address":"Unit 3, Weekday Cross","lat":52.951932,"lng":-1.145973,"neighborhood":"City Centre","city_fetched":"Nottingham,UK","state":"Nottinghamshire","country":"United Kingdom","canonicalUrl":"https://foursquare.com/v/all-bar-one/4d1c8ab82dd937044f4c4cb5","categoryId":"4bf58dd8d48988d116941735","category":"Bar","checkinsCount":601,"usersCount":363,"tipCount":9,"visitsCount":610,"tier":"","message":"","currency":"","rating":5.9},{"name":"The Newshouse","phone":"+441159502419","address":"123 Canal St","lat":52.94942169273126,"lng":-1.1434552073478699,"neighborhood":"City Centre","city_fetched":"Nottingham,UK","state":"Nottinghamshire","country":"United Kingdom","canonicalUrl":"https://foursquare.com/v/the-newshouse/4bc0bb8e920eb713116e192c","categoryId":"4bf58dd8d48988d11b941735","category":"Pub","checkinsCount":177,"usersCount":84,"tipCount":2,"visitsCount":180,"tier":"","message":"","currency":"","rating":5.8},{"name":"The Admiral Rodney","lat":52.953175,"lng":-1.221005,"city_fetched":"Nottingham,UK","state":"Nottinghamshire","country":"United Kingdom","canonicalUrl":"https://foursquare.com/v/the-admiral-rodney/4c892670f53b236ac2b5aca6","categoryId":"4bf58dd8d48988d11b941735","category":"Pub","checkinsCount":402,"usersCount":122,"tipCount":4,"visitsCount":430,"tier":"","message":"","currency":"","rating":5.8},{"name":"The Cookie Club","phone":"+441159505892","address":"22 St. James St","lat":52.952839575374824,"lng":-1.152738332748413,"neighborhood":"City Centre","city_fetched":"Nottingham,UK","state":"Nottinghamshire","country":"United Kingdom","canonicalUrl":"https://foursquare.com/v/the-cookie-club/4baea33df964a52078c93be3","categoryId":"4bf58dd8d48988d11f941735","category":"Nightclub","checkinsCount":230,"usersCount":146,"tipCount":4,"visitsCount":232,"tier":"","message":"","currency":"","rating":5.8},{"name":"The Slug and Lettuce","phone":"+441159474260","address":"The Cornerhouse, Forman St","lat":52.95549935767358,"lng":-1.15006685256958,"neighborhood":"City Centre Northeast","city_fetched":"Nottingham,UK","state":"Nottinghamshire","country":"United Kingdom","canonicalUrl":"https://foursquare.com/v/the-slug-and-lettuce/4b9bcdfcf964a5203a2736e3","categoryId":"4bf58dd8d48988d116941735","category":"Bar","checkinsCount":849,"usersCount":521,"tipCount":12,"visitsCount":851,"tier":"","message":"","currency":"","rating":5.7},{"name":"The Bank","phone":"+448721077077","address":"8-9 Beastmarket Hill","lat":52.95303672159555,"lng":-1.1511021852493286,"neighborhood":"City Centre","city_fetched":"Nottingham,UK","state":"Nottinghamshire","country":"United Kingdom","canonicalUrl":"https://foursquare.com/v/the-bank/4ba1278ef964a520019d37e3","categoryId":"4bf58dd8d48988d116941735","category":"Bar","checkinsCount":337,"usersCount":221,"tipCount":5,"visitsCount":337,"url":"http://www.thebanknottingham.co.uk","tier":"","message":"","currency":"","rating":5.7},{"name":"Fire & Ice","phone":"+441159819000","twitter":"fireandicewb","address":"40 Bridgford Rd.","lat":52.934033740215426,"lng":-1.1296885958810918,"city_fetched":"Nottingham,UK","state":"Nottinghamshire","country":"United Kingdom","canonicalUrl":"https://foursquare.com/v/fire--ice/4bb09d5bf964a520954f3ce3","categoryId":"4bf58dd8d48988d116941735","category":"Bar","checkinsCount":288,"usersCount":150,"tipCount":1,"visitsCount":288,"url":"http://www.fireandicewb.co.uk","tier":"","message":"","currency":"","rating":5.7},{"name":"Walkabout","phone":"+441159410990","twitter":"walkaboutnotts","address":"11-15 Friar Ln.","lat":52.952393569133044,"lng":-1.1514294147491455,"neighborhood":"City Centre","city_fetched":"Nottingham,UK","state":"Nottinghamshire","country":"United Kingdom","canonicalUrl":"https://foursquare.com/v/walkabout/4b6dda39f964a520cf952ce3","categoryId":"4bf58dd8d48988d11d941735","category":"Sports Bar","checkinsCount":672,"usersCount":447,"tipCount":2,"visitsCount":678,"url":"http://walkaboutbars.com","tier":"","message":"","currency":"","rating":5.7},{"name":"Oriental Pearl","phone":"+441159455048","address":"42-44 Bridgford Rd","lat":52.93394815364359,"lng":-1.1297035217285156,"city_fetched":"Nottingham,UK","state":"Nottinghamshire","country":"United Kingdom","canonicalUrl":"https://foursquare.com/v/oriental-pearl/4bcdff063aa6ef3b9c0a0f66","categoryId":"4bf58dd8d48988d116941735","category":"Bar","checkinsCount":231,"usersCount":106,"tipCount":2,"visitsCount":234,"tier":"","message":"","currency":"","rating":5.7},{"name":"Nottingham Knight","phone":"+441159211171","address":"Loughborough Rd","lat":52.90802077510362,"lng":-1.1449798729768004,"city_fetched":"Nottingham,UK","state":"Nottinghamshire","country":"United Kingdom","canonicalUrl":"https://foursquare.com/v/nottingham-knight/4b48cb61f964a520465726e3","categoryId":"4bf58dd8d48988d11b941735","category":"Pub","checkinsCount":413,"usersCount":135,"tipCount":2,"visitsCount":450,"tier":"","message":"","currency":"","rating":5.7},{"name":"The Major Oak","phone":"+441159584825","twitter":"majoroaknottm","address":"24-26 Pelham Rd","lat":52.95372836710865,"lng":-1.1464354523491864,"neighborhood":"City Centre","city_fetched":"Nottingham,UK","state":"Nottinghamshire","country":"United Kingdom","canonicalUrl":"https://foursquare.com/v/the-major-oak/4ea6c3a15c5c6cec791e0ebf","categoryId":"4bf58dd8d48988d11b941735","category":"Pub","checkinsCount":558,"usersCount":311,"tipCount":6,"visitsCount":582,"tier":"","message":"","currency":"","rating":5.6},{"name":"Dakota Bar & Grill","lat":53.06875614989313,"lng":-1.252276964011029,"city_fetched":"Nottingham,UK","country":"United Kingdom","canonicalUrl":"https://foursquare.com/v/dakota-bar--grill/4f19a6e6e4b0a339fb46a9cd","categoryId":"4bf58dd8d48988d1d5941735","category":"Hotel Bar","checkinsCount":236,"usersCount":98,"tipCount":1,"visitsCount":264,"tier":"","message":"","currency":"","rating":5.6},{"name":"The Millers Barn (Beefeater)","phone":"+441159519971","twitter":"beefeatergrill","address":"The Phoenix Centre","lat":52.98779949092948,"lng":-1.2081447210013343,"city_fetched":"Nottingham,UK","state":"Nottinghamshire","country":"United Kingdom","canonicalUrl":"https://foursquare.com/v/the-millers-barn-beefeater/4c1d21c563750f472dbbb767","categoryId":"4bf58dd8d48988d11b941735","category":"Pub","checkinsCount":300,"usersCount":155,"tipCount":6,"visitsCount":314,"url":"http://www.beefeater.co.uk","tier":"","message":"","currency":"","rating":5.6},{"name":"The Chestnut Tree","phone":"+441159856388","address":"482 Mansfield Rd.","lat":52.97853556715282,"lng":-1.1478273431289787,"neighborhood":"Sherwood","city_fetched":"Nottingham,UK","state":"Nottinghamshire","country":"United Kingdom","canonicalUrl":"https://foursquare.com/v/the-chestnut-tree/4b59e452f964a520c99e28e3","categoryId":"4bf58dd8d48988d11b941735","category":"Pub","checkinsCount":222,"usersCount":58,"tipCount":6,"visitsCount":224,"tier":"","message":"","currency":"","rating":5.6},{"name":"The Point","address":"Nottingham Trent University","lat":52.91218462382723,"lng":-1.1836772979347119,"city_fetched":"Nottingham,UK","state":"Nottinghamshire","country":"United Kingdom","canonicalUrl":"https://foursquare.com/v/the-point/4bd83cd95cf276b04abc9c00","categoryId":"4bf58dd8d48988d116941735","category":"Bar","checkinsCount":837,"usersCount":154,"tipCount":7,"visitsCount":993,"tier":"","message":"","currency":"","rating":5.5},{"name":"The Broad Oak","phone":"+441159293340","address":"Main St.","lat":52.97191967106602,"lng":-1.238859033178111,"city_fetched":"Nottingham,UK","state":"Nottinghamshire","country":"United Kingdom","canonicalUrl":"https://foursquare.com/v/the-broad-oak/4d331ee98250f04dcfeff9e0","categoryId":"4bf58dd8d48988d11b941735","category":"Pub","checkinsCount":188,"usersCount":97,"tipCount":4,"visitsCount":220,"tier":"","message":"","currency":"","rating":5.5},{"name":"Rose & Crown","phone":"+441159784958","address":"500 Derby Rd","lat":52.94753244926261,"lng":-1.1836588382720947,"city_fetched":"Nottingham,UK","state":"Nottinghamshire","country":"United Kingdom","canonicalUrl":"https://foursquare.com/v/rose--crown/4b884684f964a52007ec31e3","categoryId":"4bf58dd8d48988d11b941735","category":"Pub","checkinsCount":620,"usersCount":421,"tipCount":15,"visitsCount":933,"tier":2,"message":"Moderate","currency":"£","rating":5.5},{"name":"Cucamara Cocktail Bar","phone":"+447947689925","twitter":"cucamara","address":"1 Hurts Yard","lat":52.95416478088237,"lng":-1.1524255908260856,"neighborhood":"City Centre","city_fetched":"Nottingham,UK","state":"Nottinghamshire","country":"United Kingdom","canonicalUrl":"https://foursquare.com/v/cucamara-cocktail-bar/4c1c08acc09ed13af497828e","categoryId":"4bf58dd8d48988d11e941735","category":"Cocktail Bar","checkinsCount":216,"usersCount":158,"tipCount":5,"visitsCount":216,"url":"http://www.cucamara.com","tier":"","message":"","currency":"","rating":5.4},{"name":"Squares","phone":"+441159588433","twitter":"squaresnotts","address":"7-9 The Poultry","lat":52.953107823290736,"lng":-1.147845983505249,"neighborhood":"City Centre","city_fetched":"Nottingham,UK","state":"Nottinghamshire","country":"United Kingdom","canonicalUrl":"https://foursquare.com/v/squares/4b6d9b28f964a520b07f2ce3","categoryId":"4bf58dd8d48988d11b941735","category":"Pub","checkinsCount":616,"usersCount":327,"tipCount":5,"visitsCount":626,"url":"http://www.squaresnottingham.co.uk","tier":"","message":"","currency":"","rating":5.4},{"name":"Cape","phone":"+441159413522","address":"23, Victoria Street","lat":52.95350372831951,"lng":-1.1455580592155457,"neighborhood":"City Centre","city_fetched":"Nottingham,UK","state":"Nottinghamshire","country":"United Kingdom","canonicalUrl":"https://foursquare.com/v/cape/4b898863f964a5207f3f32e3","categoryId":"4bf58dd8d48988d123941735","category":"Wine Bar","checkinsCount":713,"usersCount":397,"tipCount":15,"visitsCount":727,"tier":"","message":"","currency":"","rating":5.4},{"name":"Mooch","address":"Nottingham University Student Union","lat":52.93813348278952,"lng":-1.193837034059644,"city_fetched":"Nottingham,UK","state":"Nottinghamshire","country":"United Kingdom","canonicalUrl":"https://foursquare.com/v/mooch/4bfe4af683bbd13a2a2963c5","categoryId":"4bf58dd8d48988d116941735","category":"Bar","checkinsCount":687,"usersCount":275,"tipCount":10,"visitsCount":701,"tier":"","message":"","currency":"","rating":5.3},{"name":"The Grosvenor","phone":"+441159604845","address":"291-293 Mansfield Rd, Sherwood","lat":52.97065343973125,"lng":-1.153762936592102,"neighborhood":"Forest Fields","city_fetched":"Nottingham,UK","state":"Nottinghamshire","country":"United Kingdom","canonicalUrl":"https://foursquare.com/v/the-grosvenor/4b50d032f964a520673327e3","categoryId":"4bf58dd8d48988d11b941735","category":"Pub","checkinsCount":494,"usersCount":233,"tipCount":13,"visitsCount":531,"tier":"","message":"","currency":"","rating":5.3},{"name":"Blue Bell Inn","phone":"+441159473003","address":"50 Upper Parliament St","lat":52.95544429322436,"lng":-1.1501725019408395,"neighborhood":"City Centre Northeast","city_fetched":"Nottingham,UK","state":"Nottinghamshire","country":"United Kingdom","canonicalUrl":"https://foursquare.com/v/blue-bell-inn/4b649236f964a520abbe2ae3","categoryId":"4bf58dd8d48988d11b941735","category":"Pub","checkinsCount":383,"usersCount":228,"tipCount":8,"visitsCount":383,"tier":"","message":"","currency":"","rating":5.2},{"name":"The Bridge","phone":"+441159813641","address":"Radcliffe Rd, Gamston","lat":52.928329645647096,"lng":-1.107469762971822,"city_fetched":"Nottingham,UK","state":"Nottinghamshire","country":"United Kingdom","canonicalUrl":"https://foursquare.com/v/the-bridge/4bd0ad0d046076b045777071","categoryId":"4bf58dd8d48988d11b941735","category":"Pub","checkinsCount":610,"usersCount":112,"tipCount":5,"visitsCount":637,"url":"http://www.bridgepubgamston.co.uk","tier":"","message":"","currency":"","rating":5.2},{"name":"Sherwin Arms","address":"Sherwin Arms","lat":52.9362922501702,"lng":-1.2516260147094727,"city_fetched":"Nottingham,UK","state":"Nottinghamshire","country":"United Kingdom","canonicalUrl":"https://foursquare.com/v/sherwin-arms/4ba7d982f964a520c2b839e3","categoryId":"4bf58dd8d48988d11b941735","category":"Pub","checkinsCount":305,"usersCount":120,"tipCount":4,"visitsCount":333,"tier":"","message":"","currency":"","rating":5.1},{"name":"The Ropewalk","phone":"+441159596181","address":"107-111 Derby Rd","lat":52.9558990579413,"lng":-1.1619426166728155,"neighborhood":"City Centre West","city_fetched":"Nottingham,UK","state":"Nottinghamshire","country":"United Kingdom","canonicalUrl":"https://foursquare.com/v/the-ropewalk/4b71b7aef964a52040582de3","categoryId":"4bf58dd8d48988d11b941735","category":"Pub","checkinsCount":589,"usersCount":312,"tipCount":13,"visitsCount":599,"tier":"","message":"","currency":"","rating":5.1},{"name":"The Newmarket Inn","phone":"+441159414629","address":"Lower Parliament St.","lat":52.95513561415624,"lng":-1.1446034520360604,"neighborhood":"City Centre","city_fetched":"Nottingham,UK","state":"Nottinghamshire","country":"United Kingdom","canonicalUrl":"https://foursquare.com/v/the-newmarket-inn/4bbf61e585fbb7134b157267","categoryId":"4bf58dd8d48988d11b941735","category":"Pub","checkinsCount":220,"usersCount":62,"tipCount":2,"visitsCount":225,"tier":"","message":"","currency":"","rating":5}]