[{"name":"Greyhound Inn","address":"Sutton Stop","lat":52.45744769280893,"lng":-1.4693355560302734,"neighborhood":"Longford","city_fetched":"Nuneaton,UK","state":"Coventry","country":"United Kingdom","canonicalUrl":"https://foursquare.com/v/greyhound-inn/4cbb38d8dd41a35d82e1eca0","categoryId":"4bf58dd8d48988d11b941735","category":"Pub","checkinsCount":288,"usersCount":205,"tipCount":6,"visitsCount":405,"tier":"","message":"","currency":"","rating":8.3},{"name":"The Crown","address":"10 Bond St","lat":52.525147309004105,"lng":-1.4652944294367658,"city_fetched":"Nuneaton,UK","state":"Warwickshire","country":"United Kingdom","canonicalUrl":"https://foursquare.com/v/the-crown/4bad1cfdf964a520ec2e3be3","categoryId":"4bf58dd8d48988d117941735","category":"Beer Garden","checkinsCount":414,"usersCount":91,"tipCount":9,"visitsCount":439,"tier":"","message":"","currency":"","rating":8},{"name":"The Marina","address":"coventry road","lat":52.53698385867954,"lng":-1.4001656104010793,"city_fetched":"Nuneaton,UK","state":"Leicestershire","country":"United Kingdom","canonicalUrl":"https://foursquare.com/v/the-marina/4c9dd375542b224bf0aeed9f","categoryId":"4bf58dd8d48988d11b941735","category":"Pub","checkinsCount":183,"usersCount":78,"tipCount":1,"visitsCount":184,"tier":"","message":"","currency":"","rating":7.4},{"name":"Attleborough Arms","lat":52.515664283434354,"lng":-1.457330589794394,"city_fetched":"Nuneaton,UK","country":"United Kingdom","canonicalUrl":"https://foursquare.com/v/attleborough-arms/4bc8bcd014d7952117bd69e9","categoryId":"4bf58dd8d48988d11b941735","category":"Pub","checkinsCount":325,"usersCount":100,"tipCount":2,"visitsCount":436,"tier":"","message":"","currency":"","rating":7.1},{"name":"The Railway","phone":"+441455251311","address":"Station Rd","lat":52.53623871927168,"lng":-1.3725274882005996,"city_fetched":"Nuneaton,UK","state":"Leicestershire","country":"United Kingdom","canonicalUrl":"https://foursquare.com/v/the-railway/4bf911ba8d30d13a8da70118","categoryId":"4bf58dd8d48988d11b941735","category":"Pub","checkinsCount":51,"usersCount":30,"tipCount":3,"visitsCount":56,"url":"http://www.steamin-billy.co.uk","tier":"","message":"","currency":"","rating":7},{"name":"Griff House (Beefeater)","phone":"+442476343584","twitter":"beefeatergrill","address":"Coventry Rd","lat":52.49669649119862,"lng":-1.4735094819387704,"city_fetched":"Nuneaton,UK","state":"Warwickshire","country":"United Kingdom","canonicalUrl":"https://foursquare.com/v/griff-house-beefeater/4c4d7ca714b7b713d7eb5c78","categoryId":"4bf58dd8d48988d11b941735","category":"Pub","checkinsCount":232,"usersCount":175,"tipCount":1,"visitsCount":284,"url":"http://www.beefeater.co.uk","tier":"","message":"","currency":"","rating":6.6},{"name":"The Baron of Hinckley (Wetherspoon)","phone":"+441455890169","address":"5-7 Regent St.","lat":52.54116720236935,"lng":-1.3741707801818848,"city_fetched":"Nuneaton,UK","state":"Leicestershire","country":"United Kingdom","canonicalUrl":"https://foursquare.com/v/the-baron-of-hinckley-wetherspoon/4c87ab2e821e9eb01fcd8d89","categoryId":"4bf58dd8d48988d11b941735","category":"Pub","checkinsCount":483,"usersCount":138,"tipCount":2,"visitsCount":519,"url":"http://www.jdwetherspoon.co.uk","tier":"","message":"","currency":"","rating":6.4},{"name":"Cedar Tree","address":"Avenue Road","lat":52.513877,"lng":-1.462053,"city_fetched":"Nuneaton,UK","state":"Warwickshire","country":"United Kingdom","canonicalUrl":"https://foursquare.com/v/cedar-tree/4c1a7643624b9c74676e1204","categoryId":"4bf58dd8d48988d11b941735","category":"Pub","checkinsCount":148,"usersCount":84,"tipCount":2,"visitsCount":180,"tier":"","message":"","currency":"","rating":6.4},{"name":"Bull & Anchor","phone":"+442476365528","address":"233 Wheelright Lane","lat":52.45566942391824,"lng":-1.5049552917480469,"city_fetched":"Nuneaton,UK","state":"West Midlands","country":"United Kingdom","canonicalUrl":"https://foursquare.com/v/bull--anchor/4c37611e93db0f4756aa1f92","categoryId":"4bf58dd8d48988d11b941735","category":"Pub","checkinsCount":119,"usersCount":57,"tipCount":2,"visitsCount":131,"tier":"","message":"","currency":"","rating":6.3},{"name":"The Crew","phone":"+442476347402","address":"Queens road","lat":52.5224359555493,"lng":-1.4736730312866368,"city_fetched":"Nuneaton,UK","state":"Warwickshire","country":"United Kingdom","canonicalUrl":"https://foursquare.com/v/the-crew/4bc9cfef0687ef3b537fdacc","categoryId":"4bf58dd8d48988d116941735","category":"Bar","checkinsCount":652,"usersCount":136,"tipCount":3,"visitsCount":730,"tier":"","message":"","currency":"","rating":6.1},{"name":"The William White (Wetherspoon)","phone":"+442476642670","address":"42 Newdegate St.","lat":52.52361452398105,"lng":-1.4654940620513313,"city_fetched":"Nuneaton,UK","state":"Warwickshire","country":"United Kingdom","canonicalUrl":"https://foursquare.com/v/the-william-white-wetherspoon/4c87abaa821e9eb092cd8d89","categoryId":"4bf58dd8d48988d11b941735","category":"Pub","checkinsCount":711,"usersCount":185,"tipCount":8,"visitsCount":763,"url":"http://www.jdwetherspoon.co.uk","tier":"","message":"","currency":"","rating":6.1},{"name":"The Railway Tavern","phone":"+442476382015","address":"Bond Street","lat":52.52545107725287,"lng":-1.465044653905313,"city_fetched":"Nuneaton,UK","state":"Warwickshire","country":"United Kingdom","canonicalUrl":"https://foursquare.com/v/the-railway-tavern/4bcafbc7937ca59318b0a892","categoryId":"4bf58dd8d48988d117941735","category":"Beer Garden","checkinsCount":669,"usersCount":106,"tipCount":5,"visitsCount":674,"tier":"","message":"","currency":"","rating":6.1},{"name":"The Cock Inn","phone":"+441827880357","address":"Twycross Rd.","lat":52.603916,"lng":-1.476792,"city_fetched":"Nuneaton,UK","state":"Leicestershire","country":"United Kingdom","canonicalUrl":"https://foursquare.com/v/the-cock-inn/4c8236cc51ada1cda2eb1910","categoryId":"4bf58dd8d48988d11b941735","category":"Pub","checkinsCount":101,"usersCount":46,"tipCount":1,"visitsCount":104,"tier":"","message":"","currency":"","rating":5.9},{"name":"Bull Inn","phone":"+441827712323","address":"Watling Street","lat":52.569231,"lng":-1.51863155,"city_fetched":"Nuneaton,UK","state":"Warwickshire","country":"United Kingdom","canonicalUrl":"https://foursquare.com/v/bull-inn/4c642edaec94a593f9982dca","categoryId":"4bf58dd8d48988d11b941735","category":"Pub","checkinsCount":106,"usersCount":71,"tipCount":4,"visitsCount":123,"tier":"","message":"","currency":"","rating":5.8},{"name":"The Longshoot Hotel","phone":"+442476329711","address":"Watling St.","lat":52.53640355949757,"lng":-1.4201974868774414,"city_fetched":"Nuneaton,UK","state":"Warwickshire","country":"United Kingdom","canonicalUrl":"https://foursquare.com/v/the-longshoot-hotel/4bcced7f0687ef3b9e34e0cc","categoryId":"4bf58dd8d48988d11b941735","category":"Pub","checkinsCount":248,"usersCount":112,"tipCount":4,"visitsCount":337,"tier":"","message":"","currency":"","rating":5.8},{"name":"The Felix Holt (Wetherspoon)","phone":"+442476347785","address":"3 Stratford St.","lat":52.522958163432506,"lng":-1.46942138671875,"city_fetched":"Nuneaton,UK","state":"Warwickshire","country":"United Kingdom","canonicalUrl":"https://foursquare.com/v/the-felix-holt-wetherspoon/4b9aafb1f964a520eccc35e3","categoryId":"4bf58dd8d48988d11b941735","category":"Pub","checkinsCount":803,"usersCount":177,"tipCount":10,"visitsCount":854,"url":"http://www.jdwetherspoon.co.uk","tier":"","message":"","currency":"","rating":5.7},{"name":"The Bear And Ragged Staff (Wetherspoon)","phone":"+442476494340","address":"50 King St.","lat":52.47948703367861,"lng":-1.4710092544555664,"city_fetched":"Nuneaton,UK","state":"Warwickshire","country":"United Kingdom","canonicalUrl":"https://foursquare.com/v/the-bear-and-ragged-staff-wetherspoon/4bdb30462a3a0f4705d7adb6","categoryId":"4bf58dd8d48988d11b941735","category":"Pub","checkinsCount":1443,"usersCount":107,"tipCount":4,"visitsCount":1507,"url":"http://www.jdwetherspoon.co.uk","tier":"","message":"","currency":"","rating":5.3},{"name":"Fayre And Square","phone":"+442476345640","address":"St Davids Way","lat":52.497756853000915,"lng":-1.4751261096168466,"city_fetched":"Nuneaton,UK","state":"Warwickshire","country":"United Kingdom","canonicalUrl":"https://foursquare.com/v/fayre-and-square/4cf532fd99c6236a61cb4967","categoryId":"4bf58dd8d48988d11b941735","category":"Pub","checkinsCount":132,"usersCount":73,"tipCount":2,"visitsCount":137,"url":"http://farmhouseinns.co.uk","tier":"","message":"","currency":"","rating":5.1}]