[{"name":"The Hop Inn Bier Shoppe","address":"Burscough Street","lat":53.56776126647175,"lng":-2.8856346414105922,"city_fetched":"Ormskirk,UK","state":"Lancashire","country":"United Kingdom","canonicalUrl":"https://foursquare.com/v/the-hop-inn-bier-shoppe/5146c5bae4b087df8922c505","categoryId":"4bf58dd8d48988d116941735","category":"Bar","checkinsCount":152,"usersCount":52,"tipCount":6,"visitsCount":155,"tier":"","message":"","currency":"","rating":8},{"name":"The Hop Vine","phone":"+441704893799","address":"Liverpool Road North","lat":53.603888943643405,"lng":-2.841339111328125,"city_fetched":"Ormskirk,UK","state":"Lancashire","country":"United Kingdom","canonicalUrl":"https://foursquare.com/v/the-hop-vine/4babaeb1f964a520e8bf3ae3","categoryId":"4bf58dd8d48988d11b941735","category":"Pub","checkinsCount":414,"usersCount":143,"tipCount":10,"visitsCount":473,"tier":"","message":"","currency":"","rating":8},{"name":"The Saracens Head","phone":"+441704840204","address":"100 Summerwood Ln.","lat":53.581564544551206,"lng":-2.94549129545297,"city_fetched":"Ormskirk,UK","state":"Lancashire","country":"United Kingdom","canonicalUrl":"https://foursquare.com/v/the-saracens-head/4baf580bf964a52039f93be3","categoryId":"4bf58dd8d48988d11b941735","category":"Pub","checkinsCount":112,"usersCount":89,"tipCount":6,"visitsCount":155,"tier":"","message":"","currency":"","rating":7.9},{"name":"Ship Inn Burscough","twitter":"theshipatlathom","address":"Wheat lane","lat":53.597679,"lng":-2.8297764,"city_fetched":"Ormskirk,UK","state":"Lancashire","country":"United Kingdom","canonicalUrl":"https://foursquare.com/v/ship-inn-burscough/4bf7e1564a67c928724624cf","categoryId":"4bf58dd8d48988d11b941735","category":"Pub","checkinsCount":229,"usersCount":154,"tipCount":6,"visitsCount":333,"tier":"","message":"","currency":"","rating":7.2},{"name":"Lime Tyger","address":"4 Church Street","lat":53.5674955,"lng":-2.8861513,"city_fetched":"Ormskirk,UK","state":"Lancashire","country":"United Kingdom","canonicalUrl":"https://foursquare.com/v/lime-tyger/4dbb25c043a1d8504b67fd1e","categoryId":"4bf58dd8d48988d116941735","category":"Bar","checkinsCount":193,"usersCount":57,"tipCount":7,"visitsCount":193,"tier":"","message":"","currency":"","rating":6.8},{"name":"Disraeli's","phone":"+441695570737","address":"26 Church Street","lat":53.56826170631779,"lng":-2.886909056355108,"city_fetched":"Ormskirk,UK","state":"Lancashire","country":"United Kingdom","canonicalUrl":"https://foursquare.com/v/disraelis/4bedbaeae24d20a1c6e67114","categoryId":"4bf58dd8d48988d11b941735","category":"Pub","checkinsCount":260,"usersCount":109,"tipCount":1,"visitsCount":280,"url":"http://www.disraelis1pub.co.uk","tier":"","message":"","currency":"","rating":6.3},{"name":"Morris Dancers Beefeater","phone":"+441704880201","address":"Southport Rd, Scarisbrick","lat":53.601367889719725,"lng":-2.986135482788086,"city_fetched":"Ormskirk,UK","state":"Lancashire","country":"United Kingdom","canonicalUrl":"https://foursquare.com/v/morris-dancers-beefeater/4c3c7dae7d00d13a15f13850","categoryId":"4bf58dd8d48988d11b941735","category":"Pub","checkinsCount":16,"usersCount":10,"tipCount":1,"visitsCount":16,"tier":"","message":"","currency":"","rating":6},{"name":"The Court Leet (Wetherspoon)","phone":"+441695579803","address":"4 Wheatsheaf Walk","lat":53.56805112299726,"lng":-2.88490417235119,"city_fetched":"Ormskirk,UK","state":"Lancashire","country":"United Kingdom","canonicalUrl":"https://foursquare.com/v/the-court-leet-wetherspoon/537ca699498e2777ca31ec80","categoryId":"4bf58dd8d48988d11b941735","category":"Pub","checkinsCount":96,"usersCount":62,"tipCount":1,"visitsCount":113,"tier":"","message":"","currency":"","rating":6},{"name":"Morris Dancers (Beefeater)","phone":"+441704880201","twitter":"beefeatergrill","address":"Southport Rd","lat":53.60921067445695,"lng":-2.9350662231445312,"city_fetched":"Ormskirk,UK","state":"Lancashire","country":"United Kingdom","canonicalUrl":"https://foursquare.com/v/morris-dancers-beefeater/4d1e4055756e8cfae6d65754","categoryId":"4bf58dd8d48988d11b941735","category":"Pub","checkinsCount":70,"usersCount":51,"tipCount":0,"visitsCount":79,"url":"http://www.beefeater.co.uk","tier":"","message":"","currency":"","rating":5.7}]