[{"name":"The Turf Tavern","phone":"+441865243235","address":"4-5 Bath Pl","lat":51.75468256406534,"lng":-1.252991259098053,"city_fetched":"Oxford,UK","state":"Oxfordshire","country":"United Kingdom","canonicalUrl":"https://foursquare.com/v/the-turf-tavern/4af6e596f964a520f60322e3","categoryId":"4bf58dd8d48988d11b941735","category":"Pub","checkinsCount":4455,"usersCount":4062,"tipCount":85,"visitsCount":5597,"url":"http://www.theturftavern.co.uk","tier":2,"message":"Moderate","currency":"£","rating":8.9},{"name":"The Isis Farmhouse","phone":"+441865243870","address":"The Towing Path, Iffley Lock","lat":51.730759470968636,"lng":-1.2414926290512085,"city_fetched":"Oxford,UK","state":"Oxfordshire","country":"United Kingdom","canonicalUrl":"https://foursquare.com/v/the-isis-farmhouse/4bc9f561cc8cd13aa58bbccf","categoryId":"4bf58dd8d48988d11b941735","category":"Pub","checkinsCount":511,"usersCount":347,"tipCount":17,"visitsCount":639,"tier":"","message":"","currency":"","rating":8.8},{"name":"The Chester","phone":"+441865790438","twitter":"thechesterox4","lat":51.741796,"lng":-1.240417,"city_fetched":"Oxford,UK","country":"United Kingdom","canonicalUrl":"https://foursquare.com/v/the-chester/541c5a93498e3fbc9980d2c4","categoryId":"4bf58dd8d48988d11b941735","category":"Pub","checkinsCount":123,"usersCount":113,"tipCount":6,"visitsCount":245,"tier":"","message":"","currency":"","rating":8.6},{"name":"Rusty Bicycle","phone":"+441865204842","twitter":"rustybicycle","address":"28 Magdalen Rd","lat":51.742932,"lng":-1.234185,"city_fetched":"Oxford,UK","state":"Oxfordshire","country":"United Kingdom","canonicalUrl":"https://foursquare.com/v/rusty-bicycle/4b0da7f7f964a520464d23e3","categoryId":"4bf58dd8d48988d11b941735","category":"Pub","checkinsCount":886,"usersCount":421,"tipCount":17,"visitsCount":1138,"url":"http://www.therustybicycle.com","tier":"","message":"","currency":"","rating":8.6},{"name":"The Eagle & Child","phone":"+441865302925","address":"49 St. Giles'","lat":51.75727022005731,"lng":-1.2601715941811398,"city_fetched":"Oxford,UK","state":"Oxfordshire","country":"United Kingdom","canonicalUrl":"https://foursquare.com/v/the-eagle--child/4b4ddde0f964a520c6d926e3","categoryId":"4bf58dd8d48988d11b941735","category":"Pub","checkinsCount":2408,"usersCount":2178,"tipCount":42,"visitsCount":2598,"url":"http://www.nicholsonspubs.co.uk/theeagleandchildoxford/","tier":2,"message":"Moderate","currency":"£","rating":8.6},{"name":"The Bear Inn","phone":"+441865728164","address":"6 Alfred St","lat":51.75157650675037,"lng":-1.2558098408938858,"city_fetched":"Oxford,UK","state":"Oxfordshire","country":"United Kingdom","canonicalUrl":"https://foursquare.com/v/the-bear-inn/4b8948f0f964a520782832e3","categoryId":"4bf58dd8d48988d11b941735","category":"Pub","checkinsCount":1266,"usersCount":1149,"tipCount":16,"visitsCount":1525,"url":"http://bearoxford.co.uk","tier":"","message":"","currency":"","rating":8.5},{"name":"Raoul's","phone":"+441865553732","address":"32 Walton St, Jericho","lat":51.758065435566195,"lng":-1.263577938079834,"neighborhood":"North","city_fetched":"Oxford,UK","state":"Oxfordshire","country":"United Kingdom","canonicalUrl":"https://foursquare.com/v/raouls/4b6c70dcf964a5205a3a2ce3","categoryId":"4bf58dd8d48988d11e941735","category":"Cocktail Bar","checkinsCount":810,"usersCount":486,"tipCount":19,"visitsCount":976,"tier":"","message":"","currency":"","rating":8.5},{"name":"The Punter","address":"9 South St","lat":51.750347,"lng":-1.272678,"city_fetched":"Oxford,UK","state":"Oxfordshire","country":"United Kingdom","canonicalUrl":"https://foursquare.com/v/the-punter/4c9f59c954c8a1cddf09964b","categoryId":"4bf58dd8d48988d11b941735","category":"Pub","checkinsCount":589,"usersCount":279,"tipCount":9,"visitsCount":799,"tier":"","message":"","currency":"","rating":8.4},{"name":"Joe Perks & Co.","twitter":"joeperksandco","address":"76 St Clements St","lat":51.75112931309975,"lng":-1.2386091574000757,"neighborhood":"St. Clement's","city_fetched":"Oxford,UK","state":"Oxfordshire","country":"United Kingdom","canonicalUrl":"https://foursquare.com/v/joe-perks--co/53f45671498ec8ad5a3fa1b5","categoryId":"4bf58dd8d48988d11e941735","category":"Cocktail Bar","checkinsCount":213,"usersCount":168,"tipCount":7,"visitsCount":393,"url":"http://joeperksandco.co.uk","tier":"","message":"","currency":"","rating":8.4},{"name":"Beerd","phone":"+441865793380","twitter":"beerdoxford","address":"7 George St","lat":51.75392216732623,"lng":-1.2595595824919112,"city_fetched":"Oxford,UK","state":"Oxfordshire","country":"United Kingdom","canonicalUrl":"https://foursquare.com/v/beerd/5602e157498e93b8ebd06b81","categoryId":"4bf58dd8d48988d11b941735","category":"Pub","checkinsCount":247,"usersCount":134,"tipCount":7,"visitsCount":249,"url":"http://beerdoxford.com","tier":"","message":"","currency":"","rating":8.3},{"name":"The Head Of The River","phone":"+441865721600","address":"St. Aldate's","lat":51.746717910472235,"lng":-1.256014108657837,"city_fetched":"Oxford,UK","state":"Oxfordshire","country":"United Kingdom","canonicalUrl":"https://foursquare.com/v/the-head-of-the-river/4b86b3cef964a520479731e3","categoryId":"4bf58dd8d48988d11b941735","category":"Pub","checkinsCount":2072,"usersCount":2042,"tipCount":33,"visitsCount":2751,"tier":"","message":"","currency":"","rating":8.3},{"name":"The Perch Inn","phone":"+441865728891","twitter":"theperchinn","address":"Binsey Ln","lat":51.765938,"lng":-1.2870311737060174,"city_fetched":"Oxford,UK","state":"Oxfordshire","country":"United Kingdom","canonicalUrl":"https://foursquare.com/v/the-perch-inn/4b9bb006f964a5203e1a36e3","categoryId":"4bf58dd8d48988d11b941735","category":"Pub","checkinsCount":482,"usersCount":508,"tipCount":14,"visitsCount":653,"tier":"","message":"","currency":"","rating":8.3},{"name":"The Library","phone":"+441865241776","twitter":"thelibrarypub","address":"182 Cowley Road","lat":51.74719949931376,"lng":-1.2347602844238281,"neighborhood":"St. Clement's","city_fetched":"Oxford,UK","state":"Oxfordshire","country":"United Kingdom","canonicalUrl":"https://foursquare.com/v/the-library/4e22eb2e18a88345f05b2976","categoryId":"4bf58dd8d48988d11b941735","category":"Pub","checkinsCount":711,"usersCount":196,"tipCount":4,"visitsCount":787,"url":"http://thelibrarypuboxford.com","tier":"","message":"","currency":"","rating":8.3},{"name":"The White Rabbit","phone":"+441865241177","twitter":"whiterabbitox","address":"21 Friars Entry","lat":51.7543905,"lng":-1.2610061166666666,"city_fetched":"Oxford,UK","state":"Oxfordshire","country":"United Kingdom","canonicalUrl":"https://foursquare.com/v/the-white-rabbit/4b647488f964a52087b42ae3","categoryId":"4bf58dd8d48988d11b941735","category":"Pub","checkinsCount":606,"usersCount":386,"tipCount":17,"visitsCount":653,"url":"http://whiterabbitpizza.co.uk","tier":"","message":"","currency":"","rating":8.2},{"name":"The Rickety Press","phone":"+441865424581","address":"67 Cranham St","lat":51.759805,"lng":-1.268204,"city_fetched":"Oxford,UK","state":"Oxfordshire","country":"United Kingdom","canonicalUrl":"https://foursquare.com/v/the-rickety-press/4dbb39cd6a23e294ba0f8e22","categoryId":"4bf58dd8d48988d11b941735","category":"Pub","checkinsCount":494,"usersCount":425,"tipCount":20,"visitsCount":758,"tier":"","message":"","currency":"","rating":8.2},{"name":"The Lighthouse","phone":"+441865204060","address":"1 Park End St.","lat":51.75280651877166,"lng":-1.2646494902661185,"city_fetched":"Oxford,UK","state":"Oxfordshire","country":"United Kingdom","canonicalUrl":"https://foursquare.com/v/the-lighthouse/5454021b498e3975493b4020","categoryId":"4bf58dd8d48988d11b941735","category":"Pub","checkinsCount":271,"usersCount":221,"tipCount":5,"visitsCount":349,"tier":"","message":"","currency":"","rating":8.1},{"name":"Oxford Wine Café","twitter":"theoxfordwineco","address":"38 South Parade","lat":51.77816981962484,"lng":-1.2672579288482666,"neighborhood":"Summertown","city_fetched":"Oxford,UK","state":"Oxfordshire","country":"United Kingdom","canonicalUrl":"https://foursquare.com/v/oxford-wine-caf%C3%A9/5108d3e0067da2d018ba7040","categoryId":"4bf58dd8d48988d123941735","category":"Wine Bar","checkinsCount":216,"usersCount":117,"tipCount":3,"visitsCount":249,"tier":"","message":"","currency":"","rating":8},{"name":"The Royal Blenheim","phone":"+441865242355","address":"13 St. Ebbes Street","lat":51.75067010844293,"lng":-1.2594661116600037,"city_fetched":"Oxford,UK","state":"Oxfordshire","country":"United Kingdom","canonicalUrl":"https://foursquare.com/v/the-royal-blenheim/4b6c6274f964a520a3352ce3","categoryId":"4bf58dd8d48988d11b941735","category":"Pub","checkinsCount":565,"usersCount":273,"tipCount":8,"visitsCount":595,"tier":"","message":"","currency":"","rating":8},{"name":"Lamb & Flag","phone":"+441865515787","address":"12 St. Giles","lat":51.75732828172698,"lng":-1.2595224380493164,"city_fetched":"Oxford,UK","state":"Oxfordshire","country":"United Kingdom","canonicalUrl":"https://foursquare.com/v/lamb--flag/4b747874f964a52090de2de3","categoryId":"4bf58dd8d48988d11b941735","category":"Pub","checkinsCount":1082,"usersCount":654,"tipCount":13,"visitsCount":1166,"tier":"","message":"","currency":"","rating":7.9},{"name":"The Jam Factory","phone":"+441865244613","address":"27 Park End St","lat":51.75233391356339,"lng":-1.2674617767333984,"city_fetched":"Oxford,UK","state":"Oxfordshire","country":"United Kingdom","canonicalUrl":"https://foursquare.com/v/the-jam-factory/4b5986ecf964a520368b28e3","categoryId":"4bf58dd8d48988d116941735","category":"Bar","checkinsCount":1332,"usersCount":783,"tipCount":20,"visitsCount":1553,"url":"http://www.thejamfactoryoxford.com","tier":"","message":"","currency":"","rating":7.9},{"name":"Varsity Club","address":"9a High St","lat":51.752372215555006,"lng":-1.2569659724875588,"city_fetched":"Oxford,UK","state":"Oxfordshire","country":"United Kingdom","canonicalUrl":"https://foursquare.com/v/varsity-club/506eecb8e4b0f7e685a6442a","categoryId":"4bf58dd8d48988d11f941735","category":"Nightclub","checkinsCount":499,"usersCount":349,"tipCount":4,"visitsCount":514,"tier":"","message":"","currency":"","rating":7.9},{"name":"Rose & Crown","phone":"+441865510551","address":"14 North Parade Ave","lat":51.76471412678048,"lng":-1.2615521946758586,"city_fetched":"Oxford,UK","state":"Oxfordshire","country":"United Kingdom","canonicalUrl":"https://foursquare.com/v/rose--crown/4bdb2d1463c5c9b63cb22668","categoryId":"4bf58dd8d48988d11b941735","category":"Pub","checkinsCount":433,"usersCount":256,"tipCount":10,"visitsCount":524,"url":"http://www.roseandcrownoxford.com","tier":"","message":"","currency":"","rating":7.9},{"name":"1855","phone":"+441865247217","twitter":"1855oxford","address":"4 Oxford Castle","lat":51.751654,"lng":-1.262085,"city_fetched":"Oxford,UK","state":"Oxfordshire","country":"United Kingdom","canonicalUrl":"https://foursquare.com/v/1855/52ada671498e1390fcc97e9e","categoryId":"4bf58dd8d48988d123941735","category":"Wine Bar","checkinsCount":173,"usersCount":104,"tipCount":7,"visitsCount":176,"url":"http://www.1855oxford.com","tier":"","message":"","currency":"","rating":7.8},{"name":"The Star","phone":"+441865248011","address":"21 Rectory Rd","lat":51.749391089630066,"lng":-1.238498,"neighborhood":"St. Clement's","city_fetched":"Oxford,UK","state":"Oxfordshire","country":"United Kingdom","canonicalUrl":"https://foursquare.com/v/the-star/4b5b4f75f964a5209af328e3","categoryId":"4bf58dd8d48988d11b941735","category":"Pub","checkinsCount":521,"usersCount":239,"tipCount":4,"visitsCount":698,"tier":"","message":"","currency":"","rating":7.8},{"name":"The Magdalen Arms","phone":"+441865243159","address":"243 Iffley Road","lat":51.74124433812421,"lng":-1.2370104817945435,"city_fetched":"Oxford,UK","state":"Oxfordshire","country":"United Kingdom","canonicalUrl":"https://foursquare.com/v/the-magdalen-arms/4b1ac3c9f964a52049f123e3","categoryId":"4bf58dd8d48988d11b941735","category":"Pub","checkinsCount":576,"usersCount":490,"tipCount":16,"visitsCount":883,"tier":"","message":"","currency":"","rating":7.8},{"name":"The White Horse","phone":"+441865204801","address":"52 Broad Street","lat":51.75461365877316,"lng":-1.2555313110351562,"city_fetched":"Oxford,UK","state":"Oxfordshire","country":"United Kingdom","canonicalUrl":"https://foursquare.com/v/the-white-horse/4b672755f964a520203e2be3","categoryId":"4bf58dd8d48988d11b941735","category":"Pub","checkinsCount":668,"usersCount":530,"tipCount":6,"visitsCount":672,"tier":"","message":"","currency":"","rating":7.8},{"name":"Temple Lounge","phone":"+441865246660","twitter":"nazchoudhury","address":"21 Temple St","lat":51.74830215236006,"lng":-1.2403607368469238,"city_fetched":"Oxford,UK","state":"Oxfordshire","country":"United Kingdom","canonicalUrl":"https://foursquare.com/nazchoudhury","categoryId":"4bf58dd8d48988d119941735","category":"Hookah Bar","checkinsCount":2625,"usersCount":687,"tipCount":12,"visitsCount":3333,"url":"http://www.temple-lounge.com","tier":"","message":"","currency":"","rating":7.7},{"name":"The Old Bookbinders","phone":"+441865553549","address":"17-18 Victor St.","lat":51.75860315548909,"lng":-1.2698377860675911,"city_fetched":"Oxford,UK","state":"Oxfordshire","country":"United Kingdom","canonicalUrl":"https://foursquare.com/v/the-old-bookbinders/4c6e5f6d10faa1431477f068","categoryId":"4bf58dd8d48988d11b941735","category":"Pub","checkinsCount":500,"usersCount":307,"tipCount":14,"visitsCount":662,"tier":"","message":"","currency":"","rating":7.6},{"name":"The Fir Tree","phone":"+441865245290","address":"163 Iffley Rd","lat":51.744339,"lng":-1.240137,"city_fetched":"Oxford,UK","state":"Oxfordshire","country":"United Kingdom","canonicalUrl":"https://foursquare.com/v/the-fir-tree/4b6c64c4f964a52070362ce3","categoryId":"4bf58dd8d48988d11b941735","category":"Pub","checkinsCount":557,"usersCount":223,"tipCount":7,"visitsCount":726,"tier":"","message":"","currency":"","rating":7.6},{"name":"Chequers","phone":"+441865727463","address":"131 High St","lat":51.75185166613579,"lng":-1.2566008283440362,"city_fetched":"Oxford,UK","state":"Oxfordshire","country":"United Kingdom","canonicalUrl":"https://foursquare.com/v/chequers/4b66d475f964a5207a2c2be3","categoryId":"4bf58dd8d48988d11b941735","category":"Pub","checkinsCount":1382,"usersCount":801,"tipCount":13,"visitsCount":1476,"url":"http://www.nicholsonspubs.co.uk/thechequersoxford/","tier":"","message":"","currency":"","rating":7.6},{"name":"The Victoria","phone":"+441865511516","address":"90 Walton St.","lat":51.761786,"lng":-1.267786,"neighborhood":"North","city_fetched":"Oxford,UK","state":"Oxfordshire","country":"United Kingdom","canonicalUrl":"https://foursquare.com/v/the-victoria/4b62cf85f964a520a9532ae3","categoryId":"4bf58dd8d48988d11b941735","category":"Pub","checkinsCount":718,"usersCount":459,"tipCount":13,"visitsCount":937,"tier":"","message":"","currency":"","rating":7.6},{"name":"The Plough","address":"Wolvercote Green","lat":51.783416,"lng":-1.282622,"neighborhood":"Wolvercote","city_fetched":"Oxford,UK","state":"Oxfordshire","country":"United Kingdom","canonicalUrl":"https://foursquare.com/v/the-plough/4bc1e859461576b024777c32","categoryId":"4bf58dd8d48988d11b941735","category":"Pub","checkinsCount":225,"usersCount":163,"tipCount":3,"visitsCount":291,"tier":"","message":"","currency":"","rating":7.5},{"name":"The Gardener's Arms","phone":"+441865554007","address":"8 North Parade Ave.","lat":51.76449628641367,"lng":-1.2618154610469419,"neighborhood":"Norh","city_fetched":"Oxford,UK","state":"Oxfordshire","country":"United Kingdom","canonicalUrl":"https://foursquare.com/v/the-gardeners-arms/4c791c70566db60cd1a5430e","categoryId":"4bf58dd8d48988d11b941735","category":"Pub","checkinsCount":142,"usersCount":84,"tipCount":2,"visitsCount":142,"tier":"","message":"","currency":"","rating":7.5},{"name":"The Bridge","phone":"+441865242526","address":"6-9 Hythe Bridge St.","lat":51.75316413271674,"lng":-1.2658846378326416,"city_fetched":"Oxford,UK","state":"Oxfordshire","country":"United Kingdom","canonicalUrl":"https://foursquare.com/v/the-bridge/4b4e8457f964a52043f026e3","categoryId":"4bf58dd8d48988d11f941735","category":"Nightclub","checkinsCount":2430,"usersCount":959,"tipCount":5,"visitsCount":2753,"url":"http://www.bridgeoxford.co.uk","tier":"","message":"","currency":"","rating":7.5},{"name":"The Port Mahon","phone":"+441865790970","address":"82 St. Clements St","lat":51.75041438844966,"lng":-1.2400174140930176,"neighborhood":"St. Clement's","city_fetched":"Oxford,UK","state":"Oxfordshire","country":"United Kingdom","canonicalUrl":"https://foursquare.com/v/the-port-mahon/4b75a2ddf964a520d1182ee3","categoryId":"4bf58dd8d48988d11b941735","category":"Pub","checkinsCount":575,"usersCount":293,"tipCount":8,"visitsCount":661,"tier":"","message":"","currency":"","rating":7.4},{"name":"The Slug and Lettuce","phone":"+441865260210","address":"1 Oxford Castle","lat":51.75196852154615,"lng":-1.2620380052751115,"city_fetched":"Oxford,UK","state":"Oxfordshire","country":"United Kingdom","canonicalUrl":"https://foursquare.com/v/the-slug-and-lettuce/537f8cbb498e510111d5b061","categoryId":"4bf58dd8d48988d116941735","category":"Bar","checkinsCount":259,"usersCount":201,"tipCount":5,"visitsCount":272,"url":"http://www.slugandlettuce.co.uk/slug-oxford","tier":"","message":"","currency":"","rating":7.4},{"name":"The Mitre","phone":"+441865244563","twitter":"beefeatergrill","address":"17 High St","lat":51.75227148625681,"lng":-1.255962435530875,"city_fetched":"Oxford,UK","state":"Oxfordshire","country":"United Kingdom","canonicalUrl":"https://foursquare.com/v/the-mitre/4bfaea368f32ef3beefc04aa","categoryId":"4bf58dd8d48988d11b941735","category":"Pub","checkinsCount":1136,"usersCount":819,"tipCount":21,"visitsCount":1159,"url":"http://www.beefeater.co.uk/steak-restaurant/oxford/Mitre.html","tier":"","message":"","currency":"","rating":7.4},{"name":"The Plush Lounge","address":"27 Park End St","lat":51.752566376464685,"lng":-1.2677514553070068,"city_fetched":"Oxford,UK","state":"Oxfordshire","country":"United Kingdom","canonicalUrl":"https://foursquare.com/v/the-plush-lounge/4bdb674863c5c9b66ad12768","categoryId":"4bf58dd8d48988d11f941735","category":"Nightclub","checkinsCount":181,"usersCount":114,"tipCount":0,"visitsCount":181,"tier":"","message":"","currency":"","rating":7.3},{"name":"The Half Moon","phone":"+441865247808","address":"17-18 St Clements","lat":51.75026161997064,"lng":-1.2434828281402588,"neighborhood":"St. Clement's","city_fetched":"Oxford,UK","state":"Oxfordshire","country":"United Kingdom","canonicalUrl":"https://foursquare.com/v/the-half-moon/4b537a99f964a520049f27e3","categoryId":"4bf58dd8d48988d11b941735","category":"Pub","checkinsCount":532,"usersCount":205,"tipCount":8,"visitsCount":540,"tier":"","message":"","currency":"","rating":7.2},{"name":"The Four Candles (Wetherspoon)","phone":"+441865263110","twitter":"jdwtweet","address":"51-53 George St.","lat":51.753386628856745,"lng":-1.262126863002777,"city_fetched":"Oxford,UK","state":"Oxfordshire","country":"United Kingdom","canonicalUrl":"https://foursquare.com/v/the-four-candles-wetherspoon/4b50d862f964a520f83427e3","categoryId":"4bf58dd8d48988d11b941735","category":"Pub","checkinsCount":2213,"usersCount":1384,"tipCount":25,"visitsCount":2407,"url":"http://www.jdwetherspoon.co.uk","tier":1,"message":"Cheap","currency":"£","rating":7.2},{"name":"The House","phone":"+441865724433","address":"Blue Boar Street","lat":51.751506,"lng":-1.256056,"city_fetched":"Oxford,UK","state":"Oxfordshire","country":"United Kingdom","canonicalUrl":"https://foursquare.com/v/the-house/4bc0bfd6b492d13acbcba460","categoryId":"4bf58dd8d48988d11e941735","category":"Cocktail Bar","checkinsCount":399,"usersCount":249,"tipCount":6,"visitsCount":401,"url":"http://www.housebar.co.uk","tier":"","message":"","currency":"","rating":7.2},{"name":"The White Hart Inn","phone":"+441865244372","address":"Wytham","lat":51.77447893277896,"lng":-1.3121366500854492,"city_fetched":"Oxford,UK","state":"Oxfordshire","country":"United Kingdom","canonicalUrl":"https://foursquare.com/v/the-white-hart-inn/4c422212520fa593e5c0caac","categoryId":"4bf58dd8d48988d11b941735","category":"Pub","checkinsCount":63,"usersCount":67,"tipCount":2,"visitsCount":82,"url":"http://www.whitehartwytham.co.uk","tier":"","message":"","currency":"","rating":7.2},{"name":"The King's Arms","phone":"+441865242369","address":"40 Holywell St","lat":51.75509018237818,"lng":-1.2543725967407227,"city_fetched":"Oxford,UK","state":"Oxfordshire","country":"United Kingdom","canonicalUrl":"https://foursquare.com/v/the-kings-arms/4b4a4056f964a520ce8026e3","categoryId":"4bf58dd8d48988d11b941735","category":"Pub","checkinsCount":2415,"usersCount":2107,"tipCount":27,"visitsCount":3083,"tier":2,"message":"Moderate","currency":"£","rating":7.2},{"name":"St Aldates Tavern","phone":"+441865250201","address":"108 Saint Aldate's","lat":51.75126654446024,"lng":-1.2572978540056854,"city_fetched":"Oxford,UK","state":"Oxfordshire","country":"United Kingdom","canonicalUrl":"https://foursquare.com/v/st-aldates-tavern/4b66d4c9f964a520842c2be3","categoryId":"4bf58dd8d48988d11b941735","category":"Pub","checkinsCount":582,"usersCount":503,"tipCount":9,"visitsCount":673,"tier":"","message":"","currency":"","rating":7.1},{"name":"Angel & Greyhound","phone":"+441865242660","address":"30 St. Clements St.","lat":51.75028,"lng":-1.242573,"neighborhood":"St. Clement's","city_fetched":"Oxford,UK","state":"Oxfordshire","country":"United Kingdom","canonicalUrl":"https://foursquare.com/v/angel--greyhound/4b3b922ef964a520157625e3","categoryId":"4bf58dd8d48988d11b941735","category":"Pub","checkinsCount":873,"usersCount":385,"tipCount":10,"visitsCount":901,"tier":"","message":"","currency":"","rating":7.1},{"name":"The William Morris (Wetherspoon)","phone":"+441865335950","address":"59a Between Towns Rd.","lat":51.7323865187947,"lng":-1.217502947273874,"neighborhood":"Cowley","city_fetched":"Oxford,UK","state":"Oxfordshire","country":"United Kingdom","canonicalUrl":"https://foursquare.com/v/the-william-morris-wetherspoon/4c87abb2821e9eb097cd8d89","categoryId":"4bf58dd8d48988d11b941735","category":"Pub","checkinsCount":279,"usersCount":151,"tipCount":4,"visitsCount":299,"url":"http://www.jdwetherspoon.co.uk","tier":"","message":"","currency":"","rating":7.1},{"name":"Prince of Wales","address":"73 Church Way","lat":51.73006474971771,"lng":-1.236761212348938,"neighborhood":"Iffley","city_fetched":"Oxford,UK","state":"Oxfordshire","country":"United Kingdom","canonicalUrl":"https://foursquare.com/v/prince-of-wales/4b746680f964a52037da2de3","categoryId":"4bf58dd8d48988d11b941735","category":"Pub","checkinsCount":125,"usersCount":97,"tipCount":3,"visitsCount":137,"tier":"","message":"","currency":"","rating":7},{"name":"The Cape of Good Hope","phone":"+441865262291","address":"1 Iffley Rd","lat":51.749806275000005,"lng":-1.243587,"neighborhood":"St. Clement's","city_fetched":"Oxford,UK","state":"Oxfordshire","country":"United Kingdom","canonicalUrl":"https://foursquare.com/v/the-cape-of-good-hope/4b2a7febf964a52058aa24e3","categoryId":"4bf58dd8d48988d11b941735","category":"Pub","checkinsCount":1452,"usersCount":770,"tipCount":15,"visitsCount":1786,"tier":"","message":"","currency":"","rating":7},{"name":"Be At One","address":"St Clements St","lat":51.75018350839111,"lng":-1.2437969423338493,"neighborhood":"St. Clement's","city_fetched":"Oxford,UK","state":"Oxfordshire","country":"United Kingdom","canonicalUrl":"https://foursquare.com/v/be-at-one/552d5cf7498e2c593c8c73f2","categoryId":"4bf58dd8d48988d11e941735","category":"Cocktail Bar","checkinsCount":96,"usersCount":82,"tipCount":3,"visitsCount":108,"tier":"","message":"","currency":"","rating":6.9},{"name":"The Royal Oak","phone":"+441865310187","address":"Woodstock Rd","lat":51.76038971572495,"lng":-1.2615394592285156,"neighborhood":"North","city_fetched":"Oxford,UK","state":"Oxfordshire","country":"United Kingdom","canonicalUrl":"https://foursquare.com/v/the-royal-oak/4bffb6ee8d7a9c74606cfa52","categoryId":"4bf58dd8d48988d11b941735","category":"Pub","checkinsCount":1017,"usersCount":607,"tipCount":13,"visitsCount":1253,"tier":"","message":"","currency":"","rating":6.9},{"name":"Jericho Tavern","phone":"+441865311775","twitter":"jericholife","address":"56 Walton St","lat":51.760129,"lng":-1.26644,"city_fetched":"Oxford,UK","state":"Oxfordshire","country":"United Kingdom","canonicalUrl":"https://foursquare.com/v/jericho-tavern/4b0d8ebcf964a520054b23e3","categoryId":"4bf58dd8d48988d11b941735","category":"Pub","checkinsCount":1365,"usersCount":717,"tipCount":13,"visitsCount":1498,"url":"http://like.i.would.advertise","tier":"","message":"","currency":"","rating":6.9},{"name":"The City Arms","phone":"+441865725299","address":"288 Cowley Rd","lat":51.74496588016635,"lng":-1.2298142910003662,"city_fetched":"Oxford,UK","state":"Oxfordshire","country":"United Kingdom","canonicalUrl":"https://foursquare.com/v/the-city-arms/4b771086f964a52095792ee3","categoryId":"4bf58dd8d48988d11b941735","category":"Pub","checkinsCount":1388,"usersCount":699,"tipCount":9,"visitsCount":1877,"url":"http://www.screampubs.co.uk/thecityarmsoxford","tier":"","message":"","currency":"","rating":6.9},{"name":"Café Tarifa","phone":"+441865256091","address":"56-60 Cowley Rd","lat":51.74900721718479,"lng":-1.2414162018889605,"city_fetched":"Oxford,UK","state":"Oxfordshire","country":"United Kingdom","canonicalUrl":"https://foursquare.com/v/caf%C3%A9-tarifa/4b5deca6f964a520157429e3","categoryId":"4bf58dd8d48988d116941735","category":"Bar","checkinsCount":615,"usersCount":471,"tipCount":9,"visitsCount":792,"tier":"","message":"","currency":"","rating":6.8},{"name":"Camera","phone":"+441865245551","address":"28-31 St Ebbes St.","lat":51.75086701446548,"lng":-1.2594891945272408,"city_fetched":"Oxford,UK","state":"Oxfordshire","country":"United Kingdom","canonicalUrl":"https://foursquare.com/v/camera/4bb503000ef1c9b660c0f412","categoryId":"4bf58dd8d48988d11f941735","category":"Nightclub","checkinsCount":704,"usersCount":304,"tipCount":7,"visitsCount":717,"url":"http://www.cameraoxford.co.uk","tier":1,"message":"Cheap","currency":"£","rating":6.8},{"name":"Cafe Coco","phone":"+441865200232","address":"23 Cowley Rd.","lat":51.74955904483795,"lng":-1.242836,"neighborhood":"St. Clement's","city_fetched":"Oxford,UK","state":"Oxfordshire","country":"United Kingdom","canonicalUrl":"https://foursquare.com/v/cafe-coco/4b4e0a8cf964a52045df26e3","categoryId":"4bf58dd8d48988d11e941735","category":"Cocktail Bar","checkinsCount":509,"usersCount":302,"tipCount":7,"visitsCount":523,"tier":"","message":"","currency":"","rating":6.8},{"name":"Harcourt Arms","phone":"+441865429462","address":"1 Cranham Ter","lat":51.759431,"lng":-1.2678453,"city_fetched":"Oxford,UK","state":"Oxfordshire","country":"United Kingdom","canonicalUrl":"https://foursquare.com/v/harcourt-arms/4b55fa9df964a52018fa27e3","categoryId":"4bf58dd8d48988d11b941735","category":"Pub","checkinsCount":132,"usersCount":67,"tipCount":4,"visitsCount":140,"url":"http://harcourtarmsjericho.co.uk","tier":"","message":"","currency":"","rating":6.8},{"name":"The Bell at Hampton Poyle","phone":"+441865376242","address":"11 Oxford Rd. Hampton Poyle","lat":51.835425,"lng":-1.270365,"city_fetched":"Oxford,UK","state":"Oxfordshire","country":"United Kingdom","canonicalUrl":"https://foursquare.com/v/the-bell-at-hampton-poyle/4bdee9fdfe0e62b53c0c0606","categoryId":"4bf58dd8d48988d1d5941735","category":"Hotel Bar","checkinsCount":106,"usersCount":111,"tipCount":3,"visitsCount":162,"url":"http://www.thebelloxford.co.uk","tier":"","message":"","currency":"","rating":6.8},{"name":"Love Jericho","phone":"+441865424631","address":"30 Walton St","lat":51.758085,"lng":-1.263546,"neighborhood":"North","city_fetched":"Oxford,UK","state":"Oxfordshire","country":"United Kingdom","canonicalUrl":"https://foursquare.com/v/love-jericho/4d7be1eb645ea35dba493bf8","categoryId":"4bf58dd8d48988d11e941735","category":"Cocktail Bar","checkinsCount":152,"usersCount":80,"tipCount":5,"visitsCount":154,"tier":"","message":"","currency":"","rating":6.7},{"name":"The Big Society","phone":"+441865792755","twitter":"bigsocoxford","address":"95 Cowley Rd","lat":51.748568,"lng":-1.239184,"neighborhood":"St. Clement's","city_fetched":"Oxford,UK","state":"Oxfordshire","country":"United Kingdom","canonicalUrl":"https://foursquare.com/v/the-big-society/51156316e4b0a897c92a0bd0","categoryId":"4bf58dd8d48988d11b941735","category":"Pub","checkinsCount":1147,"usersCount":394,"tipCount":12,"visitsCount":1243,"url":"http://www.bigsocietyoxford.com","tier":2,"message":"Moderate","currency":"£","rating":6.7},{"name":"The Red Lion","phone":"+441865726255","twitter":"redlionoxford","address":"14 Gloucester St","lat":51.754206866351545,"lng":-1.2609118223190308,"city_fetched":"Oxford,UK","state":"Oxfordshire","country":"United Kingdom","canonicalUrl":"https://foursquare.com/v/the-red-lion/4b646d88f964a5204eb22ae3","categoryId":"4bf58dd8d48988d11b941735","category":"Pub","checkinsCount":1370,"usersCount":928,"tipCount":26,"visitsCount":1442,"tier":"","message":"","currency":"","rating":6.7},{"name":"The Cellar","address":"Frewin Court","lat":51.753017686086245,"lng":-1.2583578390376393,"city_fetched":"Oxford,UK","state":"Oxfordshire","country":"United Kingdom","canonicalUrl":"https://foursquare.com/v/the-cellar/4b63639bf964a52056762ae3","categoryId":"4bf58dd8d48988d116941735","category":"Bar","checkinsCount":182,"usersCount":120,"tipCount":7,"visitsCount":184,"tier":"","message":"","currency":"","rating":6.6},{"name":"The White Hart","address":"9-11 The Croft","lat":51.76429279,"lng":-1.211777,"neighborhood":"Headington","city_fetched":"Oxford,UK","state":"Oxfordshire","country":"United Kingdom","canonicalUrl":"https://foursquare.com/v/the-white-hart/4c0a38b8bbc676b0f06f49d5","categoryId":"4bf58dd8d48988d11b941735","category":"Pub","checkinsCount":353,"usersCount":175,"tipCount":5,"visitsCount":485,"tier":"","message":"","currency":"","rating":6.6},{"name":"Wig & Pen","phone":"+441865246906","address":"9-13 George St","lat":51.75372203141406,"lng":-1.259833574295044,"city_fetched":"Oxford,UK","state":"Oxfordshire","country":"United Kingdom","canonicalUrl":"https://foursquare.com/v/wig--pen/5103e1ede4b06cfb698afbc8","categoryId":"4bf58dd8d48988d11b941735","category":"Pub","checkinsCount":1018,"usersCount":720,"tipCount":7,"visitsCount":1057,"tier":"","message":"","currency":"","rating":6.6},{"name":"Duke Of Cambridge","phone":"+441865558173","twitter":"dukebars","address":"5-6 Little Clarendon St","lat":51.75866311903413,"lng":-1.2616360187530518,"neighborhood":"North","city_fetched":"Oxford,UK","state":"Oxfordshire","country":"United Kingdom","canonicalUrl":"https://foursquare.com/v/duke-of-cambridge/4b86c481f964a520d49b31e3","categoryId":"4bf58dd8d48988d11e941735","category":"Cocktail Bar","checkinsCount":585,"usersCount":389,"tipCount":4,"visitsCount":602,"url":"http://www.dukebar.com","tier":"","message":"","currency":"","rating":6.6},{"name":"Jude the Obscure","phone":"+441865557309","address":"54 Walton St","lat":51.75993585,"lng":-1.266235,"city_fetched":"Oxford,UK","state":"Oxfordshire","country":"United Kingdom","canonicalUrl":"https://foursquare.com/v/jude-the-obscure/4b5d923ff964a520f36129e3","categoryId":"4bf58dd8d48988d11b941735","category":"Pub","checkinsCount":703,"usersCount":334,"tipCount":9,"visitsCount":758,"tier":"","message":"","currency":"","rating":6.6},{"name":"Browns Bar & Brasserie","phone":"+441865511995","address":"5-11 Woodstock Rd","lat":51.758997959200265,"lng":-1.2610130390012926,"neighborhood":"North","city_fetched":"Oxford,UK","state":"Oxfordshire","country":"United Kingdom","canonicalUrl":"https://foursquare.com/v/browns-bar--brasserie/4b77255ff964a5200f822ee3","categoryId":"4bf58dd8d48988d116941735","category":"Bar","checkinsCount":551,"usersCount":465,"tipCount":10,"visitsCount":621,"tier":"","message":"","currency":"","rating":6.5},{"name":"Angels","phone":"+441865554224","address":"Little Clarendon St.","lat":51.75856,"lng":-1.261712,"neighborhood":"North","city_fetched":"Oxford,UK","state":"Oxfordshire","country":"United Kingdom","canonicalUrl":"https://foursquare.com/v/angels/4b7077e3f964a5204c1c2de3","categoryId":"4bf58dd8d48988d11e941735","category":"Cocktail Bar","checkinsCount":244,"usersCount":179,"tipCount":9,"visitsCount":244,"tier":"","message":"","currency":"","rating":6.5},{"name":"The Victoria Arms","phone":"+441865241382","address":"Mill Ln, Old Marston","lat":51.77697993988803,"lng":-1.2473398447036743,"neighborhood":"Marston","city_fetched":"Oxford,UK","state":"Oxfordshire","country":"United Kingdom","canonicalUrl":"https://foursquare.com/v/the-victoria-arms/4baa8e37f964a5203b743ae3","categoryId":"4bf58dd8d48988d11b941735","category":"Pub","checkinsCount":563,"usersCount":404,"tipCount":12,"visitsCount":727,"tier":2,"message":"Moderate","currency":"£","rating":6.5},{"name":"The Black Boy","address":"91 Old High St.","lat":51.764210013175926,"lng":-1.2106165030379308,"neighborhood":"Headington","city_fetched":"Oxford,UK","state":"Oxfordshire","country":"United Kingdom","canonicalUrl":"https://foursquare.com/v/the-black-boy/4bb8e58f3db7b71383c0219a","categoryId":"4bf58dd8d48988d11b941735","category":"Pub","checkinsCount":115,"usersCount":94,"tipCount":5,"visitsCount":135,"url":"http://www.theblackboy.uk.com","tier":"","message":"","currency":"","rating":6.5},{"name":"The Oxford Retreat","phone":"+441865250309","address":"1-2 Hythe Bridge St.","lat":51.75336338304265,"lng":-1.2651658058166504,"city_fetched":"Oxford,UK","state":"Oxfordshire","country":"United Kingdom","canonicalUrl":"https://foursquare.com/v/the-oxford-retreat/4b6d9b74f964a520d37f2ce3","categoryId":"4bf58dd8d48988d11b941735","category":"Pub","checkinsCount":952,"usersCount":535,"tipCount":5,"visitsCount":980,"url":"http://www.theoxfordretreat.com","tier":"","message":"","currency":"","rating":6.4},{"name":"The Anchor Inn","phone":"+441865510282","twitter":"theanchorinn","address":"2 Hayfield Rd","lat":51.767576,"lng":-1.268968,"city_fetched":"Oxford,UK","country":"United Kingdom","canonicalUrl":"https://foursquare.com/v/the-anchor-inn/4b570851f964a5209d2328e3","categoryId":"4bf58dd8d48988d11b941735","category":"Pub","checkinsCount":308,"usersCount":235,"tipCount":8,"visitsCount":441,"url":"http://theanchoroxford.com","tier":"","message":"","currency":"","rating":6.4},{"name":"The Longwall (Beefeater)","phone":"+441865779230","twitter":"beefeater","address":"Oxford Business Park, Garsington Road","lat":51.73114155607728,"lng":-1.203179955482483,"city_fetched":"Oxford,UK","state":"Oxfordshire","country":"United Kingdom","canonicalUrl":"https://foursquare.com/v/the-longwall-beefeater/4bcee31efb84c9b61c69243e","categoryId":"4bf58dd8d48988d11b941735","category":"Pub","checkinsCount":478,"usersCount":263,"tipCount":5,"visitsCount":662,"url":"http://www.beefeater.co.uk/steak-restaurant/oxford/Longwall-Cowley.html","tier":"","message":"","currency":"","rating":6.3},{"name":"The Bullingdon","address":"162 Cowley Rd","lat":51.74741206103134,"lng":-1.235886812210083,"city_fetched":"Oxford,UK","state":"Oxfordshire","country":"United Kingdom","canonicalUrl":"https://foursquare.com/v/the-bullingdon/5273f693498e177c3a3189f7","categoryId":"4bf58dd8d48988d116941735","category":"Bar","checkinsCount":240,"usersCount":83,"tipCount":3,"visitsCount":244,"tier":"","message":"","currency":"","rating":6.3},{"name":"The James Street Tavern","address":"47 James St","lat":51.747492,"lng":-1.23739186,"city_fetched":"Oxford,UK","state":"Oxfordshire","country":"United Kingdom","canonicalUrl":"https://foursquare.com/v/the-james-street-tavern/4afb2b54f964a520ba1b22e3","categoryId":"4bf58dd8d48988d11b941735","category":"Pub","checkinsCount":299,"usersCount":135,"tipCount":3,"visitsCount":325,"tier":"","message":"","currency":"","rating":6.3},{"name":"Freud","phone":"+441865311171","address":"119 Walton St.","lat":51.75935421875561,"lng":-1.2650926374854012,"neighborhood":"North","city_fetched":"Oxford,UK","state":"Oxfordshire","country":"United Kingdom","canonicalUrl":"https://foursquare.com/v/freud/4bad0f21f964a52065293be3","categoryId":"4bf58dd8d48988d116941735","category":"Bar","checkinsCount":825,"usersCount":659,"tipCount":14,"visitsCount":1043,"url":"http://freud.eu/cafe-bars","tier":"","message":"","currency":"","rating":6.3},{"name":"The Dew Drop Inn","phone":"+441865559372","address":"258 Banbury Rd","lat":51.77767743992952,"lng":-1.2647072229574543,"neighborhood":"Summertown","city_fetched":"Oxford,UK","state":"Oxfordshire","country":"United Kingdom","canonicalUrl":"https://foursquare.com/v/the-dew-drop-inn/4b50f60ff964a520ba3a27e3","categoryId":"4bf58dd8d48988d11b941735","category":"Pub","checkinsCount":782,"usersCount":274,"tipCount":4,"visitsCount":809,"tier":"","message":"","currency":"","rating":6.2},{"name":"Thirst","phone":"+441865242044","address":"7-8 Park End St","lat":51.752923370733434,"lng":-1.265350878238678,"city_fetched":"Oxford,UK","state":"Oxfordshire","country":"United Kingdom","canonicalUrl":"https://foursquare.com/v/thirst/4b621e0cf964a52092362ae3","categoryId":"4bf58dd8d48988d11f941735","category":"Nightclub","checkinsCount":794,"usersCount":448,"tipCount":3,"visitsCount":843,"tier":"","message":"","currency":"","rating":6.2},{"name":"O'neill's irish pub","address":"Oxford","lat":51.75361461653886,"lng":-1.2610300724591188,"city_fetched":"Oxford,UK","country":"United Kingdom","canonicalUrl":"https://foursquare.com/v/oneills-irish-pub/50251755e4b0817fcf7d2c15","categoryId":"4bf58dd8d48988d11b941735","category":"Pub","checkinsCount":200,"usersCount":150,"tipCount":4,"visitsCount":201,"tier":"","message":"","currency":"","rating":6.2},{"name":"The Marsh Harrier","phone":"+441865718225","address":"40 Marsh Road","lat":51.738365,"lng":-1.217613,"neighborhood":"Temple Cowley","city_fetched":"Oxford,UK","state":"Oxfordshire","country":"United Kingdom","canonicalUrl":"https://foursquare.com/v/the-marsh-harrier/4b6891cbf964a5206c802be3","categoryId":"4bf58dd8d48988d11b941735","category":"Pub","checkinsCount":394,"usersCount":122,"tipCount":4,"visitsCount":488,"url":"http://www.themarshharrier.com","tier":"","message":"","currency":"","rating":6.1},{"name":"Anuba","phone":"+441865242526","address":"13 Park End St.","lat":51.75277227117804,"lng":-1.2657612562179565,"city_fetched":"Oxford,UK","state":"Oxfordshire","country":"United Kingdom","canonicalUrl":"https://foursquare.com/v/anuba/4b720dcdf964a5204e6c2de3","categoryId":"4bf58dd8d48988d116941735","category":"Bar","checkinsCount":448,"usersCount":155,"tipCount":4,"visitsCount":457,"tier":"","message":"","currency":"","rating":6.1},{"name":"The Crown","phone":"+441865256047","address":"59a Cornmarket Street","lat":51.752281,"lng":-1.258367,"city_fetched":"Oxford,UK","state":"Oxfordshire","country":"United Kingdom","canonicalUrl":"https://foursquare.com/v/the-crown/4b66d535f964a520922c2be3","categoryId":"4bf58dd8d48988d11b941735","category":"Pub","checkinsCount":955,"usersCount":770,"tipCount":14,"visitsCount":991,"tier":"","message":"","currency":"","rating":6.1},{"name":"Bubbly Bar","phone":"+441865245710","address":"6 Park End St","lat":51.75305263260672,"lng":-1.2651542054038754,"city_fetched":"Oxford,UK","state":"Oxfordshire","country":"United Kingdom","canonicalUrl":"https://foursquare.com/v/bubbly-bar/4c840101dc018cfa0a82dd6c","categoryId":"4bf58dd8d48988d11e941735","category":"Cocktail Bar","checkinsCount":219,"usersCount":94,"tipCount":1,"visitsCount":222,"tier":"","message":"","currency":"","rating":6.1},{"name":"All Bar One","phone":"+441865791696","address":"124 High St","lat":51.75211642148288,"lng":-1.2559112198352478,"city_fetched":"Oxford,UK","state":"Oxfordshire","country":"United Kingdom","canonicalUrl":"https://foursquare.com/v/all-bar-one/4b530f50f964a520c28d27e3","categoryId":"4bf58dd8d48988d11b941735","category":"Pub","checkinsCount":760,"usersCount":527,"tipCount":10,"visitsCount":774,"tier":"","message":"","currency":"","rating":6.1},{"name":"The Butchers Arms","phone":"+441865742470","twitter":"butchersarmsoxf","address":"Wilberforce St","lat":51.755965179528225,"lng":-1.2112855911254883,"neighborhood":"Headington","city_fetched":"Oxford,UK","state":"Oxfordshire","country":"United Kingdom","canonicalUrl":"https://foursquare.com/v/the-butchers-arms/4ba52c8ef964a520aee738e3","categoryId":"4bf58dd8d48988d11b941735","category":"Pub","checkinsCount":312,"usersCount":91,"tipCount":5,"visitsCount":373,"tier":"","message":"","currency":"","rating":6},{"name":"The Swan & Castle (Wetherspoon)","phone":"+441865260690","address":"Castle St.","lat":51.751557,"lng":-1.261196,"city_fetched":"Oxford,UK","state":"Oxfordshire","country":"United Kingdom","canonicalUrl":"https://foursquare.com/v/the-swan--castle-wetherspoon/4b7ae587f964a52087442fe3","categoryId":"4bf58dd8d48988d11b941735","category":"Pub","checkinsCount":1585,"usersCount":792,"tipCount":11,"visitsCount":1708,"url":"http://www.jdwetherspoon.co.uk","tier":"","message":"","currency":"","rating":6},{"name":"The White Horse","phone":"+441865762447","address":"1 London Road","lat":51.75767093,"lng":-1.219479,"neighborhood":"Headington","city_fetched":"Oxford,UK","state":"Oxfordshire","country":"United Kingdom","canonicalUrl":"https://foursquare.com/v/the-white-horse/4bc76ec46501c9b67e6c3e29","categoryId":"4bf58dd8d48988d116941735","category":"Bar","checkinsCount":1040,"usersCount":640,"tipCount":8,"visitsCount":1385,"tier":"","message":"","currency":"","rating":6},{"name":"Three Goats Heads","phone":"+441865721523","address":"3A St. Michaels St","lat":51.75336338304265,"lng":-1.2591361999511719,"city_fetched":"Oxford,UK","state":"Oxfordshire","country":"United Kingdom","canonicalUrl":"https://foursquare.com/v/three-goats-heads/4b536ccef964a5206f9c27e3","categoryId":"4bf58dd8d48988d11b941735","category":"Pub","checkinsCount":450,"usersCount":274,"tipCount":7,"visitsCount":450,"tier":"","message":"","currency":"","rating":6},{"name":"Kite Inn","phone":"+441865248546","address":"68-69 Mill St","lat":51.751759400000005,"lng":-1.2711780000000001,"neighborhood":"Osney","city_fetched":"Oxford,UK","state":"Oxfordshire","country":"United Kingdom","canonicalUrl":"https://foursquare.com/v/kite-inn/4d28b7b93c79548132f5d09b","categoryId":"4bf58dd8d48988d11b941735","category":"Pub","checkinsCount":183,"usersCount":92,"tipCount":4,"visitsCount":235,"tier":"","message":"","currency":"","rating":5.9},{"name":"Bar Aroma","phone":"+441865246607","address":"234 Cowley Rd.","lat":51.7462562446249,"lng":-1.2328290939331055,"city_fetched":"Oxford,UK","state":"Oxfordshire","country":"United Kingdom","canonicalUrl":"https://foursquare.com/v/bar-aroma/4ba961abf964a5205e233ae3","categoryId":"4bf58dd8d48988d11e941735","category":"Cocktail Bar","checkinsCount":179,"usersCount":88,"tipCount":1,"visitsCount":180,"url":"http://www.bararoma.co.uk","tier":"","message":"","currency":"","rating":5.9},{"name":"The Grapes","phone":"+441865793380","address":"7 George St","lat":51.75401461429025,"lng":-1.259730902778936,"city_fetched":"Oxford,UK","state":"Oxfordshire","country":"United Kingdom","canonicalUrl":"https://foursquare.com/v/the-grapes/4b7d9406f964a520dcc72fe3","categoryId":"4bf58dd8d48988d11b941735","category":"Pub","checkinsCount":691,"usersCount":381,"tipCount":14,"visitsCount":697,"tier":"","message":"","currency":"","rating":5.9},{"name":"Purple Turtle","phone":"+441865247086","address":"Frewin Court","lat":51.752898464248105,"lng":-1.258535385131836,"city_fetched":"Oxford,UK","state":"Oxfordshire","country":"United Kingdom","canonicalUrl":"https://foursquare.com/v/purple-turtle/4b4e8b9ff964a5200cf126e3","categoryId":"4bf58dd8d48988d11f941735","category":"Nightclub","checkinsCount":520,"usersCount":251,"tipCount":5,"visitsCount":527,"tier":"","message":"","currency":"","rating":5.8},{"name":"Duke Of Monmouth","address":"260 Abingdon Rd","lat":51.73733014487289,"lng":-1.2523443069601596,"city_fetched":"Oxford,UK","state":"Oxfordshire","country":"United Kingdom","canonicalUrl":"https://foursquare.com/v/duke-of-monmouth/4beaea16a9900f472f1d1740","categoryId":"4bf58dd8d48988d11b941735","category":"Pub","checkinsCount":157,"usersCount":119,"tipCount":2,"visitsCount":203,"tier":"","message":"","currency":"","rating":5.7},{"name":"The Cowley Retreat","address":"172 Cowley Rd","lat":51.747248973163266,"lng":-1.2354441308000992,"city_fetched":"Oxford,UK","state":"Oxfordshire","country":"United Kingdom","canonicalUrl":"https://foursquare.com/v/the-cowley-retreat/4b801b20f964a520be5230e3","categoryId":"4bf58dd8d48988d11b941735","category":"Pub","checkinsCount":597,"usersCount":352,"tipCount":5,"visitsCount":683,"url":"http://www.thecowleyretreat.com","tier":"","message":"","currency":"","rating":5.6},{"name":"Wahoo","phone":"+441865251838","address":"3-5 Hythe Bridge St.","lat":51.753330174716034,"lng":-1.265401840209961,"city_fetched":"Oxford,UK","state":"Oxfordshire","country":"United Kingdom","canonicalUrl":"https://foursquare.com/v/wahoo/4bd892c4f645c9b69052a8e0","categoryId":"4bf58dd8d48988d116941735","category":"Bar","checkinsCount":423,"usersCount":275,"tipCount":1,"visitsCount":427,"tier":"","message":"","currency":"","rating":5.6},{"name":"Lola Lo","address":"13-15 Magdalen St","lat":51.754693891768824,"lng":-1.25908065030602,"city_fetched":"Oxford,UK","state":"Oxfordshire","country":"United Kingdom","canonicalUrl":"https://foursquare.com/v/lola-lo/4d9dc69a7865a0931133ef7a","categoryId":"4bf58dd8d48988d11f941735","category":"Nightclub","checkinsCount":154,"usersCount":111,"tipCount":4,"visitsCount":154,"tier":"","message":"","currency":"","rating":5.5},{"name":"The Old Tom","phone":"+441865243034","address":"101 St Aldate's","lat":51.75086764079661,"lng":-1.2570648745461734,"city_fetched":"Oxford,UK","state":"Oxfordshire","country":"United Kingdom","canonicalUrl":"https://foursquare.com/v/the-old-tom/4b4cb9c4f964a52000bc26e3","categoryId":"4bf58dd8d48988d11b941735","category":"Pub","checkinsCount":285,"usersCount":205,"tipCount":4,"visitsCount":285,"tier":"","message":"","currency":"","rating":5.5},{"name":"The Britannia Inn","phone":"+441865760192","address":"London Road","lat":51.7590283661478,"lng":-1.213839054107666,"neighborhood":"Headington","city_fetched":"Oxford,UK","state":"Oxfordshire","country":"United Kingdom","canonicalUrl":"https://foursquare.com/v/the-britannia-inn/4b5b38a4f964a52042ec28e3","categoryId":"4bf58dd8d48988d11b941735","category":"Pub","checkinsCount":401,"usersCount":258,"tipCount":3,"visitsCount":487,"tier":"","message":"","currency":"","rating":5.3},{"name":"The White House","phone":"+441865790106","twitter":"thewhitehouseox","address":"38 Abingdon Rd","lat":51.743781689971314,"lng":-1.256048968380449,"neighborhood":"Grandpont","city_fetched":"Oxford,UK","state":"Oxfordshire","country":"United Kingdom","canonicalUrl":"https://foursquare.com/v/the-white-house/4bdd703df219c9b65d931210","categoryId":"4bf58dd8d48988d11b941735","category":"Pub","checkinsCount":153,"usersCount":141,"tipCount":5,"visitsCount":211,"url":"http://www.whitehouseoxford.com","tier":"","message":"","currency":"","rating":5.2}]