[{"name":"Crown Carvery","address":"Coast Road","lat":50.792845390317254,"lng":-0.00886177440921304,"city_fetched":"Peacehaven,UK","state":"East Sussex","country":"United Kingdom","canonicalUrl":"https://foursquare.com/v/crown-carvery/4d1dcfcd6e8c37045eeedf9f","categoryId":"50327c8591d4c4b30a586d5d","category":"Brewery","checkinsCount":125,"usersCount":152,"tipCount":4,"visitsCount":236,"tier":"","message":"","currency":"","rating":7.6},{"name":"The Queen Victoria","phone":"+441273302121","address":"54 High St.","lat":50.80349383509373,"lng":-0.05730271339416504,"neighborhood":"Rottingdean","city_fetched":"Peacehaven,UK","state":"Brighton and Hove","country":"United Kingdom","canonicalUrl":"https://foursquare.com/v/the-queen-victoria/4c7bded32d3ba143e43e95d0","categoryId":"4bf58dd8d48988d11b941735","category":"Pub","checkinsCount":153,"usersCount":75,"tipCount":7,"visitsCount":173,"tier":"","message":"","currency":"","rating":7},{"name":"Smuggler's Rest","phone":"+441273586593","address":"South Coast Road Telscombe Cliffs","lat":50.795696521965304,"lng":-0.022577092579026195,"city_fetched":"Peacehaven,UK","country":"United Kingdom","canonicalUrl":"https://foursquare.com/v/smugglers-rest/4fc225e8e4b00dd50eaad022","categoryId":"4bf58dd8d48988d11b941735","category":"Pub","checkinsCount":225,"usersCount":209,"tipCount":6,"visitsCount":360,"url":"http://www.vintageinn.co.uk/thesmugglersrestpeacehaven/","tier":"","message":"","currency":"","rating":6.9},{"name":"Flying Fish - Shepherd Neame","phone":"+441273515440","address":"Denton Road","lat":50.80349383509373,"lng":0.06224870681762695,"city_fetched":"Peacehaven,UK","country":"United Kingdom","canonicalUrl":"https://foursquare.com/v/flying-fish--shepherd-neame/4c253eed136d20a10147e361","categoryId":"4bf58dd8d48988d11b941735","category":"Pub","checkinsCount":29,"usersCount":17,"tipCount":0,"visitsCount":30,"url":"http://www.shepherdneame.co.uk","tier":"","message":"","currency":"","rating":6.4},{"name":"Brewers Fayre","phone":"+448701977192","twitter":"brewersfayre","address":"The Drove","lat":50.79929054,"lng":0.06154,"city_fetched":"Peacehaven,UK","state":"East Sussex","country":"United Kingdom","canonicalUrl":"https://foursquare.com/v/brewers-fayre/4bc9d528937ca593e961a692","categoryId":"4bf58dd8d48988d11b941735","category":"Pub","checkinsCount":172,"usersCount":111,"tipCount":2,"visitsCount":184,"url":"http://www.brewersfayre.co.uk/pub-restaurant/Sussex/Drove-Newhaven.html","tier":"","message":"","currency":"","rating":6}]