[{"name":"The Ostrich Inn","phone":"+441733752255","address":"17 North St.","lat":52.575824380692595,"lng":-0.2439845133099326,"city_fetched":"Peterborough,UK","state":"Peterborough","country":"United Kingdom","canonicalUrl":"https://foursquare.com/v/the-ostrich-inn/4c6fea06fa49a1cdb143a4e3","categoryId":"4bf58dd8d48988d11b941735","category":"Pub","checkinsCount":440,"usersCount":123,"tipCount":3,"visitsCount":486,"tier":"","message":"","currency":"","rating":8.6},{"name":"Coalheavers Arms","phone":"+441733565664","twitter":"coalheaversarms","address":"5 Park St","lat":52.56223628040357,"lng":-0.245644655601368,"city_fetched":"Peterborough,UK","state":"Peterborough","country":"United Kingdom","canonicalUrl":"https://foursquare.com/v/coalheavers-arms/4bb76bc16edc76b0f125321c","categoryId":"4bf58dd8d48988d116941735","category":"Bar","checkinsCount":431,"usersCount":58,"tipCount":6,"visitsCount":513,"url":"https://www.individualpubs.co.uk/coalheavers/","tier":"","message":"","currency":"","rating":8.6},{"name":"Charters","phone":"+441733315700","twitter":"chartersbar","address":"Town Bridge","lat":52.56803783914504,"lng":-0.24203181266784668,"city_fetched":"Peterborough,UK","state":"Peterborough","country":"United Kingdom","canonicalUrl":"https://foursquare.com/v/charters/4bb789fe3db7b713a41f209a","categoryId":"4bf58dd8d48988d11b941735","category":"Pub","checkinsCount":1546,"usersCount":522,"tipCount":16,"visitsCount":1778,"url":"http://www.charters-bar.com","tier":2,"message":"Moderate","currency":"£","rating":8.5},{"name":"The Stoneworks Bar","twitter":"thestoneworks","address":"8A","lat":52.572541,"lng":-0.244274,"city_fetched":"Peterborough,UK","state":"Peterborough","country":"United Kingdom","canonicalUrl":"https://foursquare.com/v/the-stoneworks-bar/57765250498e5a7c0e5735a9","categoryId":"4bf58dd8d48988d116941735","category":"Bar","checkinsCount":87,"usersCount":19,"tipCount":3,"visitsCount":90,"tier":"","message":"","currency":"","rating":7.9},{"name":"The Brewery Tap","phone":"+441733358500","twitter":"oakhamales","address":"80 Westgate","lat":52.575851158229206,"lng":-0.24746596813201904,"city_fetched":"Peterborough,UK","state":"Peterborough","country":"United Kingdom","canonicalUrl":"https://foursquare.com/v/the-brewery-tap/4b87e72ff964a52006d231e3","categoryId":"50327c8591d4c4b30a586d5d","category":"Brewery","checkinsCount":1035,"usersCount":527,"tipCount":24,"visitsCount":1275,"tier":"","message":"","currency":"","rating":7.9},{"name":"The Cherry Tree","phone":"+441733703495","address":"9-11 Oundle Road","lat":52.565710135455745,"lng":-0.2469839223034929,"city_fetched":"Peterborough,UK","state":"Peterborough","country":"United Kingdom","canonicalUrl":"https://foursquare.com/v/the-cherry-tree/4ba53fcaf964a52081f138e3","categoryId":"4bf58dd8d48988d11b941735","category":"Pub","checkinsCount":455,"usersCount":144,"tipCount":6,"visitsCount":492,"url":"http://www.cherrytree-inn.co.uk","tier":"","message":"","currency":"","rating":7.7},{"name":"Palmerston Arms","phone":"+441733565865","address":"82 Oundle Rd.","lat":52.56547950814268,"lng":-0.2501091235222327,"city_fetched":"Peterborough,UK","state":"Peterborough","country":"United Kingdom","canonicalUrl":"https://foursquare.com/v/palmerston-arms/4c13f318b7b9c928f184aa37","categoryId":"4bf58dd8d48988d116941735","category":"Bar","checkinsCount":546,"usersCount":84,"tipCount":1,"visitsCount":603,"tier":"","message":"","currency":"","rating":7.6},{"name":"The Draper's Arms (Wetherspoon)","phone":"+441733847570","address":"29-31 Cowgate","lat":52.57297807064785,"lng":-0.24654107157481664,"city_fetched":"Peterborough,UK","state":"Peterborough","country":"United Kingdom","canonicalUrl":"https://foursquare.com/v/the-drapers-arms-wetherspoon/4c03d979f56c2d7f21621d66","categoryId":"4bf58dd8d48988d11b941735","category":"Pub","checkinsCount":1797,"usersCount":516,"tipCount":9,"visitsCount":2055,"url":"http://www.jdwetherspoon.co.uk","tier":1,"message":"Cheap","currency":"£","rating":7.6},{"name":"The Apple Cart","phone":"+441733302480","address":"Bellona Drive","lat":52.545462,"lng":-0.214854,"city_fetched":"Peterborough,UK","state":"Peterborough","country":"United Kingdom","canonicalUrl":"https://foursquare.com/v/the-apple-cart/4e82f3cf49016d9ffea9b3ad","categoryId":"4bf58dd8d48988d11b941735","category":"Pub","checkinsCount":215,"usersCount":121,"tipCount":5,"visitsCount":258,"tier":"","message":"","currency":"","rating":7.2},{"name":"The Farmers Carvery & Grill","phone":"+441733244885","twitter":"farmersyaxley","address":"200 Broadway","lat":52.51665309047204,"lng":-0.2602756420396617,"city_fetched":"Peterborough,UK","state":"Peterborough","country":"United Kingdom","canonicalUrl":"https://foursquare.com/v/the-farmers-carvery--grill/4cb1d43c562d224b32d02188","categoryId":"4bf58dd8d48988d11b941735","category":"Pub","checkinsCount":96,"usersCount":51,"tipCount":5,"visitsCount":99,"url":"http://www.thefarmersyaxley.co.uk","tier":"","message":"","currency":"","rating":6.8},{"name":"Paul Pry (Table Table)","phone":"+441733571234","address":"1023 Lincoln Road","lat":52.60244230184791,"lng":-0.266664135415571,"city_fetched":"Peterborough,UK","state":"Peterborough","country":"United Kingdom","canonicalUrl":"https://foursquare.com/v/paul-pry-table-table/4c0a9e67340720a1bcc08693","categoryId":"4bf58dd8d48988d11b941735","category":"Pub","checkinsCount":524,"usersCount":163,"tipCount":2,"visitsCount":580,"url":"http://www.tabletable.co.uk/pub-restaurants/Peterborough/Paul-Pry-Walton.html","tier":"","message":"","currency":"","rating":6.8},{"name":"The Fox And Hounds","phone":"+441733264126","address":"Thorpe Rd","lat":52.57288896875458,"lng":-0.2883709685101542,"city_fetched":"Peterborough,UK","state":"Peterborough","country":"United Kingdom","canonicalUrl":"https://foursquare.com/v/the-fox-and-hounds/4c63103886b6be9a7ca08d34","categoryId":"4bf58dd8d48988d116941735","category":"Bar","checkinsCount":199,"usersCount":109,"tipCount":4,"visitsCount":259,"tier":"","message":"","currency":"","rating":6.6},{"name":"The Cock Inn","address":"1305 Lincoln Rd","lat":52.61250771846244,"lng":-0.2774477005004883,"city_fetched":"Peterborough,UK","state":"Peterborough","country":"United Kingdom","canonicalUrl":"https://foursquare.com/v/the-cock-inn/4ba5336bf964a5201aeb38e3","categoryId":"4bf58dd8d48988d11b941735","category":"Pub","checkinsCount":374,"usersCount":53,"tipCount":4,"visitsCount":406,"tier":"","message":"","currency":"","rating":6.6},{"name":"The Boat House","phone":"+441733898469","address":"Thorpe Meadows","lat":52.570853272288765,"lng":-0.2667510509490967,"city_fetched":"Peterborough,UK","state":"Peterborough","country":"United Kingdom","canonicalUrl":"https://foursquare.com/v/the-boat-house/4c0fee70f1b6a59313157b27","categoryId":"4bf58dd8d48988d116941735","category":"Bar","checkinsCount":487,"usersCount":329,"tipCount":12,"visitsCount":676,"tier":"","message":"","currency":"","rating":6.5},{"name":"Hand & Heart","phone":"+441733564653","address":"12 Highbury Street","lat":52.58564088535611,"lng":-0.24485897829810532,"city_fetched":"Peterborough,UK","state":"Peterborough","country":"United Kingdom","canonicalUrl":"https://foursquare.com/v/hand--heart/4ca7309e14c33704d9d0c63b","categoryId":"4bf58dd8d48988d11b941735","category":"Pub","checkinsCount":124,"usersCount":33,"tipCount":3,"visitsCount":137,"tier":"","message":"","currency":"","rating":6.4},{"name":"Windmill Bar And Willow Restaurant","address":"Cherry Orton road","lat":52.55097040770327,"lng":-0.296796,"city_fetched":"Peterborough,UK","state":"Peterborough","country":"United Kingdom","canonicalUrl":"https://foursquare.com/v/windmill-bar-and-willow-restaurant/4be6d83e2457a5934d2fad15","categoryId":"4bf58dd8d48988d116941735","category":"Bar","checkinsCount":203,"usersCount":136,"tipCount":8,"visitsCount":263,"tier":"","message":"","currency":"","rating":6.3},{"name":"Argo Lounge","phone":"+441733565255","twitter":"argolounge","address":"7 Bridge Street","lat":52.572293492179504,"lng":-0.2422422621802577,"city_fetched":"Peterborough,UK","state":"Peterborough","country":"United Kingdom","canonicalUrl":"https://foursquare.com/v/argo-lounge/54918f35498e4e2727de165c","categoryId":"4bf58dd8d48988d116941735","category":"Bar","checkinsCount":358,"usersCount":141,"tipCount":9,"visitsCount":438,"url":"http://thelounges.co.uk/lounges/argo-lounge/","tier":"","message":"","currency":"","rating":6.2},{"name":"The College Arms (Wetherspoon)","phone":"+441733319745","address":"40 The Broadway","lat":52.57526435182381,"lng":-0.2415168285369873,"city_fetched":"Peterborough,UK","state":"Peterborough","country":"United Kingdom","canonicalUrl":"https://foursquare.com/v/the-college-arms-wetherspoon/4c87abbc821e9eb09fcd8d89","categoryId":"4bf58dd8d48988d11b941735","category":"Pub","checkinsCount":2823,"usersCount":552,"tipCount":7,"visitsCount":3031,"url":"http://www.jdwetherspoon.co.uk","tier":"","message":"","currency":"","rating":6.2},{"name":"The Solstice","address":"Northminster","lat":52.57552634698503,"lng":-0.23935197261361185,"city_fetched":"Peterborough,UK","state":"Peterborough","country":"United Kingdom","canonicalUrl":"https://foursquare.com/v/the-solstice/4c151a28127f9521a2f72425","categoryId":"4bf58dd8d48988d116941735","category":"Bar","checkinsCount":594,"usersCount":276,"tipCount":6,"visitsCount":752,"tier":"","message":"","currency":"","rating":6.2},{"name":"The Fitzwilliam Arms","phone":"+441733267913","address":"Stamford Road, Marholm","lat":52.60511956713946,"lng":-0.30557870864868164,"city_fetched":"Peterborough,UK","state":"Peterborough","country":"United Kingdom","canonicalUrl":"https://foursquare.com/v/the-fitzwilliam-arms/4b9cd927f964a5208d7e36e3","categoryId":"4bf58dd8d48988d11b941735","category":"Pub","checkinsCount":136,"usersCount":115,"tipCount":8,"visitsCount":175,"url":"http://www.vintageinn.co.uk/thefitzwilliamarmsmarholm","tier":"","message":"","currency":"","rating":6.1},{"name":"The Moorhen","phone":"+441733245717","address":"Hampton Vale","lat":52.532527008408984,"lng":-0.27779102325439453,"city_fetched":"Peterborough,UK","state":"Peterborough","country":"United Kingdom","canonicalUrl":"https://foursquare.com/v/the-moorhen/4c9f3d722fb1a14375dff140","categoryId":"4bf58dd8d48988d11b941735","category":"Pub","checkinsCount":301,"usersCount":141,"tipCount":4,"visitsCount":382,"tier":"","message":"","currency":"","rating":6},{"name":"The Granary (Beefeater)","phone":"+441733235794","twitter":"beefeater","address":"Ham Lane, Orton Meadows","lat":52.55675391504599,"lng":-0.29871225357055664,"city_fetched":"Peterborough,UK","state":"Peterborough","country":"United Kingdom","canonicalUrl":"https://foursquare.com/v/the-granary-beefeater/4be060672aed2d7f5e26c86f","categoryId":"4bf58dd8d48988d11b941735","category":"Pub","checkinsCount":494,"usersCount":276,"tipCount":10,"visitsCount":597,"url":"http://www.beefeater.co.uk/steak-restaurant/Cambridge/Granary-Orton-Wistow.html","tier":"","message":"","currency":"","rating":5.8},{"name":"The Wortley Almshouses","address":"Westgate","lat":52.57531997686112,"lng":-0.24512101136302333,"city_fetched":"Peterborough,UK","state":"Peterborough","country":"United Kingdom","canonicalUrl":"https://foursquare.com/v/the-wortley-almshouses/4cd093fe2fd9b60ce43282eb","categoryId":"4bf58dd8d48988d11b941735","category":"Pub","checkinsCount":113,"usersCount":42,"tipCount":2,"visitsCount":116,"tier":"","message":"","currency":"","rating":5.6},{"name":"Ramblewood Inn","phone":"+441733394444","address":"The Village","lat":52.55460543640125,"lng":-0.2786118940215721,"city_fetched":"Peterborough,UK","state":"Peterborough","country":"United Kingdom","canonicalUrl":"https://foursquare.com/v/ramblewood-inn/4c838a3e47cc224b74e98f9f","categoryId":"4bf58dd8d48988d11b941735","category":"Pub","checkinsCount":155,"usersCount":91,"tipCount":6,"visitsCount":155,"tier":"","message":"","currency":"","rating":5.3},{"name":"The Gordon Arms","phone":"+441733231374","address":"Oundle Rd","lat":52.55789743700506,"lng":-0.275726568514105,"city_fetched":"Peterborough,UK","state":"Peterborough","country":"United Kingdom","canonicalUrl":"https://foursquare.com/v/the-gordon-arms/4c62d33169a1c9b6ff8d39a4","categoryId":"4bf58dd8d48988d11b941735","category":"Pub","checkinsCount":186,"usersCount":157,"tipCount":6,"visitsCount":242,"tier":"","message":"","currency":"","rating":5.3},{"name":"The Hampton Brewers Fayre","address":"4 Ashbourne Rd","lat":52.540244,"lng":-0.257225,"city_fetched":"Peterborough,UK","state":"Peterborough","country":"United Kingdom","canonicalUrl":"https://foursquare.com/v/the-hampton-brewers-fayre/4b978694f964a5204b0735e3","categoryId":"4bf58dd8d48988d11b941735","category":"Pub","checkinsCount":272,"usersCount":154,"tipCount":6,"visitsCount":275,"tier":"","message":"","currency":"","rating":5.1},{"name":"Edward's","phone":"+441733341890","address":"Broadway","lat":52.5757761778484,"lng":-0.24066925048828125,"city_fetched":"Peterborough,UK","state":"Peterborough","country":"United Kingdom","canonicalUrl":"https://foursquare.com/v/edwards/4ccaf678b571b60cfec8c865","categoryId":"4bf58dd8d48988d116941735","category":"Bar","checkinsCount":283,"usersCount":144,"tipCount":4,"visitsCount":290,"url":"http://www.edwardspeterborough.co.uk","tier":"","message":"","currency":"","rating":4.8}]