[{"name":"The Harrow Inn","phone":"+441730262685","address":"Kettlebrook Ln","lat":51.02451276980897,"lng":-0.9329273516617855,"city_fetched":"Petersfield","state":"Hampshire","country":"United Kingdom","canonicalUrl":"https://foursquare.com/v/the-harrow-inn/4b924df9f964a52027f133e3","category":"Beer Garden","checkinsCount":321,"usersCount":63,"tipCount":4,"visitsCount":362,"url":"http://harrow-inn.co.uk","tier":"","message":"","currency":"","rating":8.2},{"name":"The Good Intent","phone":"+441730263838","address":"40 College St.","lat":51.00677332844169,"lng":-0.9339061951374538,"city_fetched":"Petersfield","state":"Hampshire","country":"United Kingdom","canonicalUrl":"https://foursquare.com/v/the-good-intent/4cb06150cbab236a9ca89f73","category":"Pub","checkinsCount":172,"usersCount":40,"tipCount":2,"visitsCount":177,"tier":"","message":"","currency":"","rating":7.1},{"name":"The Old Drum","phone":"+441730300544","twitter":"theolddruminn","address":"16 Chapel St","lat":51.004854,"lng":-0.938356,"city_fetched":"Petersfield","state":"Hampshire","country":"United Kingdom","canonicalUrl":"https://foursquare.com/v/the-old-drum/4ff5e935e4b0cdc6b7b6b873","category":"Gastropub","checkinsCount":112,"usersCount":56,"tipCount":4,"visitsCount":117,"url":"http://www.theolddrum.co.uk","tier":2,"message":"Moderate","currency":"Â£","rating":6.6},{"name":"The George","phone":"+441730233343","address":"28 The Square","lat":51.00379413410063,"lng":-0.9379968048315025,"city_fetched":"Petersfield","state":"Hampshire","country":"United Kingdom","canonicalUrl":"https://foursquare.com/v/the-george/4b5b6ff5f964a5200efe28e3","category":"Bar","checkinsCount":208,"usersCount":93,"tipCount":3,"visitsCount":208,"url":"http://www.thegeorgepetersfield.co.uk","tier":"","message":"","currency":"","rating":6.2},{"name":"The Red Lion (Wetherspoon)","phone":"+441730235160","address":"3 College St.","lat":51.00397296614396,"lng":-0.9344896386209796,"city_fetched":"Petersfield","state":"Hampshire","country":"United Kingdom","canonicalUrl":"https://foursquare.com/v/the-red-lion-wetherspoon/4c3cdd764bc9a593cd41d371","category":"Pub","checkinsCount":663,"usersCount":235,"tipCount":6,"visitsCount":761,"url":"http://www.jdwetherspoon.co.uk","tier":"","message":"","currency":"","rating":5.7},{"name":"The Great Oak","phone":"+448708506306","address":"Buckmore Farm","lat":51.008914745360556,"lng":-0.9523129463195801,"city_fetched":"Petersfield","state":"Hampshire","country":"United Kingdom","canonicalUrl":"https://foursquare.com/v/the-great-oak/4bae06c6f964a520437c3be3","category":"Gastropub","checkinsCount":138,"usersCount":102,"tipCount":4,"visitsCount":143,"tier":"","message":"","currency":"","rating":5.5}]