[{"name":"The Bieldside Inn","address":"37 North Deeside Rd","lat":57.1124782187335,"lng":-2.1973085403442383,"city_fetched":"Peterculter,UK","state":"Aberdeen City","country":"United Kingdom","canonicalUrl":"https://foursquare.com/v/the-bieldside-inn/4c03de44187ec928d832b67b","categoryId":"4bf58dd8d48988d11b941735","category":"Pub","checkinsCount":113,"usersCount":65,"tipCount":4,"visitsCount":126,"tier":"","message":"","currency":"","rating":7.5},{"name":"The Broadstraik Inn","lat":57.15578107849843,"lng":-2.2948303144329345,"city_fetched":"Peterculter,UK","country":"United Kingdom","canonicalUrl":"https://foursquare.com/v/the-broadstraik-inn/4d7b79a879c4b1f79255e8f2","categoryId":"4bf58dd8d48988d11a941735","category":"Other Nightlife","checkinsCount":280,"usersCount":45,"tipCount":2,"visitsCount":286,"tier":"","message":"","currency":"","rating":7.4},{"name":"The Ploughman","address":"North Deeside Road","lat":57.09767806770377,"lng":-2.256617546081543,"neighborhood":"Culter","city_fetched":"Peterculter,UK","state":"Aberdeen City","country":"United Kingdom","canonicalUrl":"https://foursquare.com/v/the-ploughman/4bd4827f637ba59314cef470","categoryId":"4bf58dd8d48988d11b941735","category":"Pub","checkinsCount":29,"usersCount":17,"tipCount":2,"visitsCount":30,"tier":"","message":"","currency":"","rating":6.7},{"name":"Shepherd's Rest","phone":"+441224740208","address":"10 Straik Rd","lat":57.14981939197805,"lng":-2.278112769126892,"city_fetched":"Peterculter,UK","state":"Aberdeenshire","country":"United Kingdom","canonicalUrl":"https://foursquare.com/v/shepherds-rest/4c66c562e75ac928b866f8da","categoryId":"4bf58dd8d48988d11b941735","category":"Pub","checkinsCount":174,"usersCount":79,"tipCount":10,"visitsCount":184,"tier":"","message":"","currency":"","rating":5.8},{"name":"Cocket Hat","phone":"+441224695684","address":"North Anderson Drv.","lat":57.150547017030306,"lng":-2.1502256395290376,"neighborhood":"Mastrick","city_fetched":"Peterculter,UK","country":"United Kingdom","canonicalUrl":"https://foursquare.com/v/cocket-hat/4c0d2aa5b1b676b0cc2ae086","categoryId":"4bf58dd8d48988d11b941735","category":"Pub","checkinsCount":135,"usersCount":84,"tipCount":2,"visitsCount":151,"tier":"","message":"","currency":"","rating":5.7},{"name":"Brewers Fayre","phone":"+448701977013","address":"Badentoy Road","lat":57.064603339480975,"lng":-2.1415005266675364,"city_fetched":"Peterculter,UK","state":"Aberdeen City","country":"United Kingdom","canonicalUrl":"https://foursquare.com/v/brewers-fayre/4c4ee4a3fa9d95216b1a690a","categoryId":"4bf58dd8d48988d11b941735","category":"Pub","checkinsCount":114,"usersCount":53,"tipCount":4,"visitsCount":120,"tier":"","message":"","currency":"","rating":5.6}]