[{"name":"The Fortescue","phone":"+441752660673","address":"37 Mutley Plain","lat":50.381536,"lng":-4.133514761924744,"neighborhood":"Mutley","city_fetched":"Plymouth,UK","state":"Devon","country":"United Kingdom","canonicalUrl":"https://foursquare.com/v/the-fortescue/4bb90119cf2fc9b64e21a002","categoryId":"4bf58dd8d48988d11b941735","category":"Pub","checkinsCount":419,"usersCount":162,"tipCount":3,"visitsCount":613,"tier":"","message":"","currency":"","rating":8.5},{"name":"The Hyde Park","phone":"+441752269668","address":"88 Mutley Plain","lat":50.38407578179419,"lng":-4.134524822604877,"neighborhood":"Mutley","city_fetched":"Plymouth,UK","state":"Devon","country":"United Kingdom","canonicalUrl":"https://foursquare.com/v/the-hyde-park/4be31d9d1dd22d7fa2c295bd","categoryId":"4bf58dd8d48988d11b941735","category":"Pub","checkinsCount":217,"usersCount":122,"tipCount":5,"visitsCount":297,"tier":"","message":"","currency":"","rating":8.3},{"name":"The Bridge","phone":"+441752403888","address":"Shaw Way","lat":50.35794732636015,"lng":-4.123566558263769,"neighborhood":"Plymstock","city_fetched":"Plymouth,UK","state":"Devon","country":"United Kingdom","canonicalUrl":"https://foursquare.com/v/the-bridge/4b6f03eff964a52003d72ce3","categoryId":"4bf58dd8d48988d116941735","category":"Bar","checkinsCount":80,"usersCount":73,"tipCount":1,"visitsCount":137,"url":"http://www.bridgeatmountbatten.com","tier":"","message":"","currency":"","rating":7.8},{"name":"B-Bar","phone":"+441752242021","twitter":"bbarplymouth","address":"Castle St","lat":50.36640571440575,"lng":-4.13454916447471,"neighborhood":"Barbican","city_fetched":"Plymouth,UK","state":"Devon","country":"United Kingdom","canonicalUrl":"https://foursquare.com/v/bbar/4bbcee308a4fb713975d3c9d","categoryId":"4bf58dd8d48988d116941735","category":"Bar","checkinsCount":185,"usersCount":92,"tipCount":5,"visitsCount":185,"url":"http://www.b-bar.co.uk","tier":"","message":"","currency":"","rating":7.7},{"name":"Bar Rakuda","phone":"+441752221155","address":"11 Quay Rd","lat":50.367690324783325,"lng":-4.134963154792786,"neighborhood":"Barbican","city_fetched":"Plymouth,UK","state":"Devon","country":"United Kingdom","canonicalUrl":"https://foursquare.com/v/bar-rakuda/4c23dd07a852c9282533e26c","categoryId":"4bf58dd8d48988d116941735","category":"Bar","checkinsCount":245,"usersCount":165,"tipCount":0,"visitsCount":257,"url":"http://www.rakudabar.com","tier":"","message":"","currency":"","rating":7.6},{"name":"Bread & Roses","phone":"+441752659861","address":"62 Ebrington St","lat":50.37247295237509,"lng":-4.134116930262964,"neighborhood":"City Centre","city_fetched":"Plymouth,UK","state":"Devon","country":"United Kingdom","canonicalUrl":"https://foursquare.com/v/bread--roses/51d716f1498e01887652773f","categoryId":"4bf58dd8d48988d116941735","category":"Bar","checkinsCount":153,"usersCount":89,"tipCount":2,"visitsCount":197,"url":"http://www.breadandrosesplymouth.co.uk","tier":"","message":"","currency":"","rating":7.5},{"name":"James Street Vaults","phone":"+441752267799","address":"24 James St","lat":50.376371,"lng":-4.140173,"city_fetched":"Plymouth,UK","state":"Devon","country":"United Kingdom","canonicalUrl":"https://foursquare.com/v/james-street-vaults/4b857f44f964a520ba6131e3","categoryId":"4bf58dd8d48988d11b941735","category":"Pub","checkinsCount":265,"usersCount":105,"tipCount":4,"visitsCount":265,"tier":"","message":"","currency":"","rating":7.4},{"name":"The Dolphin Hotel","phone":"+441752660876","address":"14 The Barbican","lat":50.36715772494378,"lng":-4.134880006313324,"neighborhood":"Barbican","city_fetched":"Plymouth,UK","state":"Devon","country":"United Kingdom","canonicalUrl":"https://foursquare.com/v/the-dolphin-hotel/4babb9e3f964a52020c43ae3","categoryId":"4bf58dd8d48988d11b941735","category":"Pub","checkinsCount":131,"usersCount":96,"tipCount":4,"visitsCount":131,"tier":"","message":"","currency":"","rating":7.3},{"name":"The Ship","phone":"+441752667604","address":"1-4 Quay Rd","lat":50.36790717363851,"lng":-4.135817912028749,"neighborhood":"Barbican","city_fetched":"Plymouth,UK","state":"Devon","country":"United Kingdom","canonicalUrl":"https://foursquare.com/v/the-ship/4f8db007e4b01d92a6f267d8","categoryId":"4bf58dd8d48988d11b941735","category":"Pub","checkinsCount":406,"usersCount":296,"tipCount":8,"visitsCount":440,"tier":"","message":"","currency":"","rating":7.1},{"name":"The Berkeley Bar & Grill","phone":"+441752228810","twitter":"the_berkeley","address":"Berkeley Sq","lat":50.36867547712829,"lng":-4.142187065741582,"neighborhood":"City Centre","city_fetched":"Plymouth,UK","state":"Devon","country":"United Kingdom","canonicalUrl":"https://foursquare.com/v/the-berkeley-bar--grill/4dab3ecc5da3ba8a479d34a6","categoryId":"4bf58dd8d48988d116941735","category":"Bar","checkinsCount":358,"usersCount":210,"tipCount":5,"visitsCount":399,"url":"http://www.theberkeleybarandgrill.co.uk","tier":2,"message":"Moderate","currency":"£","rating":7},{"name":"The Stannary Court (Wetherspoon)","phone":"+441752283280","twitter":"jdwtweet","address":"95-99 Ridgeway","lat":50.387751948087164,"lng":-4.051745035153575,"city_fetched":"Plymouth,UK","state":"Devon","country":"United Kingdom","canonicalUrl":"https://foursquare.com/v/the-stannary-court-wetherspoon/52b759d5498ea9bd141ffeba","categoryId":"4bf58dd8d48988d11b941735","category":"Pub","checkinsCount":145,"usersCount":73,"tipCount":5,"visitsCount":221,"url":"http://www.jdwetherspoon.co.uk/home/pubs/the-stannary-court","tier":"","message":"","currency":"","rating":6.9},{"name":"Brass Monkey","phone":"+441752260442","address":"12 Royal Parade","lat":50.37045791452738,"lng":-4.139828681945801,"neighborhood":"City Centre","city_fetched":"Plymouth,UK","state":"Devon","country":"United Kingdom","canonicalUrl":"https://foursquare.com/v/brass-monkey/4c826967dc018cfa81b7ce6c","categoryId":"4bf58dd8d48988d11b941735","category":"Pub","checkinsCount":373,"usersCount":216,"tipCount":9,"visitsCount":394,"tier":"","message":"","currency":"","rating":6.9},{"name":"The Tamar","phone":"+441752771445","address":"1-7 Morshead Rd","lat":50.40715299075019,"lng":-4.133316230419155,"neighborhood":"Eggbuckland","city_fetched":"Plymouth,UK","state":"Devon","country":"United Kingdom","canonicalUrl":"https://foursquare.com/v/the-tamar/4cde9202aba88cfac89c42d7","categoryId":"4bf58dd8d48988d11b941735","category":"Pub","checkinsCount":128,"usersCount":60,"tipCount":2,"visitsCount":133,"tier":"","message":"","currency":"","rating":6.7},{"name":"The China House","phone":"+441752661592","address":"Sutton Harbour","lat":50.36872658396793,"lng":-4.131664037704468,"neighborhood":"Cattedown","city_fetched":"Plymouth,UK","state":"Devon","country":"United Kingdom","canonicalUrl":"https://foursquare.com/v/the-china-house/4ba27e98f964a5203bfe37e3","categoryId":"4bf58dd8d48988d11b941735","category":"Pub","checkinsCount":291,"usersCount":208,"tipCount":11,"visitsCount":292,"tier":"","message":"","currency":"","rating":6.6},{"name":"The Marsh Mills (Beefeater)","phone":"+441752600660","twitter":"beefeatergrill","address":"Marsh Mills Pk","lat":50.39061334265703,"lng":-4.088845252990723,"city_fetched":"Plymouth,UK","state":"Devon","country":"United Kingdom","canonicalUrl":"https://foursquare.com/v/the-marsh-mills-beefeater/4bfac4144a67c9286bb828cf","categoryId":"4bf58dd8d48988d11b941735","category":"Pub","checkinsCount":430,"usersCount":247,"tipCount":6,"visitsCount":508,"url":"http://www.beefeater.co.uk/steak-restaurant/Devon/Marsh-Mills-Crabtree.html","tier":"","message":"","currency":"","rating":6.5},{"name":"The Mannamead (Wetherspoon)","phone":"+441752825610","address":"61-63 Mutley Plain","lat":50.382430081186904,"lng":-4.13373202085495,"neighborhood":"Mutley","city_fetched":"Plymouth,UK","state":"Devon","country":"United Kingdom","canonicalUrl":"https://foursquare.com/v/the-mannamead-wetherspoon/4c87abc2821e9eb0a5cd8d89","categoryId":"4bf58dd8d48988d11b941735","category":"Pub","checkinsCount":1152,"usersCount":327,"tipCount":9,"visitsCount":1274,"url":"http://www.jdwetherspoon.co.uk/home/pubs/the-mannamead","tier":"","message":"","currency":"","rating":6.5},{"name":"The Dairy","phone":"+441752319067","address":"25 Bretonside","lat":50.37062214813791,"lng":-4.135193824768066,"neighborhood":"City Centre","city_fetched":"Plymouth,UK","state":"Devon","country":"United Kingdom","canonicalUrl":"https://foursquare.com/v/the-dairy/4c78e62a93ef236af3b7ad0f","categoryId":"4bf58dd8d48988d116941735","category":"Bar","checkinsCount":158,"usersCount":105,"tipCount":4,"visitsCount":159,"tier":"","message":"","currency":"","rating":6.5},{"name":"The Union Rooms (Wetherspoon)","phone":"+441752254520","address":"19 Union St","lat":50.369691483495295,"lng":-4.148154258728027,"neighborhood":"City Centre","city_fetched":"Plymouth,UK","state":"Devon","country":"United Kingdom","canonicalUrl":"https://foursquare.com/v/the-union-rooms-wetherspoon/4c93e32982b56dcbb5e2c9aa","categoryId":"4bf58dd8d48988d11b941735","category":"Pub","checkinsCount":1807,"usersCount":709,"tipCount":15,"visitsCount":2138,"url":"http://www.jdwetherspoon.co.uk","tier":2,"message":"Moderate","currency":"£","rating":6.4},{"name":"Revolutions","phone":"+441752666138","twitter":"revolutionbars","address":"32 Derry's Cross","lat":50.37000294147749,"lng":-4.145916660470526,"neighborhood":"City Centre","city_fetched":"Plymouth,UK","state":"Devon","country":"United Kingdom","canonicalUrl":"https://foursquare.com/v/revolutions/4bd0d513a8b3a5933cbc645f","categoryId":"4bf58dd8d48988d11f941735","category":"Nightclub","checkinsCount":395,"usersCount":181,"tipCount":6,"visitsCount":395,"tier":"","message":"","currency":"","rating":6.4},{"name":"The Britannia Inn (Wetherspoon)","phone":"+441752607596","address":"1 Wolseley Rd","lat":50.385537663600836,"lng":-4.157209396362305,"city_fetched":"Plymouth,UK","state":"Devon","country":"United Kingdom","canonicalUrl":"https://foursquare.com/v/the-britannia-inn-wetherspoon/4c87abc1821e9eb0a3cd8d89","categoryId":"4bf58dd8d48988d11b941735","category":"Pub","checkinsCount":1272,"usersCount":250,"tipCount":11,"visitsCount":1410,"url":"http://www.jdwetherspoon.co.uk","tier":"","message":"","currency":"","rating":6.3},{"name":"Oceana","phone":"+448452932864","address":"Barbican App","lat":50.36744686425698,"lng":-4.125237464904785,"neighborhood":"Cattedown","city_fetched":"Plymouth,UK","state":"Devon","country":"United Kingdom","canonicalUrl":"https://foursquare.com/v/oceana/4bdf54346198c9b65bd016ff","categoryId":"4bf58dd8d48988d11f941735","category":"Nightclub","checkinsCount":472,"usersCount":240,"tipCount":4,"visitsCount":532,"tier":"","message":"","currency":"","rating":6.2},{"name":"Jack Rabbit","phone":"+441752783585","address":"8-9 Howeson Rd.","lat":50.41834896284179,"lng":-4.121294617652893,"neighborhood":"Derriford","city_fetched":"Plymouth,UK","state":"Devon","country":"United Kingdom","canonicalUrl":"https://foursquare.com/v/jack-rabbit/4b7e69a1f964a52012ec2fe3","categoryId":"4bf58dd8d48988d11b941735","category":"Pub","checkinsCount":307,"usersCount":228,"tipCount":4,"visitsCount":466,"tier":"","message":"","currency":"","rating":6.2},{"name":"Walkabout","phone":"+441752825650","twitter":"walkaboutsport","address":"5 Union St","lat":50.37006191355773,"lng":-4.146960324323812,"neighborhood":"City Centre","city_fetched":"Plymouth,UK","state":"Devon","country":"United Kingdom","canonicalUrl":"https://foursquare.com/v/walkabout/4bfad25f1c1da593a6fd7d0e","categoryId":"4bf58dd8d48988d11d941735","category":"Sports Bar","checkinsCount":696,"usersCount":245,"tipCount":2,"visitsCount":738,"url":"http://walkaboutbars.com","tier":"","message":"","currency":"","rating":6.1},{"name":"The Gog & Magog (Wetherspoon)","phone":"+441752264160","address":"57-59 Southside St","lat":50.367686,"lng":-4.1373058,"neighborhood":"Barbican","city_fetched":"Plymouth,UK","state":"Devon","country":"United Kingdom","canonicalUrl":"https://foursquare.com/v/the-gog--magog-wetherspoon/4ba660fef964a520074c39e3","categoryId":"4bf58dd8d48988d11b941735","category":"Pub","checkinsCount":477,"usersCount":302,"tipCount":11,"visitsCount":529,"url":"http://www.jdwetherspoon.co.uk","tier":"","message":"","currency":"","rating":6.1},{"name":"The Lord Louis","phone":"+441752339562","address":"Glen Rd, Plympton","lat":50.39177957759141,"lng":-4.048992991447449,"city_fetched":"Plymouth,UK","state":"Devon","country":"United Kingdom","canonicalUrl":"https://foursquare.com/v/the-lord-louis/4be30826b02ec9b675604ec0","categoryId":"4bf58dd8d48988d11b941735","category":"Pub","checkinsCount":339,"usersCount":144,"tipCount":10,"visitsCount":372,"tier":"","message":"","currency":"","rating":6.1},{"name":"The Bank","phone":"+441752660833","address":"Old George St","lat":50.36955461950828,"lng":-4.144302606582642,"neighborhood":"City Centre","city_fetched":"Plymouth,UK","state":"Devon","country":"United Kingdom","canonicalUrl":"https://foursquare.com/v/the-bank/4b72a45ef964a520b6812de3","categoryId":"4bf58dd8d48988d11b941735","category":"Pub","checkinsCount":810,"usersCount":255,"tipCount":5,"visitsCount":871,"tier":"","message":"","currency":"","rating":6},{"name":"Varsity","phone":"+448456049904","twitter":"pitchersplym","address":"33 Derry Cross","lat":50.3699390336775,"lng":-4.145715507407712,"neighborhood":"City Centre","city_fetched":"Plymouth,UK","state":"Devon","country":"United Kingdom","canonicalUrl":"https://foursquare.com/v/varsity/4c8fe93a0b9e3704f138635e","categoryId":"4bf58dd8d48988d11d941735","category":"Sports Bar","checkinsCount":401,"usersCount":125,"tipCount":6,"visitsCount":403,"tier":"","message":"","currency":"","rating":6},{"name":"Kitty O'Hanlans","phone":"+441752661624","address":"5 St. Andrew St","lat":50.3693869605862,"lng":-4.139243960380554,"neighborhood":"City Centre","city_fetched":"Plymouth,UK","state":"Devon","country":"United Kingdom","canonicalUrl":"https://foursquare.com/v/kitty-ohanlans/4c7aaa40bd346dcbb42ef9ef","categoryId":"4bf58dd8d48988d11b941735","category":"Pub","checkinsCount":230,"usersCount":110,"tipCount":4,"visitsCount":245,"tier":"","message":"","currency":"","rating":6},{"name":"The Roundabout","phone":"+441752825090","twitter":"roundyplymouth","address":"2-4 Drake Circus","lat":50.373537200130336,"lng":-4.138074517250061,"city_fetched":"Plymouth,UK","state":"Devon","country":"United Kingdom","canonicalUrl":"https://foursquare.com/v/the-roundabout/4b804258f964a520c06130e3","categoryId":"4bf58dd8d48988d11b941735","category":"Pub","checkinsCount":584,"usersCount":319,"tipCount":6,"visitsCount":667,"url":"http://www.theroundaboutplymouth.co.uk","tier":"","message":"","currency":"","rating":5.9},{"name":"The Navy Inn","phone":"+441752301812","address":"34 Southside St","lat":50.36736132026498,"lng":-4.134863913059235,"neighborhood":"Barbican","city_fetched":"Plymouth,UK","state":"Devon","country":"United Kingdom","canonicalUrl":"https://foursquare.com/v/the-navy-inn/4bd3340d9854d13a6826fd4d","categoryId":"4bf58dd8d48988d11b941735","category":"Pub","checkinsCount":168,"usersCount":104,"tipCount":4,"visitsCount":172,"url":"http://www.thenavyinn.co.uk","tier":"","message":"","currency":"","rating":5.8},{"name":"The Plymstock Inn","phone":"+441752406474","address":"88 Church Rd","lat":50.358374,"lng":-4.086517095565796,"neighborhood":"Plymstock","city_fetched":"Plymouth,UK","state":"Devon","country":"United Kingdom","canonicalUrl":"https://foursquare.com/v/the-plymstock-inn/4bdc66ebc79cc928b55e86e9","categoryId":"4bf58dd8d48988d11b941735","category":"Pub","checkinsCount":128,"usersCount":54,"tipCount":4,"visitsCount":136,"url":"http://www.plymstockinn.co.uk","tier":"","message":"","currency":"","rating":5.7},{"name":"Blues Bar & Grill","phone":"+441752257345","address":"8 The Parade","lat":50.368152596307,"lng":-4.13647323846817,"neighborhood":"Barbican","city_fetched":"Plymouth,UK","state":"Devon","country":"United Kingdom","canonicalUrl":"https://foursquare.com/v/blues-bar--grill/4c20ecb74889a59389262720","categoryId":"4bf58dd8d48988d116941735","category":"Bar","checkinsCount":156,"usersCount":114,"tipCount":4,"visitsCount":156,"tier":"","message":"","currency":"","rating":5.7},{"name":"Mousetrap","phone":"+441752672116","address":"40-42 North Hill","lat":50.37678049818248,"lng":-4.135923385620117,"city_fetched":"Plymouth,UK","state":"Devon","country":"United Kingdom","canonicalUrl":"https://foursquare.com/v/mousetrap/4c1fd358b306c9280f0669b7","categoryId":"4bf58dd8d48988d11b941735","category":"Pub","checkinsCount":358,"usersCount":154,"tipCount":5,"visitsCount":364,"tier":"","message":"","currency":"","rating":5.6},{"name":"Cuba","phone":"+441752672116","twitter":"cubaplymouth","address":"1 Sherwell Arcade","lat":50.37525923399569,"lng":-4.137049240300873,"city_fetched":"Plymouth,UK","state":"Devon","country":"United Kingdom","canonicalUrl":"https://foursquare.com/v/cuba/4b804491f964a520996230e3","categoryId":"4bf58dd8d48988d116941735","category":"Bar","checkinsCount":593,"usersCount":279,"tipCount":5,"visitsCount":661,"url":"http://www.barcuba.net","tier":"","message":"","currency":"","rating":5.3},{"name":"Bac Bar","phone":"+441752659868","address":"40 North Hill","lat":50.37491939223451,"lng":-4.137554168701172,"city_fetched":"Plymouth,UK","state":"Devon","country":"United Kingdom","canonicalUrl":"https://foursquare.com/v/bac-bar/4b6b609bf964a520ce042ce3","categoryId":"4bf58dd8d48988d116941735","category":"Bar","checkinsCount":463,"usersCount":128,"tipCount":4,"visitsCount":469,"tier":"","message":"","currency":"","rating":5.3}]