[{"name":"The Continental","phone":"+441772499425","twitter":"newcontinental","address":"South Meadow Ln","lat":53.75018263919495,"lng":-2.707185745239258,"city_fetched":"Preston","state":"Lancashire","country":"United Kingdom","canonicalUrl":"https://foursquare.com/v/the-continental/4b9fd632f964a520304337e3","category":"Pub","checkinsCount":1152,"usersCount":506,"tipCount":26,"visitsCount":1419,"url":"http://www.newcontinental.net","tier":"","message":"","currency":"","rating":8.6},{"name":"Tang KTV","phone":"+441772729545","address":"241 Fylde Rd","lat":53.764765047957496,"lng":-2.717914581298828,"city_fetched":"Preston","state":"Lancashire","country":"United Kingdom","canonicalUrl":"https://foursquare.com/v/tang-ktv/4d02a445e350b60ce7277842","category":"Chinese Restaurant","checkinsCount":89,"usersCount":58,"tipCount":6,"visitsCount":94,"tier":"","message":"","currency":"","rating":8.5},{"name":"Hospital Inn","phone":"+441772335151","address":"333 Brindle Road","lat":53.72597944378005,"lng":-2.638426684137245,"city_fetched":"Preston","state":"Lancashire","country":"United Kingdom","canonicalUrl":"https://foursquare.com/v/hospital-inn/4cab30f6a6e08cfa075da394","category":"Pub","checkinsCount":131,"usersCount":67,"tipCount":5,"visitsCount":170,"tier":"","message":"","currency":"","rating":7.9},{"name":"Moorbrook","address":"370 North Rd","lat":53.76777287952846,"lng":-2.7044268319379254,"city_fetched":"Preston","state":"Lancashire","country":"United Kingdom","canonicalUrl":"https://foursquare.com/v/moorbrook/53a57b5c498e8468e872abae","category":"Pub","checkinsCount":197,"usersCount":35,"tipCount":9,"visitsCount":264,"tier":"","message":"","currency":"","rating":7.8},{"name":"The Ferret","phone":"+441772200017","twitter":"themadferret","address":"55 Fylde Rd","lat":53.764233302541825,"lng":-2.709763148230892,"city_fetched":"Preston","state":"Lancashire","country":"United Kingdom","canonicalUrl":"https://foursquare.com/v/the-ferret/4bb713b22f70c9b6c8458630","category":"Bar","checkinsCount":488,"usersCount":196,"tipCount":12,"visitsCount":579,"url":"http://www.theferret.info","tier":"","message":"","currency":"","rating":7.7},{"name":"The Twelve Tellers (Wetherspoons)","lat":53.758938838469426,"lng":-2.6971914375699413,"city_fetched":"Preston","state":"Lancashire","country":"United Kingdom","canonicalUrl":"https://foursquare.com/v/the-twelve-tellers-wetherspoons/54c0d2b9498e795f5315541b","category":"Bar","checkinsCount":210,"usersCount":136,"tipCount":5,"visitsCount":316,"tier":"","message":"","currency":"","rating":7.5},{"name":"Pig & Whistle","address":"849 Blackpool Rd.","lat":53.76653236114794,"lng":-2.765343923208603,"city_fetched":"Preston","state":"Lancashire","country":"United Kingdom","canonicalUrl":"https://foursquare.com/v/pig--whistle/4b6e0e5bf964a52014a72ce3","category":"Pub","checkinsCount":380,"usersCount":196,"tipCount":8,"visitsCount":451,"tier":"","message":"","currency":"","rating":7.2},{"name":"Adelphi","phone":"+441772201397","address":"43 Fylde St","lat":53.76268671768865,"lng":-2.7064382360506256,"city_fetched":"Preston","state":"Lancashire","country":"United Kingdom","canonicalUrl":"https://foursquare.com/v/adelphi/4b919e9df964a52066ca33e3","category":"Pub","checkinsCount":1245,"usersCount":492,"tipCount":17,"visitsCount":1360,"tier":"","message":"","currency":"","rating":7.1},{"name":"Forum","phone":"+441772563789","address":"17 Winckley St.","lat":53.75747923366186,"lng":-2.702164649963379,"city_fetched":"Preston","state":"Lancashire","country":"United Kingdom","canonicalUrl":"https://foursquare.com/v/forum/4c2e614366e40f473f20c08b","category":"Bar","checkinsCount":380,"usersCount":202,"tipCount":10,"visitsCount":429,"tier":"","message":"","currency":"","rating":7},{"name":"Source Bar","phone":"+441772893000","twitter":"uclansu","address":"Fylde Road","lat":53.764151786648384,"lng":-2.708285663110434,"city_fetched":"Preston","state":"Lancashire","country":"United Kingdom","canonicalUrl":"https://foursquare.com/v/source-bar/4bd4481977b29c749c539282","category":"Bar","checkinsCount":820,"usersCount":208,"tipCount":8,"visitsCount":825,"url":"http://t.co/eaPCpN5dZE","tier":1,"message":"Cheap","currency":"£","rating":7},{"name":"Walton Fox","lat":53.72081604963897,"lng":-2.672548880822934,"city_fetched":"Preston","country":"United Kingdom","canonicalUrl":"https://foursquare.com/v/walton-fox/4c6685f9f7a80f47fe2c9e7a","category":"Gastropub","checkinsCount":313,"usersCount":198,"tipCount":6,"visitsCount":390,"tier":"","message":"","currency":"","rating":7},{"name":"Kuckoo","address":"16 - 17 Fox Street","lat":53.758173615823175,"lng":-2.7036181243651085,"city_fetched":"Preston","state":"Lancashire","country":"United Kingdom","canonicalUrl":"https://foursquare.com/v/kuckoo/4c0aa8df340720a158d78693","category":"Cocktail Bar","checkinsCount":265,"usersCount":141,"tipCount":13,"visitsCount":269,"tier":"","message":"","currency":"","rating":6.9},{"name":"The Leyland Lion (Wetherspoon)","phone":"+441772643990","twitter":"jdwtweet","address":"60 Hough Lane","lat":53.695424529185075,"lng":-2.6927416946214002,"city_fetched":"Preston","state":"Lancashire","country":"United Kingdom","canonicalUrl":"https://foursquare.com/v/the-leyland-lion-wetherspoon/4ea2b97c77c8d0ce5e0d8931","category":"Pub","checkinsCount":209,"usersCount":120,"tipCount":4,"visitsCount":220,"url":"http://www.jdwetherspoon.co.uk","tier":"","message":"","currency":"","rating":6.9},{"name":"Black Horse Hotel","phone":"+441772204855","address":"166 Friargate","lat":53.75980544057197,"lng":-2.7014029026031494,"city_fetched":"Preston","state":"Lancashire","country":"United Kingdom","canonicalUrl":"https://foursquare.com/v/black-horse-hotel/4b957f79f964a520e2a534e3","category":"Pub","checkinsCount":256,"usersCount":134,"tipCount":8,"visitsCount":261,"tier":"","message":"","currency":"","rating":6.7},{"name":"The Wellington","address":"Glover's Court","lat":53.75733882,"lng":-2.698918,"city_fetched":"Preston","state":"Lancashire","country":"United Kingdom","canonicalUrl":"https://foursquare.com/v/the-wellington/4bbf2fecb083a593edf7a2e9","category":"Pub","checkinsCount":150,"usersCount":87,"tipCount":8,"visitsCount":150,"tier":"","message":"","currency":"","rating":6.7},{"name":"Revolution","address":"1 Main Sprit Weind","lat":53.7580865652766,"lng":-2.698490023612976,"city_fetched":"Preston","state":"Lancashire","country":"United Kingdom","canonicalUrl":"https://foursquare.com/v/revolution/4c00355092a6c928e6d643e2","category":"Cocktail Bar","checkinsCount":295,"usersCount":147,"tipCount":6,"visitsCount":296,"tier":"","message":"","currency":"","rating":6.6},{"name":"The Greyfriar (Wetherspoon)","phone":"+441772558542","address":"144 Friargate","lat":53.76038798877053,"lng":-2.702480851448356,"city_fetched":"Preston","state":"Lancashire","country":"United Kingdom","canonicalUrl":"https://foursquare.com/v/the-greyfriar-wetherspoon/4c82683474d7b60ca4b57fd8","category":"Pub","checkinsCount":2340,"usersCount":799,"tipCount":25,"visitsCount":2724,"url":"http://www.jdwetherspoon.co.uk","tier":"","message":"","currency":"","rating":6.6},{"name":"The Pear Tree","phone":"+441772330080","address":"Station Rd","lat":53.73553548153594,"lng":-2.6631582144521775,"city_fetched":"Preston","state":"Lancashire","country":"United Kingdom","canonicalUrl":"https://foursquare.com/v/the-pear-tree/4b76edc8f964a5207f6b2ee3","category":"Pub","checkinsCount":109,"usersCount":59,"tipCount":3,"visitsCount":128,"tier":"","message":"","currency":"","rating":6.5},{"name":"Roper Hall","address":"Friargate","lat":53.76148836256668,"lng":-2.7049696504769787,"city_fetched":"Preston","state":"Lancashire","country":"United Kingdom","canonicalUrl":"https://foursquare.com/v/roper-hall/4b91af68f964a520d1cf33e3","category":"Bar","checkinsCount":828,"usersCount":368,"tipCount":18,"visitsCount":918,"tier":"","message":"","currency":"","rating":6.4},{"name":"Farington Lodge & Hotel Leyland","address":"Stanifield Ln Farington Lancashire PR25 4 UK","lat":53.70649528681363,"lng":-2.684650399552433,"city_fetched":"Preston","state":"Lancashire","country":"United Kingdom","canonicalUrl":"https://foursquare.com/v/farington-lodge--hotel-leyland/4bcf19a90ffdce72683cb2c0","category":"Hotel Bar","checkinsCount":125,"usersCount":99,"tipCount":6,"visitsCount":154,"tier":"","message":"","currency":"","rating":6.3},{"name":"The War Horse","address":"Buckshaw Village","lat":53.67700301880726,"lng":-2.6568880617526123,"city_fetched":"Preston","state":"Lancashire","country":"United Kingdom","canonicalUrl":"https://foursquare.com/v/the-war-horse/548f3482498ed29d2bcfaa56","category":"Pub","checkinsCount":77,"usersCount":54,"tipCount":2,"visitsCount":144,"tier":"","message":"","currency":"","rating":6.2},{"name":"Black Bull","address":"263-273 Black Bull Ln.","lat":53.791292582288484,"lng":-2.714027478807996,"city_fetched":"Preston","state":"Lancashire","country":"United Kingdom","canonicalUrl":"https://foursquare.com/v/black-bull/4ba630f2f964a520443a39e3","category":"Pub","checkinsCount":558,"usersCount":309,"tipCount":10,"visitsCount":775,"tier":"","message":"","currency":"","rating":6.1},{"name":"Old Black Bull","phone":"+441772823397","address":"35-36 Friargate","lat":53.760028,"lng":-2.703371,"city_fetched":"Preston","state":"Lancashire","country":"United Kingdom","canonicalUrl":"https://foursquare.com/v/old-black-bull/4c4b6a4ef7cc1b8d3395d83f","category":"Pub","checkinsCount":439,"usersCount":166,"tipCount":4,"visitsCount":461,"tier":"","message":"","currency":"","rating":6.1},{"name":"The Dog & Partridge","phone":"+441772252217","address":"44 Friargate","lat":53.76047795105018,"lng":-2.7036987012403904,"city_fetched":"Preston","state":"Lancashire","country":"United Kingdom","canonicalUrl":"https://foursquare.com/v/the-dog--partridge/4bdca94aafe8c9b663725085","category":"Pub","checkinsCount":330,"usersCount":112,"tipCount":7,"visitsCount":331,"tier":"","message":"","currency":"","rating":6.1},{"name":"The Sherwood","address":"Sherwood Way","lat":53.793232,"lng":-2.697005,"city_fetched":"Preston","country":"United Kingdom","canonicalUrl":"https://foursquare.com/v/the-sherwood/4c5690961ec295210017ccfc","category":"Pub","checkinsCount":233,"usersCount":114,"tipCount":9,"visitsCount":363,"tier":"","message":"","currency":"","rating":6},{"name":"The Warehouse","phone":"+441772253216","twitter":"thewarehouseuk","address":"50 St Johns Place","lat":53.75851913783602,"lng":-2.6955132505100017,"city_fetched":"Preston","state":"Lancashire","country":"United Kingdom","canonicalUrl":"https://foursquare.com/v/the-warehouse/4bdcb6d02a3a0f47ae11b4b6","category":"Nightclub","checkinsCount":610,"usersCount":216,"tipCount":9,"visitsCount":657,"url":"http://www.warehousenightclub.co.uk","tier":"","message":"","currency":"","rating":6},{"name":"The Brown Hare","address":"Millbrook Way","lat":53.73643567236177,"lng":-2.730560783219127,"city_fetched":"Preston","state":"Lancashire","country":"United Kingdom","canonicalUrl":"https://foursquare.com/v/the-brown-hare/507c4850e4b0d3b80a4e0990","category":"Pub","checkinsCount":219,"usersCount":73,"tipCount":4,"visitsCount":241,"tier":"","message":"","currency":"","rating":5.9},{"name":"Phantom Winger","phone":"+441772863422","address":"398 Garstang Road","lat":53.80065247291233,"lng":-2.7140741253912104,"city_fetched":"Preston","state":"Lancashire","country":"United Kingdom","canonicalUrl":"https://foursquare.com/v/phantom-winger/4beb24a50acf76b0cb813cc8","category":"Hotel","checkinsCount":355,"usersCount":216,"tipCount":5,"visitsCount":430,"tier":"","message":"","currency":"","rating":5.9},{"name":"The Anderton Arms","phone":"+441772700104","address":"Longsands Lane","lat":53.78663233812026,"lng":-2.673153877258301,"city_fetched":"Preston","state":"Lancashire","country":"United Kingdom","canonicalUrl":"https://foursquare.com/v/the-anderton-arms/4b900d1df964a5208d7233e3","category":"Pub","checkinsCount":542,"usersCount":202,"tipCount":8,"visitsCount":863,"tier":"","message":"","currency":"","rating":5.9},{"name":"Academy","phone":"+441772253730","twitter":"academypreston","address":"140 Church Street","lat":53.75843542019634,"lng":-2.696864604949951,"city_fetched":"Preston","state":"Lancashire","country":"United Kingdom","canonicalUrl":"https://foursquare.com/academypreston","category":"Bar","checkinsCount":473,"usersCount":144,"tipCount":3,"visitsCount":474,"url":"http://www.partyatthepub.co.uk/bars/the-academy-2/","tier":"","message":"","currency":"","rating":5.9},{"name":"The Ship Inn","phone":"+441772558131","address":"3 Fylde Rd","lat":53.76270390118914,"lng":-2.7083873748779297,"city_fetched":"Preston","state":"Lancashire","country":"United Kingdom","canonicalUrl":"https://foursquare.com/v/the-ship-inn/4bdc9c39afe8c9b6423a5085","category":"Pub","checkinsCount":577,"usersCount":101,"tipCount":7,"visitsCount":579,"tier":"","message":"","currency":"","rating":5.9},{"name":"Fishers","lat":53.75832694374618,"lng":-2.698586462903905,"city_fetched":"Preston","country":"United Kingdom","canonicalUrl":"https://foursquare.com/v/fishers/4f10bc7ee4b019e99068612b","category":"Bar","checkinsCount":144,"usersCount":82,"tipCount":3,"visitsCount":147,"tier":"","message":"","currency":"","rating":5.9},{"name":"Norman Jepson (Beefeater)","phone":"+441772651580","twitter":"beefeatergrill","address":"Bluebell Way","lat":53.79018176540869,"lng":-2.658519744873047,"city_fetched":"Preston","state":"Lancashire","country":"United Kingdom","canonicalUrl":"https://foursquare.com/v/norman-jepson-beefeater/4b94172df964a5206f6734e3","category":"Pub","checkinsCount":271,"usersCount":122,"tipCount":3,"visitsCount":300,"url":"http://www.beefeater.co.uk","tier":"","message":"","currency":"","rating":5.7},{"name":"The Guild","address":"Fylde Road","lat":53.7645,"lng":-2.71128319,"city_fetched":"Preston","state":"Lancashire","country":"United Kingdom","canonicalUrl":"https://foursquare.com/v/the-guild/4bdedae4e75c0f471d02c903","category":"Gastropub","checkinsCount":572,"usersCount":241,"tipCount":6,"visitsCount":604,"tier":"","message":"","currency":"","rating":5.6},{"name":"The Bobbin Mill","phone":"+441772458160","address":"2 Eaton Ave.","lat":53.687016016541115,"lng":-2.6697480884999822,"city_fetched":"Preston","state":"Lancashire","country":"United Kingdom","canonicalUrl":"https://foursquare.com/v/the-bobbin-mill/4bdeb4b9be5120a11f97fe70","category":"Gastropub","checkinsCount":219,"usersCount":157,"tipCount":2,"visitsCount":308,"tier":1,"message":"Cheap","currency":"£","rating":5.5},{"name":"Poachers","phone":"+441772324100","address":"Lostock Lane, Bamber Bridge","lat":53.721454379860496,"lng":-2.670104475842832,"city_fetched":"Preston","state":"Lancashire","country":"United Kingdom","canonicalUrl":"https://foursquare.com/v/poachers/4dfe080862e1a52ce9161508","category":"Pub","checkinsCount":232,"usersCount":139,"tipCount":10,"visitsCount":252,"url":"http://www.fayre-square.com/pub/poachers-preston/s4610/","tier":"","message":"","currency":"","rating":5.4}]