[{"name":"Orocco Pier","phone":"+448701181664","twitter":"oroccopier","address":"17 High St","lat":55.99036447104253,"lng":-3.3965134620666504,"neighborhood":"South Queensferry","city_fetched":"Queensferry","state":"Edinburgh","country":"United Kingdom","canonicalUrl":"https://foursquare.com/v/orocco-pier/4b2a49a5f964a520e8a624e3","category":"Hotel","checkinsCount":634,"usersCount":461,"tipCount":20,"visitsCount":711,"url":"http://www.oroccopier.co.uk","tier":"","message":"","currency":"","rating":7.2},{"name":"Antico","phone":"+448701181664","address":"Orocco Pier","lat":55.9903129762583,"lng":-3.3966308432825523,"neighborhood":"South Queensferry","city_fetched":"Queensferry","state":"Edinburgh","country":"United Kingdom","canonicalUrl":"https://foursquare.com/v/antico/4cc1ddb3d43ba143727c54f8","category":"Bar","checkinsCount":146,"usersCount":113,"tipCount":6,"visitsCount":146,"url":"http://www.oroccopier.co.uk/edinburgh_bar/Default.asp","tier":"","message":"","currency":"","rating":7},{"name":"Brewers Fayre","phone":"+448701977094","address":"Builyeon Rd","lat":55.984292324755266,"lng":-3.4049106508450686,"neighborhood":"Port Edgar","city_fetched":"Queensferry","state":"Edinburgh","country":"United Kingdom","canonicalUrl":"https://foursquare.com/v/brewers-fayre/4c62f33086b6be9a21568d34","category":"Pub","checkinsCount":105,"usersCount":59,"tipCount":0,"visitsCount":106,"url":"http://www.brewersfayre.co.uk","tier":"","message":"","currency":"","rating":5.9}]