[{"name":"Charters","phone":"+441733315700","twitter":"chartersbar","address":"Town Bridge","lat":52.56803783914504,"lng":-0.24203181266784668,"city_fetched":"Ramsey,UK","state":"Peterborough","country":"United Kingdom","canonicalUrl":"https://foursquare.com/v/charters/4bb789fe3db7b713a41f209a","categoryId":"4bf58dd8d48988d11b941735","category":"Pub","checkinsCount":1546,"usersCount":522,"tipCount":16,"visitsCount":1778,"url":"http://www.charters-bar.com","tier":2,"message":"Moderate","currency":"Â£","rating":8.5},{"name":"The Tap Room","phone":"+441480492255","address":"23 Bridge Street","lat":52.32319680069227,"lng":-0.07484386525717916,"city_fetched":"Ramsey,UK","state":"Cambridgeshire","country":"United Kingdom","canonicalUrl":"https://foursquare.com/v/the-tap-room/4c7986233badb1f7fe734f54","categoryId":"4bf58dd8d48988d116941735","category":"Bar","checkinsCount":279,"usersCount":100,"tipCount":8,"visitsCount":294,"tier":"","message":"","currency":"","rating":8.5},{"name":"The Horseshoe Inn & Restaurant","phone":"+441480810293","twitter":"theoffordshoe","address":"90 High Street","lat":52.28427321299068,"lng":-0.214158296585083,"city_fetched":"Ramsey,UK","state":"Cambridgeshire","country":"United Kingdom","canonicalUrl":"https://foursquare.com/v/the-horseshoe-inn--restaurant/4c14cbd3b7b9c92871daab37","categoryId":"4bf58dd8d48988d11b941735","category":"Pub","checkinsCount":127,"usersCount":75,"tipCount":5,"visitsCount":140,"tier":"","message":"","currency":"","rating":8},{"name":"The Falcon","phone":"+441480457416","address":"10 Market Hill","lat":52.33033494472553,"lng":-0.18471122108503676,"neighborhood":"Cambridgeshire","city_fetched":"Ramsey,UK","state":"Cambridgeshire","country":"United Kingdom","canonicalUrl":"https://foursquare.com/v/the-falcon/54ee24ab498e00ad2f090565","categoryId":"4bf58dd8d48988d11b941735","category":"Pub","checkinsCount":92,"usersCount":37,"tipCount":4,"visitsCount":119,"url":"http://falconhuntingdon.co.uk","tier":"","message":"","currency":"","rating":7.8},{"name":"Jolly Sailor","address":"Great Whyte","lat":52.449982578509704,"lng":-0.10743357287397172,"city_fetched":"Ramsey,UK","state":"Cambridgeshire","country":"United Kingdom","canonicalUrl":"https://foursquare.com/v/jolly-sailor/4c2d16b6e116e21e71ff8d60","categoryId":"4bf58dd8d48988d11b941735","category":"Pub","checkinsCount":178,"usersCount":39,"tipCount":5,"visitsCount":216,"tier":"","message":"","currency":"","rating":7.6},{"name":"The George Hotel (Wetherspoon)","phone":"+441733359970","address":"10 Market Place","lat":52.5563806904174,"lng":-0.12754134471763653,"city_fetched":"Ramsey,UK","state":"Cambridgeshire","country":"United Kingdom","canonicalUrl":"https://foursquare.com/v/the-george-hotel-wetherspoon/4c87aa2e821e9eb033cc8d89","categoryId":"4bf58dd8d48988d11b941735","category":"Pub","checkinsCount":1529,"usersCount":163,"tipCount":9,"visitsCount":1586,"url":"http://www.jdwetherspoon.co.uk","tier":"","message":"","currency":"","rating":7.4},{"name":"Oliver Cromwell","address":"Wellington St.","lat":52.32227483827593,"lng":-0.07329940795898438,"city_fetched":"Ramsey,UK","state":"Cambridgeshire","country":"United Kingdom","canonicalUrl":"https://foursquare.com/v/oliver-cromwell/4c6d583bf2846dcb284b65e9","categoryId":"4bf58dd8d48988d116941735","category":"Bar","checkinsCount":136,"usersCount":64,"tipCount":1,"visitsCount":139,"tier":"","message":"","currency":"","rating":7.3},{"name":"Floods Tavern","lat":52.324588431442116,"lng":-0.07638980601226497,"city_fetched":"Ramsey,UK","state":"Cambridgeshire","country":"United Kingdom","canonicalUrl":"https://foursquare.com/v/floods-tavern/4c65a600f7a80f4748e09b7a","categoryId":"4bf58dd8d48988d116941735","category":"Bar","checkinsCount":77,"usersCount":50,"tipCount":2,"visitsCount":79,"tier":"","message":"","currency":"","rating":7.2},{"name":"The Apple Cart","phone":"+441733302480","address":"Bellona Drive","lat":52.545462,"lng":-0.214854,"city_fetched":"Ramsey,UK","state":"Peterborough","country":"United Kingdom","canonicalUrl":"https://foursquare.com/v/the-apple-cart/4e82f3cf49016d9ffea9b3ad","categoryId":"4bf58dd8d48988d11b941735","category":"Pub","checkinsCount":215,"usersCount":121,"tipCount":5,"visitsCount":258,"tier":"","message":"","currency":"","rating":7.2},{"name":"The Golden Lion","address":"High St","lat":52.32327,"lng":-0.07321357727050781,"city_fetched":"Ramsey,UK","state":"Cambridgeshire","country":"United Kingdom","canonicalUrl":"https://foursquare.com/v/the-golden-lion/4bfc3f79b5cd2d7f564a31fb","categoryId":"4bf58dd8d48988d11b941735","category":"Pub","checkinsCount":275,"usersCount":131,"tipCount":2,"visitsCount":291,"tier":"","message":"","currency":"","rating":7.1},{"name":"The Haywain","phone":"+441480301519","address":"Constable Rd","lat":52.34104858958012,"lng":-0.07556567883639907,"city_fetched":"Ramsey,UK","state":"Cambridgeshire","country":"United Kingdom","canonicalUrl":"https://foursquare.com/v/the-haywain/4bd192d2caff952187d7d0f0","categoryId":"4bf58dd8d48988d11b941735","category":"Pub","checkinsCount":181,"usersCount":37,"tipCount":17,"visitsCount":182,"tier":"","message":"","currency":"","rating":7},{"name":"The Barley Mow","address":"42 Main St","lat":52.33846812589701,"lng":-0.1577093466211113,"city_fetched":"Ramsey,UK","state":"Cambridgeshire","country":"United Kingdom","canonicalUrl":"https://foursquare.com/v/the-barley-mow/4c4171033735be9a3d7718a4","categoryId":"4bf58dd8d48988d11b941735","category":"Pub","checkinsCount":175,"usersCount":94,"tipCount":6,"visitsCount":255,"tier":"","message":"","currency":"","rating":7},{"name":"The Three Horse Shoes","address":"Main st","lat":52.51190505466668,"lng":-0.2606034278869629,"city_fetched":"Ramsey,UK","state":"Cambridgeshire","country":"United Kingdom","canonicalUrl":"https://foursquare.com/v/the-three-horse-shoes/4c4313b7d7fad13a49fc09da","categoryId":"4bf58dd8d48988d11b941735","category":"Pub","checkinsCount":177,"usersCount":55,"tipCount":1,"visitsCount":220,"tier":"","message":"","currency":"","rating":6.9},{"name":"The White Hart","address":"Cambridge Road","lat":52.318945085000614,"lng":-0.16939942743386405,"city_fetched":"Ramsey,UK","state":"Cambridgeshire","country":"United Kingdom","canonicalUrl":"https://foursquare.com/v/the-white-hart/4bec611f75b2c9b67467438d","categoryId":"4bf58dd8d48988d11b941735","category":"Pub","checkinsCount":142,"usersCount":115,"tipCount":6,"visitsCount":233,"tier":"","message":"","currency":"","rating":6.8},{"name":"The Three Jolly Butchers","phone":"+441480463228","address":"3 Huntingdon Rd","lat":52.33423769447797,"lng":-0.12357473373413086,"city_fetched":"Ramsey,UK","state":"Cambridgeshire","country":"United Kingdom","canonicalUrl":"https://foursquare.com/v/the-three-jolly-butchers/4d037fec8620224bf83ba340","categoryId":"4bf58dd8d48988d11b941735","category":"Pub","checkinsCount":146,"usersCount":69,"tipCount":3,"visitsCount":194,"tier":"","message":"","currency":"","rating":6.8},{"name":"The Farmers Carvery & Grill","phone":"+441733244885","twitter":"farmersyaxley","address":"200 Broadway","lat":52.51665309047204,"lng":-0.2602756420396617,"city_fetched":"Ramsey,UK","state":"Peterborough","country":"United Kingdom","canonicalUrl":"https://foursquare.com/v/the-farmers-carvery--grill/4cb1d43c562d224b32d02188","categoryId":"4bf58dd8d48988d11b941735","category":"Pub","checkinsCount":96,"usersCount":51,"tipCount":5,"visitsCount":99,"url":"http://www.thefarmersyaxley.co.uk","tier":"","message":"","currency":"","rating":6.8},{"name":"The Black Bull","phone":"+441480457201","address":"25 Church Rd.","lat":52.320627890674,"lng":-0.21979635700836297,"city_fetched":"Ramsey,UK","state":"Cambridgeshire","country":"United Kingdom","canonicalUrl":"https://foursquare.com/v/the-black-bull/4c5d960e9b28d13a1df05970","categoryId":"4bf58dd8d48988d11b941735","category":"Pub","checkinsCount":196,"usersCount":78,"tipCount":4,"visitsCount":257,"tier":"","message":"","currency":"","rating":6.6},{"name":"Argo Lounge","phone":"+441733565255","twitter":"argolounge","address":"7 Bridge Street","lat":52.572293492179504,"lng":-0.2422422621802577,"city_fetched":"Ramsey,UK","state":"Peterborough","country":"United Kingdom","canonicalUrl":"https://foursquare.com/v/argo-lounge/54918f35498e4e2727de165c","categoryId":"4bf58dd8d48988d116941735","category":"Bar","checkinsCount":358,"usersCount":141,"tipCount":9,"visitsCount":438,"url":"http://thelounges.co.uk/lounges/argo-lounge/","tier":"","message":"","currency":"","rating":6.2},{"name":"George Hotel","phone":"+441480432444","address":"George St","lat":52.33093995406862,"lng":-0.1853621006011963,"city_fetched":"Ramsey,UK","state":"Cambridgeshire","country":"United Kingdom","canonicalUrl":"https://foursquare.com/v/george-hotel/4be84903c5220f477f8ca9ca","categoryId":"4bf58dd8d48988d1d5941735","category":"Hotel Bar","checkinsCount":286,"usersCount":157,"tipCount":12,"visitsCount":314,"tier":"","message":"","currency":"","rating":5.3},{"name":"Hartford Mill","lat":52.337472438812256,"lng":-0.1418513059616089,"city_fetched":"Ramsey,UK","country":"United Kingdom","canonicalUrl":"https://foursquare.com/v/hartford-mill/4c475321c047be9af4343079","categoryId":"4bf58dd8d48988d11b941735","category":"Pub","checkinsCount":134,"usersCount":100,"tipCount":5,"visitsCount":174,"tier":"","message":"","currency":"","rating":4.8}]