[{"name":"Bel and The Dragon","phone":"+441189515790","address":"Blakes Lock, Gas Works Rd.","lat":51.455763,"lng":-0.958374,"city_fetched":"Reading","country":"United Kingdom","canonicalUrl":"https://foursquare.com/v/bel-and-the-dragon/4bb8c252cf2fc9b669cf9f02","category":"Gastropub","checkinsCount":762,"usersCount":701,"tipCount":22,"visitsCount":1118,"url":"http://www.belandthedragon-reading.co.uk","tier":3,"message":"Expensive","currency":"£","rating":8.7},{"name":"Bosco Lounge","lat":51.45159113578272,"lng":-0.9059238679834053,"city_fetched":"Reading","country":"United Kingdom","canonicalUrl":"https://foursquare.com/v/bosco-lounge/51854c2a498e3441730e7a29","category":"Lounge","checkinsCount":344,"usersCount":140,"tipCount":5,"visitsCount":458,"tier":"","message":"","currency":"","rating":8.4},{"name":"Abbot Cook","phone":"+441189354095","twitter":"londonirishpubs","address":"153 London Rd","lat":51.45283759220702,"lng":-0.950792068381829,"city_fetched":"Reading","country":"United Kingdom","canonicalUrl":"https://foursquare.com/v/abbot-cook/4ee61a462da504839760f89c","category":"Pub","checkinsCount":1366,"usersCount":559,"tipCount":19,"visitsCount":2081,"url":"http://www.londonirishpubs.co.uk","tier":2,"message":"Moderate","currency":"£","rating":8.2},{"name":"Poachers Pub","address":"Mill lane","lat":51.426711486050856,"lng":-0.8973291070090702,"city_fetched":"Reading","state":"Berkshire","country":"United Kingdom","canonicalUrl":"https://foursquare.com/v/poachers-pub/4bb2401642959c746394202c","category":"Pub","checkinsCount":193,"usersCount":156,"tipCount":6,"visitsCount":237,"tier":"","message":"","currency":"","rating":8},{"name":"The Back of Beyond (Wetherspoon)","phone":"+441189595906","address":"104-108 Kings Rd","lat":51.45459228848191,"lng":-0.9631940591909518,"city_fetched":"Reading","state":"Berkshire","country":"United Kingdom","canonicalUrl":"https://foursquare.com/v/the-back-of-beyond-wetherspoon/4b16bf9bf964a520e6bc23e3","category":"Pub","checkinsCount":3001,"usersCount":689,"tipCount":20,"visitsCount":3416,"url":"http://www.jdwetherspoon.co.uk","tier":1,"message":"Cheap","currency":"£","rating":7.9},{"name":"The Queens Head","phone":"+441189863040","address":"54 Christchurch Rd","lat":51.443034,"lng":-0.956373,"city_fetched":"Reading","country":"United Kingdom","canonicalUrl":"https://foursquare.com/v/the-queens-head/4b697ff0f964a520d8a42be3","category":"Pub","checkinsCount":368,"usersCount":220,"tipCount":11,"visitsCount":490,"url":"http://www.queensheadreading.co.uk","tier":"","message":"","currency":"","rating":7.3},{"name":"Eldon Arms","address":"Eldon Terrace","lat":51.45290437298501,"lng":-0.9575777984904812,"city_fetched":"Reading","country":"United Kingdom","canonicalUrl":"https://foursquare.com/v/eldon-arms/5482233d498e54a29841d9c6","category":"Pub","checkinsCount":62,"usersCount":55,"tipCount":2,"visitsCount":116,"tier":"","message":"","currency":"","rating":7.1},{"name":"London Road Eat & Drink","phone":"+441183782477","twitter":"unirdg_bars","address":"Building L14, London Road Campus, Univerisity of Reading, London Road","lat":51.44939950832398,"lng":-0.9598963393535357,"city_fetched":"Reading","country":"United Kingdom","canonicalUrl":"https://foursquare.com/v/london-road-eat--drink/4f5a39d9e4b004088f9cde7a","category":"Restaurant","checkinsCount":143,"usersCount":67,"tipCount":4,"visitsCount":192,"url":"http://www.reading.ac.uk/catering/BarsandLateNight/Cater_Bars_late_night.aspx","tier":1,"message":"Cheap","currency":"£","rating":6.9},{"name":"The Black Boy","phone":"+441189883116","address":"2 Shinfield Rd, Shinfield","lat":51.413609377943146,"lng":-0.9498793259903875,"city_fetched":"Reading","country":"United Kingdom","canonicalUrl":"https://foursquare.com/v/the-black-boy/4bb09ad6f964a520ef4e3ce3","category":"Gastropub","checkinsCount":670,"usersCount":448,"tipCount":13,"visitsCount":988,"url":"http://www.blackboyshinfield.co.uk","tier":2,"message":"Moderate","currency":"£","rating":6.8},{"name":"3Sixty (RUSU)","phone":"+441183784163","address":"Comms at Reading University Students Union (RUSU)","lat":51.441137,"lng":-0.943094,"city_fetched":"Reading","state":"Berkshire","country":"United Kingdom","canonicalUrl":"https://foursquare.com/v/3sixty-rusu/4c939e3721c7199cfbae0a7f","category":"Nightclub","checkinsCount":399,"usersCount":177,"tipCount":0,"visitsCount":426,"tier":"","message":"","currency":"","rating":6.8},{"name":"Shepherds House Inn","phone":"+441189267293","twitter":"londonirishpubs","address":"Shepherds Walk","lat":51.459936648047766,"lng":-0.917508602142334,"city_fetched":"Reading","country":"United Kingdom","canonicalUrl":"https://foursquare.com/v/shepherds-house-inn/4ee61a462da504839760f909","category":"Pub","checkinsCount":17,"usersCount":13,"tipCount":0,"visitsCount":24,"url":"http://www.londonirishpubs.co.uk","tier":"","message":"","currency":"","rating":6.4},{"name":"The Walter Arms","lat":51.418215,"lng":-0.882166,"city_fetched":"Reading","state":"Berkshire","country":"United Kingdom","canonicalUrl":"https://foursquare.com/v/the-walter-arms/4bd19341462cb713bc62da07","category":"Pub","checkinsCount":328,"usersCount":225,"tipCount":10,"visitsCount":460,"tier":"","message":"","currency":"","rating":6.4},{"name":"Park House","address":"Whiteknights Park","lat":51.440091,"lng":-0.943063,"city_fetched":"Reading","country":"United Kingdom","canonicalUrl":"https://foursquare.com/v/park-house/4d485464c3e5a35dc0bc9c4f","category":"Bar","checkinsCount":343,"usersCount":115,"tipCount":2,"visitsCount":377,"tier":"","message":"","currency":"","rating":6.4},{"name":"The George","address":"Reading Rd","lat":51.437956,"lng":-0.900229,"city_fetched":"Reading","country":"United Kingdom","canonicalUrl":"https://foursquare.com/v/the-george/4b2537a7f964a520326e24e3","category":"Pub","checkinsCount":799,"usersCount":574,"tipCount":16,"visitsCount":1113,"tier":"","message":"","currency":"","rating":6.3},{"name":"Park Bar","phone":"+441183788803","twitter":"unirdg_bars","address":"Building 14, London Road Campus","lat":51.44421441994981,"lng":-0.9471648945049086,"city_fetched":"Reading","country":"United Kingdom","canonicalUrl":"https://foursquare.com/v/park-bar/4dc19f72d22da015335406c7","category":"Bar","checkinsCount":613,"usersCount":237,"tipCount":1,"visitsCount":895,"url":"http://www.reading.ac.uk/catering/BarsandLateNight/Cater_Park_Bar.aspx","tier":"","message":"","currency":"","rating":5.9},{"name":"The Roebuck","phone":"+441189663305","address":"37 Auckland Rd","lat":51.44783876991217,"lng":-0.9329342400518219,"city_fetched":"Reading","country":"United Kingdom","canonicalUrl":"https://foursquare.com/v/the-roebuck/4bdb308a3904a593d02f499e","category":"Pub","checkinsCount":157,"usersCount":83,"tipCount":4,"visitsCount":180,"url":"http://www.theroebuckpub.co.uk","tier":"","message":"","currency":"","rating":5.8},{"name":"The Retreat","address":"8 St John's St","lat":51.453392,"lng":-0.960536,"city_fetched":"Reading","country":"United Kingdom","canonicalUrl":"https://foursquare.com/v/the-retreat/4be5ac9f2457a59346cfab15","category":"Pub","checkinsCount":166,"usersCount":104,"tipCount":4,"visitsCount":179,"tier":"","message":"","currency":"","rating":5.8},{"name":"The Three Tuns","phone":"+448719511000","address":"191 Wokingham Rd","lat":51.4427185161902,"lng":-0.9315112335645672,"city_fetched":"Reading","country":"United Kingdom","canonicalUrl":"https://foursquare.com/v/the-three-tuns/4c1beb2b63750f472cb2b567","category":"Pub","checkinsCount":295,"usersCount":157,"tipCount":2,"visitsCount":351,"url":"http://www.threetunsreading.com","tier":"","message":"","currency":"","rating":5.4},{"name":"The College Arms","phone":"+441189351504","address":"128 Wokingham Rd","lat":51.44941727166101,"lng":-0.9383075840422916,"city_fetched":"Reading","country":"United Kingdom","canonicalUrl":"https://foursquare.com/v/the-college-arms/4af42f67f964a52077f021e3","category":"Pub","checkinsCount":97,"usersCount":73,"tipCount":3,"visitsCount":97,"tier":"","message":"","currency":"","rating":5}]