[{"name":"Home Cottage Pub","phone":"+441737762771","twitter":"homecottage","address":"Redstone Hill","lat":51.239077325,"lng":-0.164541,"city_fetched":"Redhill","state":"Surrey","country":"United Kingdom","canonicalUrl":"https://foursquare.com/v/home-cottage-pub/4bf4354898ac0f4756b963a8","category":"Pub","checkinsCount":553,"usersCount":284,"tipCount":10,"visitsCount":713,"url":"http://homecottageredhill.com","tier":"","message":"","currency":"","rating":8.7},{"name":"The Plough","phone":"+441737766686","address":"11 Church Rd","lat":51.228469,"lng":-0.17641352,"city_fetched":"Redhill","state":"Surrey","country":"United Kingdom","canonicalUrl":"https://foursquare.com/v/the-plough/4c6d8208f338236ac5d4071b","category":"Pub","checkinsCount":689,"usersCount":156,"tipCount":6,"visitsCount":803,"url":"http://www.theploughredhill.com","tier":"","message":"","currency":"","rating":7.9},{"name":"The Hatch - Shepherd Neame","phone":"+441737765104","address":"44 Hatchlands Road","lat":51.237579679471224,"lng":-0.18247872591018677,"city_fetched":"Redhill","state":"Surrey","country":"United Kingdom","canonicalUrl":"https://foursquare.com/v/the-hatch--shepherd-neame/4ba658c3f964a520d74839e3","category":"Pub","checkinsCount":86,"usersCount":56,"tipCount":2,"visitsCount":117,"url":"http://www.shepherdneame.co.uk","tier":"","message":"","currency":"","rating":6.8},{"name":"The Feathers","phone":"+441737645643","address":"42 High Street","lat":51.264818,"lng":-0.15225947,"city_fetched":"Redhill","state":"Surrey","country":"United Kingdom","canonicalUrl":"https://foursquare.com/v/the-feathers/4b858598f964a520366331e3","category":"Pub","checkinsCount":586,"usersCount":135,"tipCount":5,"visitsCount":638,"tier":"","message":"","currency":"","rating":6.4},{"name":"The Inn on the Pond","address":"Nutfield Marsh Road","lat":51.24777,"lng":-0.135423,"city_fetched":"Redhill","state":"Surrey","country":"United Kingdom","canonicalUrl":"https://foursquare.com/v/the-inn-on-the-pond/4b51cf50f964a520635627e3","category":"Pub","checkinsCount":234,"usersCount":182,"tipCount":3,"visitsCount":304,"url":"http://www.theinnonthepondnutfield.co.uk","tier":"","message":"","currency":"","rating":6.3},{"name":"The Sun (Wetherspoon)","phone":"+441737766886","address":"17-21 London Rd.","lat":51.2413758227119,"lng":-0.16800907441222893,"city_fetched":"Redhill","state":"Surrey","country":"United Kingdom","canonicalUrl":"https://foursquare.com/v/the-sun-wetherspoon/4c87abd7821e9eb0b4cd8d89","category":"Pub","checkinsCount":432,"usersCount":230,"tipCount":3,"visitsCount":610,"url":"http://www.jdwetherspoon.co.uk","tier":"","message":"","currency":"","rating":5.9}]