[{"name":"Home Cottage Pub","phone":"+441737762771","twitter":"homecottage","address":"Redstone Hill","lat":51.239077325,"lng":-0.164541,"city_fetched":"Reigate,UK","state":"Surrey","country":"United Kingdom","canonicalUrl":"https://foursquare.com/v/home-cottage-pub/4bf4354898ac0f4756b963a8","categoryId":"4bf58dd8d48988d11b941735","category":"Pub","checkinsCount":553,"usersCount":284,"tipCount":10,"visitsCount":713,"url":"http://homecottageredhill.com","tier":"","message":"","currency":"","rating":8.7},{"name":"The Sun","phone":"+442087734549","twitter":"suncarshalton","address":"4 North St","lat":51.36709514344918,"lng":-0.16418874263763428,"neighborhood":"Sutton","city_fetched":"Reigate,UK","state":"Greater London","country":"United Kingdom","canonicalUrl":"https://foursquare.com/v/the-sun/4c5df4097f661b8d63f74c1c","categoryId":"4bf58dd8d48988d11b941735","category":"Pub","checkinsCount":379,"usersCount":179,"tipCount":7,"visitsCount":521,"url":"http://www.thesuncarshalton.com","tier":"","message":"","currency":"","rating":8.6},{"name":"The Old Plough","phone":"+441932862244","address":"2 Station Rd","lat":51.320906,"lng":-0.386565,"city_fetched":"Reigate,UK","state":"Surrey","country":"United Kingdom","canonicalUrl":"https://foursquare.com/v/the-old-plough/4bcd5306fb84c9b65bed213e","categoryId":"4bf58dd8d48988d11b941735","category":"Pub","checkinsCount":681,"usersCount":304,"tipCount":15,"visitsCount":970,"url":"http://www.oldploughcobham.co.uk","tier":"","message":"","currency":"","rating":8.6},{"name":"Skimmington Castle","phone":"+441737243100","address":"Bonnys Rd","lat":51.23327540405435,"lng":-0.22871464490890503,"city_fetched":"Reigate,UK","state":"Surrey","country":"United Kingdom","canonicalUrl":"https://foursquare.com/v/skimmington-castle/4c0b915d7e3fc9288472f582","categoryId":"4bf58dd8d48988d11b941735","category":"Pub","checkinsCount":138,"usersCount":120,"tipCount":4,"visitsCount":204,"url":"http://www.skimmingtoncastle.co.uk","tier":"","message":"","currency":"","rating":8.4},{"name":"King William IV","phone":"+441372372590","address":"Byttom Hill","lat":51.271499609117946,"lng":-0.3195740616798296,"city_fetched":"Reigate,UK","state":"Surrey","country":"United Kingdom","canonicalUrl":"https://foursquare.com/v/king-william-iv/4c77a937923ba14340a167e6","categoryId":"4bf58dd8d48988d11b941735","category":"Pub","checkinsCount":152,"usersCount":199,"tipCount":4,"visitsCount":270,"url":"http://www.thekingwilliamiv.com","tier":"","message":"","currency":"","rating":8.2},{"name":"The Faraday","phone":"+441372817750","twitter":"thefaraday","address":"2 Church St","lat":51.33386131762183,"lng":-0.2640305869229356,"city_fetched":"Reigate,UK","state":"Surrey","country":"United Kingdom","canonicalUrl":"https://foursquare.com/v/the-faraday/53d90d9f498e9c9b9571e2ab","categoryId":"4bf58dd8d48988d11b941735","category":"Pub","checkinsCount":106,"usersCount":103,"tipCount":4,"visitsCount":183,"url":"http://www.thefaradayepsom.co.uk","tier":"","message":"","currency":"","rating":8.1},{"name":"White Hart","phone":"+441737554455","address":"Hazlewood Ln","lat":51.297764622100736,"lng":-0.16791905311489985,"city_fetched":"Reigate,UK","state":"Surrey","country":"United Kingdom","canonicalUrl":"https://foursquare.com/v/white-hart/4cc2cb4abe40a35d3b9e734c","categoryId":"4bf58dd8d48988d11b941735","category":"Pub","checkinsCount":131,"usersCount":129,"tipCount":3,"visitsCount":208,"url":"http://www.brunningandprice.co.uk/whitehartchipstead/","tier":"","message":"","currency":"","rating":8},{"name":"The Plough","phone":"+441737766686","address":"11 Church Rd","lat":51.228469,"lng":-0.17641352,"city_fetched":"Reigate,UK","state":"Surrey","country":"United Kingdom","canonicalUrl":"https://foursquare.com/v/the-plough/4c6d8208f338236ac5d4071b","categoryId":"4bf58dd8d48988d11b941735","category":"Pub","checkinsCount":689,"usersCount":156,"tipCount":6,"visitsCount":803,"url":"http://www.theploughredhill.com","tier":"","message":"","currency":"","rating":7.9},{"name":"Rising Sun Pub","phone":"+441372740809","address":"14 Heathcote Rd.","lat":51.330955,"lng":-0.263196,"city_fetched":"Reigate,UK","state":"Surrey","country":"United Kingdom","canonicalUrl":"https://foursquare.com/v/rising-sun-pub/4bc9c6bd68f976b00ccd5d83","categoryId":"4bf58dd8d48988d11b941735","category":"Pub","checkinsCount":160,"usersCount":106,"tipCount":3,"visitsCount":196,"tier":"","message":"","currency":"","rating":7.6},{"name":"The Cock Inn","phone":"+441372377258","twitter":"thecockheadley","address":"Church Ln","lat":51.27963066101074,"lng":-0.2743256092071533,"city_fetched":"Reigate,UK","state":"Surrey","country":"United Kingdom","canonicalUrl":"https://foursquare.com/v/the-cock-inn/4c66a25c8e9120a1875cd864","categoryId":"4bf58dd8d48988d117941735","category":"Beer Garden","checkinsCount":121,"usersCount":144,"tipCount":3,"visitsCount":226,"url":"http://cockinnheadley.co.uk","tier":"","message":"","currency":"","rating":7.6},{"name":"The Cricketers Inn","phone":"+441306889938","twitter":"cricketersdorks","address":"81 South St","lat":51.22860322505257,"lng":-0.33457551226663845,"city_fetched":"Reigate,UK","state":"Surrey","country":"United Kingdom","canonicalUrl":"https://foursquare.com/v/the-cricketers-inn/4cb9e6754c60a09340ca42ca","categoryId":"4bf58dd8d48988d11b941735","category":"Pub","checkinsCount":189,"usersCount":58,"tipCount":5,"visitsCount":220,"url":"http://www.cricketersdorking.co.uk","tier":"","message":"","currency":"","rating":7.6},{"name":"Abinger Hatch","phone":"+441306730737","address":"Abinger Ln","lat":51.20172577987877,"lng":-0.40419214906108647,"city_fetched":"Reigate,UK","state":"Surrey","country":"United Kingdom","canonicalUrl":"https://foursquare.com/v/abinger-hatch/4be7c0b7ee96c9284a4efdbf","categoryId":"4bf58dd8d48988d11b941735","category":"Pub","checkinsCount":324,"usersCount":118,"tipCount":7,"visitsCount":366,"tier":"","message":"","currency":"","rating":7.5},{"name":"The Marquis Of Granby","phone":"+441372744278","address":"4 West Street","lat":51.33309,"lng":-0.270666,"city_fetched":"Reigate,UK","state":"Surrey","country":"United Kingdom","canonicalUrl":"https://foursquare.com/v/the-marquis-of-granby/4bba2405cf2fc9b6d631a102","categoryId":"4bf58dd8d48988d11b941735","category":"Pub","checkinsCount":524,"usersCount":302,"tipCount":5,"visitsCount":696,"url":"http://www.themarquisofgranbyepsom.co.uk","tier":"","message":"","currency":"","rating":7.4},{"name":"Goffs Manor","phone":"+441293540982","address":"Old Horsham Rd","lat":51.11029866583969,"lng":-0.19951343536376953,"city_fetched":"Reigate,UK","state":"West Sussex","country":"United Kingdom","canonicalUrl":"https://foursquare.com/v/goffs-manor/4c0aa7697e3fc928d600f482","categoryId":"4bf58dd8d48988d11b941735","category":"Pub","checkinsCount":369,"usersCount":217,"tipCount":12,"visitsCount":478,"url":"http://www.thegoffsmanor.co.uk","tier":"","message":"","currency":"","rating":7.4},{"name":"Ye Olde Six Bells","phone":"+441293825028","twitter":"vintage_inns","address":"Church Rd","lat":51.170068,"lng":-0.176156,"city_fetched":"Reigate,UK","state":"Surrey","country":"United Kingdom","canonicalUrl":"https://foursquare.com/v/ye-olde-six-bells/4b51df5ef964a520fd5827e3","categoryId":"4bf58dd8d48988d11b941735","category":"Pub","checkinsCount":379,"usersCount":344,"tipCount":14,"visitsCount":474,"url":"http://www.vintageinn.co.uk/yeoldesixbellshorley/","tier":"","message":"","currency":"","rating":7.3},{"name":"The Beehive","phone":"+441737246943","twitter":"emberinns","address":"90 Dovers Green Road","lat":51.219622173841415,"lng":-0.20090232824538498,"city_fetched":"Reigate,UK","state":"Surrey","country":"United Kingdom","canonicalUrl":"https://foursquare.com/v/the-beehive/4bb102b1f964a5209d723ce3","categoryId":"4bf58dd8d48988d11b941735","category":"Pub","checkinsCount":178,"usersCount":117,"tipCount":4,"visitsCount":311,"url":"http://www.emberinns.co.uk","tier":"","message":"","currency":"","rating":7.3},{"name":"Barley Mow","phone":"+441372721044","twitter":"barleymow_epsom","address":"12 Pikes Hill","lat":51.33431190399227,"lng":-0.2581787109375,"city_fetched":"Reigate,UK","state":"Surrey","country":"United Kingdom","canonicalUrl":"https://foursquare.com/v/barley-mow/4c86868ed8086dcb513d9b52","categoryId":"4bf58dd8d48988d11b941735","category":"Pub","checkinsCount":111,"usersCount":88,"tipCount":2,"visitsCount":187,"url":"http://www.barley-mow-epsom.co.uk","tier":"","message":"","currency":"","rating":7.2},{"name":"The Dolphin","phone":"+441737842288","address":"The Street","lat":51.23365160337237,"lng":-0.26614487171173096,"city_fetched":"Reigate,UK","state":"Surrey","country":"United Kingdom","canonicalUrl":"https://foursquare.com/v/the-dolphin/4cbb03400180721ec11c9d61","categoryId":"4bf58dd8d48988d11b941735","category":"Pub","checkinsCount":129,"usersCount":122,"tipCount":8,"visitsCount":190,"url":"http://www.dolphinbetchworth.com","tier":"","message":"","currency":"","rating":7.2},{"name":"The Sportsman","phone":"+441737246655","twitter":"timewell_spent","address":"Mogador Rd","lat":51.26412749290466,"lng":-0.224276,"city_fetched":"Reigate,UK","state":"Surrey","country":"United Kingdom","canonicalUrl":"https://foursquare.com/v/the-sportsman/4ba61dc6f964a520c43439e3","categoryId":"4bf58dd8d48988d11b941735","category":"Pub","checkinsCount":165,"usersCount":156,"tipCount":4,"visitsCount":257,"url":"http://thesportsmanmogador.co.uk","tier":"","message":"","currency":"","rating":7.1},{"name":"The White Bear - Brakspear Pubs","phone":"+441959573166","twitter":"brakspearpubs","address":"Fairchildes Road","lat":51.32524840289562,"lng":-0.006866455078125,"neighborhood":"Fickleshole","city_fetched":"Reigate,UK","state":"Surrey","country":"United Kingdom","canonicalUrl":"https://foursquare.com/v/the-white-bear--brakspear-pubs/4bb89ab11261d13a0abbe898","categoryId":"4bf58dd8d48988d11b941735","category":"Pub","checkinsCount":219,"usersCount":245,"tipCount":8,"visitsCount":316,"url":"http://thewhitebear-fickleshole.com","tier":"","message":"","currency":"","rating":7.1},{"name":"Executive Lounge","address":"Hilton London Gatwick","lat":51.156114120349834,"lng":-0.15724910687717833,"city_fetched":"Reigate,UK","state":"West Sussex","country":"United Kingdom","canonicalUrl":"https://foursquare.com/v/executive-lounge/4e4f47cd18a8af30fd8388bc","categoryId":"4bf58dd8d48988d1d5941735","category":"Hotel Bar","checkinsCount":491,"usersCount":236,"tipCount":9,"visitsCount":491,"url":"http://www3.hilton.com/en/hotels/united-kingdom/hilton-london-gatwick-airport-GATHITW/index.html?WT.mc_id=zELWAKN0EMEA1HI2DMH3LocalSearch4DGGenericx6GATHITW","tier":"","message":"","currency":"","rating":7},{"name":"The Red Lion Inn","phone":"+441737843336","twitter":"redlionbetch","address":"Old Road","lat":51.24027075704535,"lng":-0.26289799548427506,"city_fetched":"Reigate,UK","state":"Surrey","country":"United Kingdom","canonicalUrl":"https://foursquare.com/v/the-red-lion-inn/4c601d2f3986e21e1276934f","categoryId":"4bf58dd8d48988d11b941735","category":"Pub","checkinsCount":106,"usersCount":62,"tipCount":4,"visitsCount":147,"url":"http://www.redlionbetchworth.com","tier":"","message":"","currency":"","rating":7},{"name":"The Black Horse","address":"93 West Street","lat":51.240221,"lng":-0.220904,"city_fetched":"Reigate,UK","state":"Surrey","country":"United Kingdom","canonicalUrl":"https://foursquare.com/v/the-black-horse/4b93d1b4f964a520475334e3","categoryId":"4bf58dd8d48988d11b941735","category":"Pub","checkinsCount":79,"usersCount":96,"tipCount":5,"visitsCount":137,"tier":"","message":"","currency":"","rating":6.9},{"name":"Prince of Wales - Shepherd Neame","phone":"+441737243112","address":"2 Homesdale Road","lat":51.241908739515964,"lng":-0.20287960767745972,"city_fetched":"Reigate,UK","state":"Surrey","country":"United Kingdom","canonicalUrl":"https://foursquare.com/v/prince-of-wales--shepherd-neame/4baa3e63f964a5200e573ae3","categoryId":"4bf58dd8d48988d11b941735","category":"Pub","checkinsCount":209,"usersCount":86,"tipCount":3,"visitsCount":220,"url":"http://www.shepherdneame.co.uk","tier":"","message":"","currency":"","rating":6.9},{"name":"The Roe Deer","address":"Croydon Rd","lat":51.241025566053054,"lng":-0.19606667109007292,"city_fetched":"Reigate,UK","state":"Surrey","country":"United Kingdom","canonicalUrl":"https://foursquare.com/v/the-roe-deer/4f82f8d7e4b0a6d0b876a15a","categoryId":"4bf58dd8d48988d11b941735","category":"Pub","checkinsCount":137,"usersCount":88,"tipCount":3,"visitsCount":212,"tier":"","message":"","currency":"","rating":6.9},{"name":"The Hatch - Shepherd Neame","phone":"+441737765104","address":"44 Hatchlands Road","lat":51.237579679471224,"lng":-0.18247872591018677,"city_fetched":"Reigate,UK","state":"Surrey","country":"United Kingdom","canonicalUrl":"https://foursquare.com/v/the-hatch--shepherd-neame/4ba658c3f964a520d74839e3","categoryId":"4bf58dd8d48988d11b941735","category":"Pub","checkinsCount":86,"usersCount":56,"tipCount":2,"visitsCount":117,"url":"http://www.shepherdneame.co.uk","tier":"","message":"","currency":"","rating":6.9},{"name":"The Railway","phone":"+441293618995","address":"2-4 Brighton Rd","lat":51.112236371496905,"lng":-0.19064366815568431,"city_fetched":"Reigate,UK","state":"West Sussex","country":"United Kingdom","canonicalUrl":"https://foursquare.com/v/the-railway/4ba28dbcf964a520be0338e3","categoryId":"4bf58dd8d48988d11b941735","category":"Pub","checkinsCount":524,"usersCount":135,"tipCount":1,"visitsCount":615,"url":"http://www.railwaycrawley.co.uk","tier":"","message":"","currency":"","rating":6.9},{"name":"Spring Tavern","phone":"+442087860121","twitter":"springtavern","address":"London Road","lat":51.35123694037088,"lng":-0.25037726315602327,"city_fetched":"Reigate,UK","state":"Surrey","country":"United Kingdom","canonicalUrl":"https://foursquare.com/v/spring-tavern/4bad1bdaf964a520712e3be3","categoryId":"4bf58dd8d48988d117941735","category":"Beer Garden","checkinsCount":496,"usersCount":241,"tipCount":10,"visitsCount":687,"url":"http://www.springtavern.co.uk","tier":"","message":"","currency":"","rating":6.8},{"name":"The Parrot","phone":"+441306621339","address":"Horsham Rd","lat":51.159864,"lng":-0.394332,"city_fetched":"Reigate,UK","state":"Surrey","country":"United Kingdom","canonicalUrl":"https://foursquare.com/v/the-parrot/4c41b971520fa5931effc9ac","categoryId":"4bf58dd8d48988d11b941735","category":"Pub","checkinsCount":167,"usersCount":165,"tipCount":4,"visitsCount":306,"url":"http://www.theparrot.co.uk","tier":"","message":"","currency":"","rating":6.7},{"name":"The Treehouse","phone":"+442086889837","address":"78 South End","lat":51.36519149928595,"lng":-0.09909544174531336,"neighborhood":"Croydon","city_fetched":"Reigate,UK","state":"Greater London","country":"United Kingdom","canonicalUrl":"https://foursquare.com/v/the-treehouse/4b642713f964a5207da12ae3","categoryId":"4bf58dd8d48988d11b941735","category":"Pub","checkinsCount":530,"usersCount":246,"tipCount":10,"visitsCount":580,"tier":"","message":"","currency":"","rating":6.6},{"name":"The HG Wells","address":"101 Cheam Common Rd.","lat":51.37314788727762,"lng":-0.2320584934061099,"neighborhood":"Worcester Park","city_fetched":"Reigate,UK","state":"Greater London","country":"United Kingdom","canonicalUrl":"https://foursquare.com/v/the-hg-wells/4c03a97e187ec9283deab57b","categoryId":"4bf58dd8d48988d11b941735","category":"Pub","checkinsCount":156,"usersCount":113,"tipCount":3,"visitsCount":304,"url":"http://www.thehgwells.co.uk","tier":"","message":"","currency":"","rating":6.5},{"name":"The Plough and Attic Rooms, Rusper","phone":"+441293871215","twitter":"theploughinn","address":"High Street","lat":51.122803,"lng":-0.278713,"city_fetched":"Reigate,UK","state":"West Sussex","country":"United Kingdom","canonicalUrl":"https://foursquare.com/v/the-plough-and-attic-rooms-rusper/4c2c945e8abca593addd0120","categoryId":"4bf58dd8d48988d11b941735","category":"Pub","checkinsCount":120,"usersCount":51,"tipCount":4,"visitsCount":125,"tier":"","message":"","currency":"","rating":6.4},{"name":"Watermill Inn","phone":"+441306883248","twitter":"chefandbrewer","address":"Reigate Rd","lat":51.23807188589126,"lng":-0.312382,"city_fetched":"Reigate,UK","state":"Surrey","country":"United Kingdom","canonicalUrl":"https://foursquare.com/v/watermill-inn/4bbf98e64cdfc9b6148a9121","categoryId":"4bf58dd8d48988d11b941735","category":"Pub","checkinsCount":149,"usersCount":122,"tipCount":3,"visitsCount":180,"url":"http://www.chefandbrewer.com","tier":"","message":"","currency":"","rating":6.4},{"name":"White Hart","address":"High Street","lat":51.115155735276936,"lng":-0.1899430427068562,"city_fetched":"Reigate,UK","state":"West Sussex","country":"United Kingdom","canonicalUrl":"https://foursquare.com/v/white-hart/4bc7765414d79521d86e67e9","categoryId":"4bf58dd8d48988d11b941735","category":"Pub","checkinsCount":157,"usersCount":89,"tipCount":4,"visitsCount":158,"tier":"","message":"","currency":"","rating":6.3},{"name":"Caballo Lounge","phone":"+441372727623","twitter":"caballolounge","address":"11 High St","lat":51.33407980139367,"lng":-0.26466217611077797,"city_fetched":"Reigate,UK","state":"Surrey","country":"United Kingdom","canonicalUrl":"https://foursquare.com/v/caballo-lounge/553e7fef498e14d2323e3fdd","categoryId":"4bf58dd8d48988d121941735","category":"Lounge","checkinsCount":52,"usersCount":59,"tipCount":2,"visitsCount":83,"url":"http://thelounges.co.uk","tier":"","message":"","currency":"","rating":6.3},{"name":"Charlie Fry's Sports Bar","phone":"+441293518080","twitter":"hiltonhotels","address":"Hilton London Gatwick Airport","lat":51.15601185858349,"lng":-0.15711756292865087,"city_fetched":"Reigate,UK","state":"West Sussex","country":"United Kingdom","canonicalUrl":"https://foursquare.com/v/charlie-frys-sports-bar/50ca02c4245f2d4aa8c2c2fb","categoryId":"4bf58dd8d48988d11d941735","category":"Sports Bar","checkinsCount":60,"usersCount":43,"tipCount":1,"visitsCount":60,"url":"http://www.hilton.com","tier":"","message":"","currency":"","rating":6.3},{"name":"The Inn on the Pond","address":"Nutfield Marsh Road","lat":51.24777,"lng":-0.135423,"city_fetched":"Reigate,UK","state":"Surrey","country":"United Kingdom","canonicalUrl":"https://foursquare.com/v/the-inn-on-the-pond/4b51cf50f964a520635627e3","categoryId":"4bf58dd8d48988d11b941735","category":"Pub","checkinsCount":234,"usersCount":182,"tipCount":3,"visitsCount":304,"url":"http://www.theinnonthepondnutfield.co.uk","tier":"","message":"","currency":"","rating":6.3},{"name":"The Dog & Duck","phone":"+441342842964","address":"Outwood","lat":51.198434829711914,"lng":-0.122138,"city_fetched":"Reigate,UK","state":"Surrey","country":"United Kingdom","canonicalUrl":"https://foursquare.com/v/the-dog--duck/4c1dfc7beac020a1680349c2","categoryId":"4bf58dd8d48988d11b941735","category":"Pub","checkinsCount":84,"usersCount":100,"tipCount":7,"visitsCount":140,"tier":"","message":"","currency":"","rating":6.2},{"name":"The Bell Pub","phone":"+441737244438","address":"21 Bell St","lat":51.23721627723994,"lng":-0.20539114445080095,"city_fetched":"Reigate,UK","state":"Surrey","country":"United Kingdom","canonicalUrl":"https://foursquare.com/v/the-bell-pub/4bf28a8c1cd9d13ac3bfed76","categoryId":"4bf58dd8d48988d11b941735","category":"Pub","checkinsCount":272,"usersCount":99,"tipCount":7,"visitsCount":273,"tier":"","message":"","currency":"","rating":6.1},{"name":"The Old Bank","address":"2 High St.","lat":51.35986457764624,"lng":-0.19135013222694397,"neighborhood":"Sutton Central","city_fetched":"Reigate,UK","state":"Greater London","country":"United Kingdom","canonicalUrl":"https://foursquare.com/v/the-old-bank/4bf19505d39ad13aee69aa0e","categoryId":"4bf58dd8d48988d117941735","category":"Beer Garden","checkinsCount":247,"usersCount":127,"tipCount":3,"visitsCount":250,"tier":"","message":"","currency":"","rating":6},{"name":"The Sun (Wetherspoon)","phone":"+441737766886","address":"17-21 London Rd.","lat":51.2413758227119,"lng":-0.16800907441222893,"city_fetched":"Reigate,UK","state":"Surrey","country":"United Kingdom","canonicalUrl":"https://foursquare.com/v/the-sun-wetherspoon/4c87abd7821e9eb0b4cd8d89","categoryId":"4bf58dd8d48988d11b941735","category":"Pub","checkinsCount":432,"usersCount":230,"tipCount":3,"visitsCount":610,"url":"http://www.jdwetherspoon.co.uk","tier":"","message":"","currency":"","rating":6},{"name":"Gatwick Manor","phone":"+441293511023","address":"London Rd","lat":51.13930671919107,"lng":-0.18409923129924616,"city_fetched":"Reigate,UK","state":"West Sussex","country":"United Kingdom","canonicalUrl":"https://foursquare.com/v/gatwick-manor/4c21f7287e85c9281330bb21","categoryId":"4bf58dd8d48988d11b941735","category":"Pub","checkinsCount":438,"usersCount":343,"tipCount":8,"visitsCount":547,"tier":"","message":"","currency":"","rating":5.9},{"name":"The Horseshoe","phone":"+441883622009","twitter":"shoewarlingham","address":"Farleigh Road","lat":51.309382964942344,"lng":-0.05347251892089844,"city_fetched":"Reigate,UK","state":"Surrey","country":"United Kingdom","canonicalUrl":"https://foursquare.com/v/the-horseshoe/4bd05b179854d13a5382f74d","categoryId":"4bf58dd8d48988d11b941735","category":"Pub","checkinsCount":208,"usersCount":74,"tipCount":4,"visitsCount":210,"url":"http://www.baronspubs.com/horseshoe/","tier":"","message":"","currency":"","rating":5.8},{"name":"The Bull's Head","address":"High Street","lat":51.23785411249259,"lng":-0.20919506470641838,"city_fetched":"Reigate,UK","country":"United Kingdom","canonicalUrl":"https://foursquare.com/v/the-bulls-head/4d1490a9bb488cfafa0298d4","categoryId":"4bf58dd8d48988d11b941735","category":"Pub","checkinsCount":113,"usersCount":62,"tipCount":2,"visitsCount":121,"tier":"","message":"","currency":"","rating":5.7},{"name":"The Venture Bar and Grill","phone":"+441737271576","twitter":"venturereigate","address":"11 Lesbourne Rd.","lat":51.23412352524942,"lng":-0.20173515697464098,"city_fetched":"Reigate,UK","state":"Surrey","country":"United Kingdom","canonicalUrl":"https://foursquare.com/v/the-venture-bar-and-grill/4b9ba34af964a5209c1536e3","categoryId":"4bf58dd8d48988d11b941735","category":"Pub","checkinsCount":252,"usersCount":98,"tipCount":5,"visitsCount":344,"url":"http://ventureinnreigate.com","tier":"","message":"","currency":"","rating":5.7},{"name":"Leg Of Mutton And Cauliflower","address":"48 The Street","lat":51.309196916080374,"lng":-0.29964117449942856,"city_fetched":"Reigate,UK","state":"Surrey","country":"United Kingdom","canonicalUrl":"https://foursquare.com/v/leg-of-mutton-and-cauliflower/4bf848eb5ec320a1398188d3","categoryId":"4bf58dd8d48988d11b941735","category":"Pub","checkinsCount":120,"usersCount":53,"tipCount":2,"visitsCount":121,"tier":"","message":"","currency":"","rating":5.7},{"name":"Queen Adelaide","phone":"+442083932666","address":"272 Kingston Rd","lat":51.36412620112618,"lng":-0.2577514012018558,"city_fetched":"Reigate,UK","state":"Surrey","country":"United Kingdom","canonicalUrl":"https://foursquare.com/v/queen-adelaide/4bdc1f2b63c5c9b6d2742a68","categoryId":"4bf58dd8d48988d11b941735","category":"Pub","checkinsCount":98,"usersCount":120,"tipCount":2,"visitsCount":195,"url":"http://www.emberinns.co.uk","tier":"","message":"","currency":"","rating":5.6},{"name":"MOKA","address":"Station Way","lat":51.11269165332127,"lng":-0.18486642943247425,"city_fetched":"Reigate,UK","state":"West Sussex","country":"United Kingdom","canonicalUrl":"https://foursquare.com/v/moka/50872c7ee4b0d0ee3688d080","categoryId":"4bf58dd8d48988d11f941735","category":"Nightclub","checkinsCount":116,"usersCount":44,"tipCount":4,"visitsCount":116,"tier":"","message":"","currency":"","rating":5.4},{"name":"Broadway Bar & Cafe","phone":"+442083997698","address":"43-51 The Broadway","lat":51.380634953739246,"lng":-0.28220432719041605,"neighborhood":"Kingston upon Thames","city_fetched":"Reigate,UK","state":"Surrey","country":"United Kingdom","canonicalUrl":"https://foursquare.com/v/broadway-bar--cafe/4c4eec229efabe9a1799e06a","categoryId":"4bf58dd8d48988d116941735","category":"Bar","checkinsCount":252,"usersCount":77,"tipCount":7,"visitsCount":252,"url":"http://tolworthbar.com","tier":"","message":"","currency":"","rating":5.2},{"name":"Mill House (Beefeater)","phone":"+441737767277","twitter":"beefeatergrill","address":"Brighton Rd","lat":51.205623588942665,"lng":-0.1671502356800839,"city_fetched":"Reigate,UK","state":"Surrey","country":"United Kingdom","canonicalUrl":"https://foursquare.com/v/mill-house-beefeater/4c4d8a3014b7b71396306078","categoryId":"4bf58dd8d48988d11b941735","category":"Pub","checkinsCount":136,"usersCount":97,"tipCount":6,"visitsCount":173,"url":"http://www.beefeater.co.uk","tier":"","message":"","currency":"","rating":5.2},{"name":"Old Surrey Hounds","address":"High Street","lat":51.28251033333333,"lng":-0.07730094,"city_fetched":"Reigate,UK","state":"Surrey","country":"United Kingdom","canonicalUrl":"https://foursquare.com/v/old-surrey-hounds/4c5c59f685a1e21e60655611","categoryId":"4bf58dd8d48988d11b941735","category":"Pub","checkinsCount":198,"usersCount":81,"tipCount":3,"visitsCount":203,"tier":"","message":"","currency":"","rating":5.1},{"name":"The Woodman","phone":"+448721077077","address":"238 Barnett Wood Ln.","lat":51.31435240102995,"lng":-0.30806243419647217,"city_fetched":"Reigate,UK","state":"Surrey","country":"United Kingdom","canonicalUrl":"https://foursquare.com/v/the-woodman/4bed95929868a593df9d5d46","categoryId":"4bf58dd8d48988d11b941735","category":"Pub","checkinsCount":219,"usersCount":109,"tipCount":7,"visitsCount":241,"tier":"","message":"","currency":"","rating":5}]