[{"name":"Milgi Lounge","phone":"+442920473150","address":"213 City Road","lat":51.49183036666667,"lng":-3.171353,"city_fetched":"Rhondda Valley,UK","state":"Cardiff","country":"United Kingdom","canonicalUrl":"https://foursquare.com/v/milgi-lounge/4b928477f964a5201f0034e3","categoryId":"4bf58dd8d48988d121941735","category":"Lounge","checkinsCount":892,"usersCount":503,"tipCount":25,"visitsCount":1068,"url":"http://www.milgilounge.com","tier":"","message":"","currency":"","rating":9},{"name":"The City Arms","phone":"+442920641913","twitter":"cityarmscardiff","address":"10-12 Quay St","lat":51.47983944762412,"lng":-3.180933869449962,"neighborhood":"City Centre","city_fetched":"Rhondda Valley,UK","state":"Cardiff","country":"United Kingdom","canonicalUrl":"https://foursquare.com/v/the-city-arms/4bc8bc8014d7952163bc69e9","categoryId":"4bf58dd8d48988d11b941735","category":"Pub","checkinsCount":2948,"usersCount":643,"tipCount":24,"visitsCount":3002,"url":"http://www.thecityarmscardiff.com","tier":2,"message":"Moderate","currency":"£","rating":9},{"name":"Urban Tap House","phone":"+442920399557","twitter":"urbantaphouse","address":"25 Westgate St","lat":51.479891207767245,"lng":-3.181193768978119,"neighborhood":"City Centre","city_fetched":"Rhondda Valley,UK","state":"Cardiff","country":"United Kingdom","canonicalUrl":"https://foursquare.com/v/urban-tap-house/5229e7dd049331b94a75425f","categoryId":"56aa371ce4b08b9a8d57356c","category":"Beer Bar","checkinsCount":2832,"usersCount":925,"tipCount":44,"visitsCount":3333,"url":"http://www.urbantaphouse.co.uk","tier":2,"message":"Moderate","currency":"£","rating":9},{"name":"BrewDog Cardiff","phone":"+442920231684","twitter":"brewdog","address":"31 Westgate Street","lat":51.47872632965354,"lng":-3.1794007291515904,"neighborhood":"City Centre","city_fetched":"Rhondda Valley,UK","state":"Cardiff","country":"United Kingdom","canonicalUrl":"https://foursquare.com/v/brewdog-cardiff/53ce641d498e0eaa7ccd805c","categoryId":"56aa371ce4b08b9a8d57356c","category":"Beer Bar","checkinsCount":1409,"usersCount":436,"tipCount":23,"visitsCount":1589,"url":"http://www.brewdog.com","tier":"","message":"","currency":"","rating":8.7},{"name":"The Goat Major","phone":"+442920337161","twitter":"thegoatmajorpub","address":"33 High St","lat":51.4810788829523,"lng":-3.180568814277649,"neighborhood":"City Centre","city_fetched":"Rhondda Valley,UK","state":"Cardiff","country":"United Kingdom","canonicalUrl":"https://foursquare.com/v/the-goat-major/4b60a500f964a52005f229e3","categoryId":"4bf58dd8d48988d11b941735","category":"Pub","checkinsCount":1109,"usersCount":493,"tipCount":24,"visitsCount":1126,"url":"http://www.sabrain.com","tier":"","message":"","currency":"","rating":8.5},{"name":"The Pilot","phone":"+442920710615","twitter":"thepilotpenarth","address":"67 Queens Rd","lat":51.44316399625226,"lng":-3.173328955103898,"city_fetched":"Rhondda Valley,UK","state":"Vale of Glamorgan","country":"United Kingdom","canonicalUrl":"https://foursquare.com/v/the-pilot/4ba3dfeaf964a5200f6938e3","categoryId":"4bf58dd8d48988d11b941735","category":"Pub","checkinsCount":1570,"usersCount":120,"tipCount":12,"visitsCount":1692,"url":"http://knifeandforkfood.co.uk/pilot.htm","tier":"","message":"","currency":"","rating":8.5},{"name":"Barocco","phone":"+442920413600","twitter":"baroccocardiff","address":"Wharton St","lat":51.479659043936415,"lng":-3.177509321607692,"neighborhood":"City Centre","city_fetched":"Rhondda Valley,UK","state":"Cardiff","country":"United Kingdom","canonicalUrl":"https://foursquare.com/v/barocco/4c26914c5c5ca593397146fe","categoryId":"4bf58dd8d48988d116941735","category":"Bar","checkinsCount":539,"usersCount":354,"tipCount":8,"visitsCount":574,"url":"http://www.baroccocardiff.com","tier":"","message":"","currency":"","rating":8.3},{"name":"Rummer Tavern","phone":"+442920649871","address":"14 Duke St.","lat":51.481573425430234,"lng":-3.179320345607806,"neighborhood":"City Centre","city_fetched":"Rhondda Valley,UK","country":"United Kingdom","canonicalUrl":"https://foursquare.com/v/rummer-tavern/4b86b0a8f964a520869631e3","categoryId":"4bf58dd8d48988d11b941735","category":"Pub","checkinsCount":1528,"usersCount":453,"tipCount":15,"visitsCount":1576,"url":"http://www.therummertaverncardiff.co.uk","tier":"","message":"","currency":"","rating":8.2},{"name":"Porter's Cardiff","phone":"+442921250666","twitter":"porterscardiff","address":"Harlech Court","lat":51.47819074529398,"lng":-3.1722071794167834,"neighborhood":"The Hayes","city_fetched":"Rhondda Valley,UK","state":"Cardiff","country":"United Kingdom","canonicalUrl":"https://foursquare.com/v/porters-cardiff/509299a5e4b054e683cf2a9c","categoryId":"4bf58dd8d48988d116941735","category":"Bar","checkinsCount":613,"usersCount":283,"tipCount":9,"visitsCount":649,"url":"http://www.porterscardiff.com","tier":"","message":"","currency":"","rating":8.2},{"name":"Juno Lounge","phone":"+442920198990","twitter":"juno_lounge","address":"14 Wellfield Road","lat":51.494924419400874,"lng":-3.1656240150030417,"neighborhood":"Cardiff City Centre","city_fetched":"Rhondda Valley,UK","state":"Cardiff","country":"United Kingdom","canonicalUrl":"https://foursquare.com/v/juno-lounge/4b996d21f964a520b67a35e3","categoryId":"4bf58dd8d48988d116941735","category":"Bar","checkinsCount":1160,"usersCount":425,"tipCount":23,"visitsCount":1361,"url":"http://thelounges.co.uk/lounges/juno-lounge/","tier":"","message":"","currency":"","rating":8.2},{"name":"The Cambrian Tap","phone":"+442920644952","twitter":"thecambriantap","address":"51 St Mary Street","lat":51.47744303784965,"lng":-3.17707429241848,"neighborhood":"City Centre","city_fetched":"Rhondda Valley,UK","state":"Cardiff","country":"United Kingdom","canonicalUrl":"https://foursquare.com/v/the-cambrian-tap/55549744498e6b74407c5802","categoryId":"4bf58dd8d48988d11b941735","category":"Pub","checkinsCount":293,"usersCount":134,"tipCount":3,"visitsCount":337,"tier":"","message":"","currency":"","rating":8.2},{"name":"Dead Canary","address":"60 Charles St","lat":51.480195,"lng":-3.17291,"neighborhood":"City Centre","city_fetched":"Rhondda Valley,UK","state":"Cardiff","country":"United Kingdom","canonicalUrl":"https://foursquare.com/v/dead-canary/569004d8498e9d5aa365330c","categoryId":"4bf58dd8d48988d1d4941735","category":"Speakeasy","checkinsCount":37,"usersCount":26,"tipCount":3,"visitsCount":51,"tier":"","message":"","currency":"","rating":8.1},{"name":"Urban Tap House Newport","twitter":"urbantapnewport","address":"22 High St","lat":51.5889763034746,"lng":-2.9970379864024053,"city_fetched":"Rhondda Valley,UK","state":"Gwent","country":"United Kingdom","canonicalUrl":"https://foursquare.com/v/urban-tap-house-newport/55521ea3498ed60d70862cdf","categoryId":"4bf58dd8d48988d116941735","category":"Bar","checkinsCount":594,"usersCount":95,"tipCount":9,"visitsCount":665,"url":"http://www.urbantaphouse.co.uk","tier":"","message":"","currency":"","rating":8.1},{"name":"Pen & Wig","phone":"+442920371217","twitter":"pen_and_wig","address":"1 Park Grove","lat":51.48605147172216,"lng":-3.175104569260747,"neighborhood":"Cathays","city_fetched":"Rhondda Valley,UK","state":"Cardiff","country":"United Kingdom","canonicalUrl":"https://foursquare.com/v/pen--wig/4b537c52f964a520589f27e3","categoryId":"4bf58dd8d48988d11b941735","category":"Pub","checkinsCount":1793,"usersCount":661,"tipCount":24,"visitsCount":2009,"url":"http://www.penandwigcardiff.co.uk","tier":2,"message":"Moderate","currency":"£","rating":8.1},{"name":"The Old Cottage","phone":"+442920765961","address":"Cherry Orchard Rd","lat":51.54534409346299,"lng":-3.1870459281216403,"neighborhood":"Llanishen","city_fetched":"Rhondda Valley,UK","state":"Cardiff","country":"United Kingdom","canonicalUrl":"https://foursquare.com/v/the-old-cottage/4c5ec8f8857ca593d674d0cb","categoryId":"4bf58dd8d48988d11b941735","category":"Pub","checkinsCount":263,"usersCount":143,"tipCount":7,"visitsCount":381,"tier":"","message":"","currency":"","rating":8},{"name":"Crafty Devil's Cellar and Dusty Knuckle Pizza","twitter":"craftydevilbrew","address":"Llandaff Road","lat":51.48230846514848,"lng":-3.2019959831326044,"neighborhood":"Pontcanna","city_fetched":"Rhondda Valley,UK","state":"Cardiff","country":"United Kingdom","canonicalUrl":"https://foursquare.com/v/crafty-devils-cellar-and-dusty-knuckle-pizza/563271e0498eb65f4b1c3448","categoryId":"50327c8591d4c4b30a586d5d","category":"Brewery","checkinsCount":66,"usersCount":27,"tipCount":2,"visitsCount":92,"tier":"","message":"","currency":"","rating":8},{"name":"Chapel 1877","phone":"+442920222020","twitter":"chapel1877bar","address":"Churchill Way","lat":51.48042073765504,"lng":-3.171830177307129,"neighborhood":"City Centre","city_fetched":"Rhondda Valley,UK","state":"Cardiff","country":"United Kingdom","canonicalUrl":"https://foursquare.com/v/chapel-1877/50b5184bd86c0f6ea2f9695c","categoryId":"4bf58dd8d48988d116941735","category":"Bar","checkinsCount":488,"usersCount":424,"tipCount":8,"visitsCount":636,"url":"http://chapel1877.com","tier":"","message":"","currency":"","rating":8},{"name":"Bar Cwtch","address":"5 Bute Cresent","lat":51.464383,"lng":-3.165415,"neighborhood":"Mermaid Quay","city_fetched":"Rhondda Valley,UK","state":"Cardiff","country":"United Kingdom","canonicalUrl":"https://foursquare.com/v/bar-cwtch/4b96d654f964a520e6e734e3","categoryId":"4bf58dd8d48988d116941735","category":"Bar","checkinsCount":261,"usersCount":155,"tipCount":8,"visitsCount":261,"tier":"","message":"","currency":"","rating":8},{"name":"10 Feet Tall","phone":"+442920228883","twitter":"10feettallcf","address":"11a-12 Church St","lat":51.480598470000004,"lng":-3.178759,"neighborhood":"City Centre","city_fetched":"Rhondda Valley,UK","state":"Cardiff","country":"United Kingdom","canonicalUrl":"https://foursquare.com/v/10-feet-tall/4b618af8f964a52084172ae3","categoryId":"4bf58dd8d48988d116941735","category":"Bar","checkinsCount":1798,"usersCount":717,"tipCount":21,"visitsCount":1828,"url":"http://www.10feettallcardiff.com","tier":"","message":"","currency":"","rating":8},{"name":"Old Swan Inn","phone":"+441446792230","twitter":"theswan16","address":"Church St","lat":51.4081682510355,"lng":-3.485664709996728,"city_fetched":"Rhondda Valley,UK","country":"United Kingdom","canonicalUrl":"https://foursquare.com/v/old-swan-inn/4d15eccc302da1cddddcb293","categoryId":"4bf58dd8d48988d11b941735","category":"Pub","checkinsCount":220,"usersCount":81,"tipCount":3,"visitsCount":279,"url":"http://www.knifeandforkfood.co.uk/swan","tier":"","message":"","currency":"","rating":8},{"name":"The Albany","phone":"+442920311075","address":"105 Donald St","lat":51.49597314406712,"lng":-3.170757293701172,"neighborhood":"Cardiff City Centre","city_fetched":"Rhondda Valley,UK","state":"Cardiff","country":"United Kingdom","canonicalUrl":"https://foursquare.com/v/the-albany/4b6dbc7bf964a520f68a2ce3","categoryId":"4bf58dd8d48988d11b941735","category":"Pub","checkinsCount":782,"usersCount":197,"tipCount":14,"visitsCount":989,"tier":"","message":"","currency":"","rating":7.9},{"name":"Y Mochyn Du","phone":"+442920371599","twitter":"ymochyndu","address":"Sophia Cl","lat":51.48511106835356,"lng":-3.1914880871772766,"neighborhood":"South Cardiff","city_fetched":"Rhondda Valley,UK","state":"Cardiff","country":"United Kingdom","canonicalUrl":"https://foursquare.com/v/y-mochyn-du/4ba4cc6af964a520e3b538e3","categoryId":"4bf58dd8d48988d11b941735","category":"Pub","checkinsCount":1696,"usersCount":657,"tipCount":22,"visitsCount":1945,"url":"http://ymochyndu.com","tier":"","message":"","currency":"","rating":7.9},{"name":"The Captain's Wife","phone":"+442920530066","address":"Beach Rd","lat":51.40033016758128,"lng":-3.1983089447021484,"city_fetched":"Rhondda Valley,UK","state":"Vale of Glamorgan","country":"United Kingdom","canonicalUrl":"https://foursquare.com/v/the-captains-wife/4bcb1032937ca5931cc8a892","categoryId":"4bf58dd8d48988d11b941735","category":"Pub","checkinsCount":357,"usersCount":237,"tipCount":5,"visitsCount":429,"tier":"","message":"","currency":"","rating":7.9},{"name":"Bunch of Grapes","twitter":"bunchgrapescf37","address":"Ynysangharad Rd","lat":51.6025833,"lng":-3.331456,"city_fetched":"Rhondda Valley,UK","country":"United Kingdom","canonicalUrl":"https://foursquare.com/v/bunch-of-grapes/4bdec9ade75c0f473ec2c803","categoryId":"4bf58dd8d48988d11b941735","category":"Pub","checkinsCount":503,"usersCount":168,"tipCount":12,"visitsCount":566,"url":"http://www.bunchofgrapes.org.uk","tier":"","message":"","currency":"","rating":7.9},{"name":"Ocho Lounge","phone":"+442920710045","twitter":"ocho_lounge","address":"17 Windsor Rd","lat":51.43913906814121,"lng":-3.1744909286499023,"city_fetched":"Rhondda Valley,UK","country":"United Kingdom","canonicalUrl":"https://foursquare.com/v/ocho-lounge/4baf9f3ef964a520db103ce3","categoryId":"4bf58dd8d48988d121941735","category":"Lounge","checkinsCount":836,"usersCount":178,"tipCount":14,"visitsCount":868,"url":"http://thelounges.co.uk/lounges/ocho-lounge/","tier":2,"message":"Moderate","currency":"£","rating":7.8},{"name":"Buffalo Bar","phone":"+442920310312","twitter":"buffalocardiff","address":"11 Windsor Place","lat":51.48357440345281,"lng":-3.1733107566833496,"neighborhood":"City Centre","city_fetched":"Rhondda Valley,UK","country":"United Kingdom","canonicalUrl":"https://foursquare.com/v/buffalo-bar/4bc8b97914d79521f1b469e9","categoryId":"4bf58dd8d48988d116941735","category":"Bar","checkinsCount":1908,"usersCount":809,"tipCount":19,"visitsCount":2051,"url":"http://buffalocardiff.co.uk","tier":2,"message":"Moderate","currency":"£","rating":7.8},{"name":"Revolucion de Cuba","phone":"+442920008444","twitter":"rumclubcardiff","address":"The Friary","lat":51.48287508065946,"lng":-3.178111231214092,"neighborhood":"City Centre","city_fetched":"Rhondda Valley,UK","state":"Cardiff","country":"United Kingdom","canonicalUrl":"https://foursquare.com/v/revolucion-de-cuba/4ebc5152775bbbe5d6f40dc7","categoryId":"4bf58dd8d48988d116941735","category":"Bar","checkinsCount":797,"usersCount":435,"tipCount":12,"visitsCount":835,"url":"http://www.revoluciondecuba.com/bar/cardiff","tier":3,"message":"Expensive","currency":"£","rating":7.8},{"name":"Robin Hood","address":"16 Severn Grove","lat":51.48500327353604,"lng":-3.200038981819581,"neighborhood":"Pontcanna","city_fetched":"Rhondda Valley,UK","state":"Cardiff","country":"United Kingdom","canonicalUrl":"https://foursquare.com/v/robin-hood/4b802532f964a520555630e3","categoryId":"4bf58dd8d48988d11b941735","category":"Pub","checkinsCount":328,"usersCount":101,"tipCount":3,"visitsCount":342,"tier":"","message":"","currency":"","rating":7.8},{"name":"Pipes Beer","phone":"+447776382244","twitter":"pipesbeer","address":"183a Kings Rd","lat":51.48556665239519,"lng":-3.2000650499641994,"neighborhood":"Pontcanna","city_fetched":"Rhondda Valley,UK","state":"Cardiff","country":"United Kingdom","canonicalUrl":"https://foursquare.com/pipesbeer","categoryId":"50327c8591d4c4b30a586d5d","category":"Brewery","checkinsCount":112,"usersCount":62,"tipCount":4,"visitsCount":115,"url":"http://www.pipesbeer.co.uk","tier":"","message":"","currency":"","rating":7.7},{"name":"Ty Mawr","address":"Graig Rd.","lat":51.55071171210745,"lng":-3.1794261932373047,"city_fetched":"Rhondda Valley,UK","state":"Cardiff","country":"United Kingdom","canonicalUrl":"https://foursquare.com/v/ty-mawr/4be4240b2457a59378c9a915","categoryId":"4bf58dd8d48988d11b941735","category":"Pub","checkinsCount":291,"usersCount":179,"tipCount":6,"visitsCount":350,"tier":"","message":"","currency":"","rating":7.7},{"name":"Lab 22","address":"22 Caroline St.","lat":51.478295899177596,"lng":-3.1758534908294678,"neighborhood":"Old Brewery Quarter","city_fetched":"Rhondda Valley,UK","state":"Cardiff","country":"United Kingdom","canonicalUrl":"https://foursquare.com/v/lab-22/4f6221886d86426416f0747b","categoryId":"4bf58dd8d48988d11e941735","category":"Cocktail Bar","checkinsCount":246,"usersCount":117,"tipCount":9,"visitsCount":247,"tier":"","message":"","currency":"","rating":7.7},{"name":"The Dock","twitter":"thedockcardiff","address":"Mermaid Quay","lat":51.463039982950995,"lng":-3.165613619002035,"neighborhood":"Mermaid Quay","city_fetched":"Rhondda Valley,UK","country":"United Kingdom","canonicalUrl":"https://foursquare.com/v/the-dock/57165a6f498ecd3c9f8cf240","categoryId":"4bf58dd8d48988d116941735","category":"Bar","checkinsCount":113,"usersCount":85,"tipCount":3,"visitsCount":116,"tier":"","message":"","currency":"","rating":7.7},{"name":"The Sir Samuel Romilly (Wetherspoon)","phone":"+441446724900","address":"Romilly Buildings","lat":51.39858983653759,"lng":-3.2843542098999023,"city_fetched":"Rhondda Valley,UK","country":"United Kingdom","canonicalUrl":"https://foursquare.com/v/the-sir-samuel-romilly-wetherspoon/4b9bed09f964a520a43636e3","categoryId":"4bf58dd8d48988d11b941735","category":"Pub","checkinsCount":2334,"usersCount":236,"tipCount":8,"visitsCount":2433,"url":"http://www.jdwetherspoon.co.uk","tier":"","message":"","currency":"","rating":7.6},{"name":"The Romilly","phone":"+442920256345","address":"69-71 Romilly Crescent, Pontcanna","lat":51.485395907217054,"lng":-3.203118528367417,"neighborhood":"Pontcanna","city_fetched":"Rhondda Valley,UK","state":"Cardiff","country":"United Kingdom","canonicalUrl":"https://foursquare.com/v/the-romilly/4b9767e5f964a520870235e3","categoryId":"4bf58dd8d48988d11b941735","category":"Pub","checkinsCount":1012,"usersCount":142,"tipCount":6,"visitsCount":1102,"tier":"","message":"","currency":"","rating":7.6},{"name":"Cameo Club","address":"3 & 5 Pontcanna Street","lat":51.48633,"lng":-3.199745,"neighborhood":"Pontcanna","city_fetched":"Rhondda Valley,UK","state":"Cardiff","country":"United Kingdom","canonicalUrl":"https://foursquare.com/v/cameo-club/4b55d5e2f964a5201cf227e3","categoryId":"4bf58dd8d48988d121941735","category":"Lounge","checkinsCount":341,"usersCount":120,"tipCount":6,"visitsCount":346,"tier":"","message":"","currency":"","rating":7.6},{"name":"The Mount Stuart (Wetherspoon)","phone":"+442920448000","twitter":"jdwtweet","address":"Stuart Place","lat":51.462568340266685,"lng":-3.1663029990319624,"neighborhood":"Mermaid Quay","city_fetched":"Rhondda Valley,UK","state":"Cardiff","country":"United Kingdom","canonicalUrl":"https://foursquare.com/v/the-mount-stuart-wetherspoon/51f2b483498ea41e78bb43b9","categoryId":"4bf58dd8d48988d11b941735","category":"Pub","checkinsCount":1370,"usersCount":713,"tipCount":20,"visitsCount":1638,"url":"http://www.jdwetherspoon.co.uk","tier":1,"message":"Cheap","currency":"£","rating":7.6},{"name":"The Crwys","address":"Crwys Road","lat":51.49461051639304,"lng":-3.1766366958618164,"city_fetched":"Rhondda Valley,UK","state":"Cardiff","country":"United Kingdom","canonicalUrl":"https://foursquare.com/v/the-crwys/4beb0549a9900f4717441740","categoryId":"4bf58dd8d48988d11b941735","category":"Pub","checkinsCount":842,"usersCount":265,"tipCount":6,"visitsCount":937,"tier":"","message":"","currency":"","rating":7.5},{"name":"Turtle Bay","lat":51.479953744879246,"lng":-3.1794004302054444,"neighborhood":"City Centre","city_fetched":"Rhondda Valley,UK","country":"United Kingdom","canonicalUrl":"https://foursquare.com/v/turtle-bay/566b1bf0498ec471673beba5","categoryId":"4bf58dd8d48988d11e941735","category":"Cocktail Bar","checkinsCount":138,"usersCount":101,"tipCount":2,"visitsCount":177,"tier":"","message":"","currency":"","rating":7.5},{"name":"The Pen & Wig","phone":"+441633666818","twitter":"thepenandwig","address":"22-24 Stow Hill","lat":51.587199761207685,"lng":-2.9971057176589966,"city_fetched":"Rhondda Valley,UK","state":"Gwent","country":"United Kingdom","canonicalUrl":"https://foursquare.com/v/the-pen--wig/4cc5b34a8062468803d23d2f","categoryId":"4bf58dd8d48988d11b941735","category":"Pub","checkinsCount":998,"usersCount":141,"tipCount":11,"visitsCount":1088,"url":"http://jwbassettpubs.com/the-pen-wig/","tier":"","message":"","currency":"","rating":7.5},{"name":"Yr Ieuan Ap Iago (Wetherspoon)","phone":"+441685880080","address":"6 High St.","lat":51.712857655952824,"lng":-3.446359634399414,"city_fetched":"Rhondda Valley,UK","country":"United Kingdom","canonicalUrl":"https://foursquare.com/v/yr-ieuan-ap-iago-wetherspoon/4c671e3b7abde21e7ca66568","categoryId":"4bf58dd8d48988d11b941735","category":"Pub","checkinsCount":459,"usersCount":135,"tipCount":5,"visitsCount":503,"url":"http://www.jdwetherspoon.co.uk","tier":"","message":"","currency":"","rating":7.5},{"name":"The Hanbury Arms","address":"51.608423, -2.952007","lat":51.60839756312325,"lng":-2.951889188536894,"city_fetched":"Rhondda Valley,UK","state":"Gwent","country":"United Kingdom","canonicalUrl":"https://foursquare.com/v/the-hanbury-arms/4b8d39c6f964a52074ee32e3","categoryId":"4bf58dd8d48988d11b941735","category":"Pub","checkinsCount":252,"usersCount":139,"tipCount":2,"visitsCount":294,"tier":"","message":"","currency":"","rating":7.4},{"name":"Zerodegrees","phone":"+442920229494","twitter":"zerodegreesbeer","address":"27 Westgate St","lat":51.47905430414589,"lng":-3.179672956466675,"neighborhood":"City Centre","city_fetched":"Rhondda Valley,UK","country":"United Kingdom","canonicalUrl":"https://foursquare.com/v/zerodegrees/4bf5c1285e800f47f025e6d4","categoryId":"50327c8591d4c4b30a586d5d","category":"Brewery","checkinsCount":1669,"usersCount":816,"tipCount":26,"visitsCount":1741,"url":"http://www.zerodegrees.co.uk","tier":"","message":"","currency":"","rating":7.4},{"name":"Ye Olde Murenger","phone":"+441633263977","address":"52-53 High St.","lat":51.58925113998177,"lng":-2.997128535293447,"city_fetched":"Rhondda Valley,UK","country":"United Kingdom","canonicalUrl":"https://foursquare.com/v/ye-olde-murenger/4b472fb1f964a520892c26e3","categoryId":"4bf58dd8d48988d11b941735","category":"Pub","checkinsCount":686,"usersCount":153,"tipCount":12,"visitsCount":712,"tier":"","message":"","currency":"","rating":7.3},{"name":"Revolution Vodka Bar","phone":"+442920236689","twitter":"revolutionbars","address":"9-11 Castle St.","lat":51.4811999,"lng":-3.181181,"neighborhood":"Cathays","city_fetched":"Rhondda Valley,UK","state":"Cardiff","country":"United Kingdom","canonicalUrl":"https://foursquare.com/v/revolution-vodka-bar/4b4b358ff964a520859426e3","categoryId":"4bf58dd8d48988d11e941735","category":"Cocktail Bar","checkinsCount":1580,"usersCount":749,"tipCount":8,"visitsCount":1642,"url":"http://www.revolution-bars.co.uk","tier":"","message":"","currency":"","rating":7.3},{"name":"The Barn","phone":"+441443222333","address":"Mwyndy, Portyclun","lat":51.525606,"lng":-3.36247392,"city_fetched":"Rhondda Valley,UK","state":"County Borough of Rhondda Cynon Taff","country":"United Kingdom","canonicalUrl":"https://foursquare.com/v/the-barn/4cd6a1667da9a35dfe83f0b9","categoryId":"4bf58dd8d48988d11b941735","category":"Pub","checkinsCount":83,"usersCount":77,"tipCount":2,"visitsCount":194,"url":"http://www.barnpubpontyclun.co.uk","tier":"","message":"","currency":"","rating":7.3},{"name":"The Old Arcade","phone":"+442920217999","twitter":"theoldarcade","address":"14 Church St","lat":51.480507,"lng":-3.178932,"neighborhood":"City Centre","city_fetched":"Rhondda Valley,UK","state":"Cardiff","country":"United Kingdom","canonicalUrl":"https://foursquare.com/v/the-old-arcade/4bf540132d6295215e3d6058","categoryId":"4bf58dd8d48988d11b941735","category":"Pub","checkinsCount":643,"usersCount":367,"tipCount":9,"visitsCount":655,"url":"http://www.sabrain.com/oldarcade","tier":"","message":"","currency":"","rating":7.3},{"name":"The Conway","phone":"+442920224373","twitter":"knifeforkfood","address":"58 Conway Rd","lat":51.48816264720098,"lng":-3.2033440952200816,"neighborhood":"Pontcanna","city_fetched":"Rhondda Valley,UK","state":"Cardiff","country":"United Kingdom","canonicalUrl":"https://foursquare.com/v/the-conway/4b9acca2f964a520dcd635e3","categoryId":"4bf58dd8d48988d11b941735","category":"Pub","checkinsCount":584,"usersCount":208,"tipCount":11,"visitsCount":708,"url":"http://knifeandforkfood.co.uk/conway","tier":"","message":"","currency":"","rating":7.2},{"name":"The Queen's Hotel (Wetherspoon)","phone":"+441633844900","address":"19 Bridge St","lat":51.587816368587546,"lng":-2.998344898223877,"city_fetched":"Rhondda Valley,UK","country":"United Kingdom","canonicalUrl":"https://foursquare.com/v/the-queens-hotel-wetherspoon/4c87ab9a821e9eb083cd8d89","categoryId":"4bf58dd8d48988d11b941735","category":"Pub","checkinsCount":1428,"usersCount":457,"tipCount":7,"visitsCount":1550,"url":"http://www.jdwetherspoon.co.uk","tier":1,"message":"Cheap","currency":"£","rating":7.2},{"name":"Base + Barley","twitter":"basebarleydiff","address":"115 Queen St","lat":51.48312459787631,"lng":-3.172832005251952,"neighborhood":"City Centre","city_fetched":"Rhondda Valley,UK","state":"Cardiff","country":"United Kingdom","canonicalUrl":"https://foursquare.com/v/base--barley/5510705f498efe6c6814ffb6","categoryId":"4bf58dd8d48988d116941735","category":"Bar","checkinsCount":152,"usersCount":80,"tipCount":2,"visitsCount":159,"tier":"","message":"","currency":"","rating":7.2},{"name":"The Coach","phone":"+441656665477","address":"37 Cowbridge Rd","lat":51.5014386177063,"lng":-3.5745584964752197,"city_fetched":"Rhondda Valley,UK","state":"Bridgend county borough","country":"United Kingdom","canonicalUrl":"https://foursquare.com/v/the-coach/4d85023d99b78cfa2306c51f","categoryId":"4bf58dd8d48988d11b941735","category":"Pub","checkinsCount":212,"usersCount":51,"tipCount":7,"visitsCount":276,"tier":"","message":"","currency":"","rating":7.2},{"name":"Man Of Gwent","lat":51.594174,"lng":-2.944989,"city_fetched":"Rhondda Valley,UK","country":"United Kingdom","canonicalUrl":"https://foursquare.com/v/man-of-gwent/4c17ca824ff90f47de720d49","categoryId":"4bf58dd8d48988d11b941735","category":"Pub","checkinsCount":146,"usersCount":102,"tipCount":3,"visitsCount":267,"tier":"","message":"","currency":"","rating":7.1},{"name":"Laguna Kitchen and Bar","phone":"+442920111103","twitter":"parkplazacardif","address":"Park Plaza Hotel","lat":51.48394908629175,"lng":-3.176497602951285,"neighborhood":"City Centre","city_fetched":"Rhondda Valley,UK","country":"United Kingdom","canonicalUrl":"https://foursquare.com/v/laguna-kitchen-and-bar/4c5dc1207f661b8d074c4c1c","categoryId":"4bf58dd8d48988d116941735","category":"Bar","checkinsCount":208,"usersCount":130,"tipCount":9,"visitsCount":208,"url":"http://www.lagunakitchenandbar.com","tier":"","message":"","currency":"","rating":7.1},{"name":"Hopbunker","twitter":"hopbunker","address":"Kingsway","lat":51.48191073829236,"lng":-3.1791365146636963,"neighborhood":"City Centre","city_fetched":"Rhondda Valley,UK","state":"Cardiff","country":"United Kingdom","canonicalUrl":"https://foursquare.com/v/hopbunker/557ac40f498ec3ab9948fd7a","categoryId":"56aa371ce4b08b9a8d57356c","category":"Beer Bar","checkinsCount":251,"usersCount":74,"tipCount":1,"visitsCount":252,"url":"http://hopcraftbrewing.blogspot.co.uk","tier":"","message":"","currency":"","rating":7.1},{"name":"Pick And Shovel","lat":51.594858450000004,"lng":-3.3256763219833374,"city_fetched":"Rhondda Valley,UK","country":"United Kingdom","canonicalUrl":"https://foursquare.com/v/pick-and-shovel/4bfc3e5bda7120a13cc349fd","categoryId":"4bf58dd8d48988d11b941735","category":"Pub","checkinsCount":218,"usersCount":94,"tipCount":4,"visitsCount":224,"tier":"","message":"","currency":"","rating":7.1},{"name":"Merlins","phone":"+441633413000","twitter":"thecelticmanor","address":"Celtic Manor Resort","lat":51.60292842757711,"lng":-2.931803704082688,"city_fetched":"Rhondda Valley,UK","state":"Monmouthshire","country":"United Kingdom","canonicalUrl":"https://foursquare.com/v/merlins/4c6961333bad2d7f36a5afee","categoryId":"4bf58dd8d48988d1d5941735","category":"Hotel Bar","checkinsCount":444,"usersCount":154,"tipCount":4,"visitsCount":446,"url":"http://www.http://www.celtic-manor.com","tier":"","message":"","currency":"","rating":7.1},{"name":"The Cornwall","address":"Cornwall St.","lat":51.47190921799411,"lng":-3.189734447168728,"neighborhood":"Grangetown","city_fetched":"Rhondda Valley,UK","country":"United Kingdom","canonicalUrl":"https://foursquare.com/v/the-cornwall/4bb1b86cf964a5204ea03ce3","categoryId":"4bf58dd8d48988d11b941735","category":"Pub","checkinsCount":153,"usersCount":55,"tipCount":3,"visitsCount":186,"tier":"","message":"","currency":"","rating":7.1},{"name":"Locke and Remedy","phone":"+442921676982","twitter":"lockeandremedy","address":"Trinity Street","lat":51.480335240378785,"lng":-3.177374514509675,"neighborhood":"The Hayes","city_fetched":"Rhondda Valley,UK","state":"Cardiff","country":"United Kingdom","canonicalUrl":"https://foursquare.com/v/locke-and-remedy/55fd4a16498e521aca6c94d6","categoryId":"4bf58dd8d48988d116941735","category":"Bar","checkinsCount":102,"usersCount":76,"tipCount":5,"visitsCount":107,"url":"http://lockeandremedy.com","tier":"","message":"","currency":"","rating":7.1},{"name":"Bagle Brook (Beefeater)","phone":"+441639813017","twitter":"beefeater","address":"Baglan Rd","lat":51.61507743228428,"lng":-3.807515632410266,"city_fetched":"Rhondda Valley,UK","state":"Neath and Port Talbot","country":"United Kingdom","canonicalUrl":"https://foursquare.com/v/bagle-brook-beefeater/4bc8afd9ab62d13afeca17d4","categoryId":"4bf58dd8d48988d11b941735","category":"Pub","checkinsCount":400,"usersCount":117,"tipCount":5,"visitsCount":437,"url":"http://www.beefeater.co.uk/steak-restaurant/PortTalbot/Bagle-Brook-Port-Talbot.html","tier":"","message":"","currency":"","rating":7.1},{"name":"The Bumble Bee","phone":"+441495227319","address":"8 Blackwood Gate Retail Park","lat":51.66108597183928,"lng":-3.19176484340399,"city_fetched":"Rhondda Valley,UK","state":"Caerphilly County Borough","country":"United Kingdom","canonicalUrl":"https://foursquare.com/v/the-bumble-bee/4c1bb0d4b4e62d7f73cdd993","categoryId":"4bf58dd8d48988d11b941735","category":"Pub","checkinsCount":158,"usersCount":109,"tipCount":5,"visitsCount":213,"url":"http://www.bumblebeepub.co.uk","tier":"","message":"","currency":"","rating":7},{"name":"Miss Jones","phone":"+442920624000","twitter":"missjonescdf","address":"25-27 Merthyr Road","lat":51.51272212041476,"lng":-3.2194018363952637,"neighborhood":"North Cardiff","city_fetched":"Rhondda Valley,UK","state":"Cardiff","country":"United Kingdom","canonicalUrl":"https://foursquare.com/v/miss-jones/51efc2a38bbd14b4308c5696","categoryId":"4bf58dd8d48988d11e941735","category":"Cocktail Bar","checkinsCount":113,"usersCount":36,"tipCount":3,"visitsCount":118,"url":"http://www.missjonescardiff.co.uk","tier":"","message":"","currency":"","rating":7},{"name":"The Waterguard","phone":"+442920499034","address":"Harbour Dr.","lat":51.46218934544303,"lng":-3.1617021560668945,"neighborhood":"Mermaid Quay","city_fetched":"Rhondda Valley,UK","country":"United Kingdom","canonicalUrl":"https://foursquare.com/v/the-waterguard/4b8ff5c2f964a520576c33e3","categoryId":"4bf58dd8d48988d11b941735","category":"Pub","checkinsCount":747,"usersCount":270,"tipCount":9,"visitsCount":779,"tier":"","message":"","currency":"","rating":7},{"name":"Alfreds Bar & Grill","phone":"+441443404060","address":"3-4 Market St.","lat":51.60194069687672,"lng":-3.3410021440319713,"city_fetched":"Rhondda Valley,UK","country":"United Kingdom","canonicalUrl":"https://foursquare.com/v/alfreds-bar--grill/4ebd65eeb8f7b504a773e3f5","categoryId":"4bf58dd8d48988d116941735","category":"Bar","checkinsCount":237,"usersCount":81,"tipCount":4,"visitsCount":240,"tier":"","message":"","currency":"","rating":7},{"name":"The Lansdowne Pub","phone":"+442920221312","twitter":"thelansdownepub","address":"71 Beda Road","lat":51.479485286371805,"lng":-3.2072997093200684,"neighborhood":"Canton","city_fetched":"Rhondda Valley,UK","state":"Cardiff","country":"United Kingdom","canonicalUrl":"https://foursquare.com/v/the-lansdowne-pub/50b361bdd86c8b721697990a","categoryId":"4bf58dd8d48988d116941735","category":"Bar","checkinsCount":370,"usersCount":154,"tipCount":4,"visitsCount":501,"tier":"","message":"","currency":"","rating":6.9},{"name":"The Otley Arms","phone":"+441443402033","twitter":"theotley","address":"Forest Road","lat":51.59125588431539,"lng":-3.3243191242218018,"city_fetched":"Rhondda Valley,UK","state":"County Borough of Rhondda Cynon Taff","country":"United Kingdom","canonicalUrl":"https://foursquare.com/v/the-otley-arms/4c24ac54f3859c74ccfe6488","categoryId":"4bf58dd8d48988d11b941735","category":"Pub","checkinsCount":338,"usersCount":105,"tipCount":9,"visitsCount":343,"tier":"","message":"","currency":"","rating":6.9},{"name":"The Owain Glyndwr","phone":"+442920221980","address":"10 St. John's St.","lat":51.48097961397206,"lng":-3.1786484653374174,"neighborhood":"City Centre","city_fetched":"Rhondda Valley,UK","state":"Cardiff","country":"United Kingdom","canonicalUrl":"https://foursquare.com/v/the-owain-glyndwr/4ba6681df964a5201c4f39e3","categoryId":"4bf58dd8d48988d11b941735","category":"Pub","checkinsCount":902,"usersCount":766,"tipCount":9,"visitsCount":1048,"tier":"","message":"","currency":"","rating":6.8},{"name":"The Beverley","phone":"+442920343443","address":"75-77 Cathedral Rd.","lat":51.48537321337066,"lng":-3.194443443526107,"neighborhood":"Pontcanna","city_fetched":"Rhondda Valley,UK","state":"Cardiff","country":"United Kingdom","canonicalUrl":"https://foursquare.com/v/the-beverley/4b5c7ba6f964a5200a3229e3","categoryId":"4bf58dd8d48988d11b941735","category":"Pub","checkinsCount":770,"usersCount":192,"tipCount":6,"visitsCount":819,"url":"http://greatukpubsandbars.co.uk","tier":"","message":"","currency":"","rating":6.7},{"name":"Eagle Bar","phone":"+442920232859","twitter":"eaglecardiff","address":"39 Charles Street","lat":51.480835002807666,"lng":-3.173224925994873,"neighborhood":"City Centre","city_fetched":"Rhondda Valley,UK","state":"Cardiff","country":"United Kingdom","canonicalUrl":"https://foursquare.com/v/eagle-bar/4e0dcdc1ae603a50b53be968","categoryId":"4bf58dd8d48988d1d8941735","category":"Gay Bar","checkinsCount":652,"usersCount":127,"tipCount":4,"visitsCount":682,"url":"http://www.eaglecardiff.com","tier":"","message":"","currency":"","rating":6.7},{"name":"Coach & Horses (Beefeater)","phone":"+441633680070","twitter":"beefeatergrill","address":"Newport Rd","lat":51.546516,"lng":-3.078243,"city_fetched":"Rhondda Valley,UK","state":"Gwent","country":"United Kingdom","canonicalUrl":"https://foursquare.com/v/coach--horses-beefeater/4bb8d5973db7b713e0ab219a","categoryId":"4bf58dd8d48988d11b941735","category":"Pub","checkinsCount":196,"usersCount":111,"tipCount":7,"visitsCount":207,"url":"http://www.beefeater.co.uk","tier":"","message":"","currency":"","rating":6.7},{"name":"Eli Jenkins","phone":"+442920440921","address":"7-8 Bute Crescent","lat":51.46413446352558,"lng":-3.1651675701141357,"neighborhood":"Mermaid Quay","city_fetched":"Rhondda Valley,UK","state":"Cardiff","country":"United Kingdom","canonicalUrl":"https://foursquare.com/v/eli-jenkins/4b68889ff964a5205c7e2be3","categoryId":"4bf58dd8d48988d11b941735","category":"Pub","checkinsCount":906,"usersCount":433,"tipCount":7,"visitsCount":954,"tier":"","message":"","currency":"","rating":6.7},{"name":"Gwdihw Café Bar","phone":"+442920397933","twitter":"gwdihwcafebar","address":"6 Guildford Cres","lat":51.480087,"lng":-3.17080557346344,"neighborhood":"City Centre","city_fetched":"Rhondda Valley,UK","country":"United Kingdom","canonicalUrl":"https://foursquare.com/v/gwdihw-caf%C3%A9-bar/4b608005f964a520fbe929e3","categoryId":"4bf58dd8d48988d116941735","category":"Bar","checkinsCount":837,"usersCount":410,"tipCount":14,"visitsCount":885,"url":"http://gwdihw.co.uk","tier":"","message":"","currency":"","rating":6.7},{"name":"Missoula","phone":"+442920371315","address":"84-86 St Mary St.","lat":51.478097,"lng":-3.178124,"neighborhood":"City Centre","city_fetched":"Rhondda Valley,UK","state":"Cardiff","country":"United Kingdom","canonicalUrl":"https://foursquare.com/v/missoula/4bdb581d2a3a0f47a392aeb6","categoryId":"4bf58dd8d48988d116941735","category":"Bar","checkinsCount":331,"usersCount":231,"tipCount":8,"visitsCount":331,"tier":"","message":"","currency":"","rating":6.6},{"name":"Tiger Tiger","phone":"+442920391944","address":"The Friary, Greyfriars Road","lat":51.483321,"lng":-3.177018,"neighborhood":"City Centre","city_fetched":"Rhondda Valley,UK","state":"Cardiff","country":"United Kingdom","canonicalUrl":"https://foursquare.com/v/tiger-tiger/4b4b6eaff964a5206d9b26e3","categoryId":"4bf58dd8d48988d11f941735","category":"Nightclub","checkinsCount":975,"usersCount":608,"tipCount":11,"visitsCount":997,"url":"http://www.tigertiger-cardiff.co.uk","tier":"","message":"","currency":"","rating":6.6},{"name":"Le Pub","address":"Caxton Place","lat":51.587346,"lng":-2.999712824821472,"city_fetched":"Rhondda Valley,UK","state":"Monmouthshire","country":"United Kingdom","canonicalUrl":"https://foursquare.com/v/le-pub/4bf82a345efe2d7fbb446a34","categoryId":"4bf58dd8d48988d11b941735","category":"Pub","checkinsCount":211,"usersCount":120,"tipCount":2,"visitsCount":216,"tier":"","message":"","currency":"","rating":6.6},{"name":"The Tumble Inn (Wetherspoon)","phone":"+441443486274","address":"4-9 Broadway/sardis Road","lat":51.59951242046316,"lng":-3.340669166248686,"city_fetched":"Rhondda Valley,UK","country":"United Kingdom","canonicalUrl":"https://foursquare.com/v/the-tumble-inn-wetherspoon/4c87abc6821e9eb0a7cd8d89","categoryId":"4bf58dd8d48988d11b941735","category":"Pub","checkinsCount":1061,"usersCount":211,"tipCount":5,"visitsCount":1086,"url":"http://www.jdwetherspoon.co.uk","tier":"","message":"","currency":"","rating":6.6},{"name":"Heath Pub","address":"1 Allensbank Rd","lat":51.4989208727761,"lng":-3.1844937955363233,"neighborhood":"Gabalfa","city_fetched":"Rhondda Valley,UK","state":"Cardiff","country":"United Kingdom","canonicalUrl":"https://foursquare.com/v/heath-pub/4b59c8b1f964a520d99728e3","categoryId":"4bf58dd8d48988d11b941735","category":"Pub","checkinsCount":276,"usersCount":217,"tipCount":10,"visitsCount":376,"tier":"","message":"","currency":"","rating":6.6},{"name":"Metros","phone":"+442920399942","address":"10 Bakers Row","lat":51.47915787388974,"lng":-3.177468180656433,"neighborhood":"City Centre","city_fetched":"Rhondda Valley,UK","country":"United Kingdom","canonicalUrl":"https://foursquare.com/v/metros/4c350c0909a99c74df500c2a","categoryId":"4bf58dd8d48988d11f941735","category":"Nightclub","checkinsCount":304,"usersCount":123,"tipCount":4,"visitsCount":304,"tier":"","message":"","currency":"","rating":6.6},{"name":"Bar Icon","phone":"+442920666505","twitter":"bariconcardiff","address":"60 Charles St","lat":51.48026670161126,"lng":-3.173119044892653,"neighborhood":"City Centre","city_fetched":"Rhondda Valley,UK","country":"United Kingdom","canonicalUrl":"https://foursquare.com/v/bar-icon/4b6b2898f964a5208cf62be3","categoryId":"4bf58dd8d48988d1d8941735","category":"Gay Bar","checkinsCount":415,"usersCount":142,"tipCount":2,"visitsCount":423,"url":"http://www.bariconcardiff.co.uk","tier":"","message":"","currency":"","rating":6.6},{"name":"Duke Of Wellington","phone":"+442920337190","twitter":"dukecardiff","address":"The Hayes","lat":51.47834100290945,"lng":-3.175802528858185,"neighborhood":"Old Brewery Quarter","city_fetched":"Rhondda Valley,UK","state":"Cardiff","country":"United Kingdom","canonicalUrl":"https://foursquare.com/v/duke-of-wellington/4c4af7c9959220a1e2aee10e","categoryId":"4bf58dd8d48988d11b941735","category":"Pub","checkinsCount":1205,"usersCount":558,"tipCount":14,"visitsCount":1236,"url":"http://www.sabrain.com/duke-of-wellington-cardiff","tier":"","message":"","currency":"","rating":6.6},{"name":"Bierkeller","phone":"+448455333000","twitter":"cdfbierkeller","address":"Stadium Plaza","lat":51.476660856936846,"lng":-3.181609024307186,"neighborhood":"City Centre","city_fetched":"Rhondda Valley,UK","country":"United Kingdom","canonicalUrl":"https://foursquare.com/v/bierkeller/55bff477498eb822887254bb","categoryId":"4bf58dd8d48988d116941735","category":"Bar","checkinsCount":169,"usersCount":67,"tipCount":0,"visitsCount":170,"url":"http://thebierkeller.com/cardiff-bar/","tier":"","message":"","currency":"","rating":6.6},{"name":"The Mackintosh","phone":"+442920666167","address":"12 Mundy Place","lat":51.491296067727156,"lng":-3.178013245426117,"neighborhood":"Cathays","city_fetched":"Rhondda Valley,UK","country":"United Kingdom","canonicalUrl":"https://foursquare.com/v/the-mackintosh/4b50ee67f964a520383927e3","categoryId":"4bf58dd8d48988d11b941735","category":"Pub","checkinsCount":441,"usersCount":209,"tipCount":8,"visitsCount":512,"url":"http://www.themackintoshhotelcardiff.co.uk","tier":"","message":"","currency":"","rating":6.5},{"name":"Bar 33","phone":"+442920383762","address":"33 Windsor Place","lat":51.483921827873715,"lng":-3.173074722290039,"neighborhood":"City Centre","city_fetched":"Rhondda Valley,UK","state":"Cardiff","country":"United Kingdom","canonicalUrl":"https://foursquare.com/v/bar-33/4bbf2aa3006dc9b6721afc3f","categoryId":"4bf58dd8d48988d116941735","category":"Bar","checkinsCount":543,"usersCount":223,"tipCount":6,"visitsCount":579,"tier":"","message":"","currency":"","rating":6.5},{"name":"The Yard","phone":"+442920227577","twitter":"yardcardiff","address":"The Brewery Quarter","lat":51.47799019493044,"lng":-3.1774842739105225,"neighborhood":"Old Brewery Quarter","city_fetched":"Rhondda Valley,UK","state":"Cardiff","country":"United Kingdom","canonicalUrl":"https://foursquare.com/v/the-yard/4bfeb22468c7a59388873f44","categoryId":"4bf58dd8d48988d116941735","category":"Bar","checkinsCount":1153,"usersCount":749,"tipCount":13,"visitsCount":1174,"url":"http://www.sabrain.com/yard","tier":"","message":"","currency":"","rating":6.5},{"name":"The Aneurin Bevan  (Wetherspoon)","phone":"+442920544280","address":"Caerphilly Rd","lat":51.507638230058106,"lng":-3.20002294463196,"neighborhood":"Heath","city_fetched":"Rhondda Valley,UK","state":"Cardiff","country":"United Kingdom","canonicalUrl":"https://foursquare.com/v/the-aneurin-bevan--wetherspoon/4c87aa91821e9eb08bcc8d89","categoryId":"4bf58dd8d48988d11b941735","category":"Pub","checkinsCount":1315,"usersCount":321,"tipCount":3,"visitsCount":1482,"url":"http://www.jdwetherspoon.co.uk","tier":"","message":"","currency":"","rating":6.5},{"name":"The Longbow (Beefeater)","phone":"+441443233952","twitter":"beefeatergrill","address":"Magden Park","lat":51.54331917457397,"lng":-3.3887672424316406,"city_fetched":"Rhondda Valley,UK","state":"County Borough of Rhondda Cynon Taff","country":"United Kingdom","canonicalUrl":"https://foursquare.com/v/the-longbow-beefeater/4c4db06bfa9d9521c49b180a","categoryId":"4bf58dd8d48988d11b941735","category":"Pub","checkinsCount":235,"usersCount":134,"tipCount":6,"visitsCount":266,"url":"http://www.beefeater.co.uk","tier":"","message":"","currency":"","rating":6.5},{"name":"The Halfway","phone":"+442920667135","address":"247 Cathedral Rd.","lat":51.488829594883555,"lng":-3.202069849708989,"neighborhood":"Pontcanna","city_fetched":"Rhondda Valley,UK","country":"United Kingdom","canonicalUrl":"https://foursquare.com/v/the-halfway/4b5c5a91f964a5201e2c29e3","categoryId":"4bf58dd8d48988d11b941735","category":"Pub","checkinsCount":721,"usersCount":236,"tipCount":8,"visitsCount":841,"tier":"","message":"","currency":"","rating":6.5},{"name":"The Lamb","phone":"+441633255200","twitter":"thelambnewport","address":"6 Bridge St","lat":51.58782970054659,"lng":-2.9975509643554683,"city_fetched":"Rhondda Valley,UK","state":"Gwent","country":"United Kingdom","canonicalUrl":"https://foursquare.com/v/the-lamb/4ce91221948f224b703cf45d","categoryId":"4bf58dd8d48988d11b941735","category":"Pub","checkinsCount":556,"usersCount":73,"tipCount":10,"visitsCount":568,"url":"http://www.thelambnewport.com","tier":"","message":"","currency":"","rating":6.5},{"name":"The Prince of Wales (Wetherspoon)","phone":"+442920644449","address":"81-83 St. Mary St","lat":51.47760597850731,"lng":-3.17799,"neighborhood":"City Centre","city_fetched":"Rhondda Valley,UK","state":"Cardiff","country":"United Kingdom","canonicalUrl":"https://foursquare.com/v/the-prince-of-wales-wetherspoon/4b782614f964a5205db82ee3","categoryId":"4bf58dd8d48988d11b941735","category":"Pub","checkinsCount":3022,"usersCount":1623,"tipCount":32,"visitsCount":3106,"url":"http://www.jdwetherspoon.co.uk","tier":1,"message":"Cheap","currency":"£","rating":6.5},{"name":"Y Dic Penderyn (Wetherspoon)","phone":"+441685385786","address":"102-103 High St","lat":51.747385490871345,"lng":-3.378016948699951,"city_fetched":"Rhondda Valley,UK","state":"Merthyr Tydfil County Borough","country":"United Kingdom","canonicalUrl":"https://foursquare.com/v/y-dic-penderyn-wetherspoon/4ba4d082f964a52075b738e3","categoryId":"4bf58dd8d48988d11b941735","category":"Pub","checkinsCount":387,"usersCount":162,"tipCount":5,"visitsCount":472,"url":"http://www.jdwetherspoon.co.uk","tier":"","message":"","currency":"","rating":6.5},{"name":"Kapu","phone":"+442920644744","twitter":"kapucardiff","address":"50 St Mary Street","lat":51.47767880982353,"lng":-3.175684845358029,"neighborhood":"City Centre","city_fetched":"Rhondda Valley,UK","state":"Cardiff","country":"United Kingdom","canonicalUrl":"https://foursquare.com/v/kapu/5006e305e4b0ae5996ca369e","categoryId":"4bf58dd8d48988d11e941735","category":"Cocktail Bar","checkinsCount":164,"usersCount":118,"tipCount":1,"visitsCount":164,"url":"http://www.kapu.co.uk","tier":"","message":"","currency":"","rating":6.4},{"name":"The Woodville","phone":"+442920397859","twitter":"woodvillelovers","address":"1-5 Woodville Rd","lat":51.49051570871893,"lng":-3.1805795431137085,"neighborhood":"Cathays","city_fetched":"Rhondda Valley,UK","country":"United Kingdom","canonicalUrl":"https://foursquare.com/v/the-woodville/4b522afaf964a5200b6d27e3","categoryId":"4bf58dd8d48988d11b941735","category":"Pub","checkinsCount":973,"usersCount":521,"tipCount":8,"visitsCount":1152,"tier":"","message":"","currency":"","rating":6.4},{"name":"Hollybush Inn","phone":"+442920625037","address":"Pendywallt Road","lat":51.52161150034922,"lng":-3.2336585501893684,"neighborhood":"Coryton","city_fetched":"Rhondda Valley,UK","state":"Cardiff","country":"United Kingdom","canonicalUrl":"https://foursquare.com/v/hollybush-inn/4c06b64992a4ef3b3d1ab0f1","categoryId":"4bf58dd8d48988d11b941735","category":"Pub","checkinsCount":270,"usersCount":138,"tipCount":7,"visitsCount":356,"tier":"","message":"","currency":"","rating":6.4},{"name":"The Full Moon","phone":"+442920373022","twitter":"fullmooncardiff","address":"Womanby St","lat":51.480459,"lng":-3.181513,"neighborhood":"City Centre","city_fetched":"Rhondda Valley,UK","state":"Cardiff","country":"United Kingdom","canonicalUrl":"https://foursquare.com/v/the-full-moon/4e878b81b6344693ea580b6d","categoryId":"4bf58dd8d48988d116941735","category":"Bar","checkinsCount":473,"usersCount":208,"tipCount":4,"visitsCount":476,"url":"http://www.thefullmooncardiff.com","tier":"","message":"","currency":"","rating":6.4},{"name":"The Parkway Hotel","lat":51.63191353031299,"lng":-3.017405398726089,"city_fetched":"Rhondda Valley,UK","state":"Torfaen County Borough","country":"United Kingdom","canonicalUrl":"https://foursquare.com/v/the-parkway-hotel/4bbf636f85fbb7138e187267","categoryId":"4bf58dd8d48988d1d5941735","category":"Hotel Bar","checkinsCount":339,"usersCount":140,"tipCount":7,"visitsCount":388,"tier":"","message":"","currency":"","rating":6.4},{"name":"The Cherry Orchard","address":"Barry Rd.","lat":51.40899816089312,"lng":-3.2783987656794613,"city_fetched":"Rhondda Valley,UK","state":"Vale of Glamorgan","country":"United Kingdom","canonicalUrl":"https://foursquare.com/v/the-cherry-orchard/4d906acbc479a35dd1bf7097","categoryId":"4bf58dd8d48988d11b941735","category":"Pub","checkinsCount":121,"usersCount":45,"tipCount":5,"visitsCount":127,"tier":"","message":"","currency":"","rating":6.4},{"name":"Tynant Inn","address":"Ty Nant Rd","lat":51.529802003879745,"lng":-3.2590609788894653,"neighborhood":"West Cardiff","city_fetched":"Rhondda Valley,UK","state":"Cardiff","country":"United Kingdom","canonicalUrl":"https://foursquare.com/v/tynant-inn/4bb9d3c2cf2fc9b6eac8a002","categoryId":"4bf58dd8d48988d11b941735","category":"Pub","checkinsCount":334,"usersCount":166,"tipCount":9,"visitsCount":394,"tier":"","message":"","currency":"","rating":6.3},{"name":"Cayo Arms","address":"Cathedral Road","lat":51.484723566435186,"lng":-3.19277286529541,"neighborhood":"South Cardiff","city_fetched":"Rhondda Valley,UK","state":"Cardiff","country":"United Kingdom","canonicalUrl":"https://foursquare.com/v/cayo-arms/4be1d4794283c9b6caa254f8","categoryId":"4bf58dd8d48988d11b941735","category":"Pub","checkinsCount":636,"usersCount":245,"tipCount":12,"visitsCount":689,"tier":"","message":"","currency":"","rating":6.3},{"name":"Wow Bar","phone":"+442920666247","twitter":"wowcardiff","address":"4 Churchill Way","lat":51.48186396771197,"lng":-3.173031806945801,"neighborhood":"City Centre","city_fetched":"Rhondda Valley,UK","state":"Cardiff","country":"United Kingdom","canonicalUrl":"https://foursquare.com/v/wow-bar/4b43c71cf964a5208ce925e3","categoryId":"4bf58dd8d48988d1d8941735","category":"Gay Bar","checkinsCount":1324,"usersCount":408,"tipCount":12,"visitsCount":1332,"tier":"","message":"","currency":"","rating":6.3},{"name":"The Malcolm Uphill (Wetherspoon)","phone":"+442920760720","twitter":"jdwtweet","address":"87-91 Cardiff Rd","lat":51.57221529637877,"lng":-3.2199811935424805,"city_fetched":"Rhondda Valley,UK","country":"United Kingdom","canonicalUrl":"https://foursquare.com/v/the-malcolm-uphill-wetherspoon/4e934fe0f790648dade9cba8","categoryId":"4bf58dd8d48988d11b941735","category":"Pub","checkinsCount":711,"usersCount":177,"tipCount":2,"visitsCount":832,"url":"http://www.jdwetherspoon.co.uk","tier":"","message":"","currency":"","rating":6.3},{"name":"The Tredegar Arms","phone":"+441633893247","address":"4 Caerphilly Road, Bassaleg","lat":51.57757628904195,"lng":-3.045022106802898,"city_fetched":"Rhondda Valley,UK","state":"Gwent","country":"United Kingdom","canonicalUrl":"https://foursquare.com/v/the-tredegar-arms/4bc89a982f94d13a54f1137f","categoryId":"4bf58dd8d48988d11b941735","category":"Pub","checkinsCount":313,"usersCount":128,"tipCount":6,"visitsCount":328,"tier":"","message":"","currency":"","rating":6.3},{"name":"Fox & Hounds (Whitchurch)","phone":"+442920693377","address":"Old Church Road, Whitchurch","lat":51.515965,"lng":-3.218252,"neighborhood":"North Cardiff","city_fetched":"Rhondda Valley,UK","state":"Cardiff","country":"United Kingdom","canonicalUrl":"https://foursquare.com/v/fox--hounds-whitchurch/4c1a9af93b2ab71301003325","categoryId":"4bf58dd8d48988d11b941735","category":"Pub","checkinsCount":221,"usersCount":112,"tipCount":2,"visitsCount":262,"tier":"","message":"","currency":"","rating":6.2},{"name":"Cedar Tree Farm","address":"Cardiff Bay Reatail Park","lat":51.4545783996582,"lng":-3.184565544128418,"city_fetched":"Rhondda Valley,UK","state":"Cardiff","country":"United Kingdom","canonicalUrl":"https://foursquare.com/v/cedar-tree-farm/52ada21511d2f73719dc5eae","categoryId":"4bf58dd8d48988d11b941735","category":"Pub","checkinsCount":270,"usersCount":130,"tipCount":8,"visitsCount":314,"url":"http://www.farmhouseinns.co.uk/pubs/cedar-tree-farm","tier":2,"message":"Moderate","currency":"£","rating":6.2},{"name":"The Three Arches","address":"9-21 Three Arches Ave","lat":51.51910775,"lng":-3.180615,"neighborhood":"Llanishen","city_fetched":"Rhondda Valley,UK","state":"Cardiff","country":"United Kingdom","canonicalUrl":"https://foursquare.com/v/the-three-arches/4d02a0f6dc45a093c048dfc6","categoryId":"4bf58dd8d48988d116941735","category":"Bar","checkinsCount":366,"usersCount":201,"tipCount":10,"visitsCount":528,"tier":"","message":"","currency":"","rating":6.2},{"name":"Llangewydd Arms","phone":"+441656658059","address":"District Centre","lat":51.50119617280511,"lng":-3.601487874984741,"city_fetched":"Rhondda Valley,UK","state":"Bridgend county borough","country":"United Kingdom","canonicalUrl":"https://foursquare.com/v/llangewydd-arms/4bd5fe984e32d13a1bdfc180","categoryId":"4bf58dd8d48988d11b941735","category":"Pub","checkinsCount":216,"usersCount":49,"tipCount":2,"visitsCount":241,"tier":"","message":"","currency":"","rating":6.2},{"name":"Castell Mynach","lat":51.5212668658229,"lng":-3.360828073289082,"city_fetched":"Rhondda Valley,UK","country":"United Kingdom","canonicalUrl":"https://foursquare.com/v/castell-mynach/4b7d0f04f964a52075ad2fe3","categoryId":"4bf58dd8d48988d11b941735","category":"Pub","checkinsCount":178,"usersCount":124,"tipCount":2,"visitsCount":233,"tier":"","message":"","currency":"","rating":6.2},{"name":"Tirfounder Fields (Brewers Fayre)","phone":"+441685876511","address":"Riverside Retail Park","lat":51.70166454318558,"lng":-3.418955742998894,"city_fetched":"Rhondda Valley,UK","state":"County Borough of Rhondda Cynon Taff","country":"United Kingdom","canonicalUrl":"https://foursquare.com/v/tirfounder-fields-brewers-fayre/4c4ef064fa9d9521990e6f0a","categoryId":"4bf58dd8d48988d11b941735","category":"Pub","checkinsCount":121,"usersCount":74,"tipCount":2,"visitsCount":128,"tier":"","message":"","currency":"","rating":6.2},{"name":"Mocka Lounge","phone":"+442920221292","address":"1-2 Mill Ln.","lat":51.47698937672606,"lng":-3.1761049807623265,"neighborhood":"City Centre","city_fetched":"Rhondda Valley,UK","state":"Cardiff","country":"United Kingdom","canonicalUrl":"https://foursquare.com/v/mocka-lounge/4c0119e4de3376b03b3ff9a4","categoryId":"4bf58dd8d48988d11e941735","category":"Cocktail Bar","checkinsCount":684,"usersCount":380,"tipCount":5,"visitsCount":691,"url":"http://www.mockalounge.com","tier":"","message":"","currency":"","rating":6.2},{"name":"BrewHouse","phone":"+442920399913","twitter":"brewhousecdf","address":"49 St Mary St","lat":51.477995751698664,"lng":-3.176905232368557,"neighborhood":"Old Brewery Quarter","city_fetched":"Rhondda Valley,UK","state":"Cardiff","country":"United Kingdom","canonicalUrl":"https://foursquare.com/v/brewhouse/514a0588e4b0631e0c572dfb","categoryId":"4bf58dd8d48988d11b941735","category":"Pub","checkinsCount":368,"usersCount":257,"tipCount":6,"visitsCount":372,"url":"http://www.brewhousecardiff.com","tier":"","message":"","currency":"","rating":6.1},{"name":"The Duke Of Wellington","lat":51.462057754372324,"lng":-3.4492216695266715,"city_fetched":"Rhondda Valley,UK","country":"United Kingdom","canonicalUrl":"https://foursquare.com/v/the-duke-of-wellington/4cdeed5369136dcb97b8d9e6","categoryId":"4bf58dd8d48988d11b941735","category":"Pub","checkinsCount":109,"usersCount":76,"tipCount":4,"visitsCount":109,"tier":"","message":"","currency":"","rating":6.1},{"name":"The Ivor Davies (Wetherspoon)","phone":"+442920667615","address":"243-249 Cowbridge Rd E","lat":51.48141485,"lng":-3.200422,"neighborhood":"Pontcanna","city_fetched":"Rhondda Valley,UK","state":"Cardiff","country":"United Kingdom","canonicalUrl":"https://foursquare.com/v/the-ivor-davies-wetherspoon/4ba61568f964a5206d3239e3","categoryId":"4bf58dd8d48988d11b941735","category":"Pub","checkinsCount":465,"usersCount":168,"tipCount":2,"visitsCount":480,"url":"http://www.jdwetherspoon.co.uk","tier":"","message":"","currency":"","rating":6.1},{"name":"The Oystercatcher","address":"Terra Nova Way","lat":51.44636463487475,"lng":-3.185316324234009,"city_fetched":"Rhondda Valley,UK","state":"Vale of Glamorgan","country":"United Kingdom","canonicalUrl":"https://foursquare.com/v/the-oystercatcher/4bd46979637ba5934793f470","categoryId":"4bf58dd8d48988d11b941735","category":"Pub","checkinsCount":585,"usersCount":244,"tipCount":10,"visitsCount":658,"tier":"","message":"","currency":"","rating":6.1},{"name":"The Kings","address":"Churchill Way","lat":51.481769807751505,"lng":-3.172910578861916,"neighborhood":"City Centre","city_fetched":"Rhondda Valley,UK","state":"Cardiff","country":"United Kingdom","canonicalUrl":"https://foursquare.com/v/the-kings/4e821db09adf443b9540bdd4","categoryId":"4bf58dd8d48988d1d8941735","category":"Gay Bar","checkinsCount":605,"usersCount":127,"tipCount":3,"visitsCount":609,"tier":"","message":"","currency":"","rating":6.1},{"name":"The John Fielding  (Wetherspoon)","phone":"+441633833760","address":"1 Caradoc Rd","lat":51.655285921234025,"lng":-3.0205053091049194,"city_fetched":"Rhondda Valley,UK","state":"Torfaen County Borough","country":"United Kingdom","canonicalUrl":"https://foursquare.com/v/the-john-fielding--wetherspoon/4c87aac8821e9eb0c0cc8d89","categoryId":"4bf58dd8d48988d11b941735","category":"Pub","checkinsCount":1575,"usersCount":298,"tipCount":5,"visitsCount":1693,"url":"http://www.jdwetherspoon.co.uk","tier":"","message":"","currency":"","rating":6.1},{"name":"The Star","address":"6-14 Station Rd","lat":51.433639,"lng":-3.219831,"city_fetched":"Rhondda Valley,UK","country":"United Kingdom","canonicalUrl":"https://foursquare.com/v/the-star/4c07b0e6b4aa0f4744f56562","categoryId":"4bf58dd8d48988d11b941735","category":"Pub","checkinsCount":145,"usersCount":69,"tipCount":2,"visitsCount":169,"tier":"","message":"","currency":"","rating":6},{"name":"The Godfrey Morgan (Wetherspoon)","phone":"+441633221928","address":"158 Chepstow Rd","lat":51.58961453841907,"lng":-2.978032524905897,"city_fetched":"Rhondda Valley,UK","state":"Gwent","country":"United Kingdom","canonicalUrl":"https://foursquare.com/v/the-godfrey-morgan-wetherspoon/4c5da2167f661b8db3e04b1c","categoryId":"4bf58dd8d48988d11b941735","category":"Pub","checkinsCount":1506,"usersCount":178,"tipCount":12,"visitsCount":1653,"url":"http://www.jdwetherspoon.co.uk","tier":"","message":"","currency":"","rating":6},{"name":"The Tom Toya Lewis (Wetherspoon)","phone":"+441633245030","address":"108-112 Commercial St","lat":51.58342994168768,"lng":-2.993302345275879,"city_fetched":"Rhondda Valley,UK","state":"Gwent","country":"United Kingdom","canonicalUrl":"https://foursquare.com/v/the-tom-toya-lewis-wetherspoon/4b7fbdd1f964a520c23b30e3","categoryId":"4bf58dd8d48988d11b941735","category":"Pub","checkinsCount":884,"usersCount":231,"tipCount":14,"visitsCount":1005,"url":"http://www.jdwetherspoon.co.uk","tier":"","message":"","currency":"","rating":6},{"name":"The Queens Vaults","phone":"+442920227966","address":"29 Westgate St","lat":51.478835470526555,"lng":-3.17941814661026,"neighborhood":"City Centre","city_fetched":"Rhondda Valley,UK","country":"United Kingdom","canonicalUrl":"https://foursquare.com/v/the-queens-vaults/4b769d2ef964a5208b542ee3","categoryId":"4bf58dd8d48988d11b941735","category":"Pub","checkinsCount":1269,"usersCount":486,"tipCount":17,"visitsCount":1293,"url":"http://www.jwbassettpubs.com/vaults.html","tier":2,"message":"Moderate","currency":"£","rating":6},{"name":"The Claude Hotel","phone":"+442920493896","address":"140 Albany Rd.","lat":51.49381229155673,"lng":-3.1628528237342834,"neighborhood":"Cardiff City Centre","city_fetched":"Rhondda Valley,UK","state":"Cardiff","country":"United Kingdom","canonicalUrl":"https://foursquare.com/v/the-claude-hotel/4b8acc9cf964a520d28132e3","categoryId":"4bf58dd8d48988d11b941735","category":"Pub","checkinsCount":617,"usersCount":259,"tipCount":8,"visitsCount":704,"tier":"","message":"","currency":"","rating":6},{"name":"Golden Cross","phone":"+442920343129","address":"282 Hayes Bridge Rd","lat":51.47698099721486,"lng":-3.1739062745494677,"neighborhood":"The Hayes","city_fetched":"Rhondda Valley,UK","state":"Cardiff","country":"United Kingdom","canonicalUrl":"https://foursquare.com/v/golden-cross/4bddcfef587b2d7fb82e5509","categoryId":"4bf58dd8d48988d1d8941735","category":"Gay Bar","checkinsCount":431,"usersCount":215,"tipCount":3,"visitsCount":432,"tier":"","message":"","currency":"","rating":6},{"name":"The Hi Tide Inn / Harbour Lights","phone":"+441656782432","address":"Mackworth Road","lat":51.478975811324666,"lng":-3.6948047066302148,"city_fetched":"Rhondda Valley,UK","country":"United Kingdom","canonicalUrl":"https://foursquare.com/v/the-hi-tide-inn--harbour-lights/4ba62c1ff964a520e13839e3","categoryId":"4bf58dd8d48988d116941735","category":"Bar","checkinsCount":183,"usersCount":130,"tipCount":3,"visitsCount":216,"url":"http://www.hi-tide.co.uk","tier":"","message":"","currency":"","rating":5.9},{"name":"The Great Western (Lloyd's No. 1 Bar)","phone":"+442920353990","twitter":"jdwtweet","address":"64 Saint Mary St","lat":51.47668410832973,"lng":-3.1766807787040294,"neighborhood":"City Centre","city_fetched":"Rhondda Valley,UK","state":"Cardiff","country":"United Kingdom","canonicalUrl":"https://foursquare.com/v/the-great-western-lloyds-no-1-bar/4b59d1f3f964a5200c9a28e3","categoryId":"4bf58dd8d48988d11b941735","category":"Pub","checkinsCount":2316,"usersCount":942,"tipCount":13,"visitsCount":2347,"url":"http://www.jdwetherspoon.co.uk","tier":"","message":"","currency":"","rating":5.9},{"name":"Henry's Cafe Bar","phone":"+442920224672","address":"Park Chambers","lat":51.48293595714286,"lng":-3.1746357679367065,"neighborhood":"City Centre","city_fetched":"Rhondda Valley,UK","state":"Cardiff","country":"United Kingdom","canonicalUrl":"https://foursquare.com/v/henrys-cafe-bar/4b5b7018f964a5201bfe28e3","categoryId":"4bf58dd8d48988d11e941735","category":"Cocktail Bar","checkinsCount":582,"usersCount":389,"tipCount":13,"visitsCount":593,"tier":"","message":"","currency":"","rating":5.9},{"name":"Varsity","phone":"+442920484480","address":"199-201 Richmond Rd","lat":51.49247431882557,"lng":-3.1722524420102225,"neighborhood":"Cardiff City Centre","city_fetched":"Rhondda Valley,UK","state":"Cardiff","country":"United Kingdom","canonicalUrl":"https://foursquare.com/v/varsity/4b9167b3f964a520c4b933e3","categoryId":"4bf58dd8d48988d11b941735","category":"Pub","checkinsCount":1087,"usersCount":311,"tipCount":11,"visitsCount":1108,"tier":"","message":"","currency":"","rating":5.9},{"name":"The John Wallace Linton (Wetherspoon)","phone":"+441633251752","address":"Units 10-12, Cambrian Rd","lat":51.588882912947206,"lng":-2.9981517791748047,"city_fetched":"Rhondda Valley,UK","country":"United Kingdom","canonicalUrl":"https://foursquare.com/v/the-john-wallace-linton-wetherspoon/4bd1cb60b221c9b62a2dd6d0","categoryId":"4bf58dd8d48988d11b941735","category":"Pub","checkinsCount":1539,"usersCount":297,"tipCount":4,"visitsCount":1607,"url":"http://www.jdwetherspoon.co.uk","tier":"","message":"","currency":"","rating":5.9},{"name":"The Cedar Tree","phone":"+442920867049","address":"Corbetts Ln","lat":51.59274892636199,"lng":-3.226332664489746,"city_fetched":"Rhondda Valley,UK","country":"United Kingdom","canonicalUrl":"https://foursquare.com/v/the-cedar-tree/4bf16a5a5f8520a1f1a4c07f","categoryId":"4bf58dd8d48988d11b941735","category":"Pub","checkinsCount":152,"usersCount":117,"tipCount":6,"visitsCount":179,"tier":"","message":"","currency":"","rating":5.9},{"name":"The Dragonfly","phone":"+441633810611","address":"Hazell Drive","lat":51.559551888864036,"lng":-3.0362130950700634,"city_fetched":"Rhondda Valley,UK","state":"Gwent","country":"United Kingdom","canonicalUrl":"https://foursquare.com/v/the-dragonfly/4bd178d4caff95214ab0d0f0","categoryId":"4bf58dd8d48988d11b941735","category":"Pub","checkinsCount":598,"usersCount":278,"tipCount":9,"visitsCount":711,"tier":"","message":"","currency":"","rating":5.9},{"name":"Ocean Park Brewers Fayre","phone":"+442920489675","address":"East Moors Industrial Estate","lat":51.47747400114102,"lng":-3.1596100330352783,"neighborhood":"Splott","city_fetched":"Rhondda Valley,UK","state":"Cardiff","country":"United Kingdom","canonicalUrl":"https://foursquare.com/v/ocean-park-brewers-fayre/4c4ef00ffa9d952130fa6e0a","categoryId":"4bf58dd8d48988d11b941735","category":"Pub","checkinsCount":186,"usersCount":104,"tipCount":7,"visitsCount":194,"tier":"","message":"","currency":"","rating":5.9},{"name":"The Vulcan Lounge","phone":"+442920231669","twitter":"thevulcancdf","address":"2 Wyeverne Rd.","lat":51.489758571412644,"lng":-3.174515455690177,"city_fetched":"Rhondda Valley,UK","state":"Cardiff","country":"United Kingdom","canonicalUrl":"https://foursquare.com/v/the-vulcan-lounge/4b6c664df964a520ea362ce3","categoryId":"4bf58dd8d48988d116941735","category":"Bar","checkinsCount":403,"usersCount":245,"tipCount":5,"visitsCount":453,"url":"http://www.vulcanlounge.com","tier":"","message":"","currency":"","rating":5.9},{"name":"The Ernest Willows (Wetherspoon)","phone":"+442920486235","address":"2-12 City Rd","lat":51.48568563410237,"lng":-3.16556453704834,"neighborhood":"Cardiff City Centre","city_fetched":"Rhondda Valley,UK","country":"United Kingdom","canonicalUrl":"https://foursquare.com/v/the-ernest-willows-wetherspoon/4b56f0d3f964a520ff1f28e3","categoryId":"4bf58dd8d48988d11b941735","category":"Pub","checkinsCount":1725,"usersCount":487,"tipCount":7,"visitsCount":1935,"url":"http://www.jdwetherspoon.co.uk","tier":1,"message":"Cheap","currency":"£","rating":5.8},{"name":"The David Protheroe (Wetherspoon)","phone":"+441639622130","address":"7 Windsor Rd.","lat":51.66191797961075,"lng":-3.8062386361987457,"city_fetched":"Rhondda Valley,UK","country":"United Kingdom","canonicalUrl":"https://foursquare.com/v/the-david-protheroe-wetherspoon/4b8d15baf964a52035e732e3","categoryId":"4bf58dd8d48988d11b941735","category":"Pub","checkinsCount":491,"usersCount":128,"tipCount":5,"visitsCount":498,"url":"http://www.jdwetherspoon.co.uk","tier":"","message":"","currency":"","rating":5.8},{"name":"Peppermint Bar & Kitchen","phone":"+442920399199","address":"63 St Mary St","lat":51.47683715364699,"lng":-3.1764456123537244,"neighborhood":"City Centre","city_fetched":"Rhondda Valley,UK","state":"Cardiff","country":"United Kingdom","canonicalUrl":"https://foursquare.com/v/peppermint-bar--kitchen/4e4c200322717c65ac9840d4","categoryId":"4bf58dd8d48988d11e941735","category":"Cocktail Bar","checkinsCount":553,"usersCount":388,"tipCount":7,"visitsCount":563,"url":"http://www.peppermintbar.co.uk/cardiff","tier":"","message":"","currency":"","rating":5.8},{"name":"The Gatekeeper (Wetherspoon)","phone":"+442920646020","address":"9-10 Westgate St","lat":51.48014820191393,"lng":-3.1816483100244675,"neighborhood":"City Centre","city_fetched":"Rhondda Valley,UK","state":"Cardiff","country":"United Kingdom","canonicalUrl":"https://foursquare.com/v/the-gatekeeper-wetherspoon/4b7dc64bf964a520cbd32fe3","categoryId":"4bf58dd8d48988d11b941735","category":"Pub","checkinsCount":2498,"usersCount":980,"tipCount":11,"visitsCount":2626,"url":"http://www.jdwetherspoon.co.uk","tier":2,"message":"Moderate","currency":"£","rating":5.8},{"name":"ba Orient","phone":"+442920463939","twitter":"baorient","address":"Mermaid Quay","lat":51.463774534961566,"lng":-3.164217901398651,"neighborhood":"Mermaid Quay","city_fetched":"Rhondda Valley,UK","state":"Cardiff","country":"United Kingdom","canonicalUrl":"https://foursquare.com/v/ba-orient/4b52432cf964a520817327e3","categoryId":"4bf58dd8d48988d11e941735","category":"Cocktail Bar","checkinsCount":439,"usersCount":98,"tipCount":11,"visitsCount":440,"url":"http://www.baorient.com","tier":"","message":"","currency":"","rating":5.8},{"name":"The Wyndham Arms (Wetherspoon)","phone":"+441656673500","address":"Dunraven Pl.","lat":51.506531,"lng":-3.579339,"city_fetched":"Rhondda Valley,UK","country":"United Kingdom","canonicalUrl":"https://foursquare.com/v/the-wyndham-arms-wetherspoon/4bcf142f0ffdce72983ab2c0","categoryId":"4bf58dd8d48988d11b941735","category":"Pub","checkinsCount":558,"usersCount":179,"tipCount":15,"visitsCount":640,"url":"http://www.jdwetherspoon.co.uk","tier":"","message":"","currency":"","rating":5.8},{"name":"The Butchers Arms","address":"High Street","lat":51.49426871070415,"lng":-3.2189727746029355,"city_fetched":"Rhondda Valley,UK","state":"Cardiff","country":"United Kingdom","canonicalUrl":"https://foursquare.com/v/the-butchers-arms/4c002fc8ca1920a178ffed81","categoryId":"4bf58dd8d48988d117941735","category":"Beer Garden","checkinsCount":174,"usersCount":82,"tipCount":4,"visitsCount":174,"tier":"","message":"","currency":"","rating":5.8},{"name":"The Red Lion (Wetherspoon)","phone":"+441792761870","twitter":"jdwtweet","address":"49 Sway Rd.","lat":51.668617,"lng":-3.922769,"city_fetched":"Rhondda Valley,UK","country":"United Kingdom","canonicalUrl":"https://foursquare.com/v/the-red-lion-wetherspoon/4b9a92adf964a52091c235e3","categoryId":"4bf58dd8d48988d11b941735","category":"Pub","checkinsCount":213,"usersCount":129,"tipCount":3,"visitsCount":359,"url":"http://www.jdwetherspoon.co.uk","tier":"","message":"","currency":"","rating":5.8},{"name":"Glam","phone":"+442920229311","twitter":"glamnightclub","address":"2 Greyfriars Rd.","lat":51.48328710818232,"lng":-3.1758642196655273,"neighborhood":"City Centre","city_fetched":"Rhondda Valley,UK","country":"United Kingdom","canonicalUrl":"https://foursquare.com/v/glam/4bf851d65317a593eda0ff7e","categoryId":"4bf58dd8d48988d11f941735","category":"Nightclub","checkinsCount":652,"usersCount":345,"tipCount":9,"visitsCount":658,"url":"http://www.glamnightclub.co.uk","tier":"","message":"","currency":"","rating":5.8},{"name":"Soda Lounge","phone":"+442920398380","address":"5 Mill Lane","lat":51.47714875186631,"lng":-3.1758940307817136,"neighborhood":"City Centre","city_fetched":"Rhondda Valley,UK","country":"United Kingdom","canonicalUrl":"https://foursquare.com/v/soda-lounge/4c77019759a3236ad38fc018","categoryId":"4bf58dd8d48988d11f941735","category":"Nightclub","checkinsCount":451,"usersCount":283,"tipCount":3,"visitsCount":452,"tier":"","message":"","currency":"","rating":5.7},{"name":"The Central Bar (Wetherspoon)","phone":"+442920780260","address":"39 Windsor Pl","lat":51.48334723990034,"lng":-3.172827959060669,"neighborhood":"City Centre","city_fetched":"Rhondda Valley,UK","state":"Cardiff","country":"United Kingdom","canonicalUrl":"https://foursquare.com/v/the-central-bar-wetherspoon/4b45e3a8f964a520c71126e3","categoryId":"4bf58dd8d48988d11b941735","category":"Pub","checkinsCount":2551,"usersCount":859,"tipCount":11,"visitsCount":2648,"url":"http://www.jdwetherspoon.co.uk","tier":1,"message":"Cheap","currency":"£","rating":5.6},{"name":"Mimosa Kitchen & Bar","phone":"+442920491900","twitter":"mimosacardiff","address":"Mermaid Quay","lat":51.463225415222006,"lng":-3.166079521179199,"neighborhood":"Mermaid Quay","city_fetched":"Rhondda Valley,UK","state":"Cardiff","country":"United Kingdom","canonicalUrl":"https://foursquare.com/v/mimosa-kitchen--bar/4b5db2b3f964a5205f6729e3","categoryId":"4bf58dd8d48988d116941735","category":"Bar","checkinsCount":358,"usersCount":226,"tipCount":13,"visitsCount":358,"url":"http://www.mimosakitchen.co.uk","tier":"","message":"","currency":"","rating":5.6},{"name":"Kiwis","address":"wyndham arcade","lat":51.47734144262349,"lng":-3.177349147704932,"neighborhood":"City Centre","city_fetched":"Rhondda Valley,UK","state":"Cardiff","country":"United Kingdom","canonicalUrl":"https://foursquare.com/v/kiwis/4d4018f200e8a35d96a8f7fa","categoryId":"4bf58dd8d48988d116941735","category":"Bar","checkinsCount":206,"usersCount":124,"tipCount":1,"visitsCount":206,"tier":"","message":"","currency":"","rating":5.5},{"name":"Village Inn","phone":"+442920735361","address":"Croescadarn Rd.","lat":51.530423365712565,"lng":-3.1398248647102087,"city_fetched":"Rhondda Valley,UK","state":"Cardiff","country":"United Kingdom","canonicalUrl":"https://foursquare.com/v/village-inn/4badff68f964a52054793be3","categoryId":"4bf58dd8d48988d11b941735","category":"Pub","checkinsCount":568,"usersCount":151,"tipCount":4,"visitsCount":614,"url":"http://www.sizzlingpubs.co.uk/thevillageinnpentwyn/","tier":"","message":"","currency":"","rating":5.5},{"name":"Walston Castle (Beefeater)","phone":"+442920593896","twitter":"beefeatergrill","address":"Port Rd","lat":51.453262,"lng":-3.265336,"city_fetched":"Rhondda Valley,UK","state":"Vale of Glamorgan","country":"United Kingdom","canonicalUrl":"https://foursquare.com/v/walston-castle-beefeater/4c4db85efa9d9521849e1d0a","categoryId":"4bf58dd8d48988d11b941735","category":"Pub","checkinsCount":81,"usersCount":87,"tipCount":3,"visitsCount":120,"url":"http://www.beefeater.co.uk","tier":"","message":"","currency":"","rating":5.4},{"name":"The Crockerton (Wetherspoon)","phone":"+442920375600","address":"Greyfriars Rd","lat":51.483421545961235,"lng":-3.1763214623316,"neighborhood":"City Centre","city_fetched":"Rhondda Valley,UK","state":"Cardiff","country":"United Kingdom","canonicalUrl":"https://foursquare.com/v/the-crockerton-wetherspoon/4bb2808842959c7425ee202c","categoryId":"4bf58dd8d48988d11b941735","category":"Pub","checkinsCount":1318,"usersCount":672,"tipCount":11,"visitsCount":1340,"url":"http://www.jdwetherspoon.co.uk","tier":"","message":"","currency":"","rating":5.3},{"name":"Legacy Cardiff International Hotel","lat":51.528825,"lng":-3.241703,"neighborhood":"North Cardiff","city_fetched":"Rhondda Valley,UK","country":"United Kingdom","canonicalUrl":"https://foursquare.com/v/legacy-cardiff-international-hotel/4e2096d3b0fbdf9ba7a10322","categoryId":"4bf58dd8d48988d1d5941735","category":"Hotel Bar","checkinsCount":139,"usersCount":57,"tipCount":5,"visitsCount":139,"tier":"","message":"","currency":"","rating":5.3},{"name":"The Courthouse","address":"21-25 Cardiff Rd","lat":51.57475964246592,"lng":-3.2202529643619635,"city_fetched":"Rhondda Valley,UK","state":"Caerphilly County Borough","country":"United Kingdom","canonicalUrl":"https://foursquare.com/v/the-courthouse/4c331d5c452620a17b02230f","categoryId":"4bf58dd8d48988d11b941735","category":"Pub","checkinsCount":169,"usersCount":97,"tipCount":6,"visitsCount":169,"tier":"","message":"","currency":"","rating":5.2},{"name":"Retro Lounge","phone":"+442920344688","address":"7 Mill Lane","lat":51.477298736572266,"lng":-3.175887,"neighborhood":"City Centre","city_fetched":"Rhondda Valley,UK","state":"Cardiff","country":"United Kingdom","canonicalUrl":"https://foursquare.com/v/retro-lounge/4c1d4270b9f876b00d577d46","categoryId":"4bf58dd8d48988d116941735","category":"Bar","checkinsCount":256,"usersCount":168,"tipCount":3,"visitsCount":256,"tier":"","message":"","currency":"","rating":5.2},{"name":"The Watermill","lat":51.482341289520264,"lng":-3.6008763313293457,"city_fetched":"Rhondda Valley,UK","country":"United Kingdom","canonicalUrl":"https://foursquare.com/v/the-watermill/4c62fdb8eb82d13aa8c006d6","categoryId":"4bf58dd8d48988d11b941735","category":"Pub","checkinsCount":125,"usersCount":138,"tipCount":15,"visitsCount":173,"tier":"","message":"","currency":"","rating":5.2},{"name":"Pulse","phone":"+442920343511","twitter":"pulsecardiff","address":"3 Churchill Way","lat":51.48206358948366,"lng":-3.172985820768017,"neighborhood":"City Centre","city_fetched":"Rhondda Valley,UK","state":"Cardiff","country":"United Kingdom","canonicalUrl":"https://foursquare.com/v/pulse/4b4e9342f964a520def126e3","categoryId":"4bf58dd8d48988d1d8941735","category":"Gay Bar","checkinsCount":1118,"usersCount":339,"tipCount":6,"visitsCount":1128,"url":"http://www.pulsecardiff.com","tier":"","message":"","currency":"","rating":5.2},{"name":"Salt","phone":"+442920494375","address":"Mermaid Quay","lat":51.463128,"lng":-3.165473,"neighborhood":"Mermaid Quay","city_fetched":"Rhondda Valley,UK","state":"Cardiff","country":"United Kingdom","canonicalUrl":"https://foursquare.com/v/salt/4baf5983f964a5208cf93be3","categoryId":"4bf58dd8d48988d116941735","category":"Bar","checkinsCount":789,"usersCount":565,"tipCount":14,"visitsCount":790,"tier":"","message":"","currency":"","rating":5},{"name":"The Sand Martin","phone":"+442920232526","address":"Leckwith Rd.","lat":51.47388719043318,"lng":-3.2054318358953555,"neighborhood":"Leckwith","city_fetched":"Rhondda Valley,UK","state":"Cardiff","country":"United Kingdom","canonicalUrl":"https://foursquare.com/v/the-sand-martin/4d2756fe55a8b60c4ef7c2c0","categoryId":"4bf58dd8d48988d11b941735","category":"Pub","checkinsCount":429,"usersCount":154,"tipCount":12,"visitsCount":437,"tier":"","message":"","currency":"","rating":4.9}]