[{"name":"Mr Fogg's","phone":"+442070360608","twitter":"mrfoggslondon","address":"15 Bruton Ln.","lat":51.509871144938046,"lng":-0.14405110534651194,"neighborhood":"Mayfair","city_fetched":"Richmond,UK","state":"Greater London","country":"United Kingdom","canonicalUrl":"https://foursquare.com/v/mr-foggs/519133a7498e6e48d1dafb24","categoryId":"4bf58dd8d48988d1d4941735","category":"Speakeasy","checkinsCount":1751,"usersCount":1983,"tipCount":57,"visitsCount":2602,"url":"http://mr-foggs.com","tier":2,"message":"Moderate","currency":"£","rating":9.4},{"name":"The Churchill Arms","phone":"+442077274242","twitter":"londonirishpubs","address":"119 Kensington Church St","lat":51.50690903681919,"lng":-0.19479428681813715,"neighborhood":"Kensington and Chelsea","city_fetched":"Richmond,UK","state":"Greater London","country":"United Kingdom","canonicalUrl":"https://foursquare.com/v/the-churchill-arms/4ee61a462da504839760f8e0","categoryId":"4bf58dd8d48988d11b941735","category":"Pub","checkinsCount":5943,"usersCount":5692,"tipCount":130,"visitsCount":8318,"url":"http://www.churchillarmskensington.co.uk","tier":2,"message":"Moderate","currency":"£","rating":9.2},{"name":"The Oak","phone":"+442072213355","address":"137 Westbourne Park Rd","lat":51.518776179596145,"lng":-0.19782295310539888,"neighborhood":"Bayswater","city_fetched":"Richmond,UK","state":"Greater London","country":"United Kingdom","canonicalUrl":"https://foursquare.com/v/the-oak/4ae9e325f964a52052b721e3","categoryId":"4bf58dd8d48988d11b941735","category":"Pub","checkinsCount":1672,"usersCount":1621,"tipCount":38,"visitsCount":2629,"url":"http://www.theoaklondon.com","tier":2,"message":"Moderate","currency":"£","rating":9.2},{"name":"Connaught Bar","phone":"+442074997070","address":"At The Connaught Hotel","lat":51.510141420727024,"lng":-0.14953931242909846,"neighborhood":"Mayfair","city_fetched":"Richmond,UK","state":"Greater London","country":"United Kingdom","canonicalUrl":"https://foursquare.com/v/connaught-bar/4bc466bf920eb71373a41e2c","categoryId":"4bf58dd8d48988d1d5941735","category":"Hotel Bar","checkinsCount":1932,"usersCount":1568,"tipCount":58,"visitsCount":2130,"tier":3,"message":"Expensive","currency":"£","rating":9.1},{"name":"Powder Keg Diplomacy","phone":"+442074506457","twitter":"baronpowderkeg","address":"145 St. John's Hill","lat":51.46042148952535,"lng":-0.17645942128063058,"neighborhood":"Wandsworth","city_fetched":"Richmond,UK","state":"Greater London","country":"United Kingdom","canonicalUrl":"https://foursquare.com/v/powder-keg-diplomacy/4e7cf87ab8f751603b36f775","categoryId":"4bf58dd8d48988d11e941735","category":"Cocktail Bar","checkinsCount":1143,"usersCount":862,"tipCount":47,"visitsCount":1448,"url":"http://www.powderkegdiplomacy.co.uk","tier":2,"message":"Moderate","currency":"£","rating":9},{"name":"The Dove","phone":"+442087489474","twitter":"thedovew6","address":"19 Upper Mall","lat":51.490463,"lng":-0.234799,"neighborhood":"Ravenscourt Park","city_fetched":"Richmond,UK","state":"Greater London","country":"United Kingdom","canonicalUrl":"https://foursquare.com/v/the-dove/4ac518bdf964a520c8a220e3","categoryId":"4bf58dd8d48988d11b941735","category":"Pub","checkinsCount":2219,"usersCount":2124,"tipCount":57,"visitsCount":3015,"url":"http://www.dovehammersmith.co.uk","tier":"","message":"","currency":"","rating":9},{"name":"Electric House","phone":"+442079089696","twitter":"electriccinema","address":"191 Portobello Rd","lat":51.51560183362444,"lng":-0.20485951082139592,"neighborhood":"Kensington and Chelsea","city_fetched":"Richmond,UK","state":"Greater London","country":"United Kingdom","canonicalUrl":"https://foursquare.com/v/electric-house/4acb4758f964a52064c320e3","categoryId":"4bf58dd8d48988d121941735","category":"Lounge","checkinsCount":4625,"usersCount":1748,"tipCount":35,"visitsCount":4690,"url":"http://www.electriccinema.co.uk","tier":3,"message":"Expensive","currency":"£","rating":8.9},{"name":"BrewDog Shepherds Bush","phone":"+442087498094","twitter":"brewdog","address":"15-19 Goldhawk Rd","lat":51.503078414845774,"lng":-0.2241921548751175,"neighborhood":"Shepherd's Bush","city_fetched":"Richmond,UK","state":"Greater London","country":"United Kingdom","canonicalUrl":"https://foursquare.com/v/brewdog-shepherds-bush/529655db11d20a5e5ce7251e","categoryId":"56aa371ce4b08b9a8d57356c","category":"Beer Bar","checkinsCount":3360,"usersCount":2392,"tipCount":63,"visitsCount":4844,"url":"http://www.brewdog.com","tier":2,"message":"Moderate","currency":"£","rating":8.9},{"name":"Evans & Peel","phone":"+442073733573","twitter":"evansandpeel","address":"310C Earl's Court Rd","lat":51.490133170774996,"lng":-0.19088650645178,"neighborhood":"Earl's Court","city_fetched":"Richmond,UK","state":"Greater London","country":"United Kingdom","canonicalUrl":"https://foursquare.com/v/evans--peel/4fd789d1e4b0884f34d5383b","categoryId":"4bf58dd8d48988d1d4941735","category":"Speakeasy","checkinsCount":818,"usersCount":925,"tipCount":44,"visitsCount":1068,"url":"http://www.evansandpeel.com","tier":"","message":"","currency":"","rating":8.9},{"name":"The Wellesley Cigar Terrace","phone":"+442072353535","twitter":"wellesleylondon","address":"11 Knightsbridge","lat":51.502723,"lng":-0.15385,"neighborhood":"Knightsbridge and Belgravia","city_fetched":"Richmond,UK","state":"Greater London","country":"United Kingdom","canonicalUrl":"https://foursquare.com/v/the-wellesley-cigar-terrace/510555ade4b0d770cf17435c","categoryId":"4bf58dd8d48988d121941735","category":"Lounge","checkinsCount":1394,"usersCount":818,"tipCount":20,"visitsCount":1807,"url":"http://thewellesley.co.uk","tier":4,"message":"Very Expensive","currency":"£","rating":8.9},{"name":"The Mute Swan","phone":"+442089415959","twitter":"muteswanpub","address":"3 Palace Gate","lat":51.404459945417805,"lng":-0.34216892883446753,"neighborhood":"Hampton","city_fetched":"Richmond,UK","state":"Greater London","country":"United Kingdom","canonicalUrl":"https://foursquare.com/v/the-mute-swan/5300f2b011d2b268f6363ea6","categoryId":"4bf58dd8d48988d11b941735","category":"Pub","checkinsCount":285,"usersCount":267,"tipCount":12,"visitsCount":328,"url":"http://www.muteswan.co.uk","tier":"","message":"","currency":"","rating":8.9},{"name":"Claridges's Bar","phone":"+442076298860","twitter":"claridgeshotel","address":"49 Brook St.","lat":51.512673,"lng":-0.147994,"neighborhood":"Mayfair","city_fetched":"Richmond,UK","state":"Greater London","country":"United Kingdom","canonicalUrl":"https://foursquare.com/v/claridgess-bar/4ac518c4f964a5205da420e3","categoryId":"4bf58dd8d48988d1d5941735","category":"Hotel Bar","checkinsCount":1709,"usersCount":1176,"tipCount":35,"visitsCount":1737,"tier":4,"message":"Very Expensive","currency":"£","rating":8.9},{"name":"The Foyer & Reading Room","phone":"+442076298860","twitter":"claridgeshotel","address":"Claridge's Hotel","lat":51.51261806683498,"lng":-0.14761375199597518,"neighborhood":"Mayfair","city_fetched":"Richmond,UK","state":"Greater London","country":"United Kingdom","canonicalUrl":"https://foursquare.com/v/the-foyer--reading-room/50c4e405498eb4ce47af2f04","categoryId":"4bf58dd8d48988d121941735","category":"Lounge","checkinsCount":259,"usersCount":176,"tipCount":10,"visitsCount":259,"url":"http://www.claridges.co.uk/mayfair-restaurants/the-foyer-and-reading-room","tier":"","message":"","currency":"","rating":8.9},{"name":"The Four Thieves","phone":"+442072236927","twitter":"fourthievespub","address":"51 Lavender Gardens","lat":51.46412370415347,"lng":-0.16273625268335948,"neighborhood":"Wandsworth","city_fetched":"Richmond,UK","state":"Greater London","country":"United Kingdom","canonicalUrl":"https://foursquare.com/v/the-four-thieves/541ad2a8498e561ee5d7940d","categoryId":"4bf58dd8d48988d11b941735","category":"Pub","checkinsCount":543,"usersCount":769,"tipCount":21,"visitsCount":1123,"url":"http://fourthieves.pub","tier":2,"message":"Moderate","currency":"£","rating":8.8},{"name":"The White Swan","address":"Riverside","lat":51.44688048,"lng":-0.321342,"neighborhood":"Twickenham","city_fetched":"Richmond,UK","state":"Greater London","country":"United Kingdom","canonicalUrl":"https://foursquare.com/v/the-white-swan/4ad4b5c0f964a520cae820e3","categoryId":"4bf58dd8d48988d117941735","category":"Beer Garden","checkinsCount":1075,"usersCount":924,"tipCount":25,"visitsCount":1676,"tier":"","message":"","currency":"","rating":8.8},{"name":"The Sussex Arms","phone":"+442088947468","twitter":"thesussexarms","address":"15 Staines Rd","lat":51.444137425,"lng":-0.345764821395278,"neighborhood":"Richmond upon Thames","city_fetched":"Richmond,UK","state":"Greater London","country":"United Kingdom","canonicalUrl":"https://foursquare.com/v/the-sussex-arms/4d8b427c76e1236a16c62a43","categoryId":"4bf58dd8d48988d11b941735","category":"Pub","checkinsCount":1182,"usersCount":378,"tipCount":18,"visitsCount":1498,"url":"http://www.thesussexarmstwickenham.co.uk","tier":"","message":"","currency":"","rating":8.8},{"name":"By The Horns Brewing Co","phone":"+442034177338","twitter":"bythehornsbrew","address":"25 Summerstown","lat":51.43251780800772,"lng":-0.18462931874462163,"neighborhood":"Earlsfield","city_fetched":"Richmond,UK","state":"Greater London","country":"United Kingdom","canonicalUrl":"https://foursquare.com/v/by-the-horns-brewing-co/4eec937b0e61a418641ba7f1","categoryId":"50327c8591d4c4b30a586d5d","category":"Brewery","checkinsCount":141,"usersCount":140,"tipCount":9,"visitsCount":197,"url":"http://www.bythehorns.co.uk","tier":"","message":"","currency":"","rating":8.7},{"name":"BrewDog Clapham","phone":"+441358724924","twitter":"brewdogclaphamj","address":"11-13 Battersea Rise","lat":51.460978,"lng":-0.162991,"city_fetched":"Richmond,UK","state":"Greater London","country":"United Kingdom","canonicalUrl":"https://foursquare.com/v/brewdog-clapham/53ebae4c498ea213a6e64244","categoryId":"56aa371ce4b08b9a8d57356c","category":"Beer Bar","checkinsCount":665,"usersCount":503,"tipCount":15,"visitsCount":828,"url":"http://www.brewdog.com","tier":2,"message":"Moderate","currency":"£","rating":8.7},{"name":"The Luggage Room","phone":"+442075141507","twitter":"luggageroom","address":"Grosvenor Square","lat":51.51238826954448,"lng":-0.15061140060424805,"neighborhood":"Mayfair","city_fetched":"Richmond,UK","state":"Greater London","country":"United Kingdom","canonicalUrl":"https://foursquare.com/luggageroom","categoryId":"4bf58dd8d48988d11e941735","category":"Cocktail Bar","checkinsCount":504,"usersCount":381,"tipCount":17,"visitsCount":511,"url":"http://luggageroom.co.uk","tier":"","message":"","currency":"","rating":8.7},{"name":"The Lansdowne Club","phone":"+442073186160","twitter":"lansdowneclub","address":"9 Fitzmaurice Place","lat":51.508309563494265,"lng":-0.14500195605469504,"neighborhood":"Mayfair","city_fetched":"Richmond,UK","state":"Greater London","country":"United Kingdom","canonicalUrl":"https://foursquare.com/v/the-lansdowne-club/4ae99903f964a52044b521e3","categoryId":"4bf58dd8d48988d11e941735","category":"Cocktail Bar","checkinsCount":1524,"usersCount":645,"tipCount":14,"visitsCount":1741,"url":"http://www.lansdowneclub.com","tier":3,"message":"Expensive","currency":"£","rating":8.6},{"name":"Hand in Hand","phone":"+442089465720","twitter":"handwimbledon","address":"6 Crooked Billet","lat":51.42151338752444,"lng":-0.22734940052032468,"neighborhood":"Merton","city_fetched":"Richmond,UK","state":"Greater London","country":"United Kingdom","canonicalUrl":"https://foursquare.com/v/hand-in-hand/4b78098cf964a5200ab32ee3","categoryId":"4bf58dd8d48988d11b941735","category":"Pub","checkinsCount":759,"usersCount":462,"tipCount":11,"visitsCount":881,"url":"http://www.thehandinhandwimbledon.co.uk","tier":"","message":"","currency":"","rating":8.6},{"name":"Annabel's","phone":"+442074935587","address":"44 Berkeley Sq","lat":51.50942256739043,"lng":-0.14650296806006538,"neighborhood":"Mayfair","city_fetched":"Richmond,UK","state":"Greater London","country":"United Kingdom","canonicalUrl":"https://foursquare.com/v/annabels/4ac518c4f964a5205ba420e3","categoryId":"4bf58dd8d48988d121941735","category":"Lounge","checkinsCount":816,"usersCount":598,"tipCount":12,"visitsCount":915,"url":"http://annabels.co.uk","tier":"","message":"","currency":"","rating":8.6},{"name":"The Bar at the Dorchester","phone":"+442076298888","address":"53 Park Lane","lat":51.50699594848323,"lng":-0.15245594452773906,"neighborhood":"Mayfair","city_fetched":"Richmond,UK","state":"Greater London","country":"United Kingdom","canonicalUrl":"https://foursquare.com/v/the-bar-at-the-dorchester/4ac518e5f964a520fcaa20e3","categoryId":"4bf58dd8d48988d11e941735","category":"Cocktail Bar","checkinsCount":502,"usersCount":369,"tipCount":13,"visitsCount":502,"tier":"","message":"","currency":"","rating":8.5},{"name":"Trailer Happiness","phone":"+442073134644","twitter":"trailerh","address":"177 Portobello Rd","lat":51.515005594766265,"lng":-0.20466327667236328,"neighborhood":"Kensington and Chelsea","city_fetched":"Richmond,UK","state":"Greater London","country":"United Kingdom","canonicalUrl":"https://foursquare.com/v/trailer-happiness/4ac518c6f964a520ffa420e3","categoryId":"4bf58dd8d48988d11e941735","category":"Cocktail Bar","checkinsCount":1346,"usersCount":823,"tipCount":44,"visitsCount":1386,"url":"http://www.trailerhappiness.com","tier":2,"message":"Moderate","currency":"£","rating":8.5},{"name":"Hare and Hounds","phone":"+442088764304","address":"216 Upper Richmond Road West","lat":51.465165,"lng":-0.264669,"neighborhood":"East Sheen","city_fetched":"Richmond,UK","state":"Greater London","country":"United Kingdom","canonicalUrl":"https://foursquare.com/v/hare-and-hounds/4cbae864a33bb1f7dd1891fd","categoryId":"4bf58dd8d48988d11b941735","category":"Pub","checkinsCount":803,"usersCount":431,"tipCount":16,"visitsCount":1078,"tier":"","message":"","currency":"","rating":8.5},{"name":"Mews of Mayfair","phone":"+442075189388","address":"10-11 Lancashire Ct.","lat":51.51266167889391,"lng":-0.1454334082825106,"neighborhood":"Mayfair","city_fetched":"Richmond,UK","state":"Greater London","country":"United Kingdom","canonicalUrl":"https://foursquare.com/v/mews-of-mayfair/4ad4fa5ff964a520100121e3","categoryId":"4bf58dd8d48988d121941735","category":"Lounge","checkinsCount":3944,"usersCount":3048,"tipCount":52,"visitsCount":4373,"url":"http://www.mewsofmayfair.com","tier":3,"message":"Expensive","currency":"£","rating":8.5},{"name":"Star Shisha lounge & Lebanees food","phone":"+447446991424","address":"51-53 Steyne Rd","lat":51.509667,"lng":-0.272443,"neighborhood":"Acton","city_fetched":"Richmond,UK","state":"Greater London","country":"United Kingdom","canonicalUrl":"https://foursquare.com/v/star-shisha-lounge--lebanees-food/5658b22838fae7c08d97dc51","categoryId":"4bf58dd8d48988d121941735","category":"Lounge","checkinsCount":303,"usersCount":185,"tipCount":8,"visitsCount":774,"tier":"","message":"","currency":"","rating":8.5},{"name":"Intercontinental Club Lounge","address":"Intercontinental Park Lane","lat":51.50348323354532,"lng":-0.15049590410884792,"neighborhood":"Mayfair","city_fetched":"Richmond,UK","state":"Greater London","country":"United Kingdom","canonicalUrl":"https://foursquare.com/v/intercontinental-club-lounge/50c05818e4b014a3627ed879","categoryId":"4bf58dd8d48988d121941735","category":"Lounge","checkinsCount":301,"usersCount":119,"tipCount":4,"visitsCount":301,"tier":"","message":"","currency":"","rating":8.4},{"name":"The Grosvenor Pub","phone":"+442088400007","twitter":"grosvenorw7","address":"127 Oaklands Rd","lat":51.50669041083663,"lng":-0.3275795010318673,"neighborhood":"Hanwell","city_fetched":"Richmond,UK","state":"Greater London","country":"United Kingdom","canonicalUrl":"https://foursquare.com/v/the-grosvenor-pub/4c17b54fd4d9c9288355ee29","categoryId":"4bf58dd8d48988d11b941735","category":"Pub","checkinsCount":143,"usersCount":130,"tipCount":7,"visitsCount":264,"url":"http://www.foodandfuel.co.uk/our-pubs/the-grosvenor-hanwell/","tier":"","message":"","currency":"","rating":8.4},{"name":"The Antelope","phone":"+442086723888","twitter":"theantelopesw17","address":"76 Mitcham Rd","lat":51.42605256668538,"lng":-0.16586780548095703,"city_fetched":"Richmond,UK","state":"Greater London","country":"United Kingdom","canonicalUrl":"https://foursquare.com/v/the-antelope/4af1d091f964a5206be321e3","categoryId":"4bf58dd8d48988d11b941735","category":"Pub","checkinsCount":2407,"usersCount":1181,"tipCount":39,"visitsCount":3139,"url":"http://www.theantelopepub.com","tier":2,"message":"Moderate","currency":"£","rating":8.4},{"name":"The Gallery","phone":"+442076259184","twitter":"thegallerynw6","address":"190 Broadhurst Gardens","lat":51.54649101204201,"lng":-0.19017962193516236,"city_fetched":"Richmond,UK","state":"Greater London","country":"United Kingdom","canonicalUrl":"https://foursquare.com/v/the-gallery/4b50dc33f964a520ba3527e3","categoryId":"4bf58dd8d48988d116941735","category":"Bar","checkinsCount":1504,"usersCount":977,"tipCount":32,"visitsCount":1812,"url":"http://www.ilovethegallery.com","tier":"","message":"","currency":"","rating":8.4},{"name":"Maddox","phone":"+442076298877","twitter":"maddoxclub","address":"3-5 Mill St","lat":51.51262978038332,"lng":-0.1423414726045243,"neighborhood":"Mayfair","city_fetched":"Richmond,UK","state":"Greater London","country":"United Kingdom","canonicalUrl":"https://foursquare.com/v/maddox/4ac518bbf964a5205ca220e3","categoryId":"4bf58dd8d48988d11f941735","category":"Nightclub","checkinsCount":3749,"usersCount":2620,"tipCount":32,"visitsCount":4746,"url":"http://www.maddoxclub.com","tier":3,"message":"Expensive","currency":"£","rating":8.4},{"name":"The Half Moon","phone":"+442087809383","twitter":"halfmoonputney","address":"93 Lower Richmond Rd","lat":51.46740559109254,"lng":-0.22000670619519727,"neighborhood":"Wandsworth","city_fetched":"Richmond,UK","state":"Greater London","country":"United Kingdom","canonicalUrl":"https://foursquare.com/v/the-half-moon/4b7ef87cf964a520410d30e3","categoryId":"4bf58dd8d48988d11b941735","category":"Pub","checkinsCount":1507,"usersCount":1203,"tipCount":16,"visitsCount":2058,"url":"http://halfmoon.co.uk","tier":"","message":"","currency":"","rating":8.3},{"name":"The Aleksander","phone":"+442088926252","address":"277-279 Richmond Rd","lat":51.4527367050144,"lng":-0.3138445933481291,"city_fetched":"Richmond,UK","state":"Greater London","country":"United Kingdom","canonicalUrl":"https://foursquare.com/v/the-aleksander/50b3bca8e4b09a791eebbf14","categoryId":"4bf58dd8d48988d11b941735","category":"Pub","checkinsCount":383,"usersCount":228,"tipCount":14,"visitsCount":617,"url":"http://www.thealeksander.co.uk","tier":"","message":"","currency":"","rating":8.3},{"name":"Lanesborough Hotel Library Bar","phone":"+442072595599","address":"Hyde Park Corner","lat":51.50275169397591,"lng":-0.15262839557347402,"neighborhood":"Knightsbridge and Belgravia","city_fetched":"Richmond,UK","state":"Greater London","country":"United Kingdom","canonicalUrl":"https://foursquare.com/v/lanesborough-hotel-library-bar/50b788d7e4b0c9f8dc77784d","categoryId":"4bf58dd8d48988d11e941735","category":"Cocktail Bar","checkinsCount":102,"usersCount":83,"tipCount":3,"visitsCount":106,"url":"http://www.lanesborough.com/eng/restaurant-bars/the-library-bar/","tier":"","message":"","currency":"","rating":8.3},{"name":"The Draft House Northcote","phone":"+442079241814","twitter":"drafthousenc","address":"94 Northcote Rd","lat":51.457556,"lng":-0.16584103,"neighborhood":"Northcote","city_fetched":"Richmond,UK","state":"Greater London","country":"United Kingdom","canonicalUrl":"https://foursquare.com/v/the-draft-house-northcote/4ae74a38f964a52016aa21e3","categoryId":"4bf58dd8d48988d11b941735","category":"Pub","checkinsCount":1322,"usersCount":1229,"tipCount":31,"visitsCount":2106,"url":"http://www.drafthouse.co.uk","tier":3,"message":"Expensive","currency":"£","rating":8.3},{"name":"The White Cross","phone":"+442089406844","address":"Riverside","lat":51.45887376408236,"lng":-0.30860424041748047,"neighborhood":"South Richmond","city_fetched":"Richmond,UK","state":"Greater London","country":"United Kingdom","canonicalUrl":"https://foursquare.com/v/the-white-cross/4ad6f4ccf964a5206c0821e3","categoryId":"4bf58dd8d48988d11b941735","category":"Pub","checkinsCount":3418,"usersCount":2552,"tipCount":42,"visitsCount":4229,"url":"http://thewhitecrossrichmond.com","tier":1,"message":"Cheap","currency":"£","rating":8.3},{"name":"The Defector's Weld","phone":"+442087490008","twitter":"defectorsweld","address":"170 Uxbridge Rd","lat":51.505142,"lng":-0.224362,"neighborhood":"Shepherd's Bush","city_fetched":"Richmond,UK","state":"Greater London","country":"United Kingdom","canonicalUrl":"https://foursquare.com/v/the-defectors-weld/4ad0a83ff964a520efd820e3","categoryId":"4bf58dd8d48988d11b941735","category":"Pub","checkinsCount":5282,"usersCount":3676,"tipCount":58,"visitsCount":7242,"url":"http://defectors-weld.com","tier":2,"message":"Moderate","currency":"£","rating":8.3},{"name":"The Selkirk SW17","phone":"+442086726235","twitter":"theselkirksw17","address":"60 Selkirk Rd","lat":51.43028025431287,"lng":-0.16964435577392578,"neighborhood":"Tooting, London, Greater London","city_fetched":"Richmond,UK","state":"Greater London","country":"United Kingdom","canonicalUrl":"https://foursquare.com/v/the-selkirk-sw17/4ac518c5f964a520b8a420e3","categoryId":"4bf58dd8d48988d11b941735","category":"Pub","checkinsCount":1033,"usersCount":573,"tipCount":20,"visitsCount":1453,"url":"http://www.theselkirksw17.com","tier":"","message":"","currency":"","rating":8.2},{"name":"The Aeronaut","phone":"+442089934242","twitter":"aeronautacton","address":"264 Acton High St.","lat":51.50833276819802,"lng":-0.2752270947843368,"neighborhood":"South Acton","city_fetched":"Richmond,UK","state":"Greater London","country":"United Kingdom","canonicalUrl":"https://foursquare.com/v/the-aeronaut/527c07e711d255a8e45a3856","categoryId":"4bf58dd8d48988d11b941735","category":"Pub","checkinsCount":506,"usersCount":512,"tipCount":9,"visitsCount":755,"url":"http://www.aeronaut.pub","tier":2,"message":"Moderate","currency":"£","rating":8.2},{"name":"The Prince of Wales","phone":"+442089795561","twitter":"princeofwaleskt","address":"23 Bridge Road","lat":51.402667,"lng":-0.3447391,"city_fetched":"Richmond,UK","state":"Surrey","country":"United Kingdom","canonicalUrl":"https://foursquare.com/v/the-prince-of-wales/4bf288c020960f473e556e2f","categoryId":"4bf58dd8d48988d11b941735","category":"Pub","checkinsCount":646,"usersCount":616,"tipCount":20,"visitsCount":909,"url":"http://www.princeofwaleskt8.co.uk","tier":"","message":"","currency":"","rating":8.2},{"name":"Duke of Kendal","phone":"+442077238478","twitter":"thedukeofkendal","address":"38 Connaught St","lat":51.5145946391238,"lng":-0.16628968157516746,"neighborhood":"City of Westminster","city_fetched":"Richmond,UK","state":"Greater London","country":"United Kingdom","canonicalUrl":"https://foursquare.com/v/duke-of-kendal/4bd1ec059854d13a1189fa4d","categoryId":"4bf58dd8d48988d11b941735","category":"Pub","checkinsCount":868,"usersCount":656,"tipCount":16,"visitsCount":973,"url":"http://thedukeofkendal.co.uk","tier":2,"message":"Moderate","currency":"£","rating":8.2},{"name":"The Plough","address":"42 Christchurch Rd","lat":51.460798969681406,"lng":-0.2709352970123291,"city_fetched":"Richmond,UK","state":"Greater London","country":"United Kingdom","canonicalUrl":"https://foursquare.com/v/the-plough/4b43b07bf964a52079e625e3","categoryId":"50327c8591d4c4b30a586d5d","category":"Brewery","checkinsCount":690,"usersCount":315,"tipCount":12,"visitsCount":962,"url":"http://www.theplough.com","tier":"","message":"","currency":"","rating":8.2},{"name":"Barts","phone":"+442075813355","twitter":"bartslondon","address":"Chelsea Cloisters","lat":51.49253473776731,"lng":-0.1670654917765273,"neighborhood":"Chel","city_fetched":"Richmond,UK","state":"Greater London","country":"United Kingdom","canonicalUrl":"https://foursquare.com/v/barts/4b5b7c2bf964a520bc0129e3","categoryId":"4bf58dd8d48988d1d4941735","category":"Speakeasy","checkinsCount":1127,"usersCount":779,"tipCount":31,"visitsCount":1237,"url":"http://barts-london.com","tier":"","message":"","currency":"","rating":8.2},{"name":"The Turks Head","phone":"+442088921972","twitter":"turksheadtw1","address":"28 Winchester Rd","lat":51.456330145265255,"lng":-0.32293445354354383,"city_fetched":"Richmond,UK","state":"Greater London","country":"United Kingdom","canonicalUrl":"https://foursquare.com/v/the-turks-head/4b7477fef964a5206ede2de3","categoryId":"4bf58dd8d48988d11b941735","category":"Pub","checkinsCount":1013,"usersCount":490,"tipCount":10,"visitsCount":1295,"url":"http://turksheadtwickenham.co.uk","tier":"","message":"","currency":"","rating":8.1},{"name":"The White Swan","phone":"+442089400959","address":"Old Palace Ln","lat":51.46128,"lng":-0.311315,"neighborhood":"South Richmond","city_fetched":"Richmond,UK","state":"Surrey","country":"United Kingdom","canonicalUrl":"https://foursquare.com/v/the-white-swan/4b28f5a3f964a520a29624e3","categoryId":"4bf58dd8d48988d11b941735","category":"Pub","checkinsCount":595,"usersCount":636,"tipCount":16,"visitsCount":891,"tier":"","message":"","currency":"","rating":8.1},{"name":"Sporting Page","address":"6 Camera Place","lat":51.4845647,"lng":-0.1792662,"neighborhood":"Chelsea","city_fetched":"Richmond,UK","state":"Greater London","country":"United Kingdom","canonicalUrl":"https://foursquare.com/v/sporting-page/4ac518bdf964a520e0a220e3","categoryId":"4bf58dd8d48988d11d941735","category":"Sports Bar","checkinsCount":632,"usersCount":621,"tipCount":11,"visitsCount":1035,"tier":"","message":"","currency":"","rating":8.1},{"name":"Polo Bar","phone":"+442083825006","address":"26-27 Conduit St","lat":51.51166407308298,"lng":-0.1428246698114735,"neighborhood":"Mayfair","city_fetched":"Richmond,UK","state":"Greater London","country":"United Kingdom","canonicalUrl":"https://foursquare.com/v/polo-bar/4b4b977bf964a52046a126e3","categoryId":"4bf58dd8d48988d121941735","category":"Lounge","checkinsCount":1022,"usersCount":642,"tipCount":18,"visitsCount":1035,"url":"http://www.westburymayfair.com","tier":"","message":"","currency":"","rating":8},{"name":"The Bedford","phone":"+442086828940","twitter":"thebedfordpub","address":"77 Bedford Hill","lat":51.442771,"lng":-0.149612,"neighborhood":"Balham","city_fetched":"Richmond,UK","state":"Greater London","country":"United Kingdom","canonicalUrl":"https://foursquare.com/v/the-bedford/4ad20d96f964a52011df20e3","categoryId":"4bf58dd8d48988d11b941735","category":"Pub","checkinsCount":3238,"usersCount":2013,"tipCount":41,"visitsCount":3958,"url":"http://www.thebedford.co.uk","tier":2,"message":"Moderate","currency":"£","rating":8},{"name":"Jolly Gardeners","phone":"+442087892539","address":"61-63 Lacy Road","lat":51.464674572620865,"lng":-0.2186052487066881,"neighborhood":"Wandsworth","city_fetched":"Richmond,UK","state":"Greater London","country":"United Kingdom","canonicalUrl":"https://foursquare.com/v/jolly-gardeners/4b229c17f964a5201f4a24e3","categoryId":"4bf58dd8d48988d11b941735","category":"Pub","checkinsCount":1392,"usersCount":843,"tipCount":27,"visitsCount":1826,"tier":2,"message":"Moderate","currency":"£","rating":8},{"name":"The Roof Gardens Club","phone":"+442073683992","address":"99 Kensington High St","lat":51.50106283093627,"lng":-0.1917740124026028,"neighborhood":"Queen's Gate","city_fetched":"Richmond,UK","state":"Greater London","country":"United Kingdom","canonicalUrl":"https://foursquare.com/v/the-roof-gardens-club/4bf40e4b6ba2b7132f3b8977","categoryId":"4bf58dd8d48988d11f941735","category":"Nightclub","checkinsCount":1345,"usersCount":951,"tipCount":30,"visitsCount":1359,"url":"http://velvet-pr.com/guestlists/kensington-roof-gardens-guestlist/","tier":"","message":"","currency":"","rating":8},{"name":"Marriott Grosvenor House Executive Lounge","phone":"+442074996363","address":"86-90 Park Ln","lat":51.50961587064951,"lng":-0.15528650529578303,"neighborhood":"Mayfair","city_fetched":"Richmond,UK","state":"Greater London","country":"United Kingdom","canonicalUrl":"https://foursquare.com/v/marriott-grosvenor-house-executive-lounge/4e7c71b79a523f16b2afbbbe","categoryId":"4bf58dd8d48988d1d5941735","category":"Hotel Bar","checkinsCount":1543,"usersCount":852,"tipCount":22,"visitsCount":1557,"url":"http://www.marriott.co.uk/hotel-info/longh-grosvenor-house-a-jw-marriott-hotel/suites/mphu0je/executive-lounge.mi","tier":"","message":"","currency":"","rating":8},{"name":"The Red Lion","address":"High Street","lat":51.39226779128963,"lng":-0.33196696107758983,"city_fetched":"Richmond,UK","state":"Surrey","country":"United Kingdom","canonicalUrl":"https://foursquare.com/v/the-red-lion/4ef67bad469012b8c0480744","categoryId":"4bf58dd8d48988d11b941735","category":"Pub","checkinsCount":224,"usersCount":105,"tipCount":10,"visitsCount":288,"tier":"","message":"","currency":"","rating":7.9},{"name":"The Alice House","phone":"+442074318818","twitter":"alicehousewh","address":"283-285 West End Ln","lat":51.55095125612723,"lng":-0.19149374515935016,"city_fetched":"Richmond,UK","state":"Greater London","country":"United Kingdom","canonicalUrl":"https://foursquare.com/v/the-alice-house/4b747b5df964a52033df2de3","categoryId":"4bf58dd8d48988d11b941735","category":"Pub","checkinsCount":2415,"usersCount":1595,"tipCount":56,"visitsCount":2917,"url":"http://www.thealicehouse.co.uk","tier":3,"message":"Expensive","currency":"£","rating":7.9},{"name":"Mamounia Lounge","phone":"+442076292211","address":"37a Curzon Street","lat":51.50668908289659,"lng":-0.14799769365996468,"neighborhood":"Mayfair","city_fetched":"Richmond,UK","state":"Greater London","country":"United Kingdom","canonicalUrl":"https://foursquare.com/v/mamounia-lounge/4ac518e3f964a520c6aa20e3","categoryId":"4bf58dd8d48988d121941735","category":"Lounge","checkinsCount":1572,"usersCount":1305,"tipCount":21,"visitsCount":2166,"url":"http://www.mamounialounge.com","tier":"","message":"","currency":"","rating":7.9},{"name":"The 3 Monkeys Cocktail Bar","phone":"+442086734447","twitter":"the3monkeysbar","address":"5 Fernlea Road","lat":51.442863,"lng":-0.149363,"neighborhood":"Balham","city_fetched":"Richmond,UK","state":"Greater London","country":"United Kingdom","canonicalUrl":"https://foursquare.com/v/the-3-monkeys-cocktail-bar/508b00c3e4b01167ea6d4f6d","categoryId":"4bf58dd8d48988d120941735","category":"Karaoke Bar","checkinsCount":142,"usersCount":110,"tipCount":4,"visitsCount":142,"tier":"","message":"","currency":"","rating":7.9},{"name":"Aqua Spirit","phone":"+442074780540","address":"5th Floor, 240 Regent St","lat":51.514229,"lng":-0.141148,"city_fetched":"Richmond,UK","state":"Greater London","country":"United Kingdom","canonicalUrl":"https://foursquare.com/v/aqua-spirit/4bd860ec5cf276b084129d00","categoryId":"4bf58dd8d48988d11e941735","category":"Cocktail Bar","checkinsCount":4663,"usersCount":3532,"tipCount":79,"visitsCount":4683,"url":"http://www.aqua.com.hk","tier":3,"message":"Expensive","currency":"£","rating":7.9},{"name":"Playboy Club London","phone":"+442074918586","twitter":"playboy","address":"14 Old Park Ln","lat":51.50472633836129,"lng":-0.14966454750807287,"neighborhood":"Mayfair","city_fetched":"Richmond,UK","state":"Greater London","country":"United Kingdom","canonicalUrl":"https://foursquare.com/v/playboy-club-london/4ddd53a852b155583de92b36","categoryId":"4bf58dd8d48988d11e941735","category":"Cocktail Bar","checkinsCount":2862,"usersCount":1425,"tipCount":22,"visitsCount":2913,"url":"http://www.playboyenterprises.com","tier":"","message":"","currency":"","rating":7.9},{"name":"The Dysart Arms","phone":"+442089408005","address":"135 Petersham Rd.","lat":51.446472499278144,"lng":-0.3000637847974445,"neighborhood":"Ham, Petersham and Richmond Riverside","city_fetched":"Richmond,UK","state":"Greater London","country":"United Kingdom","canonicalUrl":"https://foursquare.com/v/the-dysart-arms/4b2a5c78f964a520bea724e3","categoryId":"4bf58dd8d48988d11b941735","category":"Pub","checkinsCount":249,"usersCount":190,"tipCount":4,"visitsCount":252,"url":"http://www.thedysartpetersham.co.uk","tier":"","message":"","currency":"","rating":7.9},{"name":"Blue Bar","phone":"+442072356000","address":"Berkeley Hotel","lat":51.502031000431785,"lng":-0.15632987022399902,"neighborhood":"Knightsbridge and Belgravia","city_fetched":"Richmond,UK","state":"Greater London","country":"United Kingdom","canonicalUrl":"https://foursquare.com/v/blue-bar/4cd4656cab19a093f72139eb","categoryId":"4bf58dd8d48988d1d5941735","category":"Hotel Bar","checkinsCount":659,"usersCount":431,"tipCount":15,"visitsCount":662,"url":"http://www.the-berkeley.co.uk/knightsbridge-bars/blue-bar/","tier":"","message":"","currency":"","rating":7.9},{"name":"Pig's Ears","phone":"+442083320055","twitter":"pigsearsrichmon","address":"5 Hill St","lat":51.45939127285537,"lng":-0.3061275952169757,"neighborhood":"South Richmond","city_fetched":"Richmond,UK","state":"Greater London","country":"United Kingdom","canonicalUrl":"https://foursquare.com/v/pigs-ears/4f0b51ade4b07c8f8f0760d1","categoryId":"4bf58dd8d48988d11b941735","category":"Pub","checkinsCount":953,"usersCount":483,"tipCount":21,"visitsCount":993,"url":"http://www.pigs-ears.co.uk","tier":"","message":"","currency":"","rating":7.9},{"name":"Brewers Inn","phone":"+442088744128","address":"147 East Hill","lat":51.45683097969828,"lng":-0.18966112468097845,"neighborhood":"Wandsworth","city_fetched":"Richmond,UK","state":"Greater London","country":"United Kingdom","canonicalUrl":"https://foursquare.com/v/brewers-inn/4bd8aaff2ecdce72f0e6d0f2","categoryId":"4bf58dd8d48988d11b941735","category":"Pub","checkinsCount":737,"usersCount":480,"tipCount":12,"visitsCount":948,"tier":"","message":"","currency":"","rating":7.9},{"name":"Mandarin Bar at Mandarin Oriental Hyde Park, London","phone":"+442072352000","twitter":"mo_hotels","address":"66 Knightsbridge","lat":51.50229448644824,"lng":-0.16025277258832926,"neighborhood":"Knightsbridge and Belgravia","city_fetched":"Richmond,UK","state":"Greater London","country":"United Kingdom","canonicalUrl":"https://foursquare.com/v/mandarin-bar-at-mandarin-oriental-hyde-park-london/4ac518c4f964a5206ea420e3","categoryId":"4bf58dd8d48988d1d5941735","category":"Hotel Bar","checkinsCount":996,"usersCount":682,"tipCount":12,"visitsCount":998,"url":"http://www.mandarinoriental.com","tier":"","message":"","currency":"","rating":7.9},{"name":"THE DONOVAN Bar","phone":"+442074936020","twitter":"browns_hotel","address":"Brown's Hotel","lat":51.509190601124274,"lng":-0.14210644936886532,"neighborhood":"Mayfair","city_fetched":"Richmond,UK","state":"Greater London","country":"United Kingdom","canonicalUrl":"https://foursquare.com/v/the-donovan-bar/4bb63a6cf562ef3b17d32f97","categoryId":"4bf58dd8d48988d121941735","category":"Lounge","checkinsCount":524,"usersCount":355,"tipCount":17,"visitsCount":529,"url":"http://www.brownshotel.com/dining/the-donovan-bar","tier":"","message":"","currency":"","rating":7.8},{"name":"The Caramel Room","phone":"+442072356000","twitter":"theberkeley","address":"The Berkeley Hotel","lat":51.501956333713025,"lng":-0.15642605133453658,"neighborhood":"Knightsbridge and Belgravia","city_fetched":"Richmond,UK","state":"Greater London","country":"United Kingdom","canonicalUrl":"https://foursquare.com/v/the-caramel-room/4d55a137cff7721ecefcabf5","categoryId":"4bf58dd8d48988d1d5941735","category":"Hotel Bar","checkinsCount":471,"usersCount":387,"tipCount":15,"visitsCount":476,"url":"http://www.the-berkeley.co.uk","tier":"","message":"","currency":"","rating":7.8},{"name":"The Caledonian Club","phone":"+442072355162","address":"9 Halkin St","lat":51.50071945090673,"lng":-0.15274311888407974,"neighborhood":"Knightsbridge and Belgravia","city_fetched":"Richmond,UK","state":"Greater London","country":"United Kingdom","canonicalUrl":"https://foursquare.com/v/the-caledonian-club/4b5b7470f964a52047ff28e3","categoryId":"4bf58dd8d48988d121941735","category":"Lounge","checkinsCount":290,"usersCount":211,"tipCount":1,"visitsCount":293,"url":"http://www.caledonianclub.com","tier":"","message":"","currency":"","rating":7.8},{"name":"Delta 360˚ Lounge","twitter":"chelseafc","address":"Stamford Bridge","lat":51.48120917454988,"lng":-0.18942832946777344,"neighborhood":"Hammersmith and Fulham","city_fetched":"Richmond,UK","state":"Greater London","country":"United Kingdom","canonicalUrl":"https://foursquare.com/v/delta-360-lounge/5087a0ccd63ed3e25be7d832","categoryId":"4bf58dd8d48988d121941735","category":"Lounge","checkinsCount":128,"usersCount":100,"tipCount":3,"visitsCount":128,"url":"http://www.chelseafc.com","tier":"","message":"","currency":"","rating":7.8},{"name":"The North London Tavern","phone":"+442076256634","twitter":"northlondontav","address":"Kilburn High Rd","lat":51.54561445919987,"lng":-0.202522873878479,"city_fetched":"Richmond,UK","state":"Greater London","country":"United Kingdom","canonicalUrl":"https://foursquare.com/v/the-north-london-tavern/4ace2bb3f964a520d1ce20e3","categoryId":"4bf58dd8d48988d11b941735","category":"Pub","checkinsCount":2002,"usersCount":1190,"tipCount":35,"visitsCount":2457,"url":"http://www.northlondontavern.co.uk","tier":2,"message":"Moderate","currency":"£","rating":7.8},{"name":"Le QuecumBar","phone":"+442077872227","address":"42-44 High St","lat":51.47400582926133,"lng":-0.17380714416503906,"city_fetched":"Richmond,UK","state":"Greater London","country":"United Kingdom","canonicalUrl":"https://foursquare.com/v/le-quecumbar/4c814756e602b1f7d046917a","categoryId":"4bf58dd8d48988d116941735","category":"Bar","checkinsCount":397,"usersCount":233,"tipCount":15,"visitsCount":452,"url":"http://quecumbar.co.uk","tier":"","message":"","currency":"","rating":7.8},{"name":"Kilburn Ironworks","phone":"+442076247341","twitter":"ironworksnw6","address":"332 Kilburn High Road","lat":51.54557656087459,"lng":-0.20216565830882757,"neighborhood":"West Hampstead","city_fetched":"Richmond,UK","state":"Greater London","country":"United Kingdom","canonicalUrl":"https://foursquare.com/v/kilburn-ironworks/54932ff6498e778f196742f9","categoryId":"4bf58dd8d48988d116941735","category":"Bar","checkinsCount":148,"usersCount":107,"tipCount":11,"visitsCount":168,"url":"http://www.kilburnironworks.co.uk","tier":"","message":"","currency":"","rating":7.8},{"name":"Mahiki","phone":"+442074939529","twitter":"mahiki","address":"1 Dover St","lat":51.507600693026546,"lng":-0.14152335477795733,"neighborhood":"Mayfair","city_fetched":"Richmond,UK","state":"Greater London","country":"United Kingdom","canonicalUrl":"https://foursquare.com/v/mahiki/4ac518c3f964a52026a420e3","categoryId":"4bf58dd8d48988d11f941735","category":"Nightclub","checkinsCount":3002,"usersCount":2202,"tipCount":51,"visitsCount":3018,"url":"http://www.mahiki.com","tier":3,"message":"Expensive","currency":"£","rating":7.7},{"name":"Baku Bistro","phone":"+442074954461","address":"22-24 Lansdowne Row","lat":51.50864898730343,"lng":-0.14430862580648804,"neighborhood":"Mayfair","city_fetched":"Richmond,UK","state":"Greater London","country":"United Kingdom","canonicalUrl":"https://foursquare.com/v/baku-bistro/509aa2d6e4b0175f19dba6b5","categoryId":"4bf58dd8d48988d119941735","category":"Hookah Bar","checkinsCount":3097,"usersCount":1438,"tipCount":38,"visitsCount":3728,"url":"http://www.bakubistro.co.uk","tier":3,"message":"Expensive","currency":"£","rating":7.7},{"name":"Maggie's","phone":"+442073528512","twitter":"maggies_club","address":"329 Fulham Rd.","lat":51.48637856451218,"lng":-0.18020731858737565,"neighborhood":"Chelsea","city_fetched":"Richmond,UK","state":"Greater London","country":"United Kingdom","canonicalUrl":"https://foursquare.com/v/maggies/4bdb886b2a3a0f4742aaafb6","categoryId":"4bf58dd8d48988d11f941735","category":"Nightclub","checkinsCount":686,"usersCount":549,"tipCount":15,"visitsCount":742,"url":"http://www.maggies-club.com","tier":"","message":"","currency":"","rating":7.7},{"name":"THE FUMOIR bar","phone":"+442076298860","twitter":"claridgeshotel","address":"Claridge's Hotel","lat":51.512525,"lng":-0.147589,"neighborhood":"Mayfair","city_fetched":"Richmond,UK","state":"Greater London","country":"United Kingdom","canonicalUrl":"https://foursquare.com/v/the-fumoir-bar/4c65af4de75ac928b67df5da","categoryId":"4bf58dd8d48988d11e941735","category":"Cocktail Bar","checkinsCount":91,"usersCount":69,"tipCount":5,"visitsCount":91,"tier":"","message":"","currency":"","rating":7.6},{"name":"The Sultan","phone":"+442085424532","twitter":"hopbackbrewery","address":"78 Norman Rd","lat":51.41851295,"lng":-0.18500804901123047,"neighborhood":"Abbey","city_fetched":"Richmond,UK","state":"Greater London","country":"United Kingdom","canonicalUrl":"https://foursquare.com/v/the-sultan/4b5b2ca2f964a520a9e828e3","categoryId":"4bf58dd8d48988d11b941735","category":"Pub","checkinsCount":333,"usersCount":112,"tipCount":10,"visitsCount":412,"url":"http://www.hopback.co.uk/our-pubs/the-sultan.html","tier":"","message":"","currency":"","rating":7.6},{"name":"The Ship","address":"10 Thames Bank","lat":51.471319,"lng":-0.268093,"neighborhood":"Mortlake and Barnes Common","city_fetched":"Richmond,UK","state":"Greater London","country":"United Kingdom","canonicalUrl":"https://foursquare.com/v/the-ship/4bb770642ea1952117ecac2f","categoryId":"4bf58dd8d48988d11b941735","category":"Pub","checkinsCount":445,"usersCount":489,"tipCount":3,"visitsCount":675,"tier":"","message":"","currency":"","rating":7.6},{"name":"Queens Head","phone":"+442088970722","address":"123 Cranford High Street","lat":51.48491063673794,"lng":-0.4056358337402344,"neighborhood":"Heston West","city_fetched":"Richmond,UK","state":"Greater London","country":"United Kingdom","canonicalUrl":"https://foursquare.com/v/queens-head/4cfe31cc34c1a0931c33540e","categoryId":"4bf58dd8d48988d11b941735","category":"Pub","checkinsCount":527,"usersCount":128,"tipCount":6,"visitsCount":672,"url":"http://www.queens-head-cranford.co.uk","tier":"","message":"","currency":"","rating":7.6},{"name":"The Back Room","phone":"+442075141700","twitter":"backroomlondon","address":"148b Old Park Ln","lat":51.50408127218058,"lng":-0.1492917537689209,"city_fetched":"Richmond,UK","state":"Greater London","country":"United Kingdom","canonicalUrl":"https://foursquare.com/v/the-back-room/4dab193e1e72c1ab9c02963d","categoryId":"4bf58dd8d48988d11b941735","category":"Pub","checkinsCount":1397,"usersCount":535,"tipCount":14,"visitsCount":1399,"url":"http://www.hardrock.com/promo/thebackroom/","tier":"","message":"","currency":"","rating":7.6},{"name":"Octoberfest Pub","phone":"+442077365293","twitter":"octoberfestpub","address":"678-680 Fulham Rd","lat":51.47503823063742,"lng":-0.20622710904314348,"neighborhood":"Hammersmith and Fulham","city_fetched":"Richmond,UK","state":"Greater London","country":"United Kingdom","canonicalUrl":"https://foursquare.com/v/octoberfest-pub/4ac518c1f964a520dda320e3","categoryId":"4bf58dd8d48988d11b941735","category":"Pub","checkinsCount":668,"usersCount":496,"tipCount":12,"visitsCount":734,"url":"http://www.octoberfestpub.com","tier":"","message":"","currency":"","rating":7.6},{"name":"The Metropolitan","phone":"+442072299254","twitter":"themetpubw11","address":"60 Great Western Rd","lat":51.52060355984199,"lng":-0.20058747739648658,"neighborhood":"Westbourne","city_fetched":"Richmond,UK","state":"Greater London","country":"United Kingdom","canonicalUrl":"https://foursquare.com/v/the-metropolitan/4b0823bff964a520a10423e3","categoryId":"4bf58dd8d48988d11b941735","category":"Pub","checkinsCount":1674,"usersCount":1456,"tipCount":17,"visitsCount":2583,"url":"http://www.themetropolitanw11.co.uk","tier":"","message":"","currency":"","rating":7.6},{"name":"The Victoria","phone":"+442088764238","address":"10 West Temple Sheen","lat":51.461097497808325,"lng":-0.2756070927171164,"neighborhood":"East Sheen","city_fetched":"Richmond,UK","state":"Greater London","country":"United Kingdom","canonicalUrl":"https://foursquare.com/v/the-victoria/4ac518c0f964a5208fa320e3","categoryId":"4bf58dd8d48988d116941735","category":"Bar","checkinsCount":549,"usersCount":288,"tipCount":7,"visitsCount":694,"url":"http://www.thevictoria.net","tier":"","message":"","currency":"","rating":7.6},{"name":"151","address":"151 Kings Road","lat":51.488102,"lng":-0.167304,"neighborhood":"Chelsea","city_fetched":"Richmond,UK","state":"Greater London","country":"United Kingdom","canonicalUrl":"https://foursquare.com/v/151/4c2d265e260bc9289f8a19d3","categoryId":"4bf58dd8d48988d11f941735","category":"Nightclub","checkinsCount":228,"usersCount":136,"tipCount":2,"visitsCount":229,"url":"http://www.151chelsea.com","tier":"","message":"","currency":"","rating":7.6},{"name":"The Windmill On The Common Hotel","phone":"+442086734578","address":"Windmill Drive","lat":51.45747531879597,"lng":-0.14391203781824458,"neighborhood":"Clapham Common","city_fetched":"Richmond,UK","state":"Greater London","country":"United Kingdom","canonicalUrl":"https://foursquare.com/v/the-windmill-on-the-common-hotel/4b880baff964a52072db31e3","categoryId":"4bf58dd8d48988d11b941735","category":"Pub","checkinsCount":2069,"usersCount":1702,"tipCount":30,"visitsCount":2681,"url":"http://www.windmillclapham.co.uk","tier":"","message":"","currency":"","rating":7.6},{"name":"The Roebuck","phone":"+442089482329","address":"130 Richmond Hill","lat":51.45266977138975,"lng":-0.2984333038330078,"neighborhood":"Ham, Petersham and Richmond Riverside","city_fetched":"Richmond,UK","state":"Greater London","country":"United Kingdom","canonicalUrl":"https://foursquare.com/v/the-roebuck/4ace6680f964a52059d020e3","categoryId":"4bf58dd8d48988d11b941735","category":"Pub","checkinsCount":1523,"usersCount":924,"tipCount":27,"visitsCount":1754,"tier":"","message":"","currency":"","rating":7.5},{"name":"So Bar","phone":"+442089400427","twitter":"sobarrichmond","address":"10 Brewers Ln.","lat":51.46086572770132,"lng":-0.30503730873578944,"neighborhood":"South Richmond","city_fetched":"Richmond,UK","state":"Greater London","country":"United Kingdom","canonicalUrl":"https://foursquare.com/v/so-bar/4b76bc82f964a520925b2ee3","categoryId":"4bf58dd8d48988d11e941735","category":"Cocktail Bar","checkinsCount":295,"usersCount":203,"tipCount":7,"visitsCount":296,"url":"http://www.sobar-richmond.co.uk","tier":"","message":"","currency":"","rating":7.5},{"name":"Executive Lounge Hilton","address":"Hilton London Kensington","lat":51.5051343262476,"lng":-0.21421344459969788,"neighborhood":"Kensington and Chelsea","city_fetched":"Richmond,UK","state":"Greater London","country":"United Kingdom","canonicalUrl":"https://foursquare.com/v/executive-lounge-hilton/5056fd67e4b0d070fda9f01e","categoryId":"4bf58dd8d48988d1d5941735","category":"Hotel Bar","checkinsCount":493,"usersCount":173,"tipCount":2,"visitsCount":506,"tier":"","message":"","currency":"","rating":7.5},{"name":"Tonteria Express","phone":"+442078815991","twitter":"tonteriaexpress","address":"7-12 Sloane Sq","lat":51.4926617667013,"lng":-0.15707999502670164,"neighborhood":"Chelsea","city_fetched":"Richmond,UK","state":"Greater London","country":"United Kingdom","canonicalUrl":"https://foursquare.com/v/tonteria-express/508ace3ce4b032cef198ce86","categoryId":"4bf58dd8d48988d11e941735","category":"Cocktail Bar","checkinsCount":1072,"usersCount":751,"tipCount":31,"visitsCount":1098,"url":"http://www.tonteria.co.uk","tier":2,"message":"Moderate","currency":"£","rating":7.5},{"name":"Garden Lounge","address":"Hyde Park Corner (Lanesborough Hotel)","lat":51.502213306623126,"lng":-0.15232098255896181,"neighborhood":"Knightsbridge and Belgravia","city_fetched":"Richmond,UK","state":"Greater London","country":"United Kingdom","canonicalUrl":"https://foursquare.com/v/garden-lounge/4cdbad015aeda1cd2f5bbe11","categoryId":"4bf58dd8d48988d121941735","category":"Lounge","checkinsCount":63,"usersCount":54,"tipCount":3,"visitsCount":69,"tier":"","message":"","currency":"","rating":7.5},{"name":"Drama Club","phone":"+442072084125","address":"35 Hertford St","lat":51.505398689285684,"lng":-0.14966254685311592,"neighborhood":"Mayfair","city_fetched":"Richmond,UK","state":"Greater London","country":"United Kingdom","canonicalUrl":"https://foursquare.com/v/drama-club/55eb73fc498ea54db31ccce2","categoryId":"4bf58dd8d48988d11f941735","category":"Nightclub","checkinsCount":167,"usersCount":127,"tipCount":1,"visitsCount":169,"url":"http://www.dramaparklane.com","tier":"","message":"","currency":"","rating":7.5},{"name":"Dragonfly Brewery at George & Dragon","phone":"+442089923712","twitter":"dragonflyacton","address":"183 Acton High St.","lat":51.507389,"lng":-0.271848,"neighborhood":"Acton","city_fetched":"Richmond,UK","state":"Greater London","country":"United Kingdom","canonicalUrl":"https://foursquare.com/v/dragonfly-brewery-at-george--dragon/4bc1c0b7920eb7130d191b2c","categoryId":"50327c8591d4c4b30a586d5d","category":"Brewery","checkinsCount":394,"usersCount":242,"tipCount":11,"visitsCount":499,"url":"http://www.dragonflybrewery.co.uk","tier":"","message":"","currency":"","rating":7.5},{"name":"The Barmy Arms","phone":"+442088920863","address":"The Embankment","lat":51.446234,"lng":-0.325835,"neighborhood":"Twickenham","city_fetched":"Richmond,UK","state":"Greater London","country":"United Kingdom","canonicalUrl":"https://foursquare.com/v/the-barmy-arms/4b535e0ff964a520519927e3","categoryId":"4bf58dd8d48988d11b941735","category":"Pub","checkinsCount":707,"usersCount":645,"tipCount":10,"visitsCount":982,"tier":"","message":"","currency":"","rating":7.5},{"name":"The Ritz Club","phone":"+442074681350","twitter":"theritzclub","address":"150 Piccadilly","lat":51.507266690556285,"lng":-0.14169573783874512,"neighborhood":"Green Park","city_fetched":"Richmond,UK","state":"Greater London","country":"United Kingdom","canonicalUrl":"https://foursquare.com/v/the-ritz-club/4ba5539bf964a5200ffb38e3","categoryId":"4bf58dd8d48988d121941735","category":"Lounge","checkinsCount":244,"usersCount":157,"tipCount":5,"visitsCount":244,"url":"http://www.theritzclub.com","tier":"","message":"","currency":"","rating":7.5},{"name":"The Sir Michael Balcon (Wetherspoon)","phone":"+442087992850","address":"46-47 The Mall","lat":51.51359937696261,"lng":-0.2986705753246367,"neighborhood":"Ealing Common","city_fetched":"Richmond,UK","state":"Greater London","country":"United Kingdom","canonicalUrl":"https://foursquare.com/v/the-sir-michael-balcon-wetherspoon/4b803fe2f964a520c36030e3","categoryId":"4bf58dd8d48988d11b941735","category":"Pub","checkinsCount":2463,"usersCount":729,"tipCount":13,"visitsCount":2992,"url":"http://www.jdwetherspoon.co.uk","tier":"","message":"","currency":"","rating":7.5},{"name":"The Alexandra","phone":"+442089477691","twitter":"thealexsw19","address":"33 Wimbledon Hill Rd.","lat":51.42189139091254,"lng":-0.2081608772277832,"neighborhood":"Merton","city_fetched":"Richmond,UK","state":"Greater London","country":"United Kingdom","canonicalUrl":"https://foursquare.com/v/the-alexandra/4b8561a0f964a5203f5a31e3","categoryId":"4bf58dd8d48988d11b941735","category":"Pub","checkinsCount":3149,"usersCount":1829,"tipCount":46,"visitsCount":3986,"url":"http://www.alexandrawimbledon.com","tier":2,"message":"Moderate","currency":"£","rating":7.4},{"name":"The Castle","phone":"+442073139301","twitter":"thecastlehp","address":"100 Holland Park Ave","lat":51.50689728017506,"lng":-0.2068935155567197,"neighborhood":"Kensington and Chelsea","city_fetched":"Richmond,UK","state":"Greater London","country":"United Kingdom","canonicalUrl":"https://foursquare.com/v/the-castle/4c780417566db60c932e400e","categoryId":"4bf58dd8d48988d11b941735","category":"Pub","checkinsCount":1170,"usersCount":1115,"tipCount":27,"visitsCount":1631,"url":"http://www.castlehollandpark.co.uk","tier":"","message":"","currency":"","rating":7.4},{"name":"The London Apprentice","phone":"+442085601915","address":"62 Church St","lat":51.471190266376176,"lng":-0.32077250621563297,"neighborhood":"Isleworth","city_fetched":"Richmond,UK","state":"Greater London","country":"United Kingdom","canonicalUrl":"https://foursquare.com/v/the-london-apprentice/4afad23cf964a520d21822e3","categoryId":"4bf58dd8d48988d11b941735","category":"Pub","checkinsCount":744,"usersCount":653,"tipCount":16,"visitsCount":1131,"url":"http://www.thelondonapprentice.co.uk","tier":"","message":"","currency":"","rating":7.4},{"name":"The Botanist","phone":"+442089484838","twitter":"_thebotanistkew","address":"3-5 Kew Green","lat":51.483037,"lng":-0.286931,"neighborhood":"Kew","city_fetched":"Richmond,UK","state":"Surrey","country":"United Kingdom","canonicalUrl":"https://foursquare.com/v/the-botanist/4b800ef3f964a520504e30e3","categoryId":"4bf58dd8d48988d11b941735","category":"Pub","checkinsCount":828,"usersCount":565,"tipCount":19,"visitsCount":936,"url":"http://thebotanistkew.com","tier":"","message":"","currency":"","rating":7.4},{"name":"The Queens Head","phone":"+442075890262","address":"25-27 Tryon St","lat":51.49080584296544,"lng":-0.1630014358017792,"neighborhood":"Kensington and Chelsea","city_fetched":"Richmond,UK","state":"Greater London","country":"United Kingdom","canonicalUrl":"https://foursquare.com/v/the-queens-head/4cb0e226db32f04df8d1c34d","categoryId":"4bf58dd8d48988d11b941735","category":"Pub","checkinsCount":461,"usersCount":547,"tipCount":10,"visitsCount":713,"tier":"","message":"","currency":"","rating":7.3},{"name":"The Old Ship","phone":"+442089403461","twitter":"oldshiprichmond","address":"3 King St","lat":51.45972942104102,"lng":-0.30658721923828125,"neighborhood":"South Richmond","city_fetched":"Richmond,UK","state":"Greater London","country":"United Kingdom","canonicalUrl":"https://foursquare.com/v/the-old-ship/4b3cee4cf964a520d98925e3","categoryId":"4bf58dd8d48988d11b941735","category":"Pub","checkinsCount":917,"usersCount":690,"tipCount":8,"visitsCount":1022,"url":"http://www.youngs.co.uk/pubs/old-ship","tier":"","message":"","currency":"","rating":7.3},{"name":"Magpie & Crown","phone":"+442085604570","address":"128 High St.","lat":51.48292394306549,"lng":-0.3091666217615378,"neighborhood":"Brentford","city_fetched":"Richmond,UK","country":"United Kingdom","canonicalUrl":"https://foursquare.com/v/magpie--crown/4cf7eafb66585481f161d198","categoryId":"4bf58dd8d48988d11b941735","category":"Pub","checkinsCount":775,"usersCount":190,"tipCount":6,"visitsCount":869,"tier":"","message":"","currency":"","rating":7.3},{"name":"Eclipse","phone":"+442072592577","address":"158 Old Brompton Rd.","lat":51.490925,"lng":-0.183278,"city_fetched":"Richmond,UK","state":"Greater London","country":"United Kingdom","canonicalUrl":"https://foursquare.com/v/eclipse/4bdddfd26198c9b6a30712ff","categoryId":"4bf58dd8d48988d11e941735","category":"Cocktail Bar","checkinsCount":1001,"usersCount":825,"tipCount":18,"visitsCount":1063,"url":"http://www.eclipsebars.com/south-kensington/reservations/","tier":3,"message":"Expensive","currency":"£","rating":7.3},{"name":"Skyline Tent","lat":51.48573170896157,"lng":-0.1994862755433937,"neighborhood":"Fulham Broadway","city_fetched":"Richmond,UK","state":"Greater London","country":"United Kingdom","canonicalUrl":"https://foursquare.com/v/skyline-tent/52041c45498ed1d84b1dbbc5","categoryId":"4bf58dd8d48988d121941735","category":"Lounge","checkinsCount":2197,"usersCount":1386,"tipCount":20,"visitsCount":3595,"tier":"","message":"","currency":"","rating":7.3},{"name":"Sambrook's Brewery","phone":"+442072280598","twitter":"sambrookale","address":"Unit 1 & 2 Yelverton Rd","lat":51.46997324878376,"lng":-0.17594031942258512,"neighborhood":"Wandsworth","city_fetched":"Richmond,UK","state":"Greater London","country":"United Kingdom","canonicalUrl":"https://foursquare.com/v/sambrooks-brewery/4bed2bdc9868a593cbf95c46","categoryId":"50327c8591d4c4b30a586d5d","category":"Brewery","checkinsCount":155,"usersCount":133,"tipCount":4,"visitsCount":197,"url":"http://www.sambrooksbrewery.co.uk","tier":"","message":"","currency":"","rating":7.3},{"name":"The Tap on the Line","phone":"+442083321162","twitter":"tapontheline","address":"Station Approach","lat":51.47721778337579,"lng":-0.28513967658567063,"neighborhood":"Kew","city_fetched":"Richmond,UK","state":"Greater London","country":"United Kingdom","canonicalUrl":"https://foursquare.com/v/the-tap-on-the-line/4b632772f964a520d6662ae3","categoryId":"4bf58dd8d48988d11b941735","category":"Pub","checkinsCount":1119,"usersCount":1132,"tipCount":41,"visitsCount":1843,"url":"http://tapontheline.co.uk","tier":"","message":"","currency":"","rating":7.3},{"name":"The Orange Tree","phone":"+442089400944","twitter":"londonirishpubs","address":"45 Kew Rd","lat":51.46420375215658,"lng":-0.30136947052961915,"neighborhood":"South Richmond","city_fetched":"Richmond,UK","state":"Greater London","country":"United Kingdom","canonicalUrl":"https://foursquare.com/v/the-orange-tree/4ee61a462da504839760f8ff","categoryId":"4bf58dd8d48988d11b941735","category":"Pub","checkinsCount":2122,"usersCount":1119,"tipCount":15,"visitsCount":2394,"url":"http://www.londonirishpubs.co.uk","tier":2,"message":"Moderate","currency":"£","rating":7.3},{"name":"Griffin Brewery","phone":"+442089962085","twitter":"fullersbrewery","address":"Chiswick Ln South","lat":51.487783610828984,"lng":-0.2503285472918189,"city_fetched":"Richmond,UK","state":"Greater London","country":"United Kingdom","canonicalUrl":"https://foursquare.com/v/griffin-brewery/4ac518d2f964a5201ca720e3","categoryId":"50327c8591d4c4b30a586d5d","category":"Brewery","checkinsCount":2093,"usersCount":970,"tipCount":7,"visitsCount":2342,"url":"http://www.fullers.co.uk","tier":"","message":"","currency":"","rating":7.3},{"name":"The Dukes Head","phone":"+442089484557","address":"42 The Vineyard","lat":51.458562635636625,"lng":-0.299541793664857,"neighborhood":"South Richmond","city_fetched":"Richmond,UK","country":"United Kingdom","canonicalUrl":"https://foursquare.com/v/the-dukes-head/4be3459421d5a59328af1811","categoryId":"4bf58dd8d48988d11b941735","category":"Pub","checkinsCount":377,"usersCount":127,"tipCount":5,"visitsCount":438,"tier":"","message":"","currency":"","rating":7.3},{"name":"The Alexander Pope","phone":"+442088922758","address":"Cross Deep","lat":51.44132787937829,"lng":-0.3327320378384861,"neighborhood":"Strawberry Hill","city_fetched":"Richmond,UK","country":"United Kingdom","canonicalUrl":"https://foursquare.com/v/the-alexander-pope/4adb17a7f964a5205c2421e3","categoryId":"4bf58dd8d48988d1d5941735","category":"Hotel Bar","checkinsCount":509,"usersCount":356,"tipCount":6,"visitsCount":673,"tier":"","message":"","currency":"","rating":7.2},{"name":"Kings Arms Hotel","address":"2 Lion Gate","lat":51.406610956243554,"lng":-0.3373343043167438,"neighborhood":"Hampton","city_fetched":"Richmond,UK","state":"Greater London","country":"United Kingdom","canonicalUrl":"https://foursquare.com/v/kings-arms-hotel/5144ab69e4b0c80a3161ffe4","categoryId":"4bf58dd8d48988d1d5941735","category":"Hotel Bar","checkinsCount":140,"usersCount":126,"tipCount":1,"visitsCount":150,"url":"http://www.hamptoncourthotel.com","tier":"","message":"","currency":"","rating":7.2},{"name":"Fox & Hounds","phone":"+442079245483","twitter":"thefoxbattersea","address":"66 Latchmere Rd","lat":51.46714486079548,"lng":-0.1628643933011686,"neighborhood":"Battersea","city_fetched":"Richmond,UK","state":"Greater London","country":"United Kingdom","canonicalUrl":"https://foursquare.com/v/fox--hounds/4acf1a99f964a5206bd220e3","categoryId":"4bf58dd8d48988d11b941735","category":"Pub","checkinsCount":790,"usersCount":574,"tipCount":14,"visitsCount":1207,"url":"http://www.thefoxandhoundspub.co.uk","tier":"","message":"","currency":"","rating":7.2},{"name":"The Marlborough","phone":"+442089408513","address":"46 Friars Stile Rd.","lat":51.45513786212442,"lng":-0.29669961725247734,"neighborhood":"South Richmond","city_fetched":"Richmond,UK","state":"Surrey","country":"United Kingdom","canonicalUrl":"https://foursquare.com/v/the-marlborough/4ad4d7d3f964a5202ffc20e3","categoryId":"4bf58dd8d48988d11b941735","category":"Pub","checkinsCount":1001,"usersCount":612,"tipCount":23,"visitsCount":1345,"tier":"","message":"","currency":"","rating":7.2},{"name":"The Eel Pie","phone":"+442088911717","address":"9-11 Church Street","lat":51.44694045563085,"lng":-0.3264702729585954,"neighborhood":"Twickenham","city_fetched":"Richmond,UK","state":"Greater London","country":"United Kingdom","canonicalUrl":"https://foursquare.com/v/the-eel-pie/4bb78d3098c7ef3bbbf32f02","categoryId":"4bf58dd8d48988d11b941735","category":"Pub","checkinsCount":629,"usersCount":479,"tipCount":13,"visitsCount":850,"tier":"","message":"","currency":"","rating":7.2},{"name":"The Old Frizzle","phone":"+442032743056","twitter":"theoldfrizzle","address":"74 The Broadway","lat":51.419616575311096,"lng":-0.2022030268387657,"neighborhood":"Merton","city_fetched":"Richmond,UK","state":"Greater London","country":"United Kingdom","canonicalUrl":"https://foursquare.com/v/the-old-frizzle/4fedf75ee4b038983c43660f","categoryId":"4bf58dd8d48988d116941735","category":"Bar","checkinsCount":855,"usersCount":456,"tipCount":19,"visitsCount":974,"url":"http://www.theoldfrizzle.co.uk","tier":"","message":"","currency":"","rating":7.2},{"name":"Love & Liquor","phone":"+442076257500","twitter":"loveliquorbar","address":"34 Kilburn High Rd","lat":51.53661232932268,"lng":-0.19167230551678596,"city_fetched":"Richmond,UK","state":"Greater London","country":"United Kingdom","canonicalUrl":"https://foursquare.com/v/love--liquor/504a6b87e4b0f228d7d532c7","categoryId":"4bf58dd8d48988d116941735","category":"Bar","checkinsCount":412,"usersCount":222,"tipCount":5,"visitsCount":438,"tier":"","message":"","currency":"","rating":7.2},{"name":"Ailsa Tavern","phone":"+442088911118","twitter":"theailsatavern","address":"263 St Margarets Rd","lat":51.46053994067014,"lng":-0.32288432121276855,"neighborhood":"St. Margarets","city_fetched":"Richmond,UK","country":"United Kingdom","canonicalUrl":"https://foursquare.com/v/ailsa-tavern/4b1bb356f964a520bafc23e3","categoryId":"4bf58dd8d48988d11b941735","category":"Pub","checkinsCount":432,"usersCount":212,"tipCount":7,"visitsCount":575,"url":"http://www.shepherdneame.co.uk","tier":"","message":"","currency":"","rating":7.2},{"name":"Mode","twitter":"voiceofmode","address":"12 Acklam Rd","lat":51.519732388513994,"lng":-0.20592041653931822,"neighborhood":"Golborne","city_fetched":"Richmond,UK","state":"Greater London","country":"United Kingdom","canonicalUrl":"https://foursquare.com/v/mode/533b0934498e8d500ad0918a","categoryId":"4bf58dd8d48988d11f941735","category":"Nightclub","checkinsCount":156,"usersCount":203,"tipCount":6,"visitsCount":253,"url":"https://modecollective.com","tier":"","message":"","currency":"","rating":7.2},{"name":"The Shaftsbury Arms","phone":"+442082552419","address":"121-123 Kew Rd","lat":51.46569183507584,"lng":-0.2991628646850586,"neighborhood":"Richmond upon Thames","city_fetched":"Richmond,UK","state":"Greater London","country":"United Kingdom","canonicalUrl":"https://foursquare.com/v/the-shaftsbury-arms/4ba17168f964a52086b737e3","categoryId":"4bf58dd8d48988d116941735","category":"Bar","checkinsCount":847,"usersCount":382,"tipCount":13,"visitsCount":1030,"url":"http://www.shaftesburyarms.com","tier":"","message":"","currency":"","rating":7.2},{"name":"Watermans Arms","address":"10 Water Ln","lat":51.459326662634915,"lng":-0.30720680952072144,"neighborhood":"South Richmond","city_fetched":"Richmond,UK","state":"Surrey","country":"United Kingdom","canonicalUrl":"https://foursquare.com/v/watermans-arms/4b071beef964a52068f722e3","categoryId":"4bf58dd8d48988d11b941735","category":"Pub","checkinsCount":217,"usersCount":159,"tipCount":2,"visitsCount":217,"tier":"","message":"","currency":"","rating":7.2},{"name":"The Golden Lion","phone":"+442077315481","address":"57 Fulham High Street","lat":51.46996223974341,"lng":-0.21043406703209486,"neighborhood":"Hammersmith and Fulham","city_fetched":"Richmond,UK","state":"Greater London","country":"United Kingdom","canonicalUrl":"https://foursquare.com/v/the-golden-lion/4ac518bdf964a520b5a220e3","categoryId":"4bf58dd8d48988d11b941735","category":"Pub","checkinsCount":665,"usersCount":374,"tipCount":9,"visitsCount":839,"tier":"","message":"","currency":"","rating":7.2},{"name":"Old Mary's","address":"24 Craven Terrace","lat":51.51234479145758,"lng":-0.17840894737666596,"city_fetched":"Richmond,UK","state":"Greater London","country":"United Kingdom","canonicalUrl":"https://foursquare.com/v/old-marys/519fb51e498e4ff71e762e59","categoryId":"4bf58dd8d48988d11e941735","category":"Cocktail Bar","checkinsCount":129,"usersCount":103,"tipCount":2,"visitsCount":131,"tier":"","message":"","currency":"","rating":7.1},{"name":"The Devonshire","phone":"+442086731363","address":"39 Balham High Rd.","lat":51.446812642555756,"lng":-0.14895915985107422,"neighborhood":"Balham","city_fetched":"Richmond,UK","state":"Greater London","country":"United Kingdom","canonicalUrl":"https://foursquare.com/v/the-devonshire/4afa7bebf964a520f41722e3","categoryId":"4bf58dd8d48988d11b941735","category":"Pub","checkinsCount":1443,"usersCount":1051,"tipCount":29,"visitsCount":1862,"url":"http://www.dukeofdevonshirebalham.com‎ ","tier":"","message":"","currency":"","rating":7.1},{"name":"Bunga Bunga","phone":"+442070950360","twitter":"bungabungaldn","address":"37 Battersea Bridge Rd","lat":51.47895073416685,"lng":-0.17037391662597656,"city_fetched":"Richmond,UK","state":"Greater London","country":"United Kingdom","canonicalUrl":"https://foursquare.com/v/bunga-bunga/4e3b0d598877b00cfc2768ae","categoryId":"4bf58dd8d48988d11e941735","category":"Cocktail Bar","checkinsCount":1430,"usersCount":1354,"tipCount":26,"visitsCount":1886,"url":"http://www.bungabunga-london.com","tier":"","message":"","currency":"","rating":7.1},{"name":"Be At One","phone":"+442083326767","twitter":"beatonebar","address":"7A Petersham Rd","lat":51.45760445433979,"lng":-0.30494973063468933,"neighborhood":"South Richmond","city_fetched":"Richmond,UK","state":"Greater London","country":"United Kingdom","canonicalUrl":"https://foursquare.com/v/be-at-one/4b915ab8f964a520a3b533e3","categoryId":"4bf58dd8d48988d11e941735","category":"Cocktail Bar","checkinsCount":521,"usersCount":271,"tipCount":12,"visitsCount":558,"url":"http://www.beatone.co.uk","tier":"","message":"","currency":"","rating":7.1},{"name":"Dirty Martini","phone":"+448443712550","address":"10c Hanover Sq","lat":51.514353018483966,"lng":-0.1434134037349285,"neighborhood":"Mayfair","city_fetched":"Richmond,UK","state":"Greater London","country":"United Kingdom","canonicalUrl":"https://foursquare.com/v/dirty-martini/4ebc159ecc2178857ebfbcaf","categoryId":"4bf58dd8d48988d121941735","category":"Lounge","checkinsCount":814,"usersCount":697,"tipCount":12,"visitsCount":824,"tier":2,"message":"Moderate","currency":"£","rating":7.1},{"name":"New Inn","phone":"+442089409444","address":"345 Petersham Rd.","lat":51.436226166188,"lng":-0.30507468670599336,"neighborhood":"Ham, Petersham and Richmond Riverside","city_fetched":"Richmond,UK","state":"Greater London","country":"United Kingdom","canonicalUrl":"https://foursquare.com/v/new-inn/4ba151fff964a5204aac37e3","categoryId":"4bf58dd8d48988d11b941735","category":"Pub","checkinsCount":241,"usersCount":136,"tipCount":6,"visitsCount":263,"tier":"","message":"","currency":"","rating":7.1},{"name":"Basrah Shisa Lounge","phone":"+442087521342","address":"165 Dukes Road Park Royal","lat":51.523878,"lng":-0.282291,"neighborhood":"North Acton","city_fetched":"Richmond,UK","country":"United Kingdom","canonicalUrl":"https://foursquare.com/v/basrah-shisa-lounge/4c22747f34faef3b32a6586d","categoryId":"4bf58dd8d48988d119941735","category":"Hookah Bar","checkinsCount":370,"usersCount":396,"tipCount":10,"visitsCount":738,"tier":"","message":"","currency":"","rating":7.1},{"name":"The Draft House - Westbridge","phone":"+442072286482","twitter":"drafthousewb","address":"74 - 76 Battersea Bridge Rd","lat":51.47829773350846,"lng":-0.16993082191352127,"neighborhood":"Wandsworth","city_fetched":"Richmond,UK","country":"United Kingdom","canonicalUrl":"https://foursquare.com/v/the-draft-house--westbridge/4ad465e6f964a520bee720e3","categoryId":"4bf58dd8d48988d11b941735","category":"Pub","checkinsCount":2496,"usersCount":1127,"tipCount":21,"visitsCount":3187,"url":"http://www.drafthouse.co.uk","tier":"","message":"","currency":"","rating":7.1},{"name":"The William Webb Ellis (Wetherspoon)","phone":"+442087444300","address":"24 London Rd.","lat":51.447662826434986,"lng":-0.32856620583769747,"neighborhood":"Twickenham","city_fetched":"Richmond,UK","state":"Greater London","country":"United Kingdom","canonicalUrl":"https://foursquare.com/v/the-william-webb-ellis-wetherspoon/4ae0986df964a520c58021e3","categoryId":"4bf58dd8d48988d11b941735","category":"Pub","checkinsCount":1168,"usersCount":616,"tipCount":3,"visitsCount":1296,"url":"http://www.jdwetherspoon.co.uk","tier":"","message":"","currency":"","rating":7.1},{"name":"Wellington Club","phone":"+442078238211","twitter":"wellingtonclub","address":"116A Knightsbridge","lat":51.50165489920642,"lng":-0.16286329988558937,"neighborhood":"Knightsbridge and Belgravia","city_fetched":"Richmond,UK","state":"Greater London","country":"United Kingdom","canonicalUrl":"https://foursquare.com/v/wellington-club/4bfc3f67b5cd2d7f3b4a31fb","categoryId":"4bf58dd8d48988d11f941735","category":"Nightclub","checkinsCount":609,"usersCount":365,"tipCount":6,"visitsCount":619,"url":"http://wellington-club.londonclub.tel","tier":"","message":"","currency":"","rating":7},{"name":"St Margarets Tavern","phone":"+442088922369","twitter":"stmargaretstw1","address":"107 St Margarets Road","lat":51.454791562041805,"lng":-0.3193118556835879,"neighborhood":"St. Margarets","city_fetched":"Richmond,UK","state":"Greater London","country":"United Kingdom","canonicalUrl":"https://foursquare.com/v/st-margarets-tavern/4af71168f964a520730522e3","categoryId":"4bf58dd8d48988d11b941735","category":"Pub","checkinsCount":1136,"usersCount":519,"tipCount":12,"visitsCount":1340,"url":"http://www.stmargaretstw1.co.uk","tier":"","message":"","currency":"","rating":7},{"name":"The Betsy Smith","phone":"+442076245793","twitter":"thebetsysmith","address":"77 Kilburn High Rd","lat":51.53770057657746,"lng":-0.19346237182617188,"city_fetched":"Richmond,UK","state":"Greater London","country":"United Kingdom","canonicalUrl":"https://foursquare.com/v/the-betsy-smith/4c9d1d730e9bb1f76c22da5f","categoryId":"4bf58dd8d48988d121941735","category":"Lounge","checkinsCount":1206,"usersCount":747,"tipCount":18,"visitsCount":1377,"url":"http://www.thebetsysmith.co.uk","tier":"","message":"","currency":"","rating":7},{"name":"Morton's","phone":"+442074990363","address":"28 Berkeley Sq.","lat":51.51016103748661,"lng":-0.14618913004022974,"neighborhood":"Mayfair","city_fetched":"Richmond,UK","state":"Greater London","country":"United Kingdom","canonicalUrl":"https://foursquare.com/v/mortons/4be345bbb02ec9b674114fc0","categoryId":"4bf58dd8d48988d121941735","category":"Lounge","checkinsCount":1476,"usersCount":784,"tipCount":12,"visitsCount":1533,"url":"http://www.mortonsclub.com","tier":"","message":"","currency":"","rating":7},{"name":"Ramusake","phone":"+442078428518","twitter":"ramusake","address":"92b Old Brompton Road","lat":51.492533646448855,"lng":-0.1784432735304484,"neighborhood":"Kensington and Chelsea","city_fetched":"Richmond,UK","state":"Greater London","country":"United Kingdom","canonicalUrl":"https://foursquare.com/v/ramusake/541df94b498e5719ffa3ce30","categoryId":"4bf58dd8d48988d11f941735","category":"Nightclub","checkinsCount":107,"usersCount":84,"tipCount":7,"visitsCount":108,"url":"http://www.ramusake.com","tier":"","message":"","currency":"","rating":7},{"name":"Lost & Co","phone":"+442087802235","twitter":"lostputney","address":"160 High St","lat":51.46132292477151,"lng":-0.21689196269354458,"neighborhood":"Wandsworth","city_fetched":"Richmond,UK","state":"Greater London","country":"United Kingdom","canonicalUrl":"https://foursquare.com/v/lost--co/512fb191e4b0f660fda426eb","categoryId":"4bf58dd8d48988d116941735","category":"Bar","checkinsCount":874,"usersCount":557,"tipCount":34,"visitsCount":1071,"url":"http://www.lostputney.co.uk","tier":2,"message":"Moderate","currency":"£","rating":7},{"name":"RAF Club","phone":"+442073991000","twitter":"therafclub","address":"128 Piccadilly","lat":51.504086563353745,"lng":-0.14837338074949466,"neighborhood":"Mayfair","city_fetched":"Richmond,UK","state":"Greater London","country":"United Kingdom","canonicalUrl":"https://foursquare.com/v/raf-club/4bdae1afc79cc928831380e9","categoryId":"4bf58dd8d48988d121941735","category":"Lounge","checkinsCount":593,"usersCount":319,"tipCount":3,"visitsCount":595,"url":"http://www.rafclub.org.uk","tier":"","message":"","currency":"","rating":7},{"name":"May Fair Bar","phone":"+442079153894","address":"Stratton St.","lat":51.508136722394376,"lng":-0.14358872531771055,"neighborhood":"Mayfair","city_fetched":"Richmond,UK","state":"Greater London","country":"United Kingdom","canonicalUrl":"https://foursquare.com/v/may-fair-bar/4bdc1878c79cc928103285e9","categoryId":"4bf58dd8d48988d1d5941735","category":"Hotel Bar","checkinsCount":1998,"usersCount":1375,"tipCount":19,"visitsCount":2003,"tier":"","message":"","currency":"","rating":6.9},{"name":"Executive Lounge Hilton","address":"London Hilton on Park Lane","lat":51.50541910952795,"lng":-0.15068441309984862,"neighborhood":"Mayfair","city_fetched":"Richmond,UK","state":"Greater London","country":"United Kingdom","canonicalUrl":"https://foursquare.com/v/executive-lounge-hilton/4dfa1604d22d964c6b9bdb43","categoryId":"4bf58dd8d48988d1d5941735","category":"Hotel Bar","checkinsCount":668,"usersCount":321,"tipCount":3,"visitsCount":669,"tier":"","message":"","currency":"","rating":6.9},{"name":"The Exhibit","phone":"+442087726556","twitter":"theexhibit","address":"12 Balham Station Rd.","lat":51.44316876894105,"lng":-0.15123214236951044,"neighborhood":"Balham","city_fetched":"Richmond,UK","state":"Greater London","country":"United Kingdom","canonicalUrl":"https://foursquare.com/v/the-exhibit/4ad63980f964a520d70521e3","categoryId":"4bf58dd8d48988d116941735","category":"Bar","checkinsCount":1574,"usersCount":914,"tipCount":34,"visitsCount":1657,"url":"http://www.theexhibit.co.uk","tier":"","message":"","currency":"","rating":6.9},{"name":"Salt Whisky Bar","phone":"+442074021155","twitter":"saltwhiskybar","address":"82 Seymour St","lat":51.51430886347134,"lng":-0.16165559413911007,"neighborhood":"Marylebone","city_fetched":"Richmond,UK","state":"Greater London","country":"United Kingdom","canonicalUrl":"https://foursquare.com/v/salt-whisky-bar/4ac518bff964a52058a320e3","categoryId":"4bf58dd8d48988d122941735","category":"Whisky Bar","checkinsCount":4851,"usersCount":2199,"tipCount":41,"visitsCount":5322,"url":"http://www.saltbar.com","tier":"","message":"","currency":"","rating":6.9},{"name":"The Fox","address":"39 Church St","lat":51.446598669286296,"lng":-0.32654285430908203,"neighborhood":"Twickenham","city_fetched":"Richmond,UK","state":"Greater London","country":"United Kingdom","canonicalUrl":"https://foursquare.com/v/the-fox/4bba1a813db7b713a7e5229a","categoryId":"4bf58dd8d48988d11b941735","category":"Pub","checkinsCount":727,"usersCount":419,"tipCount":9,"visitsCount":830,"tier":"","message":"","currency":"","rating":6.9},{"name":"The Britannia","phone":"+442079376905","address":"1 Allen St","lat":51.49869039407534,"lng":-0.19541157211452845,"neighborhood":"Abingdon","city_fetched":"Richmond,UK","state":"Greater London","country":"United Kingdom","canonicalUrl":"https://foursquare.com/v/the-britannia/4ac518bef964a520efa220e3","categoryId":"4bf58dd8d48988d116941735","category":"Bar","checkinsCount":2734,"usersCount":1006,"tipCount":24,"visitsCount":3287,"url":"http://www.britanniakensington.co.uk‎","tier":"","message":"","currency":"","rating":6.9},{"name":"Beaufort House","phone":"+442073522828","address":"345 Kings Rd","lat":51.484162350922226,"lng":-0.17612457275390625,"neighborhood":"Cremorne","city_fetched":"Richmond,UK","state":"Greater London","country":"United Kingdom","canonicalUrl":"https://foursquare.com/v/beaufort-house/4bae1d8df964a52012863be3","categoryId":"4bf58dd8d48988d11e941735","category":"Cocktail Bar","checkinsCount":1769,"usersCount":1385,"tipCount":24,"visitsCount":1976,"url":"http://www.beauforthousechelsea.co.uk","tier":"","message":"","currency":"","rating":6.9},{"name":"Hagen & Hyde","phone":"+442087720016","twitter":"hagenhyde","address":"157 Balham High Rd","lat":51.44392610171415,"lng":-0.15231316242773865,"neighborhood":"Balham","city_fetched":"Richmond,UK","state":"Greater London","country":"United Kingdom","canonicalUrl":"https://foursquare.com/v/hagen--hyde/51f1745d498e766a81a58b41","categoryId":"4bf58dd8d48988d11b941735","category":"Pub","checkinsCount":813,"usersCount":630,"tipCount":20,"visitsCount":1137,"url":"http://hagenandhyde.com","tier":"","message":"","currency":"","rating":6.9},{"name":"The Red Cow","address":"59 Sheen Rd","lat":51.46164078331889,"lng":-0.29688891528091754,"neighborhood":"South Richmond","city_fetched":"Richmond,UK","state":"Greater London","country":"United Kingdom","canonicalUrl":"https://foursquare.com/v/the-red-cow/4b478b18f964a520373526e3","categoryId":"4bf58dd8d48988d11b941735","category":"Pub","checkinsCount":628,"usersCount":261,"tipCount":11,"visitsCount":674,"tier":"","message":"","currency":"","rating":6.8},{"name":"The Ritz Cigar Lounge","phone":"+442074938181","address":"The Ritz Hotel","lat":51.506809308222365,"lng":-0.14237525064397946,"neighborhood":"Green Park","city_fetched":"Richmond,UK","state":"Greater London","country":"United Kingdom","canonicalUrl":"https://foursquare.com/v/the-ritz-cigar-lounge/5186e5d7498efdc2ae9ccbab","categoryId":"4bf58dd8d48988d121941735","category":"Lounge","checkinsCount":92,"usersCount":60,"tipCount":3,"visitsCount":93,"tier":"","message":"","currency":"","rating":6.8},{"name":"The Lamb","phone":"+442089941880","twitter":"lambchiswick","address":"9 Barley Mow Passage","lat":51.49214519346533,"lng":-0.2624647594831261,"city_fetched":"Richmond,UK","state":"Greater London","country":"United Kingdom","canonicalUrl":"https://foursquare.com/v/the-lamb/504e3928e4b0c8862c1ae038","categoryId":"4bf58dd8d48988d11b941735","category":"Pub","checkinsCount":1069,"usersCount":639,"tipCount":23,"visitsCount":1180,"url":"http://www.thelambchiswick.co.uk","tier":"","message":"","currency":"","rating":6.8},{"name":"The Fusilier","phone":"+442089037863","address":"652 Harrow Rd. Sudbury","lat":51.551753661957854,"lng":-0.3108992252649489,"neighborhood":"Sudbury","city_fetched":"Richmond,UK","state":"Greater London","country":"United Kingdom","canonicalUrl":"https://foursquare.com/v/the-fusilier/4bd7c86a304fce72600534ab","categoryId":"4bf58dd8d48988d11b941735","category":"Pub","checkinsCount":126,"usersCount":63,"tipCount":3,"visitsCount":138,"url":"http://www.fusilierinn.co.uk","tier":"","message":"","currency":"","rating":6.8},{"name":"Old Station House","phone":"+442087422555","address":"2 Grove Park Rd","lat":51.481555,"lng":-0.269399,"city_fetched":"Richmond,UK","state":"Greater London","country":"United Kingdom","canonicalUrl":"https://foursquare.com/v/old-station-house/4b4cb6ebf964a5207bbb26e3","categoryId":"4bf58dd8d48988d11b941735","category":"Pub","checkinsCount":678,"usersCount":348,"tipCount":10,"visitsCount":821,"url":"http://www.housebars.co.uk/oldstationhouse","tier":2,"message":"Moderate","currency":"£","rating":6.8},{"name":"Han Karaoke Restaurant","phone":"+442089497730","twitter":"hankaraoke","address":"1 High St.","lat":51.403468911420774,"lng":-0.2565685568721523,"neighborhood":"Kingston upon Thames","city_fetched":"Richmond,UK","state":"Surrey","country":"United Kingdom","canonicalUrl":"https://foursquare.com/v/han-karaoke-restaurant/4e2de9021495329632f56bf0","categoryId":"4bf58dd8d48988d120941735","category":"Karaoke Bar","checkinsCount":212,"usersCount":152,"tipCount":7,"visitsCount":238,"tier":1,"message":"Cheap","currency":"£","rating":6.8},{"name":"Tommy Flynn's","phone":"+442087400977","address":"269 Uxbridge Rd.","lat":51.50663229585028,"lng":-0.2449178695678711,"neighborhood":"Askew","city_fetched":"Richmond,UK","state":"Greater London","country":"United Kingdom","canonicalUrl":"https://foursquare.com/v/tommy-flynns/51311ec1e4b0cd2aaf2dc243","categoryId":"4bf58dd8d48988d11b941735","category":"Pub","checkinsCount":163,"usersCount":129,"tipCount":5,"visitsCount":266,"tier":"","message":"","currency":"","rating":6.8},{"name":"Whisky Mist","phone":"+442072084067","address":"35 Hertford St","lat":51.50536241081564,"lng":-0.14995587511785954,"neighborhood":"Mayfair","city_fetched":"Richmond,UK","state":"Greater London","country":"United Kingdom","canonicalUrl":"https://foursquare.com/v/whisky-mist/4ac529b7f964a520bbb020e3","categoryId":"4bf58dd8d48988d11f941735","category":"Nightclub","checkinsCount":1460,"usersCount":1071,"tipCount":14,"visitsCount":1470,"tier":"","message":"","currency":"","rating":6.8},{"name":"Raffles","phone":"+442073514964","address":"287 King's Rd.","lat":51.485449144648165,"lng":-0.17383922910632152,"city_fetched":"Richmond,UK","state":"Greater London","country":"United Kingdom","canonicalUrl":"https://foursquare.com/v/raffles/4bc917380687ef3b086ad9cc","categoryId":"4bf58dd8d48988d11f941735","category":"Nightclub","checkinsCount":964,"usersCount":674,"tipCount":19,"visitsCount":1094,"url":"http://www.raffleschelsea.com","tier":"","message":"","currency":"","rating":6.7},{"name":"The Armoury Pub","phone":"+442088759615","twitter":"armourypub","address":"14 Armoury Way","lat":51.45879771594401,"lng":-0.19445502977064508,"neighborhood":"Wandsworth","city_fetched":"Richmond,UK","state":"Greater London","country":"United Kingdom","canonicalUrl":"https://foursquare.com/v/the-armoury-pub/4c80decf74d7b60c30ea70d8","categoryId":"4bf58dd8d48988d11b941735","category":"Pub","checkinsCount":342,"usersCount":158,"tipCount":4,"visitsCount":361,"tier":"","message":"","currency":"","rating":6.7},{"name":"Karaoke Box","phone":"+442074938800","twitter":"karaokeboxuk","address":"14 Maddox St","lat":51.51343108727006,"lng":-0.1416107546962218,"neighborhood":"Mayfair","city_fetched":"Richmond,UK","state":"Greater London","country":"United Kingdom","canonicalUrl":"https://foursquare.com/v/karaoke-box/4f9c51b1e4b0027bd4d05c0f","categoryId":"4bf58dd8d48988d120941735","category":"Karaoke Bar","checkinsCount":523,"usersCount":238,"tipCount":5,"visitsCount":524,"tier":"","message":"","currency":"","rating":6.7},{"name":"The Rose","address":"23 Orchard St","lat":51.51490387328773,"lng":-0.15409712640524786,"neighborhood":"Marylebone","city_fetched":"Richmond,UK","state":"Greater London","country":"United Kingdom","canonicalUrl":"https://foursquare.com/v/the-rose/4ed4399a6da10f207482e4d3","categoryId":"4bf58dd8d48988d11f941735","category":"Nightclub","checkinsCount":450,"usersCount":326,"tipCount":9,"visitsCount":450,"tier":"","message":"","currency":"","rating":6.7},{"name":"Cavalli","lat":51.50169701288689,"lng":-0.16234804062509425,"neighborhood":"Knightsbridge and Belgravia","city_fetched":"Richmond,UK","country":"United Kingdom","canonicalUrl":"https://foursquare.com/v/cavalli/54443acb498e6255f1579e6f","categoryId":"4bf58dd8d48988d119941735","category":"Hookah Bar","checkinsCount":301,"usersCount":129,"tipCount":2,"visitsCount":319,"tier":"","message":"","currency":"","rating":6.7},{"name":"The Beachcomber","address":"86 Queensway","lat":51.51282774708072,"lng":-0.18772056164432127,"neighborhood":"Lancaster Gate","city_fetched":"Richmond,UK","country":"United Kingdom","canonicalUrl":"https://foursquare.com/v/the-beachcomber/4e5c268dd22dcfc934115080","categoryId":"4bf58dd8d48988d11e941735","category":"Cocktail Bar","checkinsCount":127,"usersCount":89,"tipCount":2,"visitsCount":129,"tier":"","message":"","currency":"","rating":6.7},{"name":"The Tabard","phone":"+442034681194","address":"2 Bath Rd","lat":51.49579953993044,"lng":-0.25470612874363896,"city_fetched":"Richmond,UK","state":"Greater London","country":"United Kingdom","canonicalUrl":"https://foursquare.com/v/the-tabard/4b5af814f964a520c7dc28e3","categoryId":"4bf58dd8d48988d11b941735","category":"Pub","checkinsCount":1349,"usersCount":764,"tipCount":17,"visitsCount":1612,"url":"http://www.taylor-walker.co.uk/pub-food/tabard-chiswick/pid-M2617","tier":"","message":"","currency":"","rating":6.7},{"name":"The Railway","phone":"+442076247611","twitter":"therailwaynw6","address":"West End Ln","lat":51.546335,"lng":-0.19113,"city_fetched":"Richmond,UK","state":"Greater London","country":"United Kingdom","canonicalUrl":"https://foursquare.com/v/the-railway/4b6ec711f964a5202cca2ce3","categoryId":"4bf58dd8d48988d11b941735","category":"Pub","checkinsCount":958,"usersCount":732,"tipCount":12,"visitsCount":1223,"tier":"","message":"","currency":"","rating":6.7},{"name":"The Cricketers","phone":"+448721077077","twitter":"cricketerstw9","address":"The Green","lat":51.46071879735201,"lng":-0.3063138979431278,"neighborhood":"South Richmond","city_fetched":"Richmond,UK","state":"Greater London","country":"United Kingdom","canonicalUrl":"https://foursquare.com/v/the-cricketers/4ad4d835f964a52030fc20e3","categoryId":"4bf58dd8d48988d11b941735","category":"Pub","checkinsCount":979,"usersCount":588,"tipCount":11,"visitsCount":1003,"url":"http://www.cricketersrichmond.com","tier":"","message":"","currency":"","rating":6.7},{"name":"Terrace Bar","phone":"+442077301234","address":"at Harrods","lat":51.49862187398412,"lng":-0.16295500169053104,"neighborhood":"Kensington and Chelsea","city_fetched":"Richmond,UK","state":"Greater London","country":"United Kingdom","canonicalUrl":"https://foursquare.com/v/terrace-bar/4cb085cb1463a143d07a9da9","categoryId":"4bf58dd8d48988d116941735","category":"Bar","checkinsCount":338,"usersCount":288,"tipCount":7,"visitsCount":338,"tier":"","message":"","currency":"","rating":6.6},{"name":"Amika London","phone":"+448456434003","twitter":"amikalondon","address":"43 South Molton Street","lat":51.513897256014594,"lng":-0.14833688735961914,"neighborhood":"Mayfair","city_fetched":"Richmond,UK","state":"Greater London","country":"United Kingdom","canonicalUrl":"https://foursquare.com/v/amika-london/4f9b16c7e4b0e5be3ec3d7f5","categoryId":"4bf58dd8d48988d11f941735","category":"Nightclub","checkinsCount":208,"usersCount":156,"tipCount":2,"visitsCount":209,"url":"http://www.amikamayfair.com","tier":"","message":"","currency":"","rating":6.6},{"name":"Earlsfield, The","lat":51.442293,"lng":-0.188094,"neighborhood":"Earlsfield","city_fetched":"Richmond,UK","country":"United Kingdom","canonicalUrl":"https://foursquare.com/v/earlsfield-the/543d6563498ecacff569d83c","categoryId":"4bf58dd8d48988d121941735","category":"Lounge","checkinsCount":95,"usersCount":56,"tipCount":3,"visitsCount":95,"tier":"","message":"","currency":"","rating":6.6},{"name":"Mayfair Club","phone":"+447834363888","address":"Dover Street","lat":51.50747785409934,"lng":-0.14128828823465484,"neighborhood":"Green Park","city_fetched":"Richmond,UK","state":"Greater London","country":"United Kingdom","canonicalUrl":"https://foursquare.com/v/mayfair-club/4ccc9d6b7c2ff04dfd7c9a7e","categoryId":"4bf58dd8d48988d1d6941735","category":"Strip Club","checkinsCount":270,"usersCount":180,"tipCount":4,"visitsCount":276,"url":"http://velvet-pr.com/guestlists/the-mayfair-club/","tier":"","message":"","currency":"","rating":6.6},{"name":"The Slug at Wimbledon","phone":"+442089471791","address":"16 Hartfield Rd","lat":51.420202059500944,"lng":-0.20619750022888184,"neighborhood":"Merton","city_fetched":"Richmond,UK","state":"Greater London","country":"United Kingdom","canonicalUrl":"https://foursquare.com/v/the-slug-at-wimbledon/4bd74295f645c9b6f78ea5e0","categoryId":"4bf58dd8d48988d11d941735","category":"Sports Bar","checkinsCount":1145,"usersCount":650,"tipCount":13,"visitsCount":1222,"tier":"","message":"","currency":"","rating":6.6},{"name":"Checkmate Bar","phone":"+442073705711","twitter":"parkinthotel","address":"117-129 Cromwell Rd","lat":51.494747,"lng":-0.186991,"neighborhood":"Queen's Gate","city_fetched":"Richmond,UK","state":"Greater London","country":"United Kingdom","canonicalUrl":"https://foursquare.com/parkinthotel","categoryId":"4bf58dd8d48988d11e941735","category":"Cocktail Bar","checkinsCount":651,"usersCount":277,"tipCount":13,"visitsCount":664,"url":"http://www.parkinternationalhotel.com","tier":"","message":"","currency":"","rating":6.5},{"name":"68-86 Restaurant & Bar","phone":"+442076661891","address":"68 Cromwell Rd.","lat":51.495193023830105,"lng":-0.18151156724802295,"neighborhood":"Queen's Gate","city_fetched":"Richmond,UK","state":"Greater London","country":"United Kingdom","canonicalUrl":"https://foursquare.com/v/6886-restaurant--bar/4ac518def964a520c6a920e3","categoryId":"4bf58dd8d48988d1d5941735","category":"Hotel Bar","checkinsCount":189,"usersCount":106,"tipCount":3,"visitsCount":189,"url":"http://www.radissonedwardian.com/feature.do?feature=68-86","tier":"","message":"","currency":"","rating":6.5},{"name":"Fawanees","phone":"+442089981599","address":"69 Hanger Ln","lat":51.533727,"lng":-0.295559,"neighborhood":"Ealing","city_fetched":"Richmond,UK","state":"Greater London","country":"United Kingdom","canonicalUrl":"https://foursquare.com/v/fawanees/4d8e2403c479a35df9b03e97","categoryId":"4bf58dd8d48988d119941735","category":"Hookah Bar","checkinsCount":196,"usersCount":67,"tipCount":6,"visitsCount":200,"url":"http://www.fawanees.co.uk","tier":"","message":"","currency":"","rating":6.5},{"name":"The Victoria Inn","phone":"+442089402531","address":"78 Hill Rise","lat":51.457135,"lng":-0.303962,"neighborhood":"South Richmond","city_fetched":"Richmond,UK","state":"Surrey","country":"United Kingdom","canonicalUrl":"https://foursquare.com/v/the-victoria-inn/4ad3c02bf964a5201be620e3","categoryId":"4bf58dd8d48988d11b941735","category":"Pub","checkinsCount":273,"usersCount":143,"tipCount":2,"visitsCount":292,"tier":"","message":"","currency":"","rating":6.5},{"name":"Duke of York","phone":"+442035823965","address":"8 Dering St.","lat":51.514162,"lng":-0.145922,"neighborhood":"Mayfair","city_fetched":"Richmond,UK","state":"Greater London","country":"United Kingdom","canonicalUrl":"https://foursquare.com/v/duke-of-york/4bae7b0af964a520c0b73be3","categoryId":"4bf58dd8d48988d11b941735","category":"Pub","checkinsCount":720,"usersCount":608,"tipCount":8,"visitsCount":723,"url":"http://www.taylor-walker.co.uk/pub-food/duke-of-york-mayfair/pid-C0830","tier":"","message":"","currency":"","rating":6.5},{"name":"The Plough","phone":"+442087995600","address":"297 Northfields Ave","lat":51.497108636013046,"lng":-0.31261682510375977,"neighborhood":"Northfield","city_fetched":"Richmond,UK","state":"Greater London","country":"United Kingdom","canonicalUrl":"https://foursquare.com/v/the-plough/4acdf378f964a520aacd20e3","categoryId":"4bf58dd8d48988d11b941735","category":"Pub","checkinsCount":1221,"usersCount":621,"tipCount":28,"visitsCount":1551,"url":"http://ploughnorthfields.co.uk","tier":"","message":"","currency":"","rating":6.5},{"name":"Pitcher and Piano","phone":"+442083322524","address":"11 Bridge St","lat":51.458018091082415,"lng":-0.30663013458251953,"neighborhood":"South Richmond","city_fetched":"Richmond,UK","state":"Greater London","country":"United Kingdom","canonicalUrl":"https://foursquare.com/v/pitcher-and-piano/4bf02ad2f831c92857aa01f2","categoryId":"4bf58dd8d48988d116941735","category":"Bar","checkinsCount":1751,"usersCount":1432,"tipCount":26,"visitsCount":1917,"url":"http://www.pitcherandpiano.com/where-are-we/london-Richmond","tier":"","message":"","currency":"","rating":6.5},{"name":"Hemingways Lounge Bar","phone":"+442089447722","address":"High St (A219)","lat":51.42542989099667,"lng":-0.21919993809927682,"neighborhood":"Village","city_fetched":"Richmond,UK","state":"Greater London","country":"United Kingdom","canonicalUrl":"https://foursquare.com/v/hemingways-lounge-bar/4c1d3ec2b306c928cd4165b7","categoryId":"4bf58dd8d48988d121941735","category":"Lounge","checkinsCount":339,"usersCount":224,"tipCount":6,"visitsCount":350,"tier":"","message":"","currency":"","rating":6.5},{"name":"Earl of Lonsdale","phone":"+442077276335","address":"277-281 Westbourne Grove","lat":51.513486629691045,"lng":-0.20280718803405762,"neighborhood":"Pembridge","city_fetched":"Richmond,UK","state":"Greater London","country":"United Kingdom","canonicalUrl":"https://foursquare.com/v/earl-of-lonsdale/4adb4034f964a5203b2521e3","categoryId":"4bf58dd8d48988d11b941735","category":"Pub","checkinsCount":1057,"usersCount":856,"tipCount":14,"visitsCount":1128,"tier":"","message":"","currency":"","rating":6.5},{"name":"Revolution","phone":"+442089401379","twitter":"revolutionbars","address":"4 Whittaker Ave.","lat":51.45847002521446,"lng":-0.30741079434069474,"neighborhood":"South Richmond","city_fetched":"Richmond,UK","state":"Greater London","country":"United Kingdom","canonicalUrl":"https://foursquare.com/v/revolution/4bc6fcb414d79521d28166e9","categoryId":"4bf58dd8d48988d116941735","category":"Bar","checkinsCount":1223,"usersCount":718,"tipCount":17,"visitsCount":1244,"tier":"","message":"","currency":"","rating":6.5},{"name":"Azteca Latin Lounge","phone":"+442073524087","address":"329 Kings Rd.","lat":51.48428623333333,"lng":-0.175988,"neighborhood":"Cremorne","city_fetched":"Richmond,UK","state":"Greater London","country":"United Kingdom","canonicalUrl":"https://foursquare.com/v/azteca-latin-lounge/4be5a0d5d4f7c9b63ea62520","categoryId":"4bf58dd8d48988d121941735","category":"Lounge","checkinsCount":365,"usersCount":308,"tipCount":13,"visitsCount":365,"tier":"","message":"","currency":"","rating":6.5},{"name":"The Prince's Head","phone":"+442089401572","twitter":"princeshead","address":"28 The Green","lat":51.460639,"lng":-0.30633,"neighborhood":"South Richmond","city_fetched":"Richmond,UK","state":"Greater London","country":"United Kingdom","canonicalUrl":"https://foursquare.com/v/the-princes-head/4ae8493cf964a5207dae21e3","categoryId":"4bf58dd8d48988d11b941735","category":"Pub","checkinsCount":1257,"usersCount":539,"tipCount":17,"visitsCount":1442,"url":"http://www.princeshead.co.uk","tier":"","message":"","currency":"","rating":6.4},{"name":"Juju","phone":"+442073515998","address":"316 kings road","lat":51.485545,"lng":-0.173666,"neighborhood":"Chelsea","city_fetched":"Richmond,UK","state":"Greater London","country":"United Kingdom","canonicalUrl":"https://foursquare.com/v/juju/4b92b344f964a520e41234e3","categoryId":"4bf58dd8d48988d11f941735","category":"Nightclub","checkinsCount":772,"usersCount":607,"tipCount":19,"visitsCount":785,"url":"http://velvet-pr.com/guestlists/juju-chelsea/","tier":"","message":"","currency":"","rating":6.4},{"name":"King William IV/Travel Joy Hostels","phone":"+442078349689","address":"111 Grosvenor Rd","lat":51.485320625,"lng":-0.141833,"neighborhood":"City of Westminster","city_fetched":"Richmond,UK","state":"Greater London","country":"United Kingdom","canonicalUrl":"https://foursquare.com/v/king-william-ivtravel-joy-hostels/4bd72189304fce72ce1e33ab","categoryId":"4bf58dd8d48988d11b941735","category":"Pub","checkinsCount":538,"usersCount":387,"tipCount":6,"visitsCount":618,"tier":1,"message":"Cheap","currency":"£","rating":6.4},{"name":"The Candlemaker","lat":51.47064473853531,"lng":-0.17258726035844418,"neighborhood":"Wandsworth","city_fetched":"Richmond,UK","country":"United Kingdom","canonicalUrl":"https://foursquare.com/v/the-candlemaker/50955321498e4ddf6826dede","categoryId":"4bf58dd8d48988d11b941735","category":"Pub","checkinsCount":354,"usersCount":179,"tipCount":6,"visitsCount":379,"tier":"","message":"","currency":"","rating":6.4},{"name":"Pryzm","phone":"+448452932863","address":"154 Clarence St","lat":51.41159626753441,"lng":-0.30011914924137023,"neighborhood":"Kingston upon Thames","city_fetched":"Richmond,UK","state":"Greater London","country":"United Kingdom","canonicalUrl":"https://foursquare.com/v/pryzm/4b57b2bef964a520853c28e3","categoryId":"4bf58dd8d48988d11f941735","category":"Nightclub","checkinsCount":1027,"usersCount":569,"tipCount":16,"visitsCount":1048,"url":"http://www.pryzm.co.uk","tier":"","message":"","currency":"","rating":6.4},{"name":"The Duchess","phone":"+442076274711","twitter":"duchessmihara","address":"101 Battersea Park Rd.","lat":51.478790367283665,"lng":-0.14277935028076172,"neighborhood":"Battersea","city_fetched":"Richmond,UK","state":"Greater London","country":"United Kingdom","canonicalUrl":"https://foursquare.com/v/the-duchess/4be5e2c3d4f7c9b605162620","categoryId":"4bf58dd8d48988d116941735","category":"Bar","checkinsCount":176,"usersCount":154,"tipCount":10,"visitsCount":179,"tier":"","message":"","currency":"","rating":6.4},{"name":"Famous 3 Kings","phone":"+448721077077","twitter":"f3k_london","address":"171-173 North End Rd","lat":51.490789598034546,"lng":-0.20674467086791992,"city_fetched":"Richmond,UK","state":"Greater London","country":"United Kingdom","canonicalUrl":"https://foursquare.com/v/famous-3-kings/4ace4bc1f964a520b6cf20e3","categoryId":"4bf58dd8d48988d11d941735","category":"Sports Bar","checkinsCount":2394,"usersCount":1944,"tipCount":39,"visitsCount":3166,"url":"http://www.f3k-london.co.uk","tier":2,"message":"Moderate","currency":"£","rating":6.4},{"name":"The Merchant","phone":"+442072284187","twitter":"themerchantpub","address":"23-25 Battersea Rise","lat":51.46085244645549,"lng":-0.16359329223632812,"neighborhood":"Northcote","city_fetched":"Richmond,UK","state":"Greater London","country":"United Kingdom","canonicalUrl":"https://foursquare.com/v/the-merchant/4acf70bbf964a520aed320e3","categoryId":"4bf58dd8d48988d11b941735","category":"Pub","checkinsCount":1271,"usersCount":670,"tipCount":23,"visitsCount":1354,"url":"http://www.themerchantbattersea.com","tier":"","message":"","currency":"","rating":6.4},{"name":"Belushi's","phone":"+442087350270","twitter":"belushis","address":"13-15 Shepherd's Bush Green","lat":51.50398777645351,"lng":-0.21818161010742188,"neighborhood":"Shepherd's Bush","city_fetched":"Richmond,UK","state":"Greater London","country":"United Kingdom","canonicalUrl":"https://foursquare.com/v/belushis/4c75802866be6dcb9c9ac00f","categoryId":"4bf58dd8d48988d116941735","category":"Bar","checkinsCount":1328,"usersCount":927,"tipCount":19,"visitsCount":1382,"url":"https://www.belushis.com","tier":1,"message":"Cheap","currency":"£","rating":6.4},{"name":"The Grosvenor Hotel Bar","address":"101 Buckingham Palace Road","lat":51.49539081848184,"lng":-0.14557938919486144,"neighborhood":"City of Westminster","city_fetched":"Richmond,UK","state":"Greater London","country":"United Kingdom","canonicalUrl":"https://foursquare.com/v/the-grosvenor-hotel-bar/4b196b66f964a52004dd23e3","categoryId":"4bf58dd8d48988d1d5941735","category":"Hotel Bar","checkinsCount":528,"usersCount":362,"tipCount":14,"visitsCount":528,"tier":"","message":"","currency":"","rating":6.3},{"name":"Avenue Bar & Lounge","phone":"+442076033355","twitter":"avenuebarlounge","address":"179-199 Holland Park Ave.","lat":51.50484258738895,"lng":-0.21457672119140625,"neighborhood":"Kensington and Chelsea","city_fetched":"Richmond,UK","state":"Greater London","country":"United Kingdom","canonicalUrl":"https://foursquare.com/avenuebarlounge","categoryId":"4bf58dd8d48988d116941735","category":"Bar","checkinsCount":121,"usersCount":67,"tipCount":0,"visitsCount":121,"url":"http://www3.hilton.com/en/hotels/united-kingdom/hilton-london-kensington-hotel-lhrhitw/dining/index.html","tier":"","message":"","currency":"","rating":6.3},{"name":"O'Donoghue's","phone":"+442087431587","twitter":"londonirishpubs","address":"174 Goldhawk Rd.","lat":51.5012362448806,"lng":-0.2332019805908203,"neighborhood":"Askew","city_fetched":"Richmond,UK","state":"Greater London","country":"United Kingdom","canonicalUrl":"https://foursquare.com/v/odonoghues/4b3f7e18f964a520cba725e3","categoryId":"4bf58dd8d48988d11b941735","category":"Pub","checkinsCount":60,"usersCount":42,"tipCount":1,"visitsCount":81,"url":"http://www.londonirishpubs.co.uk","tier":"","message":"","currency":"","rating":6.3},{"name":"LayaLina","phone":"+442075814296","twitter":"layalinasw3","address":"2 Beauchamp Place","lat":51.497946,"lng":-0.165614,"neighborhood":"Kensington and Chelsea","city_fetched":"Richmond,UK","state":"Greater London","country":"United Kingdom","canonicalUrl":"https://foursquare.com/v/layalina/516eb418e4b05f6d87aec1af","categoryId":"4bf58dd8d48988d119941735","category":"Hookah Bar","checkinsCount":505,"usersCount":470,"tipCount":5,"visitsCount":647,"url":"http://www.layalina.co.uk","tier":"","message":"","currency":"","rating":6.3},{"name":"The Clapham Grand","phone":"+442072236523","twitter":"theclaphamgrand","address":"21-25 St John's Hill","lat":51.46316525697485,"lng":-0.16932249069213867,"neighborhood":"Northcote","city_fetched":"Richmond,UK","state":"Greater London","country":"United Kingdom","canonicalUrl":"https://foursquare.com/v/the-clapham-grand/4ac518c5f964a520b9a420e3","categoryId":"4bf58dd8d48988d11f941735","category":"Nightclub","checkinsCount":1556,"usersCount":1284,"tipCount":19,"visitsCount":1664,"url":"http://www.claphamgrand.com","tier":"","message":"","currency":"","rating":6.3},{"name":"The Cricketers","phone":"+442089402078","twitter":"cricketerstw9","address":"79 Kew Green","lat":51.485345,"lng":-0.288477,"neighborhood":"Kew","city_fetched":"Richmond,UK","state":"Greater London","country":"United Kingdom","canonicalUrl":"https://foursquare.com/v/the-cricketers/4ada476ef964a520d22021e3","categoryId":"4bf58dd8d48988d11b941735","category":"Pub","checkinsCount":510,"usersCount":384,"tipCount":16,"visitsCount":553,"url":"http://www.cricketersrichmond.com","tier":"","message":"","currency":"","rating":6.2},{"name":"The Rocket (Wetherspoon)","phone":"+442087808970","address":"Putney Wharf Tower","lat":51.46544787114914,"lng":-0.21327855928820968,"neighborhood":"Wandsworth","city_fetched":"Richmond,UK","state":"Greater London","country":"United Kingdom","canonicalUrl":"https://foursquare.com/v/the-rocket-wetherspoon/4beab9ad415e20a16656e5bb","categoryId":"4bf58dd8d48988d11b941735","category":"Pub","checkinsCount":2596,"usersCount":1141,"tipCount":17,"visitsCount":3052,"url":"http://www.jdwetherspoon.co.uk","tier":1,"message":"Cheap","currency":"£","rating":6.2},{"name":"Horse & Groom","phone":"+442072356980","address":"7 Groom Pl","lat":51.49917702815647,"lng":-0.15085766934548187,"neighborhood":"Knightsbridge and Belgravia","city_fetched":"Richmond,UK","state":"Greater London","country":"United Kingdom","canonicalUrl":"https://foursquare.com/v/horse--groom/4d274242b818a35d5ce1898a","categoryId":"4bf58dd8d48988d11b941735","category":"Pub","checkinsCount":509,"usersCount":301,"tipCount":6,"visitsCount":580,"url":"http://www.shepherdneame.co.uk","tier":"","message":"","currency":"","rating":6.2},{"name":"Angel and Crown","phone":"+442089401508","address":"5 Church Court","lat":51.46077223127088,"lng":-0.30405521392822266,"neighborhood":"South Richmond","city_fetched":"Richmond,UK","state":"Greater London","country":"United Kingdom","canonicalUrl":"https://foursquare.com/v/angel-and-crown/4b643082f964a52046a32ae3","categoryId":"4bf58dd8d48988d11b941735","category":"Pub","checkinsCount":454,"usersCount":207,"tipCount":4,"visitsCount":521,"url":"http://www.angel-and-crown-richmond.co.uk","tier":"","message":"","currency":"","rating":6.2},{"name":"The Slug","address":"Fulham Rd","lat":51.48029014510582,"lng":-0.1981427880336995,"city_fetched":"Richmond,UK","state":"Greater London","country":"United Kingdom","canonicalUrl":"https://foursquare.com/v/the-slug/5177b2ffe4b0badbab1bcd7f","categoryId":"4bf58dd8d48988d11b941735","category":"Pub","checkinsCount":411,"usersCount":325,"tipCount":10,"visitsCount":431,"tier":"","message":"","currency":"","rating":6.2},{"name":"The Castle","phone":"+442072217103","address":"225 Portobello Rd","lat":51.51666248536544,"lng":-0.2056999173872629,"neighborhood":"Kensington and Chelsea","city_fetched":"Richmond,UK","state":"Greater London","country":"United Kingdom","canonicalUrl":"https://foursquare.com/v/the-castle/4ca38fddb0ff8cfa336eb85e","categoryId":"4bf58dd8d48988d11b941735","category":"Pub","checkinsCount":1409,"usersCount":1075,"tipCount":17,"visitsCount":1435,"url":"http://www.castleportobello.co.uk","tier":"","message":"","currency":"","rating":6.2},{"name":"The Lass O' Richmond Hill","phone":"+442089401306","address":"8 Queen's Road","lat":51.45160003225469,"lng":-0.29564380645751953,"neighborhood":"Ham, Petersham and Richmond Riverside","city_fetched":"Richmond,UK","state":"Greater London","country":"United Kingdom","canonicalUrl":"https://foursquare.com/v/the-lass-o-richmond-hill/4b24ee42f964a520956a24e3","categoryId":"4bf58dd8d48988d11b941735","category":"Pub","checkinsCount":929,"usersCount":582,"tipCount":22,"visitsCount":1095,"tier":2,"message":"Moderate","currency":"£","rating":6.1},{"name":"The Trafalgar","phone":"+442085425342","address":"23 High Path. Merton","lat":51.413907892757905,"lng":-0.18917557699204843,"neighborhood":"Abbey","city_fetched":"Richmond,UK","state":"Greater London","country":"United Kingdom","canonicalUrl":"https://foursquare.com/v/the-trafalgar/4d4da27713d88cfaf5a70bda","categoryId":"4bf58dd8d48988d11b941735","category":"Pub","checkinsCount":193,"usersCount":54,"tipCount":2,"visitsCount":195,"url":"http://www.trafalgarfreehouse.co.uk","tier":"","message":"","currency":"","rating":6.1},{"name":"Kings Head","address":"10 Stafford St","lat":51.50861678600408,"lng":-0.14147154547547416,"neighborhood":"Mayfair","city_fetched":"Richmond,UK","state":"Greater London","country":"United Kingdom","canonicalUrl":"https://foursquare.com/v/kings-head/4ba3cc12f964a520736038e3","categoryId":"4bf58dd8d48988d116941735","category":"Bar","checkinsCount":1358,"usersCount":1078,"tipCount":18,"visitsCount":1419,"tier":"","message":"","currency":"","rating":6.1},{"name":"Little Persia","phone":"+442072438288","address":"38 Queensway","lat":51.511529870573554,"lng":-0.18734854647328003,"neighborhood":"Lancaster Gate","city_fetched":"Richmond,UK","state":"Greater London","country":"United Kingdom","canonicalUrl":"https://foursquare.com/v/little-persia/5091656d3950422ec224fdb2","categoryId":"4bf58dd8d48988d119941735","category":"Hookah Bar","checkinsCount":1009,"usersCount":711,"tipCount":20,"visitsCount":1030,"url":"http://www.littlepersia.co.uk","tier":"","message":"","currency":"","rating":6},{"name":"The Earl Of Portobello","phone":"+442089606600","address":"36 golborne road","lat":51.52324166946446,"lng":-0.20690069669313446,"neighborhood":"Golborne","city_fetched":"Richmond,UK","state":"Greater London","country":"United Kingdom","canonicalUrl":"https://foursquare.com/v/the-earl-of-portobello/4d5fd5bb338bb60c67af20bd","categoryId":"4bf58dd8d48988d11b941735","category":"Pub","checkinsCount":239,"usersCount":173,"tipCount":6,"visitsCount":239,"tier":"","message":"","currency":"","rating":6},{"name":"Notting Hill Arts Club","phone":"+442074604459","twitter":"nottinghillarts","address":"21 Notting Hill Gate","lat":51.509404,"lng":-0.1944032,"neighborhood":"Kensington and Chelsea","city_fetched":"Richmond,UK","state":"Greater London","country":"United Kingdom","canonicalUrl":"https://foursquare.com/v/notting-hill-arts-club/4ac518c6f964a52029a520e3","categoryId":"4bf58dd8d48988d11f941735","category":"Nightclub","checkinsCount":1510,"usersCount":1193,"tipCount":28,"visitsCount":1556,"url":"http://www.nottinghillartsclub.com","tier":"","message":"","currency":"","rating":6},{"name":"West 5","phone":"+442085793266","twitter":"west5ealing","address":"Popes Lane","lat":51.49866488196202,"lng":-0.30330419540405273,"neighborhood":"Northfield","city_fetched":"Richmond,UK","state":"Greater London","country":"United Kingdom","canonicalUrl":"https://foursquare.com/v/west-5/4bb668d346d4a593742fc6c0","categoryId":"4bf58dd8d48988d1d8941735","category":"Gay Bar","checkinsCount":614,"usersCount":349,"tipCount":6,"visitsCount":973,"url":"http://www.west5ealing.co.uk","tier":"","message":"","currency":"","rating":6},{"name":"The Terrace","phone":"+442089449970","address":"4 Queens Rd","lat":51.420844,"lng":-0.205691,"neighborhood":"Merton","city_fetched":"Richmond,UK","state":"Greater London","country":"United Kingdom","canonicalUrl":"https://foursquare.com/v/the-terrace/4b5470e0f964a52068bb27e3","categoryId":"4bf58dd8d48988d116941735","category":"Bar","checkinsCount":1150,"usersCount":641,"tipCount":27,"visitsCount":1156,"url":"http://www.theterracewimbledon.co.uk","tier":"","message":"","currency":"","rating":6},{"name":"The Hand And Flower","address":"24 Upper Ham Rd","lat":51.43231272697449,"lng":-0.306671,"neighborhood":"Ham, Petersham and Richmond Riverside","city_fetched":"Richmond,UK","state":"Surrey","country":"United Kingdom","canonicalUrl":"https://foursquare.com/v/the-hand-and-flower/4bc9bdd6511f9521b520aec7","categoryId":"4bf58dd8d48988d11b941735","category":"Pub","checkinsCount":221,"usersCount":99,"tipCount":6,"visitsCount":221,"url":"http://www.handandflower.com","tier":"","message":"","currency":"","rating":6},{"name":"Po Na Na Souk Bar","phone":"+442085401616","twitter":"wimbledonponana","address":"82 The Broadway","lat":51.4196272408888,"lng":-0.20177670641590428,"neighborhood":"Merton","city_fetched":"Richmond,UK","state":"Greater London","country":"United Kingdom","canonicalUrl":"https://foursquare.com/v/po-na-na-souk-bar/4ac518bef964a5200ba320e3","categoryId":"4bf58dd8d48988d116941735","category":"Bar","checkinsCount":372,"usersCount":136,"tipCount":2,"visitsCount":394,"url":"http://www.wimbledonponana.com","tier":"","message":"","currency":"","rating":6},{"name":"One Kew Road","phone":"+442089405768","twitter":"onekewroad","address":"1 Kew Rd","lat":51.4632788891529,"lng":-0.3023117780685425,"neighborhood":"South Richmond","city_fetched":"Richmond,UK","state":"Surrey","country":"United Kingdom","canonicalUrl":"https://foursquare.com/v/one-kew-road/4db176d3f7b1bd003adcb0b5","categoryId":"4bf58dd8d48988d11b941735","category":"Pub","checkinsCount":644,"usersCount":427,"tipCount":9,"visitsCount":647,"url":"http://onekewroadrichmond.co.uk‎ ","tier":"","message":"","currency":"","rating":5.9},{"name":"Pacha London","phone":"+448453714489","address":"Terminus Place","lat":51.49640894765345,"lng":-0.14428934819264144,"neighborhood":"City of Westminster","city_fetched":"Richmond,UK","state":"Greater London","country":"United Kingdom","canonicalUrl":"https://foursquare.com/v/pacha-london/4ac518cdf964a520d9a520e3","categoryId":"4bf58dd8d48988d11f941735","category":"Nightclub","checkinsCount":2164,"usersCount":1767,"tipCount":32,"visitsCount":2231,"tier":2,"message":"Moderate","currency":"£","rating":5.9},{"name":"Rising Sun","phone":"+442077309519","address":"46 Ebury Bridge Rd","lat":51.489720104928345,"lng":-0.1502439091634282,"city_fetched":"Richmond,UK","state":"Greater London","country":"United Kingdom","canonicalUrl":"https://foursquare.com/v/rising-sun/4baba93ff964a520e3bd3ae3","categoryId":"4bf58dd8d48988d11b941735","category":"Pub","checkinsCount":462,"usersCount":376,"tipCount":3,"visitsCount":632,"url":"http://www.risingsunpimlico.co.uk","tier":"","message":"","currency":"","rating":5.9},{"name":"Sports Bar & Grill","phone":"+442076307482","address":"Victoria Station","lat":51.49517668380815,"lng":-0.1444359861888769,"neighborhood":"City of Westminster","city_fetched":"Richmond,UK","state":"Greater London","country":"United Kingdom","canonicalUrl":"https://foursquare.com/v/sports-bar--grill/4bedcbbb4daaa593413c8f61","categoryId":"4bf58dd8d48988d11d941735","category":"Sports Bar","checkinsCount":1498,"usersCount":1014,"tipCount":22,"visitsCount":1501,"url":"http://sportsbarandgrill.co.uk","tier":"","message":"","currency":"","rating":5.9},{"name":"Embargo 59","phone":"+442073515038","twitter":"embargo59","address":"533b King's Rd","lat":51.480372,"lng":-0.185345,"neighborhood":"Cremorne","city_fetched":"Richmond,UK","state":"Greater London","country":"United Kingdom","canonicalUrl":"https://foursquare.com/v/embargo-59/4ac518c8f964a52091a520e3","categoryId":"4bf58dd8d48988d11f941735","category":"Nightclub","checkinsCount":574,"usersCount":461,"tipCount":14,"visitsCount":597,"url":"http://www.embargo59.com","tier":"","message":"","currency":"","rating":5.9},{"name":"Be At One","phone":"+442086757542","address":"3 Ramsden Rd","lat":51.44484003849296,"lng":-0.15194714069366455,"neighborhood":"Balham","city_fetched":"Richmond,UK","state":"Greater London","country":"United Kingdom","canonicalUrl":"https://foursquare.com/v/be-at-one/4b532db4f964a520439127e3","categoryId":"4bf58dd8d48988d11e941735","category":"Cocktail Bar","checkinsCount":405,"usersCount":237,"tipCount":4,"visitsCount":408,"tier":"","message":"","currency":"","rating":5.9},{"name":"No.41","twitter":"no4mayfair","address":"41 Conduit St","lat":51.51171047884515,"lng":-0.14267679980331174,"neighborhood":"Mayfair","city_fetched":"Richmond,UK","state":"Greater London","country":"United Kingdom","canonicalUrl":"https://foursquare.com/v/no41/52447618498eb79fa750b1b9","categoryId":"4bf58dd8d48988d11f941735","category":"Nightclub","checkinsCount":375,"usersCount":292,"tipCount":12,"visitsCount":382,"tier":"","message":"","currency":"","rating":5.8},{"name":"The Swan Inn","phone":"+442088474805","address":"1 Swan St","lat":51.469016127808445,"lng":-0.32403228775072584,"neighborhood":"Isleworth","city_fetched":"Richmond,UK","state":"Greater London","country":"United Kingdom","canonicalUrl":"https://foursquare.com/v/the-swan-inn/4b6580f8f964a520a2f22ae3","categoryId":"4bf58dd8d48988d11b941735","category":"Pub","checkinsCount":464,"usersCount":77,"tipCount":3,"visitsCount":475,"url":"http://www.swaninnisleworth.co.uk","tier":"","message":"","currency":"","rating":5.8},{"name":"The Belgravia","phone":"+442077306040","address":"152 Ebury Street","lat":51.492462,"lng":-0.15126585960388184,"neighborhood":"Knightsbridge and Belgravia","city_fetched":"Richmond,UK","state":"Greater London","country":"United Kingdom","canonicalUrl":"https://foursquare.com/v/the-belgravia/4b5623b9f964a520380228e3","categoryId":"4bf58dd8d48988d11b941735","category":"Pub","checkinsCount":372,"usersCount":280,"tipCount":6,"visitsCount":423,"tier":"","message":"","currency":"","rating":5.8},{"name":"Frankie's Sports Bar & Diner","phone":"+442079578298","twitter":"frankiessports","address":"Stamford Bridge","lat":51.48104836180222,"lng":-0.18948111216972346,"neighborhood":"Hammersmith and Fulham","city_fetched":"Richmond,UK","state":"Greater London","country":"United Kingdom","canonicalUrl":"https://foursquare.com/v/frankies-sports-bar--diner/4d80d3204a984eb929fd27e8","categoryId":"4bf58dd8d48988d11d941735","category":"Sports Bar","checkinsCount":1051,"usersCount":774,"tipCount":16,"visitsCount":1054,"url":"http://frankiessportsdiner.com","tier":"","message":"","currency":"","rating":5.8},{"name":"Loop","phone":"+442074931003","twitter":"loopbar","address":"19 Dering St","lat":51.514160366218185,"lng":-0.1455720353405585,"neighborhood":"Mayfair","city_fetched":"Richmond,UK","state":"Greater London","country":"United Kingdom","canonicalUrl":"https://foursquare.com/v/loop/4ac518c0f964a52077a320e3","categoryId":"4bf58dd8d48988d11e941735","category":"Cocktail Bar","checkinsCount":1796,"usersCount":1467,"tipCount":13,"visitsCount":1938,"url":"http://www.theloopbar.co.uk","tier":"","message":"","currency":"","rating":5.8},{"name":"The Britannia","phone":"+442089409786","address":"5 Brewers Ln","lat":51.460981,"lng":-0.304977,"neighborhood":"South Richmond","city_fetched":"Richmond,UK","state":"Surrey","country":"United Kingdom","canonicalUrl":"https://foursquare.com/v/the-britannia/4ad6f49af964a5206b0821e3","categoryId":"4bf58dd8d48988d11b941735","category":"Pub","checkinsCount":548,"usersCount":376,"tipCount":7,"visitsCount":592,"tier":"","message":"","currency":"","rating":5.8},{"name":"The Sun Inn","phone":"+442089401019","address":"17 Parkshot","lat":51.46406093823295,"lng":-0.3020811080932617,"neighborhood":"South Richmond","city_fetched":"Richmond,UK","state":"Greater London","country":"United Kingdom","canonicalUrl":"https://foursquare.com/v/the-sun-inn/4b2c05dcf964a520d7bf24e3","categoryId":"4bf58dd8d48988d11b941735","category":"Pub","checkinsCount":610,"usersCount":333,"tipCount":11,"visitsCount":641,"url":"http://www.suninnrichmond.co.uk","tier":"","message":"","currency":"","rating":5.7},{"name":"The Hippodrome","phone":"+442085414411","address":"1 St James Rd","lat":51.4082891401025,"lng":-0.304682529441748,"neighborhood":"Kingston upon Thames","city_fetched":"Richmond,UK","state":"Greater London","country":"United Kingdom","canonicalUrl":"https://foursquare.com/v/the-hippodrome/4b62199af964a5205c352ae3","categoryId":"4bf58dd8d48988d11f941735","category":"Nightclub","checkinsCount":1263,"usersCount":666,"tipCount":6,"visitsCount":1439,"url":"http://www.kingstonhippodrome.co.uk","tier":"","message":"","currency":"","rating":5.7},{"name":"Flava's Lounge Bar & Grill","phone":"+442082321060","address":"1 Mattock Ln.","lat":51.511536463608,"lng":-0.3064568131647257,"neighborhood":"Ealing Broadway","city_fetched":"Richmond,UK","state":"Greater London","country":"United Kingdom","canonicalUrl":"https://foursquare.com/v/flavas-lounge-bar--grill/4c69a9a98e7c0f47653be00f","categoryId":"4bf58dd8d48988d119941735","category":"Hookah Bar","checkinsCount":291,"usersCount":188,"tipCount":5,"visitsCount":303,"url":"http://www.flavasbar.com","tier":"","message":"","currency":"","rating":5.7},{"name":"Lala Brasserie","phone":"+442086000200","address":"2 Queen Caroline St.","lat":51.49255664738047,"lng":-0.2247037329645748,"neighborhood":"Hammersmith Broadway","city_fetched":"Richmond,UK","state":"Greater London","country":"United Kingdom","canonicalUrl":"https://foursquare.com/v/lala-brasserie/4d321b07c6cba35d72fd1d7a","categoryId":"4bf58dd8d48988d116941735","category":"Bar","checkinsCount":1177,"usersCount":400,"tipCount":8,"visitsCount":1188,"url":"http://www.lalaw6.com","tier":"","message":"","currency":"","rating":5.6},{"name":"The Railway Tavern","phone":"+442089480735","address":"28-29 The Quadrant","lat":51.462534404976616,"lng":-0.30237588421984585,"neighborhood":"South Richmond","city_fetched":"Richmond,UK","state":"Greater London","country":"United Kingdom","canonicalUrl":"https://foursquare.com/v/the-railway-tavern/5478c798498e141c4cbe2409","categoryId":"4bf58dd8d48988d11b941735","category":"Pub","checkinsCount":193,"usersCount":140,"tipCount":2,"visitsCount":199,"url":"http://www.nicholsonspubs.co.uk/therailwaytavernrichmond/","tier":"","message":"","currency":"","rating":5.6},{"name":"Moomba Kitchen & Bar","phone":"+442083326655","address":"20 Hill St","lat":51.459101049526595,"lng":-0.3060293197631836,"neighborhood":"South Richmond","city_fetched":"Richmond,UK","state":"Surrey","country":"United Kingdom","canonicalUrl":"https://foursquare.com/v/moomba-kitchen--bar/4d7ca72cda568cfaa3176aff","categoryId":"4bf58dd8d48988d116941735","category":"Bar","checkinsCount":150,"usersCount":121,"tipCount":5,"visitsCount":150,"tier":"","message":"","currency":"","rating":5.6},{"name":"Waggon & Horses","phone":"+442083900211","twitter":"absolutepubs","address":"1 Surbiton Hill Rd","lat":51.39899480409575,"lng":-0.30225813388824463,"neighborhood":"Kingston upon Thames","city_fetched":"Richmond,UK","state":"Greater London","country":"United Kingdom","canonicalUrl":"https://foursquare.com/v/waggon--horses/4beeb3eb3686c9b620ce246e","categoryId":"4bf58dd8d48988d11b941735","category":"Pub","checkinsCount":436,"usersCount":284,"tipCount":8,"visitsCount":650,"url":"http://waggonandhorsessurbiton.co.uk","tier":"","message":"","currency":"","rating":5.6},{"name":"All Bar One","phone":"+442089482449","address":"11 Hill St","lat":51.459102,"lng":-0.306198,"neighborhood":"South Richmond","city_fetched":"Richmond,UK","state":"Surrey","country":"United Kingdom","canonicalUrl":"https://foursquare.com/v/all-bar-one/4b1a70f0f964a52063ea23e3","categoryId":"4bf58dd8d48988d116941735","category":"Bar","checkinsCount":1047,"usersCount":586,"tipCount":10,"visitsCount":1091,"tier":"","message":"","currency":"","rating":5.6},{"name":"Bonbonniere Club London","address":"23 Orchard Street","lat":51.514826505348694,"lng":-0.15452192483082827,"neighborhood":"Marylebone","city_fetched":"Richmond,UK","state":"Greater London","country":"United Kingdom","canonicalUrl":"https://foursquare.com/v/bonbonniere-club-london/545d492d498ecae5d1ba1c84","categoryId":"4bf58dd8d48988d11f941735","category":"Nightclub","checkinsCount":182,"usersCount":131,"tipCount":3,"visitsCount":187,"tier":"","message":"","currency":"","rating":5.6},{"name":"Wetherspoons","phone":"+442079310445","address":"London Victoria Station (VIC)","lat":51.49522503979861,"lng":-0.144195556640625,"neighborhood":"City of Westminster","city_fetched":"Richmond,UK","state":"Greater London","country":"United Kingdom","canonicalUrl":"https://foursquare.com/v/wetherspoons/4b882b32f964a52095e431e3","categoryId":"4bf58dd8d48988d11b941735","category":"Pub","checkinsCount":3973,"usersCount":2457,"tipCount":29,"visitsCount":3997,"url":"http://www.jdwetherspoon.co.uk","tier":1,"message":"Cheap","currency":"£","rating":5.5},{"name":"The Sugar Cane","phone":"+442072238866","address":"247-249 Lavender Hill","lat":51.46433856902535,"lng":-0.16318003165388945,"neighborhood":"Wandsworth","city_fetched":"Richmond,UK","state":"Greater London","country":"United Kingdom","canonicalUrl":"https://foursquare.com/v/the-sugar-cane/4ada21b9f964a520db1e21e3","categoryId":"4bf58dd8d48988d116941735","category":"Bar","checkinsCount":663,"usersCount":605,"tipCount":11,"visitsCount":735,"tier":"","message":"","currency":"","rating":5.5},{"name":"City Of Quebec","phone":"+442076296159","address":"12 Old Quebec St","lat":51.513874,"lng":-0.157827,"neighborhood":"Marylebone","city_fetched":"Richmond,UK","state":"Greater London","country":"United Kingdom","canonicalUrl":"https://foursquare.com/v/city-of-quebec/4b2a786af964a520c9a924e3","categoryId":"4bf58dd8d48988d1d8941735","category":"Gay Bar","checkinsCount":812,"usersCount":576,"tipCount":7,"visitsCount":831,"url":"http://www.traditionalpubslondon.co.uk/cityofquebec/","tier":"","message":"","currency":"","rating":5.5},{"name":"Upper West","phone":"+447834363888","address":"Kings Road","lat":51.488842546528915,"lng":-0.16542348129610132,"neighborhood":"Chelsea","city_fetched":"Richmond,UK","country":"United Kingdom","canonicalUrl":"https://foursquare.com/v/upper-west/51204329e4b0a1ec7f9681a4","categoryId":"4bf58dd8d48988d11f941735","category":"Nightclub","checkinsCount":161,"usersCount":148,"tipCount":3,"visitsCount":161,"url":"http://www.upperwestlondon.com","tier":"","message":"","currency":"","rating":5.5},{"name":"Executive Lounge Marriott","address":"Marriott London Kensington","lat":51.494351604751856,"lng":-0.1901276007545408,"neighborhood":"Kensington and Chelsea","city_fetched":"Richmond,UK","state":"Greater London","country":"United Kingdom","canonicalUrl":"https://foursquare.com/v/executive-lounge-marriott/4f53aebfe4b0195da530b30b","categoryId":"4bf58dd8d48988d1d5941735","category":"Hotel Bar","checkinsCount":482,"usersCount":141,"tipCount":3,"visitsCount":482,"tier":"","message":"","currency":"","rating":5.5},{"name":"The Lot","phone":"+442089406423","twitter":"thelot_dukest","address":"1A Duke St","lat":51.461438274358514,"lng":-0.30394353981989075,"neighborhood":"South Richmond","city_fetched":"Richmond,UK","state":"Greater London","country":"United Kingdom","canonicalUrl":"https://foursquare.com/v/the-lot/4c5b1f98d3aee21ede6c6c55","categoryId":"4bf58dd8d48988d11b941735","category":"Pub","checkinsCount":294,"usersCount":149,"tipCount":8,"visitsCount":294,"tier":"","message":"","currency":"","rating":5.5},{"name":"Town Wharf Pub","phone":"+442088472287","address":"Swan Street Old Isleworth Middlesex","lat":51.46927325281615,"lng":-0.32231944626135817,"neighborhood":"Isleworth","city_fetched":"Richmond,UK","state":"Greater London","country":"United Kingdom","canonicalUrl":"https://foursquare.com/v/town-wharf-pub/4b5888eef964a5209f5c28e3","categoryId":"4bf58dd8d48988d11b941735","category":"Pub","checkinsCount":258,"usersCount":83,"tipCount":6,"visitsCount":265,"tier":"","message":"","currency":"","rating":5.5},{"name":"Yates's","phone":"+442085700091","twitter":"yateshounslow","address":"1–3 Bath Rd","lat":51.4683252093868,"lng":-0.3666043281555176,"city_fetched":"Richmond,UK","state":"Greater London","country":"United Kingdom","canonicalUrl":"https://foursquare.com/v/yatess/4b6b04f6f964a52000ed2be3","categoryId":"4bf58dd8d48988d116941735","category":"Bar","checkinsCount":387,"usersCount":239,"tipCount":8,"visitsCount":457,"url":"http://www.weareyates.co.uk","tier":"","message":"","currency":"","rating":5.4},{"name":"The Artesian Well","phone":"+442076273353","address":"693 Wandsworth Rd.","lat":51.468169,"lng":-0.144313,"neighborhood":"Clapham Town","city_fetched":"Richmond,UK","state":"Greater London","country":"United Kingdom","canonicalUrl":"https://foursquare.com/v/the-artesian-well/4d4deec0d6f3224b7602a2a6","categoryId":"4bf58dd8d48988d11f941735","category":"Nightclub","checkinsCount":318,"usersCount":255,"tipCount":6,"visitsCount":330,"url":"http://www.artesianwell.co.uk","tier":"","message":"","currency":"","rating":5.3},{"name":"The Slug and Lettuce","phone":"+442089487733","address":"Riverside House, Water Ln","lat":51.458633107672505,"lng":-0.3080463409423828,"neighborhood":"South Richmond","city_fetched":"Richmond,UK","state":"Surrey","country":"United Kingdom","canonicalUrl":"https://foursquare.com/v/the-slug-and-lettuce/4b64883bf964a52061bb2ae3","categoryId":"4bf58dd8d48988d11b941735","category":"Pub","checkinsCount":830,"usersCount":600,"tipCount":11,"visitsCount":853,"tier":"","message":"","currency":"","rating":5.3},{"name":"Red Bar","phone":"+442074996363","twitter":"redbar_jw","address":"Grosvenor House Hotel","lat":51.509444,"lng":-0.155446,"neighborhood":"Mayfair","city_fetched":"Richmond,UK","state":"Greater London","country":"United Kingdom","canonicalUrl":"https://foursquare.com/v/red-bar/4bacfc25f964a52057213be3","categoryId":"4bf58dd8d48988d116941735","category":"Bar","checkinsCount":387,"usersCount":302,"tipCount":3,"visitsCount":387,"tier":"","message":"","currency":"","rating":5.3},{"name":"The Bear","phone":"+442088437281","address":"26-28 York St","lat":51.44735339609892,"lng":-0.327431958041046,"neighborhood":"Twickenham","city_fetched":"Richmond,UK","state":"Greater London","country":"United Kingdom","canonicalUrl":"https://foursquare.com/v/the-bear/4b1ab584f964a52000f023e3","categoryId":"4bf58dd8d48988d11b941735","category":"Pub","checkinsCount":476,"usersCount":274,"tipCount":6,"visitsCount":490,"url":"http://www.thebeartwickenham.co.uk","tier":"","message":"","currency":"","rating":5.1},{"name":"The Fox & Hounds","address":"165-167  Upper Richmond Rd","lat":51.460975,"lng":-0.217487,"neighborhood":"Wandsworth","city_fetched":"Richmond,UK","state":"Greater London","country":"United Kingdom","canonicalUrl":"https://foursquare.com/v/the-fox--hounds/4b59f0d0f964a52086a228e3","categoryId":"4bf58dd8d48988d11b941735","category":"Pub","checkinsCount":737,"usersCount":281,"tipCount":7,"visitsCount":744,"url":"http://www.thefoxandhoundsputney.co.uk","tier":"","message":"","currency":"","rating":4.9},{"name":"Janet's Bar","phone":"+442075813160","twitter":"janetsbar","address":"30 Old Brompton Rd.","lat":51.49367289812601,"lng":-0.1749982670046098,"city_fetched":"Richmond,UK","state":"Greater London","country":"United Kingdom","canonicalUrl":"https://foursquare.com/v/janets-bar/4b8d7cdff964a520bffe32e3","categoryId":"4bf58dd8d48988d11e941735","category":"Cocktail Bar","checkinsCount":589,"usersCount":444,"tipCount":25,"visitsCount":599,"tier":"","message":"","currency":"","rating":4.9},{"name":"Fez Club Putney","phone":"+442087800123","twitter":"fezclubputney","address":"200 Upper Richmond Rd","lat":51.46085244645549,"lng":-0.2165508270263672,"neighborhood":"Wandsworth","city_fetched":"Richmond,UK","state":"Greater London","country":"United Kingdom","canonicalUrl":"https://foursquare.com/v/fez-club-putney/4b81b392f964a520aeb830e3","categoryId":"4bf58dd8d48988d11f941735","category":"Nightclub","checkinsCount":455,"usersCount":302,"tipCount":13,"visitsCount":456,"url":"http://www.putneyfez.com","tier":"","message":"","currency":"","rating":4.7}]