[{"name":"The Bell Hotel Pub","phone":"+441580200234","address":"High Street","lat":51.04675408087055,"lng":0.40847868592029035,"city_fetched":"Robertsbridge,UK","country":"United Kingdom","canonicalUrl":"https://foursquare.com/v/the-bell-hotel-pub/4ef659d88b81ef98cfe01539","categoryId":"4bf58dd8d48988d11b941735","category":"Pub","checkinsCount":118,"usersCount":97,"tipCount":4,"visitsCount":174,"url":"http://thebellinticehurst.com/the-bell/","tier":"","message":"","currency":"","rating":7.9},{"name":"The Plough Inn - Shepherd Neame","phone":"+441424751066","address":"Westfield","lat":50.90690619159022,"lng":0.5804595351219177,"city_fetched":"Robertsbridge,UK","state":"East Sussex","country":"United Kingdom","canonicalUrl":"https://foursquare.com/v/the-plough-inn--shepherd-neame/4d3f03fd557d6dcb697f5444","categoryId":"4bf58dd8d48988d11b941735","category":"Pub","checkinsCount":21,"usersCount":9,"tipCount":1,"visitsCount":24,"url":"http://www.shepherdneame.co.uk","tier":"","message":"","currency":"","rating":6.6},{"name":"King William IV - Shepherd Neame","phone":"+441580240636","address":"The Street","lat":51.06723678308614,"lng":0.5793571472167969,"city_fetched":"Robertsbridge,UK","state":"Kent","country":"United Kingdom","canonicalUrl":"https://foursquare.com/v/king-william-iv--shepherd-neame/4c2f29d47cc0c9b6a933eb9a","categoryId":"4bf58dd8d48988d11b941735","category":"Pub","checkinsCount":11,"usersCount":5,"tipCount":1,"visitsCount":11,"url":"http://www.shepherdneame.co.uk","tier":"","message":"","currency":"","rating":6.4},{"name":"The Royal Oak - Shepherd Neame","phone":"+441424870492","address":"Whatlington","lat":50.94526380359445,"lng":0.5089706182479858,"city_fetched":"Robertsbridge,UK","state":"East Sussex","country":"United Kingdom","canonicalUrl":"https://foursquare.com/v/the-royal-oak--shepherd-neame/4e67472f814db74217777c4d","categoryId":"4bf58dd8d48988d11b941735","category":"Pub","checkinsCount":12,"usersCount":11,"tipCount":0,"visitsCount":12,"url":"http://www.shepherdneame.co.uk","tier":"","message":"","currency":"","rating":6.4},{"name":"The Harrow - Shepherd Neame","phone":"+441424751109","address":"828 The Ridge","lat":50.89022307560637,"lng":0.5562150478363037,"city_fetched":"Robertsbridge,UK","country":"United Kingdom","canonicalUrl":"https://foursquare.com/v/the-harrow--shepherd-neame/4e22e411d22d0a3f5a069146","categoryId":"4bf58dd8d48988d11b941735","category":"Pub","checkinsCount":19,"usersCount":14,"tipCount":0,"visitsCount":19,"url":"http://www.shepherdneame.co.uk","tier":"","message":"","currency":"","rating":6.4},{"name":"The Abbey Hotel - Shepherd Neame","phone":"+441424772755","address":"84 High Street","lat":50.91547041742005,"lng":0.48597872257232666,"city_fetched":"Robertsbridge,UK","state":"East Sussex","country":"United Kingdom","canonicalUrl":"https://foursquare.com/v/the-abbey-hotel--shepherd-neame/4e141440b3ad51e832e98dd6","categoryId":"4bf58dd8d48988d11b941735","category":"Pub","checkinsCount":29,"usersCount":28,"tipCount":2,"visitsCount":29,"url":"http://www.shepherdneame.co.uk","tier":"","message":"","currency":"","rating":6.3},{"name":"Brewers Fayre","phone":"+441424754070","address":"1 John Macadam Way","lat":50.88675232418033,"lng":0.5508652187214385,"city_fetched":"Robertsbridge,UK","state":"East Sussex","country":"United Kingdom","canonicalUrl":"https://foursquare.com/v/brewers-fayre/4bf833698d30d13abe540018","categoryId":"4bf58dd8d48988d11b941735","category":"Pub","checkinsCount":174,"usersCount":103,"tipCount":3,"visitsCount":203,"tier":"","message":"","currency":"","rating":6.1}]