[{"name":"The Three Tuns","phone":"+441794512639","address":"58 Middlebridge Street","lat":50.98524859,"lng":-1.50195576,"city_fetched":"Romsey","state":"Hampshire","country":"United Kingdom","canonicalUrl":"https://foursquare.com/v/the-three-tuns/4bdc1e602a3a0f47ca8ab1b6","category":"Pub","checkinsCount":136,"usersCount":114,"tipCount":4,"visitsCount":236,"tier":"","message":"","currency":"","rating":8.1},{"name":"The Old House At Home","address":"62 Love Ln","lat":50.98986745551659,"lng":-1.4956104755401611,"city_fetched":"Romsey","state":"Hampshire","country":"United Kingdom","canonicalUrl":"https://foursquare.com/v/the-old-house-at-home/4be3fc7cd27a20a11064935b","category":"Pub","checkinsCount":435,"usersCount":138,"tipCount":6,"visitsCount":510,"tier":"","message":"","currency":"","rating":7.4},{"name":"The Cromwell Arms","address":"Mainstone","lat":50.984106471000985,"lng":-1.5051690002071465,"city_fetched":"Romsey","state":"Hampshire","country":"United Kingdom","canonicalUrl":"https://foursquare.com/v/the-cromwell-arms/4c7c0cdd794e224bcf1f6d28","category":"Gastropub","checkinsCount":261,"usersCount":116,"tipCount":6,"visitsCount":302,"tier":"","message":"","currency":"","rating":7},{"name":"The Olive Tree","phone":"+441794503444","address":"11 Latimer Street","lat":50.989454,"lng":-1.497567,"city_fetched":"Romsey","state":"Hampshire","country":"United Kingdom","canonicalUrl":"https://foursquare.com/v/the-olive-tree/4c4f528979ffe21e3546711a","category":"Pub","checkinsCount":287,"usersCount":88,"tipCount":4,"visitsCount":294,"url":"http://theolivetreeromsey.co.uk","tier":"","message":"","currency":"","rating":6.7}]