[{"name":"Snafu","phone":"+441709836991","address":"22 - 30 high street","lat":53.43029893010578,"lng":-1.3563179969787598,"city_fetched":"Rotherham","country":"United Kingdom","canonicalUrl":"https://foursquare.com/v/snafu/4c6d8a50c52437043e7228eb","category":"Bar","checkinsCount":509,"usersCount":64,"tipCount":6,"visitsCount":510,"url":"http://www.fubar-snafu.co.uk","tier":"","message":"","currency":"","rating":6.8},{"name":"The Masons Arms","phone":"+441144460291","address":"Bawtry Rd, Wickersley","lat":53.42175146755937,"lng":-1.2821013088718687,"city_fetched":"Rotherham","state":"Rotherham","country":"United Kingdom","canonicalUrl":"https://foursquare.com/v/the-masons-arms/4b7a8cebf964a520cc302fe3","category":"Pub","checkinsCount":282,"usersCount":114,"tipCount":4,"visitsCount":319,"url":"http://www.masonsarmsthorpehesley.co.uk","tier":"","message":"","currency":"","rating":6.6},{"name":"New York Tavern","address":"New York Tavern","lat":53.42709354800814,"lng":-1.358292674379734,"city_fetched":"Rotherham","country":"United Kingdom","canonicalUrl":"https://foursquare.com/v/new-york-tavern/5229c48811d28302fa9dda8a","category":"Pub","checkinsCount":79,"usersCount":30,"tipCount":4,"visitsCount":102,"tier":"","message":"","currency":"","rating":6.6},{"name":"The Bluecoat (Wetherspoon)","phone":"+441709539500","address":"The Crofts","lat":53.42863691438238,"lng":-1.3547086715698242,"city_fetched":"Rotherham","country":"United Kingdom","canonicalUrl":"https://foursquare.com/v/the-bluecoat-wetherspoon/4c87abdf821e9eb0bbcd8d89","category":"Pub","checkinsCount":1306,"usersCount":222,"tipCount":9,"visitsCount":1430,"url":"http://www.jdwetherspoon.co.uk","tier":"","message":"","currency":"","rating":6.5},{"name":"The Corn Law Rhymer (Wetherspoon)","phone":"+441709724790","address":"35-37 High St.","lat":53.42997190371387,"lng":-1.3564877820512755,"city_fetched":"Rotherham","country":"United Kingdom","canonicalUrl":"https://foursquare.com/v/the-corn-law-rhymer-wetherspoon/4c87abe0821e9eb0bccd8d89","category":"Pub","checkinsCount":427,"usersCount":154,"tipCount":0,"visitsCount":454,"url":"http://www.jdwetherspoon.co.uk","tier":"","message":"","currency":"","rating":6.3},{"name":"Brentwood Hotel","address":"Moorgate Rd","lat":53.41816015391798,"lng":-1.3469271183694924,"city_fetched":"Rotherham","state":"Rotherham","country":"United Kingdom","canonicalUrl":"https://foursquare.com/v/brentwood-hotel/4bdd753ff219c9b6aa9c1210","category":"Pub","checkinsCount":164,"usersCount":92,"tipCount":2,"visitsCount":186,"tier":"","message":"","currency":"","rating":6.1},{"name":"The Brecks (Beefeater)","phone":"+441709543216","twitter":"beefeatergrill","address":"Wickersley Rd","lat":53.419741150310706,"lng":-1.3079403670656828,"city_fetched":"Rotherham","state":"Rotherham","country":"United Kingdom","canonicalUrl":"https://foursquare.com/v/the-brecks-beefeater/4b96a851f964a52000dc34e3","category":"Pub","checkinsCount":260,"usersCount":117,"tipCount":2,"visitsCount":343,"url":"http://www.beefeater.co.uk","tier":"","message":"","currency":"","rating":5.9},{"name":"Golden Ball","address":"Turner Lane","lat":53.40497103872304,"lng":-1.3262956246311985,"city_fetched":"Rotherham","state":"Rotherham","country":"United Kingdom","canonicalUrl":"https://foursquare.com/v/golden-ball/4bb210b7f964a520f6b53ce3","category":"Pub","checkinsCount":134,"usersCount":76,"tipCount":3,"visitsCount":163,"tier":"","message":"","currency":"","rating":5.9},{"name":"The Rhinoceros (Wetherspoon)","phone":"+441709361422","address":"35-37 Bridgegate","lat":53.43180277152752,"lng":-1.356776941484325,"city_fetched":"Rotherham","country":"United Kingdom","canonicalUrl":"https://foursquare.com/v/the-rhinoceros-wetherspoon/4c755432604a37043f5b8249","category":"Pub","checkinsCount":173,"usersCount":72,"tipCount":1,"visitsCount":178,"url":"http://www.jdwetherspoon.co.uk","tier":"","message":"","currency":"","rating":5.5}]