[{"name":"Evenwood Farm","address":"Blackheath Ln.","lat":53.349129,"lng":-2.658698,"city_fetched":"Runcorn","state":"Halton","country":"United Kingdom","canonicalUrl":"https://foursquare.com/v/evenwood-farm/4b92875cf964a5204c0134e3","category":"Gastropub","checkinsCount":382,"usersCount":185,"tipCount":13,"visitsCount":468,"tier":"","message":"","currency":"","rating":6.2},{"name":"The Ferry Boat (Wetherspoon)","phone":"+441928583380","address":"10 Church St.","lat":53.341901057656656,"lng":-2.7318196535384787,"city_fetched":"Runcorn","state":"Halton","country":"United Kingdom","canonicalUrl":"https://foursquare.com/v/the-ferry-boat-wetherspoon/4bb317e714cfd13a12a315ab","category":"Pub","checkinsCount":761,"usersCount":162,"tipCount":9,"visitsCount":802,"url":"http://www.jdwetherspoon.co.uk","tier":"","message":"","currency":"","rating":6.2},{"name":"Preston Brook (Beefeater)","phone":"+441928716829","twitter":"beefeatergrill","address":"Chester Rd","lat":53.314497922663385,"lng":-2.664098750715873,"city_fetched":"Runcorn","state":"Halton","country":"United Kingdom","canonicalUrl":"https://foursquare.com/v/preston-brook-beefeater/4d2df1a96fc6f04de24a7d45","category":"Gastropub","checkinsCount":240,"usersCount":105,"tipCount":1,"visitsCount":256,"url":"http://www.beefeater.co.uk","tier":"","message":"","currency":"","rating":6.1},{"name":"Table Table","address":"Chester road","lat":53.314606,"lng":-2.664138,"city_fetched":"Runcorn","state":"Halton","country":"United Kingdom","canonicalUrl":"https://foursquare.com/v/table-table/4c979ca458d4b60ca4bd4429","category":"Gastropub","checkinsCount":235,"usersCount":84,"tipCount":3,"visitsCount":239,"tier":"","message":"","currency":"","rating":5.4}]