[{"name":"The Ship Inn","phone":"+441787222233","address":"The Strand","lat":50.949314,"lng":0.730773,"city_fetched":"Rye,UK","state":"East Sussex","country":"United Kingdom","canonicalUrl":"https://foursquare.com/v/the-ship-inn/4af58927f964a520adf921e3","categoryId":"4bf58dd8d48988d11b941735","category":"Pub","checkinsCount":382,"usersCount":347,"tipCount":14,"visitsCount":452,"tier":"","message":"","currency":"","rating":8.5},{"name":"The Queen's Head Inn","phone":"+441797226929","twitter":"qhrye","address":"Rye, East Sussex","lat":50.95345262552381,"lng":0.7353544235229492,"city_fetched":"Rye,UK","state":"East Sussex","country":"United Kingdom","canonicalUrl":"https://foursquare.com/qhrye","categoryId":"4bf58dd8d48988d11b941735","category":"Pub","checkinsCount":883,"usersCount":81,"tipCount":4,"visitsCount":900,"tier":1,"message":"Cheap","currency":"Â£","rating":7.6},{"name":"Globe Inn Marsh","phone":"+441797225220","twitter":"innrye","address":"10 Military Road","lat":50.95588753853757,"lng":0.7360196745993414,"city_fetched":"Rye,UK","state":"East Sussex","country":"United Kingdom","canonicalUrl":"https://foursquare.com/v/globe-inn-marsh/54db96a4498e0fc0fc5fe2d8","categoryId":"4bf58dd8d48988d11b941735","category":"Pub","checkinsCount":100,"usersCount":106,"tipCount":8,"visitsCount":196,"url":"http://globeinnmarshrye.com","tier":"","message":"","currency":"","rating":7.6},{"name":"Ypres Castle Inn","address":"Gun Gardens","lat":50.95037058039105,"lng":0.7355690002441406,"city_fetched":"Rye,UK","state":"East Sussex","country":"United Kingdom","canonicalUrl":"https://foursquare.com/v/ypres-castle-inn/4b8918c7f964a5207a1c32e3","categoryId":"4bf58dd8d48988d11b941735","category":"Pub","checkinsCount":230,"usersCount":174,"tipCount":7,"visitsCount":235,"tier":"","message":"","currency":"","rating":7.5},{"name":"The Standard","lat":50.95054574782661,"lng":0.730998926411238,"city_fetched":"Rye,UK","state":"East Sussex","country":"United Kingdom","canonicalUrl":"https://foursquare.com/v/the-standard/4bc9a7a4511f9521b2ffadc7","categoryId":"4bf58dd8d48988d11b941735","category":"Pub","checkinsCount":84,"usersCount":87,"tipCount":3,"visitsCount":101,"tier":"","message":"","currency":"","rating":7.1},{"name":"William The Conqueror","address":"Harbour Rd","lat":50.93868939668977,"lng":0.7632064819335938,"city_fetched":"Rye,UK","state":"East Sussex","country":"United Kingdom","canonicalUrl":"https://foursquare.com/v/william-the-conqueror/4c153ccbb7b9c928daa1ac37","categoryId":"4bf58dd8d48988d11b941735","category":"Pub","checkinsCount":39,"usersCount":34,"tipCount":2,"visitsCount":40,"url":"http://www.shepherdneame.co.uk","tier":"","message":"","currency":"","rating":6.8},{"name":"Cinque Ports Arms - Shepherd Neame","phone":"+441797222319","address":"Cinque Ports St.","lat":50.95169872358393,"lng":0.7320123910903931,"city_fetched":"Rye,UK","state":"East Sussex","country":"United Kingdom","canonicalUrl":"https://foursquare.com/v/cinque-ports-arms--shepherd-neame/4bcf14090ffdce72683ab2c0","categoryId":"4bf58dd8d48988d11b941735","category":"Pub","checkinsCount":88,"usersCount":54,"tipCount":1,"visitsCount":94,"url":"http://www.shepherdneame.co.uk","tier":"","message":"","currency":"","rating":6.5},{"name":"The Old Bell","address":"the mint","lat":50.950748,"lng":0.731645,"city_fetched":"Rye,UK","state":"East Sussex","country":"United Kingdom","canonicalUrl":"https://foursquare.com/v/the-old-bell/4bdd70b2645e0f47297c6b19","categoryId":"4bf58dd8d48988d11b941735","category":"Pub","checkinsCount":122,"usersCount":120,"tipCount":8,"visitsCount":124,"tier":"","message":"","currency":"","rating":5.8}]