[{"name":"The Eight Bells","twitter":"theei8htbells","lat":52.02529942129265,"lng":0.23685334067525535,"city_fetched":"Saffron Walden,UK","country":"United Kingdom","canonicalUrl":"https://foursquare.com/v/the-eight-bells/4d6141c31939a35dba2c2bee","categoryId":"4bf58dd8d48988d11b941735","category":"Pub","checkinsCount":93,"usersCount":79,"tipCount":5,"visitsCount":98,"tier":"","message":"","currency":"","rating":7.7},{"name":"Old English Gentleman","phone":"+441799523595","twitter":"oldenglishband","address":"Gold St","lat":52.02247901127869,"lng":0.24037535093668044,"city_fetched":"Saffron Walden,UK","state":"Essex","country":"United Kingdom","canonicalUrl":"https://foursquare.com/v/old-english-gentleman/4bb1e2bdf964a52095a83ce3","categoryId":"4bf58dd8d48988d11b941735","category":"Pub","checkinsCount":125,"usersCount":63,"tipCount":5,"visitsCount":126,"url":"http://www.oldenglishgentleman.com","tier":"","message":"","currency":"","rating":7.6},{"name":"Cross Keys","address":"32 High St","lat":52.02314325674954,"lng":0.23910282838029812,"city_fetched":"Saffron Walden,UK","state":"Essex","country":"United Kingdom","canonicalUrl":"https://foursquare.com/v/cross-keys/4c454ebff05e95213757e4b3","categoryId":"4bf58dd8d48988d11b941735","category":"Pub","checkinsCount":168,"usersCount":98,"tipCount":9,"visitsCount":183,"tier":"","message":"","currency":"","rating":7.5},{"name":"The Temeraire (Wetherspoon)","phone":"+441799516975","address":"55 High St.","lat":52.0214,"lng":0.2393,"city_fetched":"Saffron Walden,UK","state":"Essex","country":"United Kingdom","canonicalUrl":"https://foursquare.com/v/the-temeraire-wetherspoon/4b902af9f964a520cf7933e3","categoryId":"4bf58dd8d48988d11b941735","category":"Pub","checkinsCount":606,"usersCount":112,"tipCount":4,"visitsCount":654,"url":"http://www.jdwetherspoon.co.uk","tier":"","message":"","currency":"","rating":6.5}]