[{"name":"Wheatsheaf","address":"Woodford","lat":51.11455,"lng":-1.822548,"city_fetched":"Salisbury,UK","state":"Wiltshire","country":"United Kingdom","canonicalUrl":"https://foursquare.com/v/wheatsheaf/4e9d8694b6348df6f72975b2","categoryId":"4bf58dd8d48988d11b941735","category":"Pub","checkinsCount":59,"usersCount":71,"tipCount":2,"visitsCount":88,"url":"http://www.wheatsheaflowerwoodford.co.uk","tier":"","message":"","currency":"","rating":7.6},{"name":"The Pelican Inn","phone":"+441722792642","address":"Warminster Rd.","lat":51.131983543510614,"lng":-1.9030436624940226,"city_fetched":"Salisbury,UK","state":"Wiltshire","country":"United Kingdom","canonicalUrl":"https://foursquare.com/v/the-pelican-inn/4bcf6a240ffdce723c73b2c0","categoryId":"4bf58dd8d48988d11b941735","category":"Pub","checkinsCount":129,"usersCount":55,"tipCount":3,"visitsCount":137,"url":"http://www.booking.com/hotel/gb/thepelicaninn.html?aid=337195","tier":"","message":"","currency":"","rating":7.5},{"name":"The Cloisters","phone":"+441722338102","address":"83 Catherine St","lat":51.066987662063234,"lng":-1.7935976932368352,"city_fetched":"Salisbury,UK","state":"Wiltshire","country":"United Kingdom","canonicalUrl":"https://foursquare.com/v/the-cloisters/4bd0b4df462cb71307ead807","categoryId":"4bf58dd8d48988d11b941735","category":"Pub","checkinsCount":386,"usersCount":253,"tipCount":9,"visitsCount":419,"url":"http://www.cloisterspubsalisbury.co.uk","tier":"","message":"","currency":"","rating":7.4},{"name":"The Mill","phone":"+441722412127","address":"7 The Maltings","lat":51.069007,"lng":-1.798126,"city_fetched":"Salisbury,UK","state":"Wiltshire","country":"United Kingdom","canonicalUrl":"https://foursquare.com/v/the-mill/4b927429f964a520b1fa33e3","categoryId":"4bf58dd8d48988d11b941735","category":"Pub","checkinsCount":772,"usersCount":329,"tipCount":5,"visitsCount":797,"url":"http://www.mill-salisbury.co.uk","tier":"","message":"","currency":"","rating":7.4},{"name":"New Inn","phone":"+441722326662","address":"Crane St.","lat":51.06700755158981,"lng":-1.796189546585083,"city_fetched":"Salisbury,UK","state":"Wiltshire","country":"United Kingdom","canonicalUrl":"https://foursquare.com/v/new-inn/4bc77e860050b713c9cdb83b","categoryId":"4bf58dd8d48988d11b941735","category":"Pub","checkinsCount":527,"usersCount":204,"tipCount":8,"visitsCount":552,"url":"http://newinn-salisbury.co.uk","tier":"","message":"","currency":"","rating":7.4},{"name":"Haunch of Venison","phone":"+441722411313","twitter":"haunch_pub","address":"1 Minster St","lat":51.06883128,"lng":-1.796227,"city_fetched":"Salisbury,UK","state":"Wiltshire","country":"United Kingdom","canonicalUrl":"https://foursquare.com/v/haunch-of-venison/4b926b85f964a52034f833e3","categoryId":"4bf58dd8d48988d11b941735","category":"Pub","checkinsCount":372,"usersCount":189,"tipCount":3,"visitsCount":373,"url":"http://haunchpub.co.uk","tier":"","message":"","currency":"","rating":7.2},{"name":"The Cosy Club","phone":"+441722334824","address":"49 New St","lat":51.06718762368087,"lng":-1.7964848867982461,"city_fetched":"Salisbury,UK","state":"Wiltshire","country":"United Kingdom","canonicalUrl":"https://foursquare.com/v/the-cosy-club/50361bd9e4b0aae9b326480b","categoryId":"4bf58dd8d48988d116941735","category":"Bar","checkinsCount":306,"usersCount":133,"tipCount":6,"visitsCount":315,"url":"http://www.cosyclub.co.uk","tier":"","message":"","currency":"","rating":7.2},{"name":"The Ox Row Inn","phone":"+448719511000","address":"10-11 Ox Row","lat":51.06907388928979,"lng":-1.795620381456638,"city_fetched":"Salisbury,UK","state":"Wiltshire","country":"United Kingdom","canonicalUrl":"https://foursquare.com/v/the-ox-row-inn/4c4de88c1b8e1b8deee05d26","categoryId":"4bf58dd8d48988d11b941735","category":"Pub","checkinsCount":341,"usersCount":244,"tipCount":5,"visitsCount":344,"tier":"","message":"","currency":"","rating":6.9},{"name":"The Kings Head Inn (Wetherspoon)","phone":"+441722342050","address":"1 Bridge St.","lat":51.06872062102909,"lng":-1.798356591090726,"city_fetched":"Salisbury,UK","state":"Wiltshire","country":"United Kingdom","canonicalUrl":"https://foursquare.com/v/the-kings-head-inn-wetherspoon/4b8451a3f964a520772e31e3","categoryId":"4bf58dd8d48988d11b941735","category":"Pub","checkinsCount":3102,"usersCount":729,"tipCount":18,"visitsCount":3351,"url":"http://www.jdwetherspoon.co.uk","tier":"","message":"","currency":"","rating":6.7},{"name":"The Wyndham Arms","address":"27 Estcourt Rd","lat":51.072781774999996,"lng":-1.7883916,"city_fetched":"Salisbury,UK","state":"Wiltshire","country":"United Kingdom","canonicalUrl":"https://foursquare.com/v/the-wyndham-arms/4c29059fe19720a130dbf858","categoryId":"4bf58dd8d48988d11b941735","category":"Pub","checkinsCount":143,"usersCount":64,"tipCount":5,"visitsCount":165,"tier":"","message":"","currency":"","rating":6.6},{"name":"The Pheasant","phone":"+441722322866","twitter":"pheasantinnsp1","address":"19 Salt Ln","lat":51.07066623083599,"lng":-1.7935080031245791,"city_fetched":"Salisbury,UK","state":"Wiltshire","country":"United Kingdom","canonicalUrl":"https://foursquare.com/v/the-pheasant/4d55b80aa05c37045b44bc87","categoryId":"4bf58dd8d48988d11b941735","category":"Pub","checkinsCount":294,"usersCount":81,"tipCount":7,"visitsCount":306,"url":"http://www.restaurant-salisbury.com","tier":"","message":"","currency":"","rating":6.6},{"name":"Avon Brewery","phone":"+441722416184","address":"75 Castle St","lat":51.07180790143963,"lng":-1.7962235455841695,"city_fetched":"Salisbury,UK","state":"Wiltshire","country":"United Kingdom","canonicalUrl":"https://foursquare.com/v/avon-brewery/4c1260067f7f2d7f9c24dd68","categoryId":"4bf58dd8d48988d11b941735","category":"Pub","checkinsCount":251,"usersCount":42,"tipCount":2,"visitsCount":264,"url":"http://www.avonbrewery.co.uk","tier":"","message":"","currency":"","rating":6.6},{"name":"The Cathedral Hotel","phone":"+441722343700","twitter":"cathedral_hotel","address":"7-9 Milford St","lat":51.0687071914447,"lng":-1.7937154554065518,"city_fetched":"Salisbury,UK","state":"Wiltshire","country":"United Kingdom","canonicalUrl":"https://foursquare.com/cathedral_hotel","categoryId":"4bf58dd8d48988d1d5941735","category":"Hotel Bar","checkinsCount":1493,"usersCount":297,"tipCount":4,"visitsCount":1621,"url":"http://www.cathedralhotelsalisbury.co.uk","tier":"","message":"","currency":"","rating":6.4},{"name":"The Old Ale House","address":"Crane St","lat":51.067438,"lng":-1.79771,"city_fetched":"Salisbury,UK","state":"Wiltshire","country":"United Kingdom","canonicalUrl":"https://foursquare.com/v/the-old-ale-house/4babaf73f964a52032c03ae3","categoryId":"4bf58dd8d48988d11b941735","category":"Pub","checkinsCount":750,"usersCount":117,"tipCount":8,"visitsCount":750,"tier":"","message":"","currency":"","rating":6.2},{"name":"Qudos","address":"38 Castle Street","lat":51.07115037229336,"lng":-1.7961534630821938,"city_fetched":"Salisbury,UK","state":"Wiltshire","country":"United Kingdom","canonicalUrl":"https://foursquare.com/v/qudos/4c951118f244b1f7bc2e281d","categoryId":"4bf58dd8d48988d1d5941735","category":"Hotel Bar","checkinsCount":239,"usersCount":118,"tipCount":3,"visitsCount":254,"tier":"","message":"","currency":"","rating":6.1},{"name":"The Chapel Nightclub","phone":"+441722504255","twitter":"chapelnightclub","address":"34 Milford Street","lat":51.06839471625856,"lng":-1.7920219293835569,"city_fetched":"Salisbury,UK","state":"Wiltshire","country":"United Kingdom","canonicalUrl":"https://foursquare.com/v/the-chapel-nightclub/4c0e5e3d85e195217e76eea5","categoryId":"4bf58dd8d48988d11f941735","category":"Nightclub","checkinsCount":468,"usersCount":133,"tipCount":2,"visitsCount":495,"tier":"","message":"","currency":"","rating":6.1},{"name":"Yoyo","phone":"+441722434319","address":"6 Milford St.","lat":51.068672783059824,"lng":-1.7932564307443193,"city_fetched":"Salisbury,UK","state":"Wiltshire","country":"United Kingdom","canonicalUrl":"https://foursquare.com/v/yoyo/4bad3300f964a5203e383be3","categoryId":"4bf58dd8d48988d11b941735","category":"Pub","checkinsCount":317,"usersCount":64,"tipCount":2,"visitsCount":317,"url":"http://yoyobar.co.uk","tier":"","message":"","currency":"","rating":6.1},{"name":"Hampton Inn Table Table","phone":"+448701977225","address":"Pearce Way","lat":51.08942985534668,"lng":-1.7713898420333862,"city_fetched":"Salisbury,UK","state":"Wiltshire","country":"United Kingdom","canonicalUrl":"https://foursquare.com/v/hampton-inn-table-table/4bb71ddef562ef3b15093197","categoryId":"4bf58dd8d48988d11b941735","category":"Pub","checkinsCount":282,"usersCount":142,"tipCount":2,"visitsCount":290,"tier":"","message":"","currency":"","rating":5.9}]