[{"name":"The Charles Dickens","phone":"+441843600160","twitter":"thecharlesdicke","address":"5-6 Victoria Parade","lat":51.358138520384564,"lng":1.4418934318336327,"city_fetched":"Sandwich,UK","state":"Kent","country":"United Kingdom","canonicalUrl":"https://foursquare.com/v/the-charles-dickens/4c5dbc5d2815c928eab9b567","categoryId":"4bf58dd8d48988d116941735","category":"Bar","checkinsCount":169,"usersCount":139,"tipCount":5,"visitsCount":176,"url":"http://www.charlesdickensbroadstairs.co.uk","tier":"","message":"","currency":"","rating":8.6},{"name":"The George and Dragon","phone":"+441304613106","address":"24 Fisher St","lat":51.27417557183705,"lng":1.3423325696983635,"city_fetched":"Sandwich,UK","state":"Kent","country":"United Kingdom","canonicalUrl":"https://foursquare.com/v/the-george-and-dragon/4da890045da3ef8bf1616055","categoryId":"4bf58dd8d48988d11b941735","category":"Pub","checkinsCount":81,"usersCount":61,"tipCount":3,"visitsCount":88,"url":"http://www.georgeanddragon-sandwich.co.uk","tier":"","message":"","currency":"","rating":8.2},{"name":"Deal Hoy (Shepherd Neame)","phone":"+441304363972","address":"16 Duke St.","lat":51.22689130294373,"lng":1.400633454322815,"city_fetched":"Sandwich,UK","state":"Kent","country":"United Kingdom","canonicalUrl":"https://foursquare.com/v/deal-hoy-shepherd-neame/4ce8278c8ef78cfa2278989b","categoryId":"4bf58dd8d48988d11b941735","category":"Pub","checkinsCount":98,"usersCount":43,"tipCount":3,"visitsCount":119,"url":"http://www.shepherdneame.co.uk","tier":"","message":"","currency":"","rating":8.2},{"name":"Royal Albion Hotel","phone":"+441843868071","twitter":"royalalbion","address":"6-12 Albion St","lat":51.35847694883217,"lng":1.4422693848609924,"city_fetched":"Sandwich,UK","state":"Kent","country":"United Kingdom","canonicalUrl":"https://foursquare.com/v/royal-albion-hotel/4bd8a1d92ecdce7219e0d0f2","categoryId":"4bf58dd8d48988d11b941735","category":"Pub","checkinsCount":302,"usersCount":176,"tipCount":3,"visitsCount":306,"url":"http://www.shepherdneame.co.uk","tier":"","message":"","currency":"","rating":7.8},{"name":"Zetland Arms","phone":"+441304370114","twitter":"shepherdneame","address":"Wellington Parade","lat":51.18622073882979,"lng":1.4047633452468138,"city_fetched":"Sandwich,UK","state":"Kent","country":"United Kingdom","canonicalUrl":"https://foursquare.com/v/zetland-arms/4c2362667e85c928706fbd21","categoryId":"4bf58dd8d48988d11b941735","category":"Pub","checkinsCount":135,"usersCount":127,"tipCount":5,"visitsCount":195,"url":"http://www.shepherdneame.co.uk/pubs/deal/zetland-arms","tier":"","message":"","currency":"","rating":7.4},{"name":"Sir Norman Wisdom (Wetherspoon)","phone":"+441304382930","twitter":"jdwtweet","address":"18-20 Queen St.","lat":51.223135169708264,"lng":1.4017608199801554,"city_fetched":"Sandwich,UK","state":"Kent","country":"United Kingdom","canonicalUrl":"https://foursquare.com/v/sir-norman-wisdom-wetherspoon/5130c089e4b01ac3a8b32014","categoryId":"4bf58dd8d48988d11b941735","category":"Pub","checkinsCount":186,"usersCount":76,"tipCount":8,"visitsCount":208,"url":"http://www.jdwetherspoon.co.uk","tier":"","message":"","currency":"","rating":7.3},{"name":"Miles Bar","phone":"+441843585008","address":"54-56 Harbour Parade","lat":51.3323,"lng":1.421452,"city_fetched":"Sandwich,UK","state":"Kent","country":"United Kingdom","canonicalUrl":"https://foursquare.com/v/miles-bar/4bb7a7f47421a5930dd4c040","categoryId":"4bf58dd8d48988d116941735","category":"Bar","checkinsCount":243,"usersCount":121,"tipCount":4,"visitsCount":245,"url":"http://www.milesbarramsgate.com","tier":"","message":"","currency":"","rating":7.3},{"name":"Churchill Tavern","phone":"+441843587862","address":"19-21 Paragon","lat":51.3291411524234,"lng":1.414255302715091,"city_fetched":"Sandwich,UK","state":"Kent","country":"United Kingdom","canonicalUrl":"https://foursquare.com/v/churchill-tavern/4e0a3c6018a8031642cc3d4d","categoryId":"4bf58dd8d48988d11b941735","category":"Pub","checkinsCount":689,"usersCount":117,"tipCount":2,"visitsCount":705,"url":"http://www.churchilltavern.co.uk","tier":"","message":"","currency":"","rating":7.2},{"name":"The Goose","phone":"+441843855110","address":"34-38 Harbour St","lat":51.33270387714398,"lng":1.4204526503995472,"city_fetched":"Sandwich,UK","state":"Kent","country":"United Kingdom","canonicalUrl":"https://foursquare.com/v/the-goose/53511c43498e369691b5d83a","categoryId":"4bf58dd8d48988d11b941735","category":"Pub","checkinsCount":276,"usersCount":97,"tipCount":3,"visitsCount":294,"url":"http://www.gooseramsgate.co.uk","tier":1,"message":"Cheap","currency":"Â£","rating":7},{"name":"Bell Hotel - Shepherd Neame","phone":"+441304613388","address":"The Quay","lat":51.27553826787367,"lng":1.3422095775604248,"city_fetched":"Sandwich,UK","state":"Kent","country":"United Kingdom","canonicalUrl":"https://foursquare.com/v/bell-hotel--shepherd-neame/4bcf6ab90ffdce72fb73b2c0","categoryId":"4bf58dd8d48988d11b941735","category":"Pub","checkinsCount":214,"usersCount":114,"tipCount":7,"visitsCount":221,"url":"http://www.shepherdneame.co.uk","tier":"","message":"","currency":"","rating":6.8},{"name":"The Griffins Head - Shepherd Neame","phone":"+441304840325","address":"Chillenden","lat":51.235724003398545,"lng":1.251894235610962,"city_fetched":"Sandwich,UK","state":"Kent","country":"United Kingdom","canonicalUrl":"https://foursquare.com/v/the-griffins-head--shepherd-neame/4df7a17518a8a7a743039b25","categoryId":"4bf58dd8d48988d11b941735","category":"Pub","checkinsCount":14,"usersCount":15,"tipCount":1,"visitsCount":19,"url":"http://www.shepherdneame.co.uk","tier":"","message":"","currency":"","rating":6.7},{"name":"The Bell Vue Tavern","phone":"+441843593991","address":"Pegwell Bay","lat":51.32751347909139,"lng":1.3914264986003142,"city_fetched":"Sandwich,UK","state":"Kent","country":"United Kingdom","canonicalUrl":"https://foursquare.com/v/the-bell-vue-tavern/4e142753b3ad51e832e99465","categoryId":"4bf58dd8d48988d11b941735","category":"Pub","checkinsCount":48,"usersCount":30,"tipCount":2,"visitsCount":48,"url":"http://www.shepherdneame.co.uk","tier":"","message":"","currency":"","rating":6.6},{"name":"The Seaview - Shepherd Neame","phone":"+441843841660","address":"96 Station Road","lat":51.37655888612868,"lng":1.3032370805740356,"city_fetched":"Sandwich,UK","state":"Kent","country":"United Kingdom","canonicalUrl":"https://foursquare.com/v/the-seaview--shepherd-neame/4dd7de92d4c05d5096f3e241","categoryId":"4bf58dd8d48988d11b941735","category":"Pub","checkinsCount":37,"usersCount":18,"tipCount":2,"visitsCount":37,"url":"http://www.shepherdneame.co.uk","tier":"","message":"","currency":"","rating":6.5},{"name":"The Orb - Shepherd Neame","phone":"+441843220663","twitter":"theorbmargate","address":"Ramsgate Road","lat":51.389162234263175,"lng":1.3799942157576848,"city_fetched":"Sandwich,UK","state":"Kent","country":"United Kingdom","canonicalUrl":"https://foursquare.com/v/the-orb--shepherd-neame/4c2000e363750f47e507bc67","categoryId":"4bf58dd8d48988d11b941735","category":"Pub","checkinsCount":160,"usersCount":11,"tipCount":1,"visitsCount":160,"url":"http://www.shepherdneame.co.uk","tier":"","message":"","currency":"","rating":6.5},{"name":"The Saddler (Shepherd Neame)","phone":"+441843821331","address":"Monkton Rd","lat":51.33476101019404,"lng":1.3130566477775574,"city_fetched":"Sandwich,UK","state":"Kent","country":"United Kingdom","canonicalUrl":"https://foursquare.com/v/the-saddler-shepherd-neame/4c3ca48b17f2ef3ba82281f4","categoryId":"4bf58dd8d48988d11b941735","category":"Pub","checkinsCount":7,"usersCount":5,"tipCount":1,"visitsCount":7,"url":"http://www.shepherdneame.co.uk","tier":"","message":"","currency":"","rating":6.5},{"name":"Wrotham Arms","phone":"+441843861788","twitter":"shepherdneame","address":"9 Ramsgate Rd","lat":51.35633747955819,"lng":1.4389449728438972,"city_fetched":"Sandwich,UK","state":"Kent","country":"United Kingdom","canonicalUrl":"https://foursquare.com/v/wrotham-arms/4e3d1c161f6e844231e071ec","categoryId":"4bf58dd8d48988d11b941735","category":"Pub","checkinsCount":36,"usersCount":18,"tipCount":0,"visitsCount":49,"url":"http://www.shepherdneame.co.uk","tier":"","message":"","currency":"","rating":6.5},{"name":"Horse & Groom - Shepherd Neame","phone":"+441843587687","address":"Charlotte Court","lat":51.33311203151714,"lng":1.4195027947425842,"city_fetched":"Sandwich,UK","state":"Kent","country":"United Kingdom","canonicalUrl":"https://foursquare.com/v/horse--groom--shepherd-neame/4dbdb2645da3ff58ec6989fe","categoryId":"4bf58dd8d48988d11b941735","category":"Pub","checkinsCount":23,"usersCount":16,"tipCount":0,"visitsCount":23,"url":"http://www.shepherdneame.co.uk","tier":"","message":"","currency":"","rating":6.4},{"name":"The Railway - Shepherd Neame","phone":"+441304368776","address":"Station Road, Walmer","lat":51.20193762016765,"lng":1.3827994465827942,"city_fetched":"Sandwich,UK","state":"Kent","country":"United Kingdom","canonicalUrl":"https://foursquare.com/v/the-railway--shepherd-neame/4e67412f814db7421776cd07","categoryId":"4bf58dd8d48988d11b941735","category":"Pub","checkinsCount":10,"usersCount":8,"tipCount":0,"visitsCount":11,"url":"http://www.shepherdneame.co.uk","tier":"","message":"","currency":"","rating":6.4},{"name":"The Saracens Head - Shepherd Neame","address":"1 Alfred Square","lat":51.22916724168237,"lng":1.4024090766906738,"city_fetched":"Sandwich,UK","state":"Kent","country":"United Kingdom","canonicalUrl":"https://foursquare.com/v/the-saracens-head--shepherd-neame/4de1547dae60e7f3abd4abd8","categoryId":"4bf58dd8d48988d11b941735","category":"Pub","checkinsCount":27,"usersCount":10,"tipCount":0,"visitsCount":27,"url":"http://www.shepherdneame.co.uk","tier":"","message":"","currency":"","rating":6.4},{"name":"The Crown Inn - Shepherd Neame","phone":"+441843847808","address":"Sarre","lat":51.33894687056857,"lng":1.2398511171340942,"city_fetched":"Sandwich,UK","state":"Kent","country":"United Kingdom","canonicalUrl":"https://foursquare.com/v/the-crown-inn--shepherd-neame/4bd73754304fce723c3933ab","categoryId":"4bf58dd8d48988d11b941735","category":"Pub","checkinsCount":13,"usersCount":12,"tipCount":0,"visitsCount":13,"url":"http://www.shepherdneame.co.uk","tier":"","message":"","currency":"","rating":6.4},{"name":"Plough and Harrow - Shepherd Neame","phone":"+441304617582","address":"Dover Road","lat":51.21174294563828,"lng":1.2993800640106201,"city_fetched":"Sandwich,UK","state":"Kent","country":"United Kingdom","canonicalUrl":"https://foursquare.com/v/plough-and-harrow--shepherd-neame/4e663db6091afcffda1b225a","categoryId":"4bf58dd8d48988d11b941735","category":"Pub","checkinsCount":8,"usersCount":7,"tipCount":0,"visitsCount":8,"url":"http://www.shepherdneame.co.uk","tier":"","message":"","currency":"","rating":6.3},{"name":"The Sportsman - Shepherd Neame","phone":"+441843852547","address":"Sandwich Road, Cliffsend","lat":51.3256473150757,"lng":1.3653570413589478,"city_fetched":"Sandwich,UK","state":"Kent","country":"United Kingdom","canonicalUrl":"https://foursquare.com/v/the-sportsman--shepherd-neame/4e674f0b814db7421778635f","categoryId":"4bf58dd8d48988d11b941735","category":"Pub","checkinsCount":7,"usersCount":12,"tipCount":0,"visitsCount":13,"url":"http://www.shepherdneame.co.uk","tier":"","message":"","currency":"","rating":6.3},{"name":"The Crispin Inn","phone":"+441304621967","address":"High St","lat":51.27557617969503,"lng":1.34185344639005,"city_fetched":"Sandwich,UK","state":"Kent","country":"United Kingdom","canonicalUrl":"https://foursquare.com/v/the-crispin-inn/4c59e11ad3aee21ee4566955","categoryId":"4bf58dd8d48988d11b941735","category":"Pub","checkinsCount":94,"usersCount":66,"tipCount":3,"visitsCount":94,"url":"http://www.sandwichpubs.co.uk","tier":"","message":"","currency":"","rating":6.3},{"name":"Grove Ferry Inn - Shepherd Neame","phone":"+441227860302","address":"Grove Ferry Rd.","lat":51.32356555869902,"lng":1.207023561000824,"city_fetched":"Sandwich,UK","state":"Kent","country":"United Kingdom","canonicalUrl":"https://foursquare.com/v/grove-ferry-inn--shepherd-neame/4bc8e88d762beee113ae3d38","categoryId":"4bf58dd8d48988d11b941735","category":"Pub","checkinsCount":119,"usersCount":131,"tipCount":4,"visitsCount":174,"url":"http://www.shepherdneame.co.uk","tier":"","message":"","currency":"","rating":6.3},{"name":"The Market Inn (Shepherd Neame)","phone":"+441304615173","address":"7 Cattle Market","lat":51.27495295,"lng":1.3390258,"city_fetched":"Sandwich,UK","state":"Kent","country":"United Kingdom","canonicalUrl":"https://foursquare.com/v/the-market-inn-shepherd-neame/4da8501e1e72d9bb4742694a","categoryId":"4bf58dd8d48988d11b941735","category":"Pub","checkinsCount":109,"usersCount":31,"tipCount":2,"visitsCount":109,"url":"http://www.shepherdneame.co.uk","tier":"","message":"","currency":"","rating":6},{"name":"The Clarendon Hotel - Shepherd Neame","phone":"+441304374748","address":"51/53 Beach Street","lat":51.224069971134526,"lng":1.4042936139776938,"city_fetched":"Sandwich,UK","state":"Kent","country":"United Kingdom","canonicalUrl":"https://foursquare.com/v/the-clarendon-hotel--shepherd-neame/4d18c66e816af04df27858c2","categoryId":"4bf58dd8d48988d11b941735","category":"Pub","checkinsCount":55,"usersCount":34,"tipCount":4,"visitsCount":57,"url":"http://www.shepherdneame.co.uk","tier":"","message":"","currency":"","rating":5.9}]