[{"name":"John Barleycorn Inn Cambridge","address":"Moorfield Road, Duxford","lat":52.09440284058928,"lng":0.1588572000411984,"city_fetched":"Sawston,UK","state":"Cambridgeshire","country":"United Kingdom","canonicalUrl":"https://foursquare.com/v/john-barleycorn-inn-cambridge/4be074a04c55b6519870eab7","categoryId":"4bf58dd8d48988d11b941735","category":"Pub","checkinsCount":86,"usersCount":79,"tipCount":2,"visitsCount":145,"tier":"","message":"","currency":"","rating":8.1},{"name":"The  Tickell Arms","address":"1 North Rd.","lat":52.1136741035416,"lng":0.14865875244140625,"city_fetched":"Sawston,UK","state":"Cambridgeshire","country":"United Kingdom","canonicalUrl":"https://foursquare.com/v/the--tickell-arms/4fb7c85de4b0be311006ea05","categoryId":"4bf58dd8d48988d11b941735","category":"Pub","checkinsCount":179,"usersCount":91,"tipCount":2,"visitsCount":329,"url":"http://www.cambscuisine.com/the-tickell-whittlesford","tier":"","message":"","currency":"","rating":7.5},{"name":"The Navigator","phone":"+441223843901","address":"High St","lat":52.14022063782341,"lng":0.1229572210017188,"city_fetched":"Sawston,UK","state":"Cambridgeshire","country":"United Kingdom","canonicalUrl":"https://foursquare.com/v/the-navigator/4c5b2c456ebe2d7f61bbcc2e","categoryId":"4bf58dd8d48988d11b941735","category":"Pub","checkinsCount":69,"usersCount":61,"tipCount":4,"visitsCount":124,"tier":"","message":"","currency":"","rating":7.4},{"name":"The George Inn","phone":"+441223833800","address":"High St, Babraham","lat":52.13081359863281,"lng":0.2097422,"city_fetched":"Sawston,UK","state":"Cambridgeshire","country":"United Kingdom","canonicalUrl":"https://foursquare.com/v/the-george-inn/4bd195ab9854d13a9fbff94d","categoryId":"4bf58dd8d48988d11b941735","category":"Pub","checkinsCount":56,"usersCount":52,"tipCount":4,"visitsCount":84,"url":"http://www.thegeorgebabraham.co.uk","tier":"","message":"","currency":"","rating":6.3},{"name":"The Red Lion Hotel","address":"Station Rd","lat":52.10389983006538,"lng":0.1663434606022891,"city_fetched":"Sawston,UK","state":"Cambridgeshire","country":"United Kingdom","canonicalUrl":"https://foursquare.com/v/the-red-lion-hotel/4bdf18247ea362b5045343c4","categoryId":"4bf58dd8d48988d1d5941735","category":"Hotel Bar","checkinsCount":195,"usersCount":131,"tipCount":4,"visitsCount":204,"tier":"","message":"","currency":"","rating":5.7}]