[{"name":"The Ivy House","phone":"+441915673399","twitter":"theivyhouse","address":"Worcester Ter.","lat":54.88670694261929,"lng":-1.3716750580997528,"city_fetched":"Seaham,UK","country":"United Kingdom","canonicalUrl":"https://foursquare.com/v/the-ivy-house/4bcb1959937ca59365d5a892","categoryId":"4bf58dd8d48988d11b941735","category":"Pub","checkinsCount":288,"usersCount":86,"tipCount":7,"visitsCount":298,"tier":"","message":"","currency":"","rating":7.3},{"name":"The Hat and Feathers (Wetherspoon)","phone":"+441915133040","twitter":"jdwtweet","address":"57-59 Church St.","lat":54.837129693448944,"lng":-1.3336396249587859,"city_fetched":"Seaham,UK","state":"Durham","country":"United Kingdom","canonicalUrl":"https://foursquare.com/v/the-hat-and-feathers-wetherspoon/5140f443e4b01f9f5ac6d4fe","categoryId":"4bf58dd8d48988d11b941735","category":"Pub","checkinsCount":231,"usersCount":60,"tipCount":4,"visitsCount":299,"url":"http://www.jdwetherspoon.co.uk","tier":"","message":"","currency":"","rating":6.4},{"name":"Crows Nest Pub","phone":"+441915814927","address":"Featherbed Court","lat":54.84447511913184,"lng":-1.3381697039725278,"city_fetched":"Seaham,UK","state":"Durham","country":"United Kingdom","canonicalUrl":"https://foursquare.com/v/crows-nest-pub/4c439acdf05e9521b9cee3b3","categoryId":"4bf58dd8d48988d11b941735","category":"Pub","checkinsCount":171,"usersCount":68,"tipCount":6,"visitsCount":194,"tier":"","message":"","currency":"","rating":6.3},{"name":"The Hollymere","address":"Leechmere Rd.","lat":54.881313,"lng":-1.38099,"city_fetched":"Seaham,UK","country":"United Kingdom","canonicalUrl":"https://foursquare.com/v/the-hollymere/4c6af8209c76d13a6d6c4d0f","categoryId":"4bf58dd8d48988d11b941735","category":"Pub","checkinsCount":239,"usersCount":77,"tipCount":6,"visitsCount":268,"tier":"","message":"","currency":"","rating":5.3}]