[{"name":"El Matador","phone":"+441732460284","address":"49 London Rd","lat":51.27138464868454,"lng":0.1909837016090676,"city_fetched":"Sevenoaks","state":"Kent","country":"United Kingdom","canonicalUrl":"https://foursquare.com/v/el-matador/4dd8160de4cd37c893bc99ab","category":"Spanish Restaurant","checkinsCount":115,"usersCount":74,"tipCount":7,"visitsCount":119,"url":"http://www.elmatador.co","tier":4,"message":"Very Expensive","currency":"Â£","rating":7.4},{"name":"Chequers","address":"High street","lat":51.270133483186704,"lng":0.19286059405627073,"city_fetched":"Sevenoaks","state":"Kent","country":"United Kingdom","canonicalUrl":"https://foursquare.com/v/chequers/4bec46d2c43f2d7f1ea8dbd9","category":"Pub","checkinsCount":316,"usersCount":157,"tipCount":4,"visitsCount":391,"tier":"","message":"","currency":"","rating":7.1},{"name":"The Bullfinch","phone":"+441732455107","address":"London Road","lat":51.28737359323459,"lng":0.16789663140552388,"city_fetched":"Sevenoaks","state":"Kent","country":"United Kingdom","canonicalUrl":"https://foursquare.com/v/the-bullfinch/4b2c2e20f964a52041c324e3","category":"Gastropub","checkinsCount":518,"usersCount":144,"tipCount":5,"visitsCount":600,"url":"http://www.mcmullens.co.uk/bullfinch","tier":"","message":"","currency":"","rating":6.6},{"name":"The Black Boy - Shepherd Neame","phone":"+441732452192","address":"13 Bank Street","lat":51.27111840074374,"lng":0.19220441579818726,"city_fetched":"Sevenoaks","state":"Kent","country":"United Kingdom","canonicalUrl":"https://foursquare.com/v/the-black-boy--shepherd-neame/4ba12bc1f964a520919e37e3","category":"Pub","checkinsCount":328,"usersCount":145,"tipCount":4,"visitsCount":332,"url":"http://www.shepherdneame.co.uk","tier":"","message":"","currency":"","rating":6.5},{"name":"The Oak Tree","twitter":"theoaktree_sev","address":"135 High St","lat":51.272134,"lng":0.192629,"city_fetched":"Sevenoaks","state":"Kent","country":"United Kingdom","canonicalUrl":"https://foursquare.com/v/the-oak-tree/4bacee93f964a5200c1b3be3","category":"Pub","checkinsCount":220,"usersCount":97,"tipCount":4,"visitsCount":221,"url":"http://www.faucetinn.com/oaktree/","tier":"","message":"","currency":"","rating":6.4},{"name":"The Sennockian (Wetherspoon)","phone":"+441732469010","address":"139-141 High St.","lat":51.27255817636354,"lng":0.1925879716873169,"city_fetched":"Sevenoaks","state":"Kent","country":"United Kingdom","canonicalUrl":"https://foursquare.com/v/the-sennockian-wetherspoon/4bc8376faf07a5934877802d","category":"Pub","checkinsCount":729,"usersCount":184,"tipCount":14,"visitsCount":812,"url":"http://www.jdwetherspoon.co.uk","tier":"","message":"","currency":"","rating":6}]