[{"name":"The Playa","phone":"+441765873059","twitter":"theplaya","address":"The Leas","lat":51.433823306229996,"lng":0.8012380906663545,"city_fetched":"Sheerness,UK","state":"Kent","country":"United Kingdom","canonicalUrl":"https://foursquare.com/v/the-playa/4c838a7fd92ea093f8b75472","categoryId":"4bf58dd8d48988d11b941735","category":"Pub","checkinsCount":157,"usersCount":66,"tipCount":6,"visitsCount":194,"url":"http://www.theplaya.com","tier":"","message":"","currency":"","rating":7.4},{"name":"Royal Hotel - Shepherd Neame","phone":"+441795662626","address":"29 Broadway","lat":51.44029938195657,"lng":0.7639360427856445,"city_fetched":"Sheerness,UK","state":"Kent","country":"United Kingdom","canonicalUrl":"https://foursquare.com/v/royal-hotel--shepherd-neame/4d8283b03e916dcb3fa183d2","categoryId":"4bf58dd8d48988d11b941735","category":"Pub","checkinsCount":20,"usersCount":13,"tipCount":2,"visitsCount":20,"url":"http://www.shepherdneame.co.uk","tier":"","message":"","currency":"","rating":6.5},{"name":"The Old House at Home","phone":"+441795581743","address":"1 High St.","lat":51.41684662798379,"lng":0.7413196563720703,"city_fetched":"Sheerness,UK","state":"Kent","country":"United Kingdom","canonicalUrl":"https://foursquare.com/v/the-old-house-at-home/4dad92b48154b108fec132e0","categoryId":"4bf58dd8d48988d11b941735","category":"Pub","checkinsCount":8,"usersCount":6,"tipCount":0,"visitsCount":8,"url":"http://www.shepherdneame.co.uk","tier":"","message":"","currency":"","rating":6.5},{"name":"The Aviator - Shepherd Neame","phone":"+441795666094","address":"Queenborough Corner","lat":51.414031287788895,"lng":0.7576972246170044,"city_fetched":"Sheerness,UK","state":"Kent","country":"United Kingdom","canonicalUrl":"https://foursquare.com/v/the-aviator--shepherd-neame/4d4c5d3c5f9db60ca5c03450","categoryId":"4bf58dd8d48988d11b941735","category":"Pub","checkinsCount":82,"usersCount":45,"tipCount":1,"visitsCount":89,"url":"http://www.shepherdneame.co.uk","tier":"","message":"","currency":"","rating":5.8}]