[{"name":"The Three Fishes","phone":"+441743344793","address":"4 Fish St","lat":52.70756134110441,"lng":-2.752636072710109,"city_fetched":"Shrewsbury","state":"Shropshire","country":"United Kingdom","canonicalUrl":"https://foursquare.com/v/the-three-fishes/4bc0c9c0b492d13afde2a460","category":"Pub","checkinsCount":1608,"usersCount":182,"tipCount":5,"visitsCount":1624,"tier":"","message":"","currency":"","rating":8.7},{"name":"Cromwells Hotel","phone":"+441743361440","address":"11 Dogpole","lat":52.70720289459445,"lng":-2.7523689488155054,"city_fetched":"Shrewsbury","state":"Shropshire","country":"United Kingdom","canonicalUrl":"https://foursquare.com/v/cromwells-hotel/4bc875e3dc55eee13e78e8ac","category":"Pub","checkinsCount":852,"usersCount":115,"tipCount":5,"visitsCount":880,"url":"http://www.cromwellsinn.com","tier":"","message":"","currency":"","rating":8.4},{"name":"The Boathouse Inn","phone":"+441743231658","address":"New Street","lat":52.708817309385566,"lng":-2.7634477615356445,"city_fetched":"Shrewsbury","state":"Shropshire","country":"United Kingdom","canonicalUrl":"https://foursquare.com/v/the-boathouse-inn/4bbf4e8a006dc9b61053fc3f","category":"Pub","checkinsCount":598,"usersCount":278,"tipCount":6,"visitsCount":683,"tier":"","message":"","currency":"","rating":8.4},{"name":"The Woodman Inn","phone":"+441743351007","address":"32 Coton Hill","lat":52.71626464811204,"lng":-2.753054037957848,"city_fetched":"Shrewsbury","state":"Shropshire","country":"United Kingdom","canonicalUrl":"https://foursquare.com/v/the-woodman-inn/4cb9d2a54495721ef59b4c7a","category":"Pub","checkinsCount":878,"usersCount":42,"tipCount":6,"visitsCount":890,"tier":"","message":"","currency":"","rating":7.9},{"name":"Morgans @ The Exchange Hotel","phone":"+441743239114","address":"1 Bellstone","lat":52.70733523023931,"lng":-2.756838798522949,"city_fetched":"Shrewsbury","state":"Shropshire","country":"United Kingdom","canonicalUrl":"https://foursquare.com/v/morgans--the-exchange-hotel/4bd75ada09ecb71385ab467c","category":"Pub","checkinsCount":905,"usersCount":108,"tipCount":3,"visitsCount":911,"url":"http://www.theexchangehotel.co.uk","tier":"","message":"","currency":"","rating":7.9},{"name":"C:21, Spirit & The Peach Tree","phone":"+441743355055","twitter":"thepeachtree1","address":"18-22 Abbey Forgate","lat":52.70578540894329,"lng":-2.748903625398921,"city_fetched":"Shrewsbury","state":"Shropshire","country":"United Kingdom","canonicalUrl":"https://foursquare.com/v/c21-spirit--the-peach-tree/4b4f973af964a5209f0c27e3","category":"Bar","checkinsCount":629,"usersCount":178,"tipCount":11,"visitsCount":641,"url":"http://www.thepeachtree.co.uk","tier":"","message":"","currency":"","rating":7.9},{"name":"The Salopian","phone":"+441743351505","address":"29-31 Smithfield Rd.","lat":52.71019712001552,"lng":-2.7547746106303515,"city_fetched":"Shrewsbury","state":"Shropshire","country":"United Kingdom","canonicalUrl":"https://foursquare.com/v/the-salopian/4cdf0089db125481566134ce","category":"Pub","checkinsCount":2381,"usersCount":175,"tipCount":10,"visitsCount":2426,"tier":"","message":"","currency":"","rating":7.9},{"name":"The Silverton Hotel","phone":"+441743248000","twitter":"silvertonhotel","address":"9-10 Frankwell","lat":52.710376052880804,"lng":-2.7548738810900812,"city_fetched":"Shrewsbury","state":"Shropshire","country":"United Kingdom","canonicalUrl":"https://foursquare.com/v/the-silverton-hotel/4e1f2a168130f3a2268ae8c3","category":"Restaurant","checkinsCount":951,"usersCount":101,"tipCount":6,"visitsCount":1028,"url":"http://thesilverton.co.uk","tier":2,"message":"Moderate","currency":"Â£","rating":7.7},{"name":"The Loopy Shrew","lat":52.70745211922047,"lng":-2.7553177524791552,"city_fetched":"Shrewsbury","state":"Shropshire","country":"United Kingdom","canonicalUrl":"https://foursquare.com/v/the-loopy-shrew/564a1982498e1b847250ae8d","category":"Gastropub","checkinsCount":295,"usersCount":29,"tipCount":2,"visitsCount":302,"tier":"","message":"","currency":"","rating":7.5},{"name":"Lion & Pheasant Hotel","address":"Wyle Cop","lat":52.70616606865454,"lng":-2.74897184415778,"city_fetched":"Shrewsbury","state":"Shropshire","country":"United Kingdom","canonicalUrl":"https://foursquare.com/v/lion--pheasant-hotel/4ce91e08595cb1f77fe0cc14","category":"Hotel","checkinsCount":361,"usersCount":139,"tipCount":5,"visitsCount":365,"tier":"","message":"","currency":"","rating":7.4},{"name":"The Armoury","phone":"+441743340525","address":"Victoria Quay","lat":52.70960149413408,"lng":-2.7587623697989008,"city_fetched":"Shrewsbury","state":"Shropshire","country":"United Kingdom","canonicalUrl":"https://foursquare.com/v/the-armoury/4b7e93e1f964a520a2f32fe3","category":"Pub","checkinsCount":1714,"usersCount":393,"tipCount":10,"visitsCount":1796,"tier":"","message":"","currency":"","rating":7.2},{"name":"The Old Post Office","phone":"+441743236019","address":"1 Milk St.","lat":52.70680578273749,"lng":-2.752308490057773,"city_fetched":"Shrewsbury","state":"Shropshire","country":"United Kingdom","canonicalUrl":"https://foursquare.com/v/the-old-post-office/4b410470f964a52077bf25e3","category":"Pub","checkinsCount":1102,"usersCount":165,"tipCount":6,"visitsCount":1107,"tier":"","message":"","currency":"","rating":7.2},{"name":"Loggerheads","address":"Church St","lat":52.70793258258344,"lng":-2.751923787380937,"city_fetched":"Shrewsbury","state":"Shropshire","country":"United Kingdom","canonicalUrl":"https://foursquare.com/v/loggerheads/4bf3c8f0354e9c74fea42602","category":"Pub","checkinsCount":633,"usersCount":108,"tipCount":5,"visitsCount":637,"tier":"","message":"","currency":"","rating":7.1},{"name":"Admiral Benbow","phone":"+441743244423","address":"Swan Hill","lat":52.707056539162096,"lng":-2.75548575076528,"city_fetched":"Shrewsbury","state":"Shropshire","country":"United Kingdom","canonicalUrl":"https://foursquare.com/v/admiral-benbow/4b6c87a5f964a52016412ce3","category":"Pub","checkinsCount":485,"usersCount":110,"tipCount":4,"visitsCount":489,"tier":"","message":"","currency":"","rating":7.1},{"name":"The Nag's Head","phone":"+441743362455","address":"Wyle Cop","lat":52.70640565491187,"lng":-2.7504336833953857,"city_fetched":"Shrewsbury","state":"Shropshire","country":"United Kingdom","canonicalUrl":"https://foursquare.com/v/the-nags-head/4bbcf9238ec3d13a557f1b28","category":"Pub","checkinsCount":1235,"usersCount":189,"tipCount":3,"visitsCount":1326,"tier":"","message":"","currency":"","rating":7},{"name":"Old Market Hall (OMH)","phone":"+441743281281","twitter":"oldmarkethall","address":"The Square","lat":52.70743923743579,"lng":-2.7544248104095455,"city_fetched":"Shrewsbury","state":"Shropshire","country":"United Kingdom","canonicalUrl":"https://foursquare.com/v/old-market-hall-omh/4bf6ff76b182c9b62eea745a","category":"Indie Movie Theater","checkinsCount":174,"usersCount":91,"tipCount":5,"visitsCount":174,"url":"http://www.oldmarkethall.co.uk","tier":"","message":"","currency":"","rating":7},{"name":"Coach And Horses","lat":52.706763186227455,"lng":-2.7560877799987793,"city_fetched":"Shrewsbury","state":"Shropshire","country":"United Kingdom","canonicalUrl":"https://foursquare.com/v/coach-and-horses/4bf9a527508c0f474c813f31","category":"Pub","checkinsCount":746,"usersCount":117,"tipCount":3,"visitsCount":760,"tier":"","message":"","currency":"","rating":6.7},{"name":"Yorkshire House","address":"St Mary's Pl","lat":52.708414292846534,"lng":-2.7515709400177,"city_fetched":"Shrewsbury","state":"Shropshire","country":"United Kingdom","canonicalUrl":"https://foursquare.com/v/yorkshire-house/4bb9ee0cb35776b0964bca01","category":"Pub","checkinsCount":1004,"usersCount":115,"tipCount":6,"visitsCount":1014,"tier":"","message":"","currency":"","rating":6.7},{"name":"Montgomery's Tower (Wetherspoon)","phone":"+441743239080","address":"Lower Claremont Bank","lat":52.70913236875952,"lng":-2.757450742890831,"city_fetched":"Shrewsbury","state":"Shropshire","country":"United Kingdom","canonicalUrl":"https://foursquare.com/v/montgomerys-tower-wetherspoon/4bae9af1f964a520d4c53be3","category":"Pub","checkinsCount":2301,"usersCount":382,"tipCount":9,"visitsCount":2417,"url":"http://www.jdwetherspoon.co.uk","tier":"","message":"","currency":"","rating":6.3},{"name":"The Bull Inn","phone":"+441743344728","address":"7 Butcher Row","lat":52.70821278318112,"lng":-2.752874493598938,"city_fetched":"Shrewsbury","state":"Shropshire","country":"United Kingdom","canonicalUrl":"https://foursquare.com/v/the-bull-inn/4bb743741344b71330809e04","category":"Pub","checkinsCount":669,"usersCount":168,"tipCount":2,"visitsCount":671,"url":"http://www.thebullinnshrewsbury.co.uk","tier":"","message":"","currency":"","rating":6.2},{"name":"Frank Cafe Bar","phone":"+441743354422","twitter":"frankfrankwell","address":"165-167 Frankwell","lat":52.71063733771318,"lng":-2.7585983276367188,"city_fetched":"Shrewsbury","state":"Shropshire","country":"United Kingdom","canonicalUrl":"https://foursquare.com/v/frank-cafe-bar/4ba09bcef964a520287437e3","category":"Cocktail Bar","checkinsCount":717,"usersCount":104,"tipCount":7,"visitsCount":720,"url":"http://www.frankbar.co.uk","tier":"","message":"","currency":"","rating":6.1},{"name":"The Lion Hotel","phone":"+441743353107","address":"73 Wyle Cop","lat":52.70646813460888,"lng":-2.7512564595218163,"city_fetched":"Shrewsbury","state":"Shropshire","country":"United Kingdom","canonicalUrl":"https://foursquare.com/v/the-lion-hotel/4bcf49d30ffdce726c5ab2c0","category":"Hotel","checkinsCount":277,"usersCount":109,"tipCount":3,"visitsCount":280,"url":"http://www.thelionhotelshrewsbury.com","tier":"","message":"","currency":"","rating":6.1},{"name":"The Shrewsbury Hotel (Wetherspoon)","phone":"+441743236203","address":"Bridge Place","lat":52.70960501333771,"lng":-2.7561310630795495,"city_fetched":"Shrewsbury","state":"Shropshire","country":"United Kingdom","canonicalUrl":"https://foursquare.com/v/the-shrewsbury-hotel-wetherspoon/4c87abf7821e9eb0d4cd8d89","category":"Pub","checkinsCount":3196,"usersCount":373,"tipCount":8,"visitsCount":3230,"url":"http://www.jdwetherspoon.co.uk","tier":"","message":"","currency":"","rating":6},{"name":"The Vaults","phone":"+441743358807","address":"16 Castle Gates","lat":52.71126632152227,"lng":-2.7507410616397094,"city_fetched":"Shrewsbury","state":"Shropshire","country":"United Kingdom","canonicalUrl":"https://foursquare.com/v/the-vaults/4bb8e2ab314e95217de2489d","category":"Pub","checkinsCount":1097,"usersCount":116,"tipCount":11,"visitsCount":1100,"tier":"","message":"","currency":"","rating":6},{"name":"The Hole in the Wall","phone":"+441743271847","address":"1 Shoplatch","lat":52.707419736105315,"lng":-2.7558732032775874,"city_fetched":"Shrewsbury","state":"Shropshire","country":"United Kingdom","canonicalUrl":"https://foursquare.com/v/the-hole-in-the-wall/4b93bc08f964a520114f34e3","category":"Pub","checkinsCount":1276,"usersCount":135,"tipCount":2,"visitsCount":1277,"tier":"","message":"","currency":"","rating":5.8},{"name":"The Beaten Track","phone":"+441743233941","address":"Old Potts Way","lat":52.70309672609998,"lng":-2.7401018142700195,"city_fetched":"Shrewsbury","state":"Shropshire","country":"United Kingdom","canonicalUrl":"https://foursquare.com/v/the-beaten-track/4c2f1e4ea0ced13a19f50f6e","category":"Pub","checkinsCount":326,"usersCount":119,"tipCount":5,"visitsCount":326,"tier":"","message":"","currency":"","rating":5.7},{"name":"Toby Carvery","lat":52.713487757209116,"lng":-2.8024385319738605,"city_fetched":"Shrewsbury","state":"Shropshire","country":"United Kingdom","canonicalUrl":"https://foursquare.com/v/toby-carvery/4c1e3800b306c92849a966b7","category":"Gastropub","checkinsCount":184,"usersCount":102,"tipCount":4,"visitsCount":228,"tier":"","message":"","currency":"","rating":5.6},{"name":"Oxon Priory","phone":"+441743271686","address":"Welshpool Road","lat":52.714452577802696,"lng":-2.792770670883403,"city_fetched":"Shrewsbury","state":"Shropshire","country":"United Kingdom","canonicalUrl":"https://foursquare.com/v/oxon-priory/4b4a24b9f964a520367c26e3","category":"Pub","checkinsCount":289,"usersCount":90,"tipCount":2,"visitsCount":309,"tier":"","message":"","currency":"","rating":5.4},{"name":"Red Lion","lat":52.742585,"lng":-2.7203,"city_fetched":"Shrewsbury","country":"United Kingdom","canonicalUrl":"https://foursquare.com/v/red-lion/4b803b92f964a520185f30e3","category":"Pub","checkinsCount":518,"usersCount":63,"tipCount":5,"visitsCount":534,"tier":"","message":"","currency":"","rating":5.1}]