[{"name":"Park Tavern - Shepherd Neame","phone":"+441795555158","address":"Park Road","lat":51.33802862808113,"lng":0.7303065061569214,"city_fetched":"Sittingbourne","state":"Kent","country":"United Kingdom","canonicalUrl":"https://foursquare.com/v/park-tavern--shepherd-neame/4e6638a0091afcffda1a7175","category":"Pub","checkinsCount":6,"usersCount":5,"tipCount":0,"visitsCount":6,"url":"http://www.shepherdneame.co.uk","tier":"","message":"","currency":"","rating":6.4},{"name":"Globe & Engine - Shepherd Neame","phone":"+441795472795","address":"Berry Street","lat":51.34152388352896,"lng":0.7354241609573364,"city_fetched":"Sittingbourne","state":"Kent","country":"United Kingdom","canonicalUrl":"https://foursquare.com/v/globe--engine--shepherd-neame/4e65ee0d091afcffda11c895","category":"Pub","checkinsCount":11,"usersCount":5,"tipCount":0,"visitsCount":11,"url":"http://www.shepherdneame.co.uk","tier":"","message":"","currency":"","rating":6.4},{"name":"The Fountain - Shepherd Neame","phone":"+441795472015","address":"37 Station Street","lat":51.34149707529727,"lng":0.7348823547363281,"city_fetched":"Sittingbourne","state":"Kent","country":"United Kingdom","canonicalUrl":"https://foursquare.com/v/the-fountain--shepherd-neame/4e54db0f636510eb2e0de86d","category":"Pub","checkinsCount":23,"usersCount":15,"tipCount":0,"visitsCount":23,"url":"http://www.shepherdneame.co.uk","tier":"","message":"","currency":"","rating":6.4},{"name":"The Vineyard","phone":"+441795426969","address":"8-10 West St.","lat":51.34069668737744,"lng":0.7330428614929093,"city_fetched":"Sittingbourne","state":"Kent","country":"United Kingdom","canonicalUrl":"https://foursquare.com/v/the-vineyard/4df871322271607ac917ec7f","category":"Pub","checkinsCount":237,"usersCount":66,"tipCount":2,"visitsCount":247,"tier":"","message":"","currency":"","rating":5.5}]