[{"name":"The Hop Vine","phone":"+441704893799","address":"Liverpool Road North","lat":53.603888943643405,"lng":-2.841339111328125,"city_fetched":"Skelmersdale,UK","state":"Lancashire","country":"United Kingdom","canonicalUrl":"https://foursquare.com/v/the-hop-vine/4babaeb1f964a520e8bf3ae3","categoryId":"4bf58dd8d48988d11b941735","category":"Pub","checkinsCount":414,"usersCount":143,"tipCount":10,"visitsCount":473,"tier":"","message":"","currency":"","rating":8},{"name":"The Hop Inn Bier Shoppe","address":"Burscough Street","lat":53.56776126647175,"lng":-2.8856346414105922,"city_fetched":"Skelmersdale,UK","state":"Lancashire","country":"United Kingdom","canonicalUrl":"https://foursquare.com/v/the-hop-inn-bier-shoppe/5146c5bae4b087df8922c505","categoryId":"4bf58dd8d48988d116941735","category":"Bar","checkinsCount":152,"usersCount":52,"tipCount":6,"visitsCount":155,"tier":"","message":"","currency":"","rating":8},{"name":"The White Lion","phone":"+441257425977","address":"117 Mossy Lea Rd, Wrightington","lat":53.598057377806086,"lng":-2.6967143151324415,"city_fetched":"Skelmersdale,UK","state":"Lancashire","country":"United Kingdom","canonicalUrl":"https://foursquare.com/v/the-white-lion/4de2756efa7651589eff00f5","categoryId":"4bf58dd8d48988d11b941735","category":"Pub","checkinsCount":285,"usersCount":81,"tipCount":5,"visitsCount":353,"url":"http://www.thewhitelionlancs.co.uk","tier":"","message":"","currency":"","rating":8},{"name":"Bottle & Glass","lat":53.48282366300136,"lng":-2.7747101594497816,"city_fetched":"Skelmersdale,UK","country":"United Kingdom","canonicalUrl":"https://foursquare.com/v/bottle--glass/4d0cd2a0eea9b60c2cac5a3f","categoryId":"4bf58dd8d48988d11b941735","category":"Pub","checkinsCount":173,"usersCount":120,"tipCount":6,"visitsCount":245,"tier":"","message":"","currency":"","rating":7.2},{"name":"Ship Inn Burscough","twitter":"theshipatlathom","address":"Wheat lane","lat":53.597679,"lng":-2.8297764,"city_fetched":"Skelmersdale,UK","state":"Lancashire","country":"United Kingdom","canonicalUrl":"https://foursquare.com/v/ship-inn-burscough/4bf7e1564a67c928724624cf","categoryId":"4bf58dd8d48988d11b941735","category":"Pub","checkinsCount":229,"usersCount":154,"tipCount":6,"visitsCount":333,"tier":"","message":"","currency":"","rating":7.2},{"name":"Lime Tyger","address":"4 Church Street","lat":53.5674955,"lng":-2.8861513,"city_fetched":"Skelmersdale,UK","state":"Lancashire","country":"United Kingdom","canonicalUrl":"https://foursquare.com/v/lime-tyger/4dbb25c043a1d8504b67fd1e","categoryId":"4bf58dd8d48988d116941735","category":"Bar","checkinsCount":193,"usersCount":57,"tipCount":7,"visitsCount":193,"tier":"","message":"","currency":"","rating":6.8},{"name":"The Eagle And Child","phone":"+441257462297","address":"Maltkiln Lane","lat":53.6154991281423,"lng":-2.773747444152832,"city_fetched":"Skelmersdale,UK","state":"Lancashire","country":"United Kingdom","canonicalUrl":"https://foursquare.com/v/the-eagle-and-child/4bf66f4394b2a5933265adee","categoryId":"4bf58dd8d48988d11b941735","category":"Pub","checkinsCount":70,"usersCount":53,"tipCount":1,"visitsCount":83,"tier":"","message":"","currency":"","rating":6.5},{"name":"The Stag","address":"226 Orrell Rd","lat":53.539993,"lng":-2.704435,"city_fetched":"Skelmersdale,UK","state":"Wigan","country":"United Kingdom","canonicalUrl":"https://foursquare.com/v/the-stag/4c41fc26ff711b8d82cb1205","categoryId":"4bf58dd8d48988d11b941735","category":"Pub","checkinsCount":205,"usersCount":80,"tipCount":2,"visitsCount":243,"tier":"","message":"","currency":"","rating":6.4},{"name":"Disraeli's","phone":"+441695570737","address":"26 Church Street","lat":53.56826170631779,"lng":-2.886909056355108,"city_fetched":"Skelmersdale,UK","state":"Lancashire","country":"United Kingdom","canonicalUrl":"https://foursquare.com/v/disraelis/4bedbaeae24d20a1c6e67114","categoryId":"4bf58dd8d48988d11b941735","category":"Pub","checkinsCount":260,"usersCount":109,"tipCount":1,"visitsCount":280,"url":"http://www.disraelis1pub.co.uk","tier":"","message":"","currency":"","rating":6.3},{"name":"The Court Leet (Wetherspoon)","phone":"+441695579803","address":"4 Wheatsheaf Walk","lat":53.56805112299726,"lng":-2.88490417235119,"city_fetched":"Skelmersdale,UK","state":"Lancashire","country":"United Kingdom","canonicalUrl":"https://foursquare.com/v/the-court-leet-wetherspoon/537ca699498e2777ca31ec80","categoryId":"4bf58dd8d48988d11b941735","category":"Pub","checkinsCount":96,"usersCount":62,"tipCount":1,"visitsCount":113,"tier":"","message":"","currency":"","rating":6},{"name":"Charnley Arms","phone":"+441257424619","address":"Almond Brook Rd, Standish,","lat":53.5885808039079,"lng":-2.6825314086666925,"city_fetched":"Skelmersdale,UK","state":"Lancashire","country":"United Kingdom","canonicalUrl":"https://foursquare.com/v/charnley-arms/4bdb0fb92a3a0f470736adb6","categoryId":"4bf58dd8d48988d11b941735","category":"Pub","checkinsCount":189,"usersCount":82,"tipCount":7,"visitsCount":197,"url":"http://www.fayre-square.com/pub/charnley-arms-standish-wigan/p1244/","tier":"","message":"","currency":"","rating":5.5}]