[{"name":"The Anglers","phone":"+441522702200","address":"65 High Street","lat":53.26843147,"lng":-0.66372672,"city_fetched":"Skellingthorpe,UK","state":"Lincolnshire","country":"United Kingdom","canonicalUrl":"https://foursquare.com/v/the-anglers/4b710e43f964a52073382de3","categoryId":"4bf58dd8d48988d11b941735","category":"Pub","checkinsCount":112,"usersCount":19,"tipCount":2,"visitsCount":132,"tier":"","message":"","currency":"","rating":7.9},{"name":"Pyewipe Inn","phone":"+441522528708","address":"Saxilby Rd.","lat":53.2394343169426,"lng":-0.5798721313476562,"city_fetched":"Skellingthorpe,UK","state":"Lincolnshire","country":"United Kingdom","canonicalUrl":"https://foursquare.com/v/pyewipe-inn/4bd730ae304fce72e93133ab","categoryId":"4bf58dd8d48988d11b941735","category":"Pub","checkinsCount":188,"usersCount":163,"tipCount":5,"visitsCount":253,"url":"http://www.pyewipe.co.uk","tier":"","message":"","currency":"","rating":7.5},{"name":"Queen In The West","phone":"+441522827004","address":"14 Moor St.","lat":53.233355187323085,"lng":-0.5538092454734366,"city_fetched":"Skellingthorpe,UK","state":"Lincolnshire","country":"United Kingdom","canonicalUrl":"https://foursquare.com/v/queen-in-the-west/4bdf1af77ea362b58f5443c4","categoryId":"4bf58dd8d48988d11b941735","category":"Pub","checkinsCount":131,"usersCount":62,"tipCount":7,"visitsCount":145,"tier":"","message":"","currency":"","rating":6},{"name":"Nosey Parker","phone":"+441522524401","address":"1 Crusader Rd","lat":53.219926179512626,"lng":-0.5580698747319993,"city_fetched":"Skellingthorpe,UK","state":"Lincolnshire","country":"United Kingdom","canonicalUrl":"https://foursquare.com/v/nosey-parker/4bdd64cdb0f5c92848454ce3","categoryId":"4bf58dd8d48988d11b941735","category":"Pub","checkinsCount":451,"usersCount":197,"tipCount":4,"visitsCount":580,"tier":"","message":"","currency":"","rating":5.8},{"name":"The Woodcocks","phone":"+441522703460","address":"Burton Lane End","lat":53.25158868696045,"lng":-0.6016263729291585,"city_fetched":"Skellingthorpe,UK","state":"Lincolnshire","country":"United Kingdom","canonicalUrl":"https://foursquare.com/v/the-woodcocks/4c39e0e8ae2da593e22903c6","categoryId":"4bf58dd8d48988d11b941735","category":"Pub","checkinsCount":255,"usersCount":156,"tipCount":7,"visitsCount":286,"tier":"","message":"","currency":"","rating":5.8}]