[{"name":"The Cock & Bottle","phone":"+441756794734","address":"30 Swadford St","lat":53.960198184065796,"lng":-2.0188558101654053,"city_fetched":"Skipton","state":"North Yorkshire","country":"United Kingdom","canonicalUrl":"https://foursquare.com/v/the-cock--bottle/4baa8d05f964a520df733ae3","category":"Pub","checkinsCount":234,"usersCount":102,"tipCount":6,"visitsCount":241,"tier":"","message":"","currency":"","rating":8.5},{"name":"The Woolly Sheep Inn","phone":"+441756700966","twitter":"woollysheepinn","address":"38 Sheep St","lat":53.9604990676067,"lng":-2.017750818085341,"city_fetched":"Skipton","state":"North Yorkshire","country":"United Kingdom","canonicalUrl":"https://foursquare.com/v/the-woolly-sheep-inn/4baa8e59f964a52048743ae3","category":"Pub","checkinsCount":403,"usersCount":251,"tipCount":11,"visitsCount":451,"url":"http://woollysheepinn.co.uk","tier":"","message":"","currency":"","rating":8.4},{"name":"The Narrowboat","phone":"+441756797922","twitter":"markettowntavs","address":"36-38 Victoria St.","lat":53.9610534891932,"lng":-2.0189738273620605,"city_fetched":"Skipton","state":"North Yorkshire","country":"United Kingdom","canonicalUrl":"https://foursquare.com/v/the-narrowboat/4c03a7b739d476b03c5930a7","category":"Bar","checkinsCount":396,"usersCount":152,"tipCount":7,"visitsCount":416,"tier":"","message":"","currency":"","rating":7.8},{"name":"The Red Lion","phone":"+441756790718","address":"27 High St.","lat":53.96205710899521,"lng":-2.0164042711257935,"city_fetched":"Skipton","state":"North Yorkshire","country":"United Kingdom","canonicalUrl":"https://foursquare.com/v/the-red-lion/4baa8f16f964a5208c743ae3","category":"Pub","checkinsCount":468,"usersCount":171,"tipCount":2,"visitsCount":506,"tier":"","message":"","currency":"","rating":6.8},{"name":"Copper Dragon Brewery","phone":"+441756702130","address":"Snaygill Industrial Estate","lat":53.944989,"lng":-2.0163233,"city_fetched":"Skipton","state":"North Yorkshire","country":"United Kingdom","canonicalUrl":"https://foursquare.com/v/copper-dragon-brewery/4b5cc681f964a5206c4329e3","category":"Brewery","checkinsCount":79,"usersCount":56,"tipCount":7,"visitsCount":82,"tier":"","message":"","currency":"","rating":6.6},{"name":"The Castle Inn","phone":"+441756791795","twitter":"castleskipton","address":"2 Mill Bridge","lat":53.96313901943192,"lng":-2.01660234784544,"city_fetched":"Skipton","state":"North Yorkshire","country":"United Kingdom","canonicalUrl":"https://foursquare.com/v/the-castle-inn/4c3712943849c92876ffbcb1","category":"Pub","checkinsCount":175,"usersCount":85,"tipCount":3,"visitsCount":180,"url":"http://www.thelionessofleith.co.uk","tier":"","message":"","currency":"","rating":6.6},{"name":"The Devonshire (Wetherspoon)","phone":"+441756692590","address":"Newmarket St.","lat":53.960322527727214,"lng":-2.0155898391478346,"city_fetched":"Skipton","state":"North Yorkshire","country":"United Kingdom","canonicalUrl":"https://foursquare.com/v/the-devonshire-wetherspoon/4c212fe3aa8e9c74b02df4d4","category":"Pub","checkinsCount":551,"usersCount":178,"tipCount":2,"visitsCount":575,"url":"http://www.jdwetherspoon.co.uk","tier":"","message":"","currency":"","rating":6},{"name":"The Black Horse","phone":"+441756792145","address":"16-18 High St","lat":53.96265942110922,"lng":-2.016836288334496,"city_fetched":"Skipton","state":"North Yorkshire","country":"United Kingdom","canonicalUrl":"https://foursquare.com/v/the-black-horse/4baa8faaf964a520bf743ae3","category":"Pub","checkinsCount":254,"usersCount":135,"tipCount":7,"visitsCount":257,"tier":"","message":"","currency":"","rating":5.8},{"name":"The Fleece Inn","phone":"+441756792898","address":"The Fleece Inn","lat":53.95903986464635,"lng":-2.0181691646575928,"city_fetched":"Skipton","state":"North Yorkshire","country":"United Kingdom","canonicalUrl":"https://foursquare.com/v/the-fleece-inn/4baa8a29f964a520de723ae3","category":"Pub","checkinsCount":74,"usersCount":23,"tipCount":4,"visitsCount":77,"tier":"","message":"","currency":"","rating":5.7}]