[{"name":"The Inn Beer Shop","phone":"+441704533054","address":"657 Lord St","lat":53.6517921777005,"lng":-2.999095916748047,"city_fetched":"Southport","state":"Sefton","country":"United Kingdom","canonicalUrl":"https://foursquare.com/v/the-inn-beer-shop/4c45b1a336d6a593112f6ca8","category":"Bar","checkinsCount":378,"usersCount":164,"tipCount":13,"visitsCount":579,"tier":"","message":"","currency":"","rating":8.5},{"name":"The Guest House Inn","phone":"+441704537660","address":"16 Union St","lat":53.65048555,"lng":-2.99955,"city_fetched":"Southport","state":"Sefton","country":"United Kingdom","canonicalUrl":"https://foursquare.com/v/the-guest-house-inn/4c0c98a1d64c0f47c779255d","category":"Pub","checkinsCount":547,"usersCount":104,"tipCount":12,"visitsCount":661,"tier":"","message":"","currency":"","rating":8},{"name":"The Hungry Monk","lat":53.647246,"lng":-3.005285,"city_fetched":"Southport","country":"United Kingdom","canonicalUrl":"https://foursquare.com/v/the-hungry-monk/5336fc3a498e5a9aa2122a54","category":"Bar","checkinsCount":47,"usersCount":30,"tipCount":5,"visitsCount":47,"tier":"","message":"","currency":"","rating":7.6},{"name":"The Hesketh Arms","phone":"+441704509548","address":"Botanic Rd","lat":53.65976431783042,"lng":-2.9617680275633833,"city_fetched":"Southport","country":"United Kingdom","canonicalUrl":"https://foursquare.com/v/the-hesketh-arms/4b6d80ddf964a520bf782ce3","category":"Pub","checkinsCount":300,"usersCount":111,"tipCount":7,"visitsCount":340,"tier":"","message":"","currency":"","rating":7.5},{"name":"The Richmond","phone":"+441704884544","address":"Scarisbrick New Road","lat":53.6341,"lng":-2.973761,"city_fetched":"Southport","state":"Sefton","country":"United Kingdom","canonicalUrl":"https://foursquare.com/v/the-richmond/4b4e2ab1f964a520c2e326e3","category":"Pub","checkinsCount":183,"usersCount":115,"tipCount":2,"visitsCount":225,"tier":"","message":"","currency":"","rating":7.3},{"name":"The Bold Arms","lat":53.659578,"lng":-2.962864,"city_fetched":"Southport","country":"United Kingdom","canonicalUrl":"https://foursquare.com/v/the-bold-arms/4be47cf62457a593374daa15","category":"Pub","checkinsCount":602,"usersCount":66,"tipCount":6,"visitsCount":794,"tier":"","message":"","currency":"","rating":6.9},{"name":"Fox & Goose","phone":"+441704501894","address":"8 Cable St.","lat":53.64909070451805,"lng":-3.0058096194647392,"city_fetched":"Southport","country":"United Kingdom","canonicalUrl":"https://foursquare.com/v/fox--goose/4bb64bbdef159c7425ba75f7","category":"Pub","checkinsCount":254,"usersCount":77,"tipCount":3,"visitsCount":258,"tier":"","message":"","currency":"","rating":6.8},{"name":"The Sir Henry Segrave (Wetherspoon)","phone":"+441704530217","address":"93-97 Lord St.","lat":53.64568084609379,"lng":-3.010382652282715,"city_fetched":"Southport","country":"United Kingdom","canonicalUrl":"https://foursquare.com/v/the-sir-henry-segrave-wetherspoon/4b9e1e75f964a520c4cb36e3","category":"Pub","checkinsCount":761,"usersCount":248,"tipCount":5,"visitsCount":813,"url":"http://www.jdwetherspoon.co.uk","tier":"","message":"","currency":"","rating":6.7},{"name":"Lakeside Inn","phone":"+441704530173","address":"The Promenade","lat":53.65365044475248,"lng":-3.0037960743613366,"city_fetched":"Southport","state":"Sefton","country":"United Kingdom","canonicalUrl":"https://foursquare.com/v/lakeside-inn/4c6d718506ed6dcb6de2a322","category":"Pub","checkinsCount":192,"usersCount":109,"tipCount":7,"visitsCount":223,"tier":"","message":"","currency":"","rating":6.7},{"name":"The Sandgrounder","phone":"+441704549271","address":"137-141 Lord St","lat":53.646217330798244,"lng":-3.0094186648960783,"city_fetched":"Southport","country":"United Kingdom","canonicalUrl":"https://foursquare.com/v/the-sandgrounder/4fec9517e4b0bda56c0e3424","category":"Sports Bar","checkinsCount":98,"usersCount":69,"tipCount":3,"visitsCount":103,"tier":"","message":"","currency":"","rating":6.1},{"name":"Morris Dancers Beefeater","phone":"+441704880201","address":"Southport Rd, Scarisbrick","lat":53.601367889719725,"lng":-2.986135482788086,"city_fetched":"Southport","state":"Lancashire","country":"United Kingdom","canonicalUrl":"https://foursquare.com/v/morris-dancers-beefeater/4c3c7dae7d00d13a15f13850","category":"Pub","checkinsCount":16,"usersCount":10,"tipCount":1,"visitsCount":16,"tier":"","message":"","currency":"","rating":6},{"name":"Ocean Plaza (Brewers Fayre)","phone":"+441704504675","twitter":"brewersfayre","address":"Marine Drive","lat":53.65161489030361,"lng":-3.0141571589593954,"city_fetched":"Southport","state":"Sefton","country":"United Kingdom","canonicalUrl":"https://foursquare.com/v/ocean-plaza-brewers-fayre/4b9d5519f964a5204fa436e3","category":"Pub","checkinsCount":304,"usersCount":155,"tipCount":2,"visitsCount":304,"url":"http://www.brewersfayre.co.uk/pub-restaurant/Merseyside/Ocean-Plaza-Southport.html","tier":"","message":"","currency":"","rating":5.9},{"name":"The Willow Grove (Wetherspoon)","phone":"+441704517830","address":"387-389 Lord St.","lat":53.648943,"lng":-3.00458805,"city_fetched":"Southport","country":"United Kingdom","canonicalUrl":"https://foursquare.com/v/the-willow-grove-wetherspoon/4c87ac05821e9eb0dccd8d89","category":"Pub","checkinsCount":889,"usersCount":386,"tipCount":18,"visitsCount":1046,"url":"http://www.jdwetherspoon.co.uk","tier":"","message":"","currency":"","rating":5.6},{"name":"The Guelder Rose","phone":"+441704546803","address":"Ocean Plaza","lat":53.653326,"lng":-3.013807,"city_fetched":"Southport","state":"Lancashire","country":"United Kingdom","canonicalUrl":"https://foursquare.com/v/the-guelder-rose/52755976498e0d296d3c3283","category":"Pub","checkinsCount":97,"usersCount":73,"tipCount":3,"visitsCount":103,"url":"http://www.guelderrosepubsouthport.co.uk","tier":"","message":"","currency":"","rating":5.5}]