[{"name":"Mango Thai Tapas Bar","phone":"+442380336540","twitter":"mangothaitapas","address":"180-182 Above Bar Street","lat":50.90878012151117,"lng":-1.4046816195154208,"neighborhood":"City Centre","city_fetched":"Southampton","state":"Hampshire","country":"United Kingdom","canonicalUrl":"https://foursquare.com/mangothaitapas","category":"Thai Restaurant","checkinsCount":391,"usersCount":190,"tipCount":15,"visitsCount":399,"url":"http://www.mangothai.co.uk","tier":1,"message":"Cheap","currency":"£","rating":9},{"name":"The Stable","phone":"+442380236710","address":"Unit 6, Above Bar Street","lat":50.907534,"lng":-1.404594,"neighborhood":"City Centre","city_fetched":"Southampton","state":"Hampshire","country":"United Kingdom","canonicalUrl":"https://foursquare.com/v/the-stable/56461a3a498e420307b569e7","category":"Pizza Place","checkinsCount":87,"usersCount":69,"tipCount":0,"visitsCount":93,"url":"http://stablepizza.com/locations/southampton/","tier":"","message":"","currency":"","rating":8.8},{"name":"The Rockstone","phone":"+442380637256","address":"63 Onslow Rd","lat":50.91513,"lng":-1.397487,"neighborhood":"Bevois","city_fetched":"Southampton","state":"Hampshire","country":"United Kingdom","canonicalUrl":"https://foursquare.com/v/the-rockstone/4ebc4ae3b803c81b9203ef8c","category":"Pub","checkinsCount":1295,"usersCount":484,"tipCount":26,"visitsCount":1595,"url":"http://www.therockstone.co.uk","tier":"","message":"","currency":"","rating":8.6},{"name":"The Dancing Man","phone":"+442389836666","twitter":"dancingmanbrew","address":"Town Quay","lat":50.897451048116224,"lng":-1.4061201774374597,"neighborhood":"City Centre","city_fetched":"Southampton","state":"Hampshire","country":"United Kingdom","canonicalUrl":"https://foursquare.com/v/the-dancing-man/509e5e66e4b070da09c54a24","category":"Brewery","checkinsCount":361,"usersCount":267,"tipCount":12,"visitsCount":512,"url":"http://www.dancingmanbrewery.co.uk","tier":"","message":"","currency":"","rating":8.6},{"name":"The Guide Dog","phone":"+442380225642","address":"38 Earls Rd","lat":50.91748136,"lng":-1.397063,"neighborhood":"Bevois","city_fetched":"Southampton","state":"Hampshire","country":"United Kingdom","canonicalUrl":"https://foursquare.com/v/the-guide-dog/4c9118ea7088a143cd1eae43","category":"Pub","checkinsCount":706,"usersCount":115,"tipCount":7,"visitsCount":819,"url":"http://www.theguidedogsouthampton.co.uk","tier":"","message":"","currency":"","rating":8.3},{"name":"Platform Tavern","phone":"+442380337232","twitter":"dancingmanbrew","address":"Town Quay","lat":50.89635862155845,"lng":-1.4036274541653506,"neighborhood":"City Centre","city_fetched":"Southampton","state":"Hampshire","country":"United Kingdom","canonicalUrl":"https://foursquare.com/v/platform-tavern/4b23d74df964a520f95a24e3","category":"Pub","checkinsCount":701,"usersCount":430,"tipCount":18,"visitsCount":876,"url":"http://www.platformtavern.com","tier":2,"message":"Moderate","currency":"£","rating":8.3},{"name":"No. 4 Coffee & Wine Bar","phone":"+442308337644","address":"4 Canute Road","lat":50.89705809534073,"lng":-1.394233679945674,"neighborhood":"Ocean Village","city_fetched":"Southampton","state":"Hampshire","country":"United Kingdom","canonicalUrl":"https://foursquare.com/v/no-4-coffee--wine-bar/51371815e4b0a1aee2d7e7b7","category":"Coffee Shop","checkinsCount":298,"usersCount":64,"tipCount":11,"visitsCount":307,"tier":"","message":"","currency":"","rating":8.2},{"name":"Ceno Restaurant","phone":"+442380554400","address":"119 Highfield Lane","lat":50.927577,"lng":-1.391609,"neighborhood":"Highfield","city_fetched":"Southampton","state":"Hampshire","country":"United Kingdom","canonicalUrl":"https://foursquare.com/v/ceno-restaurant/4b7c4fcdf964a520958b2fe3","category":"Bar","checkinsCount":234,"usersCount":162,"tipCount":7,"visitsCount":249,"url":"http://www.cenorestaurant.com","tier":"","message":"","currency":"","rating":8.2},{"name":"Provenance","phone":"+442380336297","twitter":"provenancenight","address":"127 Above Bar St.","lat":50.907173424664535,"lng":-1.4047372341156004,"neighborhood":"City Centre","city_fetched":"Southampton","state":"Hampshire","country":"United Kingdom","canonicalUrl":"https://foursquare.com/provenancenight","category":"Nightclub","checkinsCount":77,"usersCount":45,"tipCount":0,"visitsCount":77,"url":"http://www.provenancenightclub.com","tier":"","message":"","currency":"","rating":8.1},{"name":"Overdraft - Craft Ale Bar","phone":"+442380775823","address":"383 Shirley Rd","lat":50.919142685697324,"lng":-1.4295221534483942,"neighborhood":"Regents Park","city_fetched":"Southampton","state":"Hampshire","country":"United Kingdom","canonicalUrl":"https://foursquare.com/v/overdraft--craft-ale-bar/566dc69c498e5da2ae6daf81","category":"Pub","checkinsCount":118,"usersCount":51,"tipCount":6,"visitsCount":168,"tier":"","message":"","currency":"","rating":8.1},{"name":"The Jolly Sailor","phone":"+442380405557","address":"Lands End Rd","lat":50.88196098804474,"lng":-1.304246,"neighborhood":"Bursledon and Old Netley","city_fetched":"Southampton","state":"Hampshire","country":"United Kingdom","canonicalUrl":"https://foursquare.com/v/the-jolly-sailor/4c01085219d8c92864298829","category":"Pub","checkinsCount":558,"usersCount":382,"tipCount":16,"visitsCount":671,"url":"http://jollysailoroldbursledon.co.uk","tier":"","message":"","currency":"","rating":8},{"name":"The London Hotel","phone":"+442380710652","address":"Oxford Street","lat":50.897969913857374,"lng":-1.3970406353473663,"neighborhood":"City Centre","city_fetched":"Southampton","state":"Hampshire","country":"United Kingdom","canonicalUrl":"https://foursquare.com/v/the-london-hotel/4bacaff4f964a520d7033be3","category":"Gay Bar","checkinsCount":621,"usersCount":212,"tipCount":10,"visitsCount":647,"tier":"","message":"","currency":"","rating":8},{"name":"Turfcutters Arms","phone":"+441590612331","address":"East Boldre Rd","lat":50.80243438061891,"lng":-1.4702340960502625,"city_fetched":"Southampton","state":"Hampshire","country":"United Kingdom","canonicalUrl":"https://foursquare.com/v/turfcutters-arms/4d2b5857d86aa09092b422c0","category":"Pub","checkinsCount":190,"usersCount":101,"tipCount":8,"visitsCount":231,"url":"http://www.the-turfcutters-new-forest.co.uk","tier":"","message":"","currency":"","rating":7.9},{"name":"The Drift Inn","twitter":"thedriftinnpub","address":"Beaulieu Rd","lat":50.8547001018894,"lng":-1.5038507676211108,"city_fetched":"Southampton","state":"Hampshire","country":"United Kingdom","canonicalUrl":"https://foursquare.com/v/the-drift-inn/4d1dfd5bdd6a236a37932238","category":"Pub","checkinsCount":150,"usersCount":127,"tipCount":8,"visitsCount":182,"tier":"","message":"","currency":"","rating":7.8},{"name":"The Bookshop Alehouse","twitter":"bookshpalehouse","address":"21 Portswood Rd","lat":50.920517,"lng":-1.3955121,"neighborhood":"Bevois","city_fetched":"Southampton","state":"Hampshire","country":"United Kingdom","canonicalUrl":"https://foursquare.com/v/the-bookshop-alehouse/56c59fedcd10b1e9cd41dea3","category":"Bar","checkinsCount":61,"usersCount":41,"tipCount":2,"visitsCount":74,"tier":"","message":"","currency":"","rating":7.8},{"name":"Trago Lounge","phone":"+442380558515","twitter":"theloungers","address":"190/192 Portswood Rd.","lat":50.926581,"lng":-1.391104,"city_fetched":"Southampton","state":"Hampshire","country":"United Kingdom","canonicalUrl":"https://foursquare.com/v/trago-lounge/4b48950ff964a520cd4f26e3","category":"Lounge","checkinsCount":1173,"usersCount":482,"tipCount":19,"visitsCount":1406,"url":"http://www.thelounges.co.uk","tier":"","message":"","currency":"","rating":7.8},{"name":"Grand Cafe","phone":"+442380339303","address":"1 South Western House","lat":50.89758541221223,"lng":-1.3968516016821995,"neighborhood":"Ocean Village","city_fetched":"Southampton","state":"Hampshire","country":"United Kingdom","canonicalUrl":"https://foursquare.com/v/grand-cafe/4db871b10437609120ebcfa6","category":"Bar","checkinsCount":329,"usersCount":198,"tipCount":4,"visitsCount":338,"url":"http://www.grand-cafe.co.uk/home/","tier":"","message":"","currency":"","rating":7.7},{"name":"The Edge","phone":"+442380366163","twitter":"theedgesoton","address":"Compton Walk","lat":50.91009935733631,"lng":-1.3995417952537537,"neighborhood":"Bevois","city_fetched":"Southampton","state":"Hampshire","country":"United Kingdom","canonicalUrl":"https://foursquare.com/v/the-edge/4bacae93f964a5205a033be3","category":"Gay Bar","checkinsCount":1696,"usersCount":382,"tipCount":13,"visitsCount":1992,"url":"http://www.theedgesouthampton.com","tier":"","message":"","currency":"","rating":7.7},{"name":"The White Star Tavern","phone":"+442380821990","twitter":"whitestartavern","address":"28 Oxford Street","lat":50.898133,"lng":-1.398245,"neighborhood":"City Centre","city_fetched":"Southampton","state":"Hampshire","country":"United Kingdom","canonicalUrl":"https://foursquare.com/whitestartavern","category":"Gastropub","checkinsCount":1158,"usersCount":610,"tipCount":13,"visitsCount":1291,"url":"http://www.idealcollection.co.uk/whitestartavern","tier":2,"message":"Moderate","currency":"£","rating":7.5},{"name":"The Pilgrim Inn","phone":"+442380867752","address":"Hythe Rd.","lat":50.88466204741019,"lng":-1.4504665839265964,"neighborhood":"Marchwood","city_fetched":"Southampton","state":"Hampshire","country":"United Kingdom","canonicalUrl":"https://foursquare.com/v/the-pilgrim-inn/4bded633fe0e62b5c3fc0506","category":"Hotel","checkinsCount":181,"usersCount":124,"tipCount":5,"visitsCount":252,"url":"http://www.booking.com/hotel/gb/pilgrim-inn.html?aid=337195","tier":"","message":"","currency":"","rating":7.5},{"name":"Santo Lounge","address":"429 Shirley Road","lat":50.92059399334986,"lng":-1.4311838150024414,"neighborhood":"Shirley","city_fetched":"Southampton","state":"Hampshire","country":"United Kingdom","canonicalUrl":"https://foursquare.com/v/santo-lounge/4e3d73937d8b0e9610695c37","category":"Lounge","checkinsCount":716,"usersCount":215,"tipCount":12,"visitsCount":791,"tier":"","message":"","currency":"","rating":7.5},{"name":"The Boat House Cafe - Swanwick Marina","phone":"+441489885745","twitter":"bhcafeswanwick","address":"Swanwick Marina","lat":50.882438,"lng":-1.299947,"city_fetched":"Southampton","country":"United Kingdom","canonicalUrl":"https://foursquare.com/bhcafeswanwick","category":"Bar","checkinsCount":122,"usersCount":85,"tipCount":6,"visitsCount":166,"url":"http://www.idealcollection.co.uk/theboathousecafe-swanwick","tier":"","message":"","currency":"","rating":7.5},{"name":"Sadler's Brewhouse and Barbecue","lat":50.91305690534572,"lng":-1.4026449968872952,"neighborhood":"Bevois","city_fetched":"Southampton","country":"United Kingdom","canonicalUrl":"https://foursquare.com/v/sadlers-brewhouse-and-barbecue/55d76a5d498eaead96a728c3","category":"Bar","checkinsCount":64,"usersCount":64,"tipCount":2,"visitsCount":104,"tier":"","message":"","currency":"","rating":7.5},{"name":"The Alexandra Beer Emporium","phone":"+442380335071","twitter":"thealexpub","address":"6 Bellevue Rd","lat":50.91245042036959,"lng":-1.40251,"neighborhood":"Bevois","city_fetched":"Southampton","state":"Hampshire","country":"United Kingdom","canonicalUrl":"https://foursquare.com/v/the-alexandra-beer-emporium/4b1bf90ff964a520e4ff23e3","category":"Pub","checkinsCount":530,"usersCount":247,"tipCount":5,"visitsCount":635,"url":"http://www.thealexpub.co.uk","tier":"","message":"","currency":"","rating":7.5},{"name":"The Hobbit","phone":"+442380232591","twitter":"thehobbitpub","address":"134 Bevois Valley Rd","lat":50.918776034589726,"lng":-1.3952394822375696,"neighborhood":"Bevois","city_fetched":"Southampton","state":"Hampshire","country":"United Kingdom","canonicalUrl":"https://foursquare.com/v/the-hobbit/4b89a2d0f964a5200d4832e3","category":"Pub","checkinsCount":1094,"usersCount":681,"tipCount":9,"visitsCount":1318,"url":"http://www.thehobbitpub.co.uk","tier":"","message":"","currency":"","rating":7.5},{"name":"The Junction Inn","phone":"+442380584486","address":"21 Priory Road","lat":50.92056398691247,"lng":-1.38801025858516,"neighborhood":"St Denys, Southampton, Southampton","city_fetched":"Southampton","state":"Hampshire","country":"United Kingdom","canonicalUrl":"https://foursquare.com/v/the-junction-inn/4be5a7442468c92833510043","category":"Pub","checkinsCount":123,"usersCount":70,"tipCount":2,"visitsCount":157,"url":"http://www.thejunction-inn.co.uk","tier":"","message":"","currency":"","rating":7.4},{"name":"The Butcher's Hook Alehouse","phone":"+447912092928","twitter":"butchershookpub","address":"7 Manor Farm Rd","lat":50.92432391301024,"lng":-1.3759749424578835,"neighborhood":"Bitterne Park","city_fetched":"Southampton","state":"Hampshire","country":"United Kingdom","canonicalUrl":"https://foursquare.com/butchershookpub","category":"Pub","checkinsCount":200,"usersCount":75,"tipCount":2,"visitsCount":230,"url":"http://www.butchershookpub.com","tier":"","message":"","currency":"","rating":7.3},{"name":"Ebb & Flow","phone":"+442380235930","address":"104-108 Above Bar St","lat":50.90598678588867,"lng":-1.4043587446212769,"neighborhood":"City Centre","city_fetched":"Southampton","state":"Hampshire","country":"United Kingdom","canonicalUrl":"https://foursquare.com/v/ebb--flow/5466500e498ec0d3183eba7a","category":"Pub","checkinsCount":79,"usersCount":60,"tipCount":3,"visitsCount":82,"tier":"","message":"","currency":"","rating":7.3},{"name":"The Stag's Head","address":"University Road","lat":50.934656,"lng":-1.3973146,"neighborhood":"Highfield","city_fetched":"Southampton","state":"Hampshire","country":"United Kingdom","canonicalUrl":"https://foursquare.com/v/the-stags-head/4b8d2accf964a52047eb32e3","category":"Pub","checkinsCount":1260,"usersCount":383,"tipCount":9,"visitsCount":1413,"tier":"","message":"","currency":"","rating":7.3},{"name":"Pitcher & Piano","phone":"+442380334392","twitter":"pitcherandpiano","address":"11 Channel Way","lat":50.896654660250256,"lng":-1.3904296103442642,"neighborhood":"Ocean Village","city_fetched":"Southampton","state":"Hampshire","country":"United Kingdom","canonicalUrl":"https://foursquare.com/v/pitcher--piano/4bb9e7a1b35776b0d843ca01","category":"Bar","checkinsCount":1278,"usersCount":575,"tipCount":12,"visitsCount":1323,"url":"http://www.pitcherandpiano.com/where-are-we/southampton","tier":"","message":"","currency":"","rating":7.2},{"name":"The Bold Forester","address":"Bridge Rd","lat":50.87555486172322,"lng":-1.282331943511963,"city_fetched":"Southampton","state":"Hampshire","country":"United Kingdom","canonicalUrl":"https://foursquare.com/v/the-bold-forester/4b3cc5bbf964a520158725e3","category":"Pub","checkinsCount":222,"usersCount":144,"tipCount":6,"visitsCount":269,"tier":"","message":"","currency":"","rating":7.2},{"name":"Yates's","phone":"+442380634609","address":"113-117 Above Bar St.","lat":50.9067350699332,"lng":-1.404350390082815,"neighborhood":"City Centre","city_fetched":"Southampton","state":"Hampshire","country":"United Kingdom","canonicalUrl":"https://foursquare.com/v/yatess/4b7434e8f964a52012cd2de3","category":"Pub","checkinsCount":1068,"usersCount":634,"tipCount":11,"visitsCount":1108,"tier":"","message":"","currency":"","rating":7.2},{"name":"Brewhouse & Kitchen","address":"47 Highfield Ln","lat":50.931073045819744,"lng":-1.399670164729285,"neighborhood":"Highfield","city_fetched":"Southampton","state":"Hampshire","country":"United Kingdom","canonicalUrl":"https://foursquare.com/v/brewhouse--kitchen/5659fdab498ef429ab8b2875","category":"Gastropub","checkinsCount":72,"usersCount":62,"tipCount":3,"visitsCount":135,"tier":"","message":"","currency":"","rating":7.1},{"name":"The Bugle Hamble","phone":"+442380453000","twitter":"thebuglehamble","address":"High Street","lat":50.858266817945946,"lng":-1.3133418655503808,"city_fetched":"Southampton","state":"Hampshire","country":"United Kingdom","canonicalUrl":"https://foursquare.com/thebuglehamble","category":"Pub","checkinsCount":238,"usersCount":137,"tipCount":5,"visitsCount":241,"url":"http://www.idealcollection.co.uk/buglehamble","tier":"","message":"","currency":"","rating":7.1},{"name":"Orange Rooms","phone":"+442380232333","twitter":"orangerooms","address":"1-2 Vernon Walk","lat":50.912224,"lng":-1.4046408666666668,"neighborhood":"Bevois","city_fetched":"Southampton","state":"Hampshire","country":"United Kingdom","canonicalUrl":"https://foursquare.com/v/orange-rooms/4b5ccc81f964a5209a4429e3","category":"Bar","checkinsCount":879,"usersCount":506,"tipCount":17,"visitsCount":966,"url":"http://www.orangerooms.co.uk","tier":"","message":"","currency":"","rating":7.1},{"name":"The Crown Inn","address":"Highcrown St","lat":50.93182980231878,"lng":-1.400684070577609,"neighborhood":"Highfield","city_fetched":"Southampton","country":"United Kingdom","canonicalUrl":"https://foursquare.com/v/the-crown-inn/4b892260f964a520881e32e3","category":"Pub","checkinsCount":485,"usersCount":272,"tipCount":9,"visitsCount":639,"tier":"","message":"","currency":"","rating":7.1},{"name":"South Western Arms","phone":"+442380324542","address":"38-40 Adelaide Road","lat":50.9216220224775,"lng":-1.3877534866333008,"neighborhood":"St Denys, Southampton, Southampton","city_fetched":"Southampton","state":"Hampshire","country":"United Kingdom","canonicalUrl":"https://foursquare.com/v/south-western-arms/4b3a50e6f964a5207b6425e3","category":"Pub","checkinsCount":323,"usersCount":135,"tipCount":6,"visitsCount":354,"tier":"","message":"","currency":"","rating":7.1},{"name":"The Montagu Arms Hotel","address":"Palace Ln.","lat":50.81843,"lng":-1.451501,"city_fetched":"Southampton","state":"Hampshire","country":"United Kingdom","canonicalUrl":"https://foursquare.com/v/the-montagu-arms-hotel/4bcf13e10ffdce722e3ab2c0","category":"Pub","checkinsCount":179,"usersCount":172,"tipCount":2,"visitsCount":220,"tier":"","message":"","currency":"","rating":7.1},{"name":"The Cowherds","phone":"+442380558405","address":"The Common","lat":50.92408378937754,"lng":-1.4060139656066895,"neighborhood":"Shirley","city_fetched":"Southampton","state":"Hampshire","country":"United Kingdom","canonicalUrl":"https://foursquare.com/v/the-cowherds/4bfda9542b83b713e3c1a998","category":"Pub","checkinsCount":780,"usersCount":608,"tipCount":19,"visitsCount":1093,"url":"http://www.vintageinns.co.uk","tier":"","message":"","currency":"","rating":7},{"name":"Ye Olde White Hart","lat":50.858929,"lng":-1.316568,"city_fetched":"Southampton","state":"Hampshire","country":"United Kingdom","canonicalUrl":"https://foursquare.com/v/ye-olde-white-hart/4e846142d22d176a1fa4959d","category":"Bar","checkinsCount":93,"usersCount":64,"tipCount":0,"visitsCount":128,"tier":"","message":"","currency":"","rating":6.9},{"name":"La Margheritas","phone":"+442380333390","address":"Unit 1, Town Quay","lat":50.89578928974813,"lng":-1.4048230648040771,"neighborhood":"Ocean Village","city_fetched":"Southampton","state":"Hampshire","country":"United Kingdom","canonicalUrl":"https://foursquare.com/v/la-margheritas/4bf06ac0f45ec92880cd933c","category":"Italian Restaurant","checkinsCount":389,"usersCount":262,"tipCount":4,"visitsCount":390,"tier":2,"message":"Moderate","currency":"£","rating":6.8}]