[{"name":"Bedford Street","phone":"+441926332506","address":"4 Bedford Street","lat":52.29147745306383,"lng":-1.5369542837043435,"city_fetched":"Southam,UK","state":"Warwickshire","country":"United Kingdom","canonicalUrl":"https://foursquare.com/v/bedford-street/55282d3d498e0ad634fd707c","categoryId":"4bf58dd8d48988d116941735","category":"Bar","checkinsCount":154,"usersCount":127,"tipCount":2,"visitsCount":262,"tier":"","message":"","currency":"","rating":8.7},{"name":"Leif Tearooms & Piano Bar","phone":"+441926336457","address":"116 Warwick St","lat":52.29202379606766,"lng":-1.5328609943389893,"city_fetched":"Southam,UK","state":"Warwickshire","country":"United Kingdom","canonicalUrl":"https://foursquare.com/v/leif-tearooms--piano-bar/502586dce4b059829fb39822","categoryId":"4bf58dd8d48988d11e941735","category":"Cocktail Bar","checkinsCount":682,"usersCount":221,"tipCount":17,"visitsCount":797,"tier":"","message":"","currency":"","rating":8.5},{"name":"The Cricketers Arms","phone":"+441926881293","address":"19 Archery Rd","lat":52.287363,"lng":-1.541301,"city_fetched":"Southam,UK","state":"Warwickshire","country":"United Kingdom","canonicalUrl":"https://foursquare.com/v/the-cricketers-arms/4bb0ee1cf964a520476b3ce3","categoryId":"4bf58dd8d48988d11b941735","category":"Pub","checkinsCount":439,"usersCount":243,"tipCount":16,"visitsCount":593,"url":"http://www.crickspubs.co.uk","tier":"","message":"","currency":"","rating":8},{"name":"The White Horse","phone":"+441926426892","address":"4-6 Clarendon Ave","lat":52.29345300188708,"lng":-1.5379085922687359,"city_fetched":"Southam,UK","country":"United Kingdom","canonicalUrl":"https://foursquare.com/v/the-white-horse/4b6d9f46f964a5200f812ce3","categoryId":"4bf58dd8d48988d116941735","category":"Bar","checkinsCount":1740,"usersCount":832,"tipCount":18,"visitsCount":2206,"tier":2,"message":"Moderate","currency":"£","rating":7.8},{"name":"The Fat Pug","twitter":"thefatpugleam","address":"23 Guys Cliffe Rd","lat":52.292364259265234,"lng":-1.5482463325406732,"city_fetched":"Southam,UK","state":"Warwickshire","country":"United Kingdom","canonicalUrl":"https://foursquare.com/v/the-fat-pug/4b6da409f964a52088822ce3","categoryId":"4bf58dd8d48988d11b941735","category":"Pub","checkinsCount":244,"usersCount":140,"tipCount":4,"visitsCount":352,"tier":"","message":"","currency":"","rating":7.7},{"name":"The Clarendon","phone":"+441926460036","address":"44-46 Clarendon Ave","lat":52.293606,"lng":-1.53298,"city_fetched":"Southam,UK","state":"Warwickshire","country":"United Kingdom","canonicalUrl":"https://foursquare.com/v/the-clarendon/4ba53e08f964a520a8f038e3","categoryId":"4bf58dd8d48988d11b941735","category":"Pub","checkinsCount":1033,"usersCount":433,"tipCount":22,"visitsCount":1256,"url":"http://theclarendonpub.com","tier":"","message":"","currency":"","rating":7.7},{"name":"The Star & Garter","twitter":"star_leamington","address":"5-6 Warwick St","lat":52.291603816153746,"lng":-1.5419912338256836,"city_fetched":"Southam,UK","state":"Warwickshire","country":"United Kingdom","canonicalUrl":"https://foursquare.com/v/the-star--garter/4b757f92f964a52000102ee3","categoryId":"4bf58dd8d48988d11b941735","category":"Pub","checkinsCount":544,"usersCount":294,"tipCount":7,"visitsCount":726,"url":"http://www.starandgarterleamington.co.uk","tier":"","message":"","currency":"","rating":7.5},{"name":"The Leopard","twitter":"theleopardinn","address":"Oakley Wood Rd","lat":52.2509,"lng":-1.540276,"neighborhood":"Leamington Spa","city_fetched":"Southam,UK","state":"Warwickshire","country":"United Kingdom","canonicalUrl":"https://foursquare.com/v/the-leopard/4b9d014ff964a520018836e3","categoryId":"4bf58dd8d48988d116941735","category":"Bar","checkinsCount":692,"usersCount":203,"tipCount":6,"visitsCount":766,"url":"http://www.leopardinn.co.uk","tier":"","message":"","currency":"","rating":7.3},{"name":"Fox And Vivian","lat":52.293651,"lng":-1.533822,"city_fetched":"Southam,UK","state":"Warwickshire","country":"United Kingdom","canonicalUrl":"https://foursquare.com/v/fox-and-vivian/4e31a7c3b0fb3ee646756763","categoryId":"4bf58dd8d48988d11b941735","category":"Pub","checkinsCount":85,"usersCount":79,"tipCount":1,"visitsCount":103,"tier":"","message":"","currency":"","rating":7.2},{"name":"The Duke","phone":"+441926886636","address":"44-46 Warwick St","lat":52.29174275736581,"lng":-1.537378176660603,"city_fetched":"Southam,UK","state":"Warwickshire","country":"United Kingdom","canonicalUrl":"https://foursquare.com/v/the-duke/4b59fb2df964a52082a528e3","categoryId":"4bf58dd8d48988d11b941735","category":"Pub","checkinsCount":1382,"usersCount":540,"tipCount":12,"visitsCount":1513,"tier":"","message":"","currency":"","rating":7},{"name":"The Red Lion","phone":"+441926632715","twitter":"hunninghamlion","address":"Main St, Hunningham","lat":52.31377568042068,"lng":-1.454036648267152,"city_fetched":"Southam,UK","state":"Warwickshire","country":"United Kingdom","canonicalUrl":"https://foursquare.com/v/the-red-lion/4c1261d7b7b9c92814a6a737","categoryId":"4bf58dd8d48988d11b941735","category":"Pub","checkinsCount":370,"usersCount":198,"tipCount":7,"visitsCount":455,"url":"http://www.redlionhunningham.co.uk","tier":"","message":"","currency":"","rating":6.9},{"name":"Copper Pot","phone":"+441926339885","address":"41-43 Warwick St","lat":52.29185332133713,"lng":-1.5371604979913893,"city_fetched":"Southam,UK","state":"Warwickshire","country":"United Kingdom","canonicalUrl":"https://foursquare.com/v/copper-pot/4ba141c3f964a520a6a637e3","categoryId":"4bf58dd8d48988d11b941735","category":"Pub","checkinsCount":467,"usersCount":158,"tipCount":2,"visitsCount":473,"tier":2,"message":"Moderate","currency":"£","rating":6.8},{"name":"The Wharf Inn","phone":"+441295770332","address":"Wharf Road","lat":52.1758436284645,"lng":-1.3700384656403812,"city_fetched":"Southam,UK","state":"Warwickshire","country":"United Kingdom","canonicalUrl":"https://foursquare.com/v/the-wharf-inn/4c07e7e6ffb8c9b6c8636761","categoryId":"4bf58dd8d48988d11b941735","category":"Pub","checkinsCount":131,"usersCount":97,"tipCount":5,"visitsCount":172,"tier":"","message":"","currency":"","rating":6.8},{"name":"Dun Cow","phone":"+441788810305","twitter":"vintage_inns","address":"The Green","lat":52.337286082711096,"lng":-1.2894290685653687,"city_fetched":"Southam,UK","state":"Warwickshire","country":"United Kingdom","canonicalUrl":"https://foursquare.com/v/dun-cow/4b40ffbbf964a5201abf25e3","categoryId":"4bf58dd8d48988d11b941735","category":"Pub","checkinsCount":346,"usersCount":241,"tipCount":9,"visitsCount":460,"url":"http://www.vintageinn.co.uk/theduncowdunchurch","tier":"","message":"","currency":"","rating":6.6},{"name":"Jug and Jester (Wetherspoon)","phone":"+441926425727","twitter":"jdwtweet","address":"11-13 Bath St.","lat":52.28567086537104,"lng":-1.5329214524642982,"city_fetched":"Southam,UK","state":"Warwickshire","country":"United Kingdom","canonicalUrl":"https://foursquare.com/v/jug-and-jester-wetherspoon/4b631524f964a520b0612ae3","categoryId":"4bf58dd8d48988d11b941735","category":"Pub","checkinsCount":1495,"usersCount":551,"tipCount":10,"visitsCount":1792,"url":"http://www.jdwetherspoon.co.uk","tier":"","message":"","currency":"","rating":6.5},{"name":"The Royal Pug","phone":"+441926883817","address":"141 Regent St","lat":52.29063302074068,"lng":-1.532456172196715,"city_fetched":"Southam,UK","state":"Warwickshire","country":"United Kingdom","canonicalUrl":"https://foursquare.com/v/the-royal-pug/535bb952498e603f3039721a","categoryId":"4bf58dd8d48988d11b941735","category":"Pub","checkinsCount":244,"usersCount":199,"tipCount":3,"visitsCount":386,"url":"http://www.theroyalpug.com","tier":"","message":"","currency":"","rating":6.5},{"name":"The Buck And Bell","phone":"+441926811177","address":"The Green","lat":52.28409600345036,"lng":-1.3945770263671875,"city_fetched":"Southam,UK","state":"Warwickshire","country":"United Kingdom","canonicalUrl":"https://foursquare.com/v/the-buck-and-bell/4c79352f3badb1f7ac264e54","categoryId":"4bf58dd8d48988d11b941735","category":"Pub","checkinsCount":278,"usersCount":79,"tipCount":2,"visitsCount":336,"tier":"","message":"","currency":"","rating":6.5},{"name":"The Lounge","address":"The Parade","lat":52.289176117424105,"lng":-1.5354591281811054,"city_fetched":"Southam,UK","state":"Warwickshire","country":"United Kingdom","canonicalUrl":"https://foursquare.com/v/the-lounge/4b450f72f964a520ef0226e3","categoryId":"4bf58dd8d48988d116941735","category":"Bar","checkinsCount":478,"usersCount":207,"tipCount":4,"visitsCount":493,"tier":"","message":"","currency":"","rating":6.2},{"name":"Moo Bar","address":"Russell Street","lat":52.292049,"lng":-1.538144,"city_fetched":"Southam,UK","state":"Warwickshire","country":"United Kingdom","canonicalUrl":"https://foursquare.com/v/moo-bar/4b5b9180f964a520be0729e3","categoryId":"4bf58dd8d48988d116941735","category":"Bar","checkinsCount":362,"usersCount":142,"tipCount":1,"visitsCount":366,"tier":"","message":"","currency":"","rating":6},{"name":"The Benjamin Satchwell (Wetherspoon)","phone":"+441926883733","address":"112-114 The Parade","lat":52.28973762705069,"lng":-1.535777296624795,"city_fetched":"Southam,UK","state":"Warwickshire","country":"United Kingdom","canonicalUrl":"https://foursquare.com/v/the-benjamin-satchwell-wetherspoon/4b5200fef964a520a16027e3","categoryId":"4bf58dd8d48988d11b941735","category":"Pub","checkinsCount":1512,"usersCount":593,"tipCount":7,"visitsCount":1661,"url":"http://www.jdwetherspoon.co.uk","tier":1,"message":"Cheap","currency":"£","rating":5.9},{"name":"The White Lion","phone":"+441926425770","twitter":"chefandbrewer","address":"60 Southam Road","lat":52.277794759190954,"lng":-1.497187614440918,"city_fetched":"Southam,UK","state":"Warwickshire","country":"United Kingdom","canonicalUrl":"https://foursquare.com/v/the-white-lion/4bf96d86b182c9b693e7785a","categoryId":"4bf58dd8d48988d11b941735","category":"Pub","checkinsCount":197,"usersCount":124,"tipCount":7,"visitsCount":288,"tier":"","message":"","currency":"","rating":5.8},{"name":"Voodoo Bar","address":"35 Regent Street","lat":52.290289,"lng":-1.537965,"city_fetched":"Southam,UK","state":"Warwickshire","country":"United Kingdom","canonicalUrl":"https://foursquare.com/v/voodoo-bar/4b58c8f3f964a520176b28e3","categoryId":"4bf58dd8d48988d116941735","category":"Bar","checkinsCount":356,"usersCount":185,"tipCount":4,"visitsCount":372,"tier":"","message":"","currency":"","rating":5.6},{"name":"The Loose Box","address":"4 Bedford St","lat":52.291461,"lng":-1.536921,"city_fetched":"Southam,UK","state":"Warwickshire","country":"United Kingdom","canonicalUrl":"https://foursquare.com/v/the-loose-box/4d7a904679e6721ea5c95c8b","categoryId":"4bf58dd8d48988d116941735","category":"Bar","checkinsCount":259,"usersCount":139,"tipCount":2,"visitsCount":260,"tier":"","message":"","currency":"","rating":5.5},{"name":"Altoria","lat":52.291953663121426,"lng":-1.5367625983254278,"city_fetched":"Southam,UK","country":"United Kingdom","canonicalUrl":"https://foursquare.com/v/altoria/50899c76e4b07f1e61eb2603","categoryId":"4bf58dd8d48988d116941735","category":"Bar","checkinsCount":221,"usersCount":132,"tipCount":3,"visitsCount":221,"tier":"","message":"","currency":"","rating":5.4},{"name":"Kelseys Bar","phone":"+441926424410","address":"15-17 High Street","lat":52.2841124117709,"lng":-1.533316969871521,"city_fetched":"Southam,UK","state":"Warwickshire","country":"United Kingdom","canonicalUrl":"https://foursquare.com/v/kelseys-bar/4b5b914ef964a520b00729e3","categoryId":"4bf58dd8d48988d116941735","category":"Bar","checkinsCount":307,"usersCount":128,"tipCount":10,"visitsCount":314,"tier":"","message":"","currency":"","rating":5.3},{"name":"The Royal Horse (Hungry Horse)","phone":"+441926882247","address":"Poseidon Way","lat":52.26915397928316,"lng":-1.5372920789796387,"city_fetched":"Southam,UK","state":"Warwickshire","country":"United Kingdom","canonicalUrl":"https://foursquare.com/v/the-royal-horse-hungry-horse/518d662a498e5f6934aa740e","categoryId":"4bf58dd8d48988d11b941735","category":"Pub","checkinsCount":150,"usersCount":80,"tipCount":6,"visitsCount":204,"tier":"","message":"","currency":"","rating":5.2},{"name":"Robbins' Well","phone":"+441926453881","address":"2 Victoria Terrace","lat":52.28640199,"lng":-1.533695,"city_fetched":"Southam,UK","state":"Warwickshire","country":"United Kingdom","canonicalUrl":"https://foursquare.com/v/robbins-well/4b6314a7f964a52091612ae3","categoryId":"4bf58dd8d48988d11b941735","category":"Pub","checkinsCount":469,"usersCount":177,"tipCount":8,"visitsCount":487,"tier":"","message":"","currency":"","rating":5}]