[{"name":"The Peterboat","phone":"+441702475666","address":"27 High Street","lat":51.54034480723487,"lng":0.6491777300834656,"city_fetched":"Southend,UK","state":"Southend-on-Sea","country":"United Kingdom","canonicalUrl":"https://foursquare.com/v/the-peterboat/4bb9f81b7421a5939f35c340","categoryId":"4bf58dd8d48988d11b941735","category":"Pub","checkinsCount":578,"usersCount":536,"tipCount":10,"visitsCount":793,"tier":"","message":"","currency":"","rating":8.3},{"name":"Clarence Yard","phone":"+441702392153","address":"23-25 Clarence St.","lat":51.53579904090578,"lng":0.712798888137911,"city_fetched":"Southend,UK","state":"Essex","country":"United Kingdom","canonicalUrl":"https://foursquare.com/v/clarence-yard/4be48e2fd4f7c9b69d512420","categoryId":"4bf58dd8d48988d116941735","category":"Bar","checkinsCount":173,"usersCount":116,"tipCount":8,"visitsCount":192,"tier":"","message":"","currency":"","rating":8},{"name":"Pipe of Port","phone":"+441702614606","twitter":"_shakey","address":"84 High St","lat":51.53700323206425,"lng":0.7134121394694645,"city_fetched":"Southend,UK","state":"Southend-on-Sea","country":"United Kingdom","canonicalUrl":"https://foursquare.com/v/pipe-of-port/4afc1322f964a520be1f22e3","categoryId":"4bf58dd8d48988d123941735","category":"Wine Bar","checkinsCount":69,"usersCount":54,"tipCount":4,"visitsCount":69,"url":"http://www.pipeofport.co.uk","tier":"","message":"","currency":"","rating":8},{"name":"The Anchor Pub","phone":"+441702230205","address":"284 Ferry Rd.","lat":51.62951605466756,"lng":0.6141615813028759,"city_fetched":"Southend,UK","state":"Essex","country":"United Kingdom","canonicalUrl":"https://foursquare.com/v/the-anchor-pub/4c056897191f20a1c50ce314","categoryId":"4bf58dd8d48988d11b941735","category":"Pub","checkinsCount":242,"usersCount":164,"tipCount":6,"visitsCount":329,"url":"http://www.theanchorhullbridge.co.uk","tier":"","message":"","currency":"","rating":7.7},{"name":"The Railway Hotel","phone":"+441702343194","address":"32 Clifftown Rd","lat":51.5367629638916,"lng":0.710529237985611,"city_fetched":"Southend,UK","state":"Essex","country":"United Kingdom","canonicalUrl":"https://foursquare.com/v/the-railway-hotel/4c5c61217735c9b6ff1c8c72","categoryId":"4bf58dd8d48988d11b941735","category":"Pub","checkinsCount":285,"usersCount":109,"tipCount":2,"visitsCount":291,"tier":"","message":"","currency":"","rating":7.6},{"name":"The Last Post (Wetherspoon)","phone":"+441702431682","address":"8-11 Clifftown Rd.","lat":51.536709576111214,"lng":0.7128989696502686,"city_fetched":"Southend,UK","state":"Southend-on-Sea","country":"United Kingdom","canonicalUrl":"https://foursquare.com/v/the-last-post-wetherspoon/4c87ac02821e9eb0d9cd8d89","categoryId":"4bf58dd8d48988d11b941735","category":"Pub","checkinsCount":1395,"usersCount":576,"tipCount":18,"visitsCount":1604,"url":"http://www.jdwetherspoon.co.uk","tier":"","message":"","currency":"","rating":7.2},{"name":"The Hamlet Court","address":"Hamlet Court Rd.","lat":51.538711,"lng":0.693345,"city_fetched":"Southend,UK","state":"Southend-on-Sea","country":"United Kingdom","canonicalUrl":"https://foursquare.com/v/the-hamlet-court/4caf607fcbab236ad6a39773","categoryId":"4bf58dd8d48988d116941735","category":"Bar","checkinsCount":165,"usersCount":67,"tipCount":3,"visitsCount":170,"tier":"","message":"","currency":"","rating":6.7},{"name":"The Mews","phone":"+441702393626","address":"2 Nelson Mews","lat":51.53597215098816,"lng":0.7111179828643799,"city_fetched":"Southend,UK","state":"Southend-on-Sea","country":"United Kingdom","canonicalUrl":"https://foursquare.com/v/the-mews/4bae9737f964a52027c43be3","categoryId":"4bf58dd8d48988d116941735","category":"Bar","checkinsCount":103,"usersCount":64,"tipCount":6,"visitsCount":109,"tier":"","message":"","currency":"","rating":6.5},{"name":"The Westcliff Hotel","phone":"+441702345247","address":"18-20 Westcliff Parade","lat":51.535072511129364,"lng":0.700637084379136,"city_fetched":"Southend,UK","state":"Essex","country":"United Kingdom","canonicalUrl":"https://foursquare.com/v/the-westcliff-hotel/4ba2c1f2f964a520b81638e3","categoryId":"4bf58dd8d48988d1d5941735","category":"Hotel Bar","checkinsCount":167,"usersCount":124,"tipCount":7,"visitsCount":221,"url":"http://www.westcliff-hotel.co.uk","tier":"","message":"","currency":"","rating":6.4},{"name":"The Alex","phone":"+441702436077","address":"53 Alexandra St.","lat":51.5350403422026,"lng":0.7111260294914246,"city_fetched":"Southend,UK","state":"Essex","country":"United Kingdom","canonicalUrl":"https://foursquare.com/v/the-alex/4bd31e08462cb7132f8edd07","categoryId":"4bf58dd8d48988d11b941735","category":"Pub","checkinsCount":560,"usersCount":267,"tipCount":2,"visitsCount":697,"tier":"","message":"","currency":"","rating":6.4},{"name":"Coopers","phone":"+442083317572","twitter":"gkunions","address":"Jellicoe Building","lat":51.398161267870464,"lng":0.5371713265566459,"city_fetched":"Southend,UK","state":"Kent","country":"United Kingdom","canonicalUrl":"https://foursquare.com/v/coopers/4cd7dc877bb06dcbe6149fb2","categoryId":"50327c8591d4c4b30a586d5d","category":"Brewery","checkinsCount":146,"usersCount":67,"tipCount":3,"visitsCount":166,"url":"http://www.gkunions.co.uk","tier":"","message":"","currency":"","rating":6.4},{"name":"Kings Head - Shepherd Neame","address":"Market Square","lat":51.58219326609433,"lng":0.706544816493988,"city_fetched":"Southend,UK","state":"Essex","country":"United Kingdom","canonicalUrl":"https://foursquare.com/v/kings-head--shepherd-neame/4e6605a1091afcffda144331","categoryId":"4bf58dd8d48988d11b941735","category":"Pub","checkinsCount":17,"usersCount":9,"tipCount":0,"visitsCount":18,"url":"http://www.shepherdneame.co.uk","tier":"","message":"","currency":"","rating":6.4},{"name":"Blueboar Hotel","phone":"+441621855888","address":"Silver St.","lat":51.73193642511131,"lng":0.6760212839260811,"city_fetched":"Southend,UK","state":"Essex","country":"United Kingdom","canonicalUrl":"https://foursquare.com/v/blueboar-hotel/4bd72430304fce72222233ab","categoryId":"50327c8591d4c4b30a586d5d","category":"Brewery","checkinsCount":170,"usersCount":75,"tipCount":6,"visitsCount":173,"url":"http://www.blueboarhotel.com","tier":"","message":"","currency":"","rating":6.3},{"name":"Halfway House","lat":51.530478466103325,"lng":0.7446675872254979,"city_fetched":"Southend,UK","country":"United Kingdom","canonicalUrl":"https://foursquare.com/v/halfway-house/4c65a80be1da1b8d2dd898c3","categoryId":"4bf58dd8d48988d116941735","category":"Bar","checkinsCount":208,"usersCount":148,"tipCount":5,"visitsCount":315,"tier":"","message":"","currency":"","rating":6.2},{"name":"Trading Rooms","phone":"+441702350444","address":"522 London Rd","lat":51.545028,"lng":0.6882446833333334,"city_fetched":"Southend,UK","state":"Southend-on-Sea","country":"United Kingdom","canonicalUrl":"https://foursquare.com/v/trading-rooms/4bb6099a941ad13af2c81ee3","categoryId":"4bf58dd8d48988d11b941735","category":"Pub","checkinsCount":142,"usersCount":78,"tipCount":2,"visitsCount":169,"tier":"","message":"","currency":"","rating":6.1},{"name":"Slug and Lettuce","phone":"+441702619513","address":"6-8 Southchurch Road","lat":51.539892713070515,"lng":0.713336169719696,"city_fetched":"Southend,UK","state":"Southend-on-Sea","country":"United Kingdom","canonicalUrl":"https://foursquare.com/v/slug-and-lettuce/4c4ef1da92b6a593d53cc270","categoryId":"4bf58dd8d48988d116941735","category":"Bar","checkinsCount":368,"usersCount":179,"tipCount":2,"visitsCount":391,"tier":"","message":"","currency":"","rating":5.8},{"name":"The Saxon King","phone":"+441702337903","address":"160 Priory Crescent","lat":51.55565444898924,"lng":0.707663963844486,"city_fetched":"Southend,UK","state":"Southend-on-Sea","country":"United Kingdom","canonicalUrl":"https://foursquare.com/v/the-saxon-king/53a6baec498e1d1f0bf34aba","categoryId":"4bf58dd8d48988d11b941735","category":"Pub","checkinsCount":106,"usersCount":57,"tipCount":4,"visitsCount":154,"url":"http://www.saxonkingpubsouthend.co.uk","tier":"","message":"","currency":"","rating":5.8},{"name":"The Cock Inn","address":"Hall Road","lat":51.5830808741093,"lng":0.6782754630770059,"city_fetched":"Southend,UK","state":"Essex","country":"United Kingdom","canonicalUrl":"https://foursquare.com/v/the-cock-inn/4dadaf5643a18e54131b5a08","categoryId":"4bf58dd8d48988d117941735","category":"Beer Garden","checkinsCount":282,"usersCount":64,"tipCount":3,"visitsCount":314,"tier":"","message":"","currency":"","rating":5.6},{"name":"Old Hat","phone":"+441702337744","address":"14, Alexandra Street","lat":51.53547741202033,"lng":0.712918089476678,"city_fetched":"Southend,UK","state":"Essex","country":"United Kingdom","canonicalUrl":"https://foursquare.com/v/old-hat/4c6fcab59375a09323dd0437","categoryId":"4bf58dd8d48988d116941735","category":"Bar","checkinsCount":71,"usersCount":52,"tipCount":10,"visitsCount":72,"tier":"","message":"","currency":"","rating":5},{"name":"Varsity","address":"Chichester Road","lat":51.539153,"lng":0.714186,"city_fetched":"Southend,UK","state":"Southend-on-Sea","country":"United Kingdom","canonicalUrl":"https://foursquare.com/v/varsity/4be97ccfd837c9b63d79a606","categoryId":"4bf58dd8d48988d116941735","category":"Bar","checkinsCount":247,"usersCount":146,"tipCount":6,"visitsCount":266,"tier":"","message":"","currency":"","rating":4.9},{"name":"Laker's Bar","address":"London Southend Airport","lat":51.569333,"lng":0.703767,"city_fetched":"Southend,UK","state":"Essex","country":"United Kingdom","canonicalUrl":"https://foursquare.com/v/lakers-bar/507032b8e4b010c1aef43f23","categoryId":"4bf58dd8d48988d116941735","category":"Bar","checkinsCount":74,"usersCount":68,"tipCount":3,"visitsCount":74,"tier":"","message":"","currency":"","rating":4.7}]