[{"name":"Hub","phone":"+441736799099","twitter":"hubstives","address":"4 Wharf Rd","lat":50.2131080654689,"lng":-5.47992467880249,"city_fetched":"St Ives","state":"Cornwall","country":"United Kingdom","canonicalUrl":"https://foursquare.com/v/hub/4be58690bcef2d7f7be003e5","category":"Bar","checkinsCount":566,"usersCount":323,"tipCount":32,"visitsCount":581,"url":"http://www.hub-stives.co.uk","tier":"","message":"","currency":"","rating":8.7},{"name":"The Castle Inn","address":"16 Fore Street","lat":50.21323263645172,"lng":-5.48042,"city_fetched":"St Ives","state":"Cornwall","country":"United Kingdom","canonicalUrl":"https://foursquare.com/v/the-castle-inn/4c582e102308be9a62c25a6c","category":"Bar","checkinsCount":147,"usersCount":86,"tipCount":6,"visitsCount":150,"tier":"","message":"","currency":"","rating":8.2},{"name":"The Rum & Crab Shack","phone":"+441736796353","twitter":"shack_rum","address":"Wharf Rd","lat":50.214392,"lng":-5.479958,"city_fetched":"St Ives","state":"Cornwall","country":"United Kingdom","canonicalUrl":"https://foursquare.com/v/the-rum--crab-shack/515dd9b5e4b001a1805dd038","category":"Seafood Restaurant","checkinsCount":219,"usersCount":171,"tipCount":20,"visitsCount":220,"url":"http://www.rumandcrabshack.com","tier":"","message":"","currency":"","rating":8.2},{"name":"Queens Hotel","phone":"+441736796468","address":"High St.","lat":50.21216816068681,"lng":-5.481033938288509,"city_fetched":"St Ives","state":"Cornwall","country":"United Kingdom","canonicalUrl":"https://foursquare.com/v/queens-hotel/4e87891b6c256685204b977a","category":"Hotel","checkinsCount":119,"usersCount":89,"tipCount":7,"visitsCount":125,"tier":"","message":"","currency":"","rating":7.8},{"name":"The Sloop Inn","phone":"+441736796584","address":"Back La","lat":50.215140283027054,"lng":-5.479152202606201,"city_fetched":"St Ives","state":"Cornwall","country":"United Kingdom","canonicalUrl":"https://foursquare.com/v/the-sloop-inn/4be9bfa8415e20a15536e4bb","category":"Pub","checkinsCount":742,"usersCount":525,"tipCount":24,"visitsCount":804,"url":"http://www.sloop-inn.co.uk","tier":"","message":"","currency":"","rating":7.5},{"name":"The Lifeboat Inn","phone":"+441736794123","address":"Wharf Rd","lat":50.213069,"lng":-5.479596,"city_fetched":"St Ives","state":"Cornwall","country":"United Kingdom","canonicalUrl":"https://foursquare.com/v/the-lifeboat-inn/4bddedb20ee3a593f2352fb0","category":"Pub","checkinsCount":370,"usersCount":275,"tipCount":10,"visitsCount":383,"tier":"","message":"","currency":"","rating":6.9},{"name":"Balcony Bar","lat":50.21397857352383,"lng":-5.479924025903079,"city_fetched":"St Ives","country":"United Kingdom","canonicalUrl":"https://foursquare.com/v/balcony-bar/4e1b11862271aba9379b3fee","category":"Bar","checkinsCount":187,"usersCount":148,"tipCount":7,"visitsCount":192,"tier":"","message":"","currency":"","rating":6.8},{"name":"The Hain Line (Wetherspoon)","phone":"+441736792920","twitter":"jdwtweet","address":"Tregenna Place","lat":50.21133184335432,"lng":-5.480868306633309,"city_fetched":"St Ives","state":"Cornwall","country":"United Kingdom","canonicalUrl":"https://foursquare.com/v/the-hain-line-wetherspoon/4fca3478e4b0dbc78226b0ac","category":"Pub","checkinsCount":158,"usersCount":103,"tipCount":4,"visitsCount":164,"url":"http://www.jdwetherspoon.co.uk","tier":"","message":"","currency":"","rating":5.2}]