[{"name":"The Anchor","phone":"+441234870364","address":"High St","lat":52.151627,"lng":-0.343493,"city_fetched":"St Neots,UK","country":"United Kingdom","canonicalUrl":"https://foursquare.com/v/the-anchor/4d9725f1daec224bf30b283e","categoryId":"4bf58dd8d48988d11b941735","category":"Pub","checkinsCount":61,"usersCount":42,"tipCount":5,"visitsCount":88,"tier":"","message":"","currency":"","rating":8.3},{"name":"The Horseshoe Inn & Restaurant","phone":"+441480810293","twitter":"theoffordshoe","address":"90 High Street","lat":52.28427321299068,"lng":-0.214158296585083,"city_fetched":"St Neots,UK","state":"Cambridgeshire","country":"United Kingdom","canonicalUrl":"https://foursquare.com/v/the-horseshoe-inn--restaurant/4c14cbd3b7b9c92871daab37","categoryId":"4bf58dd8d48988d11b941735","category":"Pub","checkinsCount":127,"usersCount":75,"tipCount":5,"visitsCount":140,"tier":"","message":"","currency":"","rating":8},{"name":"Rivermill Tavern","phone":"+441480219612","address":"School Lane","lat":52.214581508076435,"lng":-0.2837541314408901,"city_fetched":"St Neots,UK","state":"Cambridgeshire","country":"United Kingdom","canonicalUrl":"https://foursquare.com/v/rivermill-tavern/4be5601e2457a593db5fab15","categoryId":"4bf58dd8d48988d11b941735","category":"Pub","checkinsCount":136,"usersCount":108,"tipCount":3,"visitsCount":179,"tier":"","message":"","currency":"","rating":7.7},{"name":"Pig n Falcon","phone":"+447951785678","address":"9 New St","lat":52.2283847,"lng":-0.26947316,"city_fetched":"St Neots,UK","state":"Cambridgeshire","country":"United Kingdom","canonicalUrl":"https://foursquare.com/v/pig-n-falcon/4ba132e9f964a52048a137e3","categoryId":"4bf58dd8d48988d11b941735","category":"Pub","checkinsCount":353,"usersCount":64,"tipCount":9,"visitsCount":355,"tier":"","message":"","currency":"","rating":7.3},{"name":"Brewers Fayre","lat":52.20846153388663,"lng":-0.2892475694255238,"city_fetched":"St Neots,UK","state":"Cambridgeshire","country":"United Kingdom","canonicalUrl":"https://foursquare.com/v/brewers-fayre/4ebed6ca02d5a63a3eb05858","categoryId":"4bf58dd8d48988d11b941735","category":"Pub","checkinsCount":77,"usersCount":66,"tipCount":1,"visitsCount":81,"tier":"","message":"","currency":"","rating":6.7},{"name":"The Bridge House","lat":52.22770173302271,"lng":-0.2718585108454375,"city_fetched":"St Neots,UK","country":"United Kingdom","canonicalUrl":"https://foursquare.com/v/the-bridge-house/4c58632fcc96c9b68a227b2e","categoryId":"4bf58dd8d48988d116941735","category":"Bar","checkinsCount":134,"usersCount":70,"tipCount":2,"visitsCount":138,"tier":"","message":"","currency":"","rating":6},{"name":"The Weeping Ash (Wetherspoon)","phone":"+441480408330","address":"15 New St.","lat":52.2287517786026,"lng":-0.269246,"city_fetched":"St Neots,UK","state":"Cambridgeshire","country":"United Kingdom","canonicalUrl":"https://foursquare.com/v/the-weeping-ash-wetherspoon/4ca4ce8fb0ff8cfae8f9c25e","categoryId":"4bf58dd8d48988d11b941735","category":"Pub","checkinsCount":445,"usersCount":170,"tipCount":7,"visitsCount":504,"url":"http://www.jdwetherspoon.co.uk","tier":"","message":"","currency":"","rating":4.9}]