[{"name":"Ye Olde Fighting Cocks","phone":"+441727869152","twitter":"fightingcockssa","address":"16 Abbey Mill Ln","lat":51.749071746121324,"lng":-0.34680747184728095,"city_fetched":"St. Albans,UK","state":"Hertfordshire","country":"United Kingdom","canonicalUrl":"https://foursquare.com/v/ye-olde-fighting-cocks/4b631b8df964a5208a632ae3","categoryId":"4bf58dd8d48988d11b941735","category":"Pub","checkinsCount":1079,"usersCount":793,"tipCount":15,"visitsCount":1343,"url":"http://www.yeoldefightingcocks.co.uk","tier":"","message":"","currency":"","rating":8.6},{"name":"The Mermaid","phone":"+441727837758","address":"98 Hatfield Rd","lat":51.753602482273386,"lng":-0.33228278160095215,"city_fetched":"St. Albans,UK","state":"Hertfordshire","country":"United Kingdom","canonicalUrl":"https://foursquare.com/v/the-mermaid/4b8ed2aff964a520393933e3","categoryId":"4bf58dd8d48988d11b941735","category":"Pub","checkinsCount":862,"usersCount":250,"tipCount":8,"visitsCount":1273,"tier":"","message":"","currency":"","rating":8.3},{"name":"Lower Red Lion","phone":"+441727855669","address":"36 Fishpool St","lat":51.751627453720026,"lng":-0.3465654329468714,"city_fetched":"St. Albans,UK","state":"Hertfordshire","country":"United Kingdom","canonicalUrl":"https://foursquare.com/v/lower-red-lion/4b5212a9f964a520ae6527e3","categoryId":"4bf58dd8d48988d11b941735","category":"Pub","checkinsCount":267,"usersCount":152,"tipCount":8,"visitsCount":322,"tier":"","message":"","currency":"","rating":8.2},{"name":"The Six Bells","phone":"+441727856945","twitter":"thesixbells","address":"16-18 St Michael's St.","lat":51.75379693508148,"lng":-0.354059,"city_fetched":"St. Albans,UK","state":"Hertfordshire","country":"United Kingdom","canonicalUrl":"https://foursquare.com/v/the-six-bells/4beda6c291380f47fe3ba018","categoryId":"4bf58dd8d48988d11b941735","category":"Pub","checkinsCount":380,"usersCount":197,"tipCount":9,"visitsCount":448,"tier":"","message":"","currency":"","rating":8.1},{"name":"The Plough","phone":"+441727857777","address":"Tyttenhanger Green","lat":51.7396003353924,"lng":-0.28911003355294396,"city_fetched":"St. Albans,UK","state":"Hertfordshire","country":"United Kingdom","canonicalUrl":"https://foursquare.com/v/the-plough/4c712ea5d97fa143c611f8ca","categoryId":"4bf58dd8d48988d116941735","category":"Bar","checkinsCount":208,"usersCount":82,"tipCount":9,"visitsCount":281,"tier":"","message":"","currency":"","rating":7.8},{"name":"The Beehive","phone":"+441727811127","address":"2 Keyfield Terrace","lat":51.749537623195586,"lng":-0.3359198570251465,"city_fetched":"St. Albans,UK","state":"Hertfordshire","country":"United Kingdom","canonicalUrl":"https://foursquare.com/v/the-beehive/4bb8f849b35776b03876c901","categoryId":"4bf58dd8d48988d11b941735","category":"Pub","checkinsCount":1149,"usersCount":230,"tipCount":4,"visitsCount":1361,"url":"http://www.thebeehivestalbans.co.uk","tier":"","message":"","currency":"","rating":7.7},{"name":"White Hart Tap","phone":"+441727860974","twitter":"whiteharttap","address":"4 Keyfield Terrace","lat":51.74880863306644,"lng":-0.33640265464782715,"city_fetched":"St. Albans,UK","state":"Hertfordshire","country":"United Kingdom","canonicalUrl":"https://foursquare.com/v/white-hart-tap/4b7c3b56f964a5200d862fe3","categoryId":"4bf58dd8d48988d11b941735","category":"Pub","checkinsCount":1500,"usersCount":322,"tipCount":17,"visitsCount":1802,"tier":1,"message":"Cheap","currency":"£","rating":7.6},{"name":"The Hare & Hounds","phone":"+441727855565","twitter":"harestalbans","address":"104 Sopwell Ln","lat":51.74789817072451,"lng":-0.33656,"city_fetched":"St. Albans,UK","country":"United Kingdom","canonicalUrl":"https://foursquare.com/v/the-hare--hounds/4b993845f964a520e26a35e3","categoryId":"4bf58dd8d48988d11b941735","category":"Pub","checkinsCount":532,"usersCount":204,"tipCount":7,"visitsCount":608,"url":"http://www.hareandhoundsstalbans.com","tier":"","message":"","currency":"","rating":7.5},{"name":"The Boot","phone":"+441727857533","twitter":"thebootonline","address":"4 Market Pl","lat":51.751341833330976,"lng":-0.34023192072975095,"city_fetched":"St. Albans,UK","state":"Hertfordshire","country":"United Kingdom","canonicalUrl":"https://foursquare.com/v/the-boot/4bd5c84c4e32d13a5370c180","categoryId":"4bf58dd8d48988d11b941735","category":"Pub","checkinsCount":971,"usersCount":374,"tipCount":15,"visitsCount":1025,"tier":"","message":"","currency":"","rating":7.5},{"name":"The White Lion","phone":"+441727850540","address":"91 Sopwell Ln.","lat":51.74812777762392,"lng":-0.337215,"city_fetched":"St. Albans,UK","state":"Hertfordshire","country":"United Kingdom","canonicalUrl":"https://foursquare.com/v/the-white-lion/4c129659a9c220a11943549d","categoryId":"4bf58dd8d48988d11b941735","category":"Pub","checkinsCount":524,"usersCount":162,"tipCount":12,"visitsCount":546,"url":"http://www.thewhitelionph.co.uk","tier":"","message":"","currency":"","rating":7.5},{"name":"The Verulam Arms","phone":"+441727836004","address":"41 Lower Dagnall St","lat":51.752836054371976,"lng":-0.3440961434697364,"city_fetched":"St. Albans,UK","state":"Hertfordshire","country":"United Kingdom","canonicalUrl":"https://foursquare.com/v/the-verulam-arms/4d1ce4e6ddc85481a520cc60","categoryId":"4bf58dd8d48988d11b941735","category":"Pub","checkinsCount":380,"usersCount":183,"tipCount":4,"visitsCount":465,"tier":"","message":"","currency":"","rating":7.3},{"name":"The Crown","phone":"+441727853347","address":"144-146 Hatfield Rd.","lat":51.75132292393704,"lng":-0.3232955862692281,"city_fetched":"St. Albans,UK","state":"Hertfordshire","country":"United Kingdom","canonicalUrl":"https://foursquare.com/v/the-crown/4cb06c60cbab236a4307a073","categoryId":"4bf58dd8d48988d11b941735","category":"Pub","checkinsCount":570,"usersCount":184,"tipCount":4,"visitsCount":648,"url":"http://www.crownstalbans.com","tier":"","message":"","currency":"","rating":7.2},{"name":"The Beech House","phone":"+441727701230","twitter":"beechhousesta","address":"81 St Peter's St.","lat":51.754715,"lng":-0.336485,"city_fetched":"St. Albans,UK","state":"Hertfordshire","country":"United Kingdom","canonicalUrl":"https://foursquare.com/v/the-beech-house/54134380498e02cb71eba9c8","categoryId":"4bf58dd8d48988d116941735","category":"Bar","checkinsCount":348,"usersCount":162,"tipCount":5,"visitsCount":453,"url":"http://www.beechhousestalbans.co.uk","tier":"","message":"","currency":"","rating":7},{"name":"The Jolly Sailor","phone":"+441727893982","twitter":"jollysailor2","address":"3 Stonecross","lat":51.75842350021067,"lng":-0.3320453597270841,"city_fetched":"St. Albans,UK","state":"Hertfordshire","country":"United Kingdom","canonicalUrl":"https://foursquare.com/v/the-jolly-sailor/4c056e0c517d0f47e787f415","categoryId":"4bf58dd8d48988d11b941735","category":"Pub","checkinsCount":373,"usersCount":119,"tipCount":5,"visitsCount":436,"url":"http://www.thejollysailorpub.co.uk","tier":"","message":"","currency":"","rating":7},{"name":"The Great Northern","phone":"+441727859801","address":"172 London Rd","lat":51.74773090173228,"lng":-0.33203601837158203,"city_fetched":"St. Albans,UK","state":"Hertfordshire","country":"United Kingdom","canonicalUrl":"https://foursquare.com/v/the-great-northern/4f35b189e4b08f00979d6d69","categoryId":"4bf58dd8d48988d11b941735","category":"Pub","checkinsCount":141,"usersCount":41,"tipCount":1,"visitsCount":143,"tier":"","message":"","currency":"","rating":6.8},{"name":"Waterend Barn (Wetherspoon)","phone":"+441727814100","address":"Civic Cl.","lat":51.75267973029682,"lng":-0.3372294580133541,"city_fetched":"St. Albans,UK","state":"Hertfordshire","country":"United Kingdom","canonicalUrl":"https://foursquare.com/v/waterend-barn-wetherspoon/4c87ac07821e9eb0dfcd8d89","categoryId":"4bf58dd8d48988d11b941735","category":"Pub","checkinsCount":1243,"usersCount":521,"tipCount":15,"visitsCount":1365,"tier":1,"message":"Cheap","currency":"£","rating":6.7},{"name":"The Speckled Hen","phone":"+441727866856","address":"Hatfield Rd","lat":51.752344823976905,"lng":-0.2968456280953345,"city_fetched":"St. Albans,UK","state":"Hertfordshire","country":"United Kingdom","canonicalUrl":"https://foursquare.com/v/the-speckled-hen/4b925190f964a520e8f133e3","categoryId":"4bf58dd8d48988d11b941735","category":"Pub","checkinsCount":454,"usersCount":160,"tipCount":11,"visitsCount":557,"tier":"","message":"","currency":"","rating":6.6},{"name":"The Goat Inn","phone":"+441727833934","address":"37 Sopwell Ln.","lat":51.74883691735666,"lng":-0.33900886830517923,"city_fetched":"St. Albans,UK","state":"Hertfordshire","country":"United Kingdom","canonicalUrl":"https://foursquare.com/v/the-goat-inn/4b72ab9ff964a52013832de3","categoryId":"4bf58dd8d48988d11b941735","category":"Pub","checkinsCount":479,"usersCount":204,"tipCount":6,"visitsCount":553,"url":"http://www.goatinn.co.uk","tier":"","message":"","currency":"","rating":6.6},{"name":"The Garibaldi","phone":"+441727894745","twitter":"thegarista","address":"61 Albert St.","lat":51.74842,"lng":-0.336768,"city_fetched":"St. Albans,UK","state":"Hertfordshire","country":"United Kingdom","canonicalUrl":"https://foursquare.com/v/the-garibaldi/4c1290f2b7b9c9282e08a837","categoryId":"4bf58dd8d48988d11b941735","category":"Pub","checkinsCount":427,"usersCount":126,"tipCount":3,"visitsCount":456,"url":"http://www.garibaldistalbans.co.uk","tier":"","message":"","currency":"","rating":6.5},{"name":"Mokoko","address":"26 Verulam Rd.","lat":51.752540415350005,"lng":-0.3411701492270925,"city_fetched":"St. Albans,UK","state":"Hertfordshire","country":"United Kingdom","canonicalUrl":"https://foursquare.com/v/mokoko/4d484d762165721e06c1c5d7","categoryId":"4bf58dd8d48988d11e941735","category":"Cocktail Bar","checkinsCount":256,"usersCount":156,"tipCount":9,"visitsCount":261,"tier":"","message":"","currency":"","rating":6.5},{"name":"The Forum","phone":"+441707285000","twitter":"theforumherts","address":"College Lane","lat":51.750492999909795,"lng":-0.2420746106598759,"city_fetched":"St. Albans,UK","state":"Hertfordshire","country":"United Kingdom","canonicalUrl":"https://foursquare.com/v/the-forum/4b981d6ff964a520742d35e3","categoryId":"4bf58dd8d48988d11f941735","category":"Nightclub","checkinsCount":3349,"usersCount":866,"tipCount":11,"visitsCount":3868,"url":"http://www.forumhertfordshire.co.uk","tier":"","message":"","currency":"","rating":6.4},{"name":"The Cock","phone":"+441727854816","address":"48 St Peter's St","lat":51.75448481,"lng":-0.336136,"city_fetched":"St. Albans,UK","state":"Hertfordshire","country":"United Kingdom","canonicalUrl":"https://foursquare.com/v/the-cock/4b3936d1f964a520505825e3","categoryId":"4bf58dd8d48988d11b941735","category":"Pub","checkinsCount":939,"usersCount":384,"tipCount":15,"visitsCount":985,"url":"http://www.thecockinstalbans.co.uk","tier":"","message":"","currency":"","rating":6.4},{"name":"chequers public house","twitter":"trumanboy01","lat":51.79345,"lng":-0.3914720436708299,"city_fetched":"St. Albans,UK","state":"Hertfordshire","country":"United Kingdom","canonicalUrl":"https://foursquare.com/v/chequers-public-house/4b9e87cef964a52053ec36e3","categoryId":"4bf58dd8d48988d11b941735","category":"Pub","checkinsCount":177,"usersCount":115,"tipCount":1,"visitsCount":238,"tier":"","message":"","currency":"","rating":6.4},{"name":"Blacksmiths Arms","phone":"+441727868845","twitter":"blackiessta","address":"56 St Peter's St","lat":51.75461526727604,"lng":-0.3359548113504822,"city_fetched":"St. Albans,UK","state":"Hertfordshire","country":"United Kingdom","canonicalUrl":"https://foursquare.com/v/blacksmiths-arms/4bc9b7b8511f9521b216aec7","categoryId":"4bf58dd8d48988d11b941735","category":"Pub","checkinsCount":1223,"usersCount":401,"tipCount":13,"visitsCount":1282,"url":"http://www.blacksmitharms.co.uk","tier":"","message":"","currency":"","rating":6.4},{"name":"The Snug Bar","phone":"+441727856631","twitter":"thesnugbar","address":"1 French Row","lat":51.751423975841924,"lng":-0.3406190872192383,"city_fetched":"St. Albans,UK","state":"Hertfordshire","country":"United Kingdom","canonicalUrl":"https://foursquare.com/v/the-snug-bar/4c9de908604c76b0e949837b","categoryId":"4bf58dd8d48988d116941735","category":"Bar","checkinsCount":660,"usersCount":327,"tipCount":12,"visitsCount":669,"url":"http://www.thesnugbar.co.uk/st-albans","tier":"","message":"","currency":"","rating":6.3},{"name":"The Rose & Crown","phone":"+441727851903","address":"10 St Michael's St.","lat":51.75401,"lng":-0.353375,"city_fetched":"St. Albans,UK","state":"Hertfordshire","country":"United Kingdom","canonicalUrl":"https://foursquare.com/v/the-rose--crown/4b9bd1e8f964a520232936e3","categoryId":"4bf58dd8d48988d11b941735","category":"Pub","checkinsCount":193,"usersCount":96,"tipCount":3,"visitsCount":193,"tier":"","message":"","currency":"","rating":6.3},{"name":"The Compasses","address":"95 Tibbs Hill Rd","lat":51.70405846564168,"lng":-0.41179521784826034,"city_fetched":"St. Albans,UK","state":"Hertfordshire","country":"United Kingdom","canonicalUrl":"https://foursquare.com/v/the-compasses/4d3c9310557d6dcb7f443c44","categoryId":"4bf58dd8d48988d11b941735","category":"Pub","checkinsCount":294,"usersCount":63,"tipCount":3,"visitsCount":320,"tier":"","message":"","currency":"","rating":6.2},{"name":"The Peahen","phone":"+441727853669","twitter":"mcmullens1827","address":"14 London Rd","lat":51.750711002081246,"lng":-0.33957754990513234,"city_fetched":"St. Albans,UK","state":"Hertfordshire","country":"United Kingdom","canonicalUrl":"https://foursquare.com/v/the-peahen/4c1a14e1838020a1529de661","categoryId":"4bf58dd8d48988d11b941735","category":"Pub","checkinsCount":1600,"usersCount":596,"tipCount":25,"visitsCount":1737,"url":"http://www.mcmullens.co.uk/peahen","tier":"","message":"","currency":"","rating":6.1},{"name":"The Silver Cup","phone":"+441582713095","address":"5 St Albans Rd.","lat":51.81164296719316,"lng":-0.35404065323573247,"city_fetched":"St. Albans,UK","state":"Hertfordshire","country":"United Kingdom","canonicalUrl":"https://foursquare.com/v/the-silver-cup/4d21cc9fb69c6dcbe6657c95","categoryId":"50327c8591d4c4b30a586d5d","category":"Brewery","checkinsCount":174,"usersCount":73,"tipCount":2,"visitsCount":186,"url":"http://www.silvercup.co.uk","tier":"","message":"","currency":"","rating":6},{"name":"King Harry","twitter":"kingharrypub","address":"2 King Harry Ln","lat":51.74196687622653,"lng":-0.3492255388764257,"city_fetched":"St. Albans,UK","state":"Hertfordshire","country":"United Kingdom","canonicalUrl":"https://foursquare.com/v/king-harry/4b9bba44f964a5207c1e36e3","categoryId":"4bf58dd8d48988d11b941735","category":"Pub","checkinsCount":453,"usersCount":249,"tipCount":7,"visitsCount":627,"url":"http://www.thekingharrystalbans.co.uk","tier":"","message":"","currency":"","rating":5.9},{"name":"Jamie's Deli","address":"22 Chequer St","lat":51.7517835574131,"lng":-0.3390676826018148,"city_fetched":"St. Albans,UK","state":"Hertfordshire","country":"United Kingdom","canonicalUrl":"https://foursquare.com/v/jamies-deli/529a2cae498e6bddbf327a08","categoryId":"4bf58dd8d48988d116941735","category":"Bar","checkinsCount":56,"usersCount":36,"tipCount":5,"visitsCount":57,"tier":"","message":"","currency":"","rating":5.9},{"name":"The White Hart Hotel","address":"Holywell Hill","lat":51.74948448536046,"lng":-0.340576171875,"city_fetched":"St. Albans,UK","state":"Hertfordshire","country":"United Kingdom","canonicalUrl":"https://foursquare.com/v/the-white-hart-hotel/4c9e372903133704079a66d5","categoryId":"4bf58dd8d48988d11b941735","category":"Pub","checkinsCount":140,"usersCount":91,"tipCount":6,"visitsCount":141,"url":"http://www.whiteharthotel.org","tier":"","message":"","currency":"","rating":5.9},{"name":"EleHouse","phone":"+441707285010","address":"Elehouse, College Lane","lat":51.75068007153027,"lng":-0.2419567108154297,"city_fetched":"St. Albans,UK","state":"Hertfordshire","country":"United Kingdom","canonicalUrl":"https://foursquare.com/v/elehouse/4be48f768a8cb713954bc4a0","categoryId":"4bf58dd8d48988d11b941735","category":"Pub","checkinsCount":1001,"usersCount":264,"tipCount":13,"visitsCount":1084,"url":"http://www.forumhertfordshire.co.uk/venue/elehouse/","tier":"","message":"","currency":"","rating":5.8},{"name":"The Farmer's Boy","phone":"+441727860535","address":"134 London Rd","lat":51.74874719144735,"lng":-0.3337955474853515,"city_fetched":"St. Albans,UK","state":"Hertfordshire","country":"United Kingdom","canonicalUrl":"https://foursquare.com/v/the-farmers-boy/4b8994abf964a520834332e3","categoryId":"4bf58dd8d48988d11b941735","category":"Pub","checkinsCount":617,"usersCount":196,"tipCount":9,"visitsCount":678,"url":"http://www.farmersboy.co.uk","tier":"","message":"","currency":"","rating":5.7},{"name":"The Victoria","phone":"+441727858931","address":"82 Victoria St.","lat":51.75083283859397,"lng":-0.3325241804122925,"city_fetched":"St. Albans,UK","state":"Hertfordshire","country":"United Kingdom","canonicalUrl":"https://foursquare.com/v/the-victoria/4bbc9ca607809521877ad991","categoryId":"4bf58dd8d48988d11b941735","category":"Pub","checkinsCount":298,"usersCount":96,"tipCount":5,"visitsCount":302,"tier":"","message":"","currency":"","rating":5.7},{"name":"The King William IV","phone":"+441727869272","address":"185 Sandridge Rd.","lat":51.766303,"lng":-0.3225207,"city_fetched":"St. Albans,UK","state":"Hertfordshire","country":"United Kingdom","canonicalUrl":"https://foursquare.com/v/the-king-william-iv/4b9d5978f964a520c3a536e3","categoryId":"4bf58dd8d48988d11b941735","category":"Pub","checkinsCount":519,"usersCount":188,"tipCount":7,"visitsCount":613,"tier":"","message":"","currency":"","rating":5.6},{"name":"Club Batchwood","phone":"+441727856596","address":"Batchwood Drive","lat":51.76651196103987,"lng":-0.35370826721191406,"city_fetched":"St. Albans,UK","state":"Hertfordshire","country":"United Kingdom","canonicalUrl":"https://foursquare.com/v/club-batchwood/4bc0edf44cdfc9b660cb9321","categoryId":"4bf58dd8d48988d11f941735","category":"Nightclub","checkinsCount":166,"usersCount":148,"tipCount":2,"visitsCount":222,"url":"http://www.batchwoodhall.com","tier":"","message":"","currency":"","rating":5.6},{"name":"Red Lion Hotel","phone":"+441923855341","address":"78-80 Watling St.","lat":51.68469400239974,"lng":-0.3179228109072105,"city_fetched":"St. Albans,UK","state":"Hertfordshire","country":"United Kingdom","canonicalUrl":"https://foursquare.com/v/red-lion-hotel/4bd7c0f5304fce727bfb33ab","categoryId":"4bf58dd8d48988d11b941735","category":"Pub","checkinsCount":230,"usersCount":144,"tipCount":7,"visitsCount":238,"tier":"","message":"","currency":"","rating":5.6},{"name":"The Three Hammers","phone":"+441727846218","address":"210 Watford Rd.","lat":51.72830172210793,"lng":-0.359802618276012,"city_fetched":"St. Albans,UK","state":"Hertfordshire","country":"United Kingdom","canonicalUrl":"https://foursquare.com/v/the-three-hammers/4b7db910f964a520a0d02fe3","categoryId":"4bf58dd8d48988d11b941735","category":"Pub","checkinsCount":204,"usersCount":86,"tipCount":5,"visitsCount":207,"tier":"","message":"","currency":"","rating":5.2},{"name":"Slug & Lettuce","phone":"+441727857494","twitter":"slugstalbans","address":"13-15 Victoria St","lat":51.75202506814377,"lng":-0.33745408058166504,"city_fetched":"St. Albans,UK","state":"Hertfordshire","country":"United Kingdom","canonicalUrl":"https://foursquare.com/v/slug--lettuce/4b4dd2e7f964a52095d826e3","categoryId":"4bf58dd8d48988d116941735","category":"Bar","checkinsCount":985,"usersCount":360,"tipCount":8,"visitsCount":1020,"url":"http://www.slugandlettuce.co.uk/slug-stalbans","tier":"","message":"","currency":"","rating":5.1}]