[{"name":"Tobie Norris","phone":"+441780753800","twitter":"tobienorris","address":"12 St Paul's St","lat":52.65358237671858,"lng":-0.475308895111084,"city_fetched":"Stamford,UK","state":"Lincolnshire","country":"United Kingdom","canonicalUrl":"https://foursquare.com/v/tobie-norris/4b6f1a28f964a5201ddd2ce3","categoryId":"4bf58dd8d48988d11b941735","category":"Pub","checkinsCount":568,"usersCount":183,"tipCount":20,"visitsCount":668,"tier":"","message":"","currency":"","rating":8.7},{"name":"Cosy Club","phone":"+441780767710","twitter":"cosyclubstam","address":"The Old Delivery Office","lat":52.651854,"lng":-0.480932,"city_fetched":"Stamford,UK","state":"Lincolnshire","country":"United Kingdom","canonicalUrl":"https://foursquare.com/v/cosy-club/4ebd1f43b6341bd78912daad","categoryId":"4bf58dd8d48988d116941735","category":"Bar","checkinsCount":530,"usersCount":273,"tipCount":17,"visitsCount":607,"tier":"","message":"","currency":"","rating":7.9},{"name":"The Stamford Post (Wetherspoon)","phone":"+441780753832","address":"7 Sheep Market","lat":52.651151081453875,"lng":-0.4807367710768083,"city_fetched":"Stamford,UK","state":"Lincolnshire","country":"United Kingdom","canonicalUrl":"https://foursquare.com/v/the-stamford-post-wetherspoon/53807610498e15919e8a9822","categoryId":"4bf58dd8d48988d11b941735","category":"Pub","checkinsCount":178,"usersCount":77,"tipCount":5,"visitsCount":185,"tier":"","message":"","currency":"","rating":7.1},{"name":"The Bull And Swan","address":"St. Martins","lat":52.64816289,"lng":-0.4766349,"city_fetched":"Stamford,UK","country":"United Kingdom","canonicalUrl":"https://foursquare.com/v/the-bull-and-swan/4e175ef814957dc705cccaf8","categoryId":"4bf58dd8d48988d11b941735","category":"Pub","checkinsCount":148,"usersCount":90,"tipCount":6,"visitsCount":165,"url":"http://www.thebullandswan.co.uk","tier":"","message":"","currency":"","rating":6.9},{"name":"London Inn","lat":52.651492543462766,"lng":-0.4801512735701275,"city_fetched":"Stamford,UK","state":"Lincolnshire","country":"United Kingdom","canonicalUrl":"https://foursquare.com/v/london-inn/4eba95508b81896884687c70","categoryId":"4bf58dd8d48988d11b941735","category":"Pub","checkinsCount":337,"usersCount":175,"tipCount":9,"visitsCount":339,"tier":"","message":"","currency":"","rating":6.9}]