[{"name":"The Admiral Sir John Borlase Warren (Wetherspoon)","phone":"+441159496780","twitter":"jdwtweet","address":"97 Derby Rd","lat":52.92774077200989,"lng":-1.2781254301242637,"city_fetched":"Stapleford,UK","state":"Nottinghamshire","country":"United Kingdom","canonicalUrl":"https://foursquare.com/v/the-admiral-sir-john-borlase-warren-wetherspoon/4f53707be4b036244b414c79","categoryId":"4bf58dd8d48988d11b941735","category":"Pub","checkinsCount":219,"usersCount":140,"tipCount":5,"visitsCount":319,"url":"http://www.jdwetherspoon.co.uk","tier":"","message":"","currency":"","rating":7.1},{"name":"The Corn Mill","phone":"+441159462913","address":"Swiney Way, Chilwell","lat":52.90486433624294,"lng":-1.243429183959961,"city_fetched":"Stapleford,UK","state":"Nottinghamshire","country":"United Kingdom","canonicalUrl":"https://foursquare.com/v/the-corn-mill/4b94339af964a520576e34e3","categoryId":"4bf58dd8d48988d11b941735","category":"Pub","checkinsCount":531,"usersCount":272,"tipCount":5,"visitsCount":666,"url":"http://www.cornmill-nottingham.co.uk","tier":"","message":"","currency":"","rating":6.3},{"name":"The Cadland","address":"312-342 High Rd","lat":52.915016171100596,"lng":-1.2348986363610888,"city_fetched":"Stapleford,UK","state":"Nottinghamshire","country":"United Kingdom","canonicalUrl":"https://foursquare.com/v/the-cadland/4c0cdce7d64c0f4720c0255d","categoryId":"4bf58dd8d48988d11b941735","category":"Pub","checkinsCount":216,"usersCount":103,"tipCount":6,"visitsCount":275,"tier":"","message":"","currency":"","rating":6.3},{"name":"Horse & Jockey","address":"20 Nottingham Rd","lat":52.92970582445132,"lng":-1.2731695175170896,"city_fetched":"Stapleford,UK","state":"Nottinghamshire","country":"United Kingdom","canonicalUrl":"https://foursquare.com/v/horse--jockey/4ed1679ef5b9832adb6d4aa9","categoryId":"4bf58dd8d48988d11b941735","category":"Pub","checkinsCount":81,"usersCount":49,"tipCount":1,"visitsCount":98,"url":"http://horseandjockeystapleford.co.uk","tier":"","message":"","currency":"","rating":6.1},{"name":"The Beekeeper","address":"Queens Road West","lat":52.91794538497925,"lng":-1.225586,"city_fetched":"Stapleford,UK","state":"Nottinghamshire","country":"United Kingdom","canonicalUrl":"https://foursquare.com/v/the-beekeeper/4bc9b719b6c49c7403d08e91","categoryId":"4bf58dd8d48988d11b941735","category":"Pub","checkinsCount":293,"usersCount":147,"tipCount":3,"visitsCount":307,"tier":"","message":"","currency":"","rating":5.7},{"name":"The Twitchel Inn (Wetherspoon)","phone":"+441159722197","address":"Howitt St.","lat":52.8963382008145,"lng":-1.2680535560571005,"city_fetched":"Stapleford,UK","state":"Derbyshire","country":"United Kingdom","canonicalUrl":"https://foursquare.com/v/the-twitchel-inn-wetherspoon/4c87ab6b821e9eb05acd8d89","categoryId":"4bf58dd8d48988d11b941735","category":"Pub","checkinsCount":596,"usersCount":176,"tipCount":5,"visitsCount":679,"url":"http://www.jdwetherspoon.co.uk","tier":"","message":"","currency":"","rating":5.6},{"name":"Eaton Farm","phone":"+441159462613","address":"Wilsthorpe Road","lat":52.89935108,"lng":-1.294627,"city_fetched":"Stapleford,UK","state":"Derbyshire","country":"United Kingdom","canonicalUrl":"https://foursquare.com/v/eaton-farm/4c0ba39e009a0f47bd56ebbf","categoryId":"4bf58dd8d48988d11b941735","category":"Pub","checkinsCount":265,"usersCount":157,"tipCount":5,"visitsCount":289,"tier":"","message":"","currency":"","rating":5.4},{"name":"The Plough","address":"43-71 Town St","lat":52.92492804757208,"lng":-1.2880696050278422,"city_fetched":"Stapleford,UK","state":"Derbyshire","country":"United Kingdom","canonicalUrl":"https://foursquare.com/v/the-plough/4ba65a29f964a520604939e3","categoryId":"4bf58dd8d48988d11b941735","category":"Pub","checkinsCount":204,"usersCount":87,"tipCount":4,"visitsCount":207,"tier":"","message":"","currency":"","rating":5.4},{"name":"Sherwin Arms","address":"Sherwin Arms","lat":52.9362922501702,"lng":-1.2516260147094727,"city_fetched":"Stapleford,UK","state":"Nottinghamshire","country":"United Kingdom","canonicalUrl":"https://foursquare.com/v/sherwin-arms/4ba7d982f964a520c2b839e3","categoryId":"4bf58dd8d48988d11b941735","category":"Pub","checkinsCount":305,"usersCount":120,"tipCount":4,"visitsCount":333,"tier":"","message":"","currency":"","rating":5.1},{"name":"Lockstone","phone":"+441159469950","address":"16 Market Place","lat":52.898306000000005,"lng":-1.270955,"city_fetched":"Stapleford,UK","state":"Nottinghamshire","country":"United Kingdom","canonicalUrl":"https://foursquare.com/v/lockstone/4bfb000f1134b7135b8d0fc9","categoryId":"4bf58dd8d48988d11b941735","category":"Pub","checkinsCount":256,"usersCount":74,"tipCount":4,"visitsCount":257,"tier":"","message":"","currency":"","rating":5.1}]