[{"name":"Cinnabar Caf√©","phone":"+441438340202","twitter":"cinnabarcafe","address":"56-58 High Street","lat":51.912323283591995,"lng":-0.20859003067016602,"city_fetched":"Stevenage","state":"Hertfordshire","country":"United Kingdom","canonicalUrl":"https://foursquare.com/v/cinnabar-caf%C3%A9/4b2d6378f964a52099d524e3","category":"Cocktail Bar","checkinsCount":319,"usersCount":157,"tipCount":10,"visitsCount":389,"url":"http://www.cinnabarcafe.co.uk","tier":"","message":"","currency":"","rating":8.1},{"name":"The Fisherman","phone":"+441438725778","address":"Fishers Green","lat":51.91912231,"lng":-0.2240234613418579,"city_fetched":"Stevenage","state":"Hertfordshire","country":"United Kingdom","canonicalUrl":"https://foursquare.com/v/the-fisherman/4bfe61294cf820a10abfedf4","category":"Pub","checkinsCount":126,"usersCount":111,"tipCount":0,"visitsCount":164,"url":"http://www.fishermanstevenage.co.uk","tier":"","message":"","currency":"","rating":7.1},{"name":"The Chequers","lat":51.873872010031974,"lng":-0.15744635019314926,"city_fetched":"Stevenage","country":"United Kingdom","canonicalUrl":"https://foursquare.com/v/the-chequers/4bf94d335ec320a17cf589d3","category":"Pub","checkinsCount":106,"usersCount":98,"tipCount":0,"visitsCount":144,"tier":"","message":"","currency":"","rating":6.8},{"name":"The Standing Order (Wetherspoon)","phone":"+441438316972","address":"33 High St","lat":51.912099,"lng":-0.2077639102935791,"city_fetched":"Stevenage","state":"Hertfordshire","country":"United Kingdom","canonicalUrl":"https://foursquare.com/v/the-standing-order-wetherspoon/4b50dec1f964a520323627e3","category":"Pub","checkinsCount":549,"usersCount":250,"tipCount":4,"visitsCount":649,"url":"http://www.jdwetherspoon.co.uk","tier":"","message":"","currency":"","rating":6.3},{"name":"Chiquito","phone":"+441438842780","twitter":"thechiquito","address":"Unit 8, Stevenage Leisure Park,  Kings Way","lat":51.899304122868,"lng":-0.20865014874911425,"city_fetched":"Stevenage","state":"Hertfordshire","country":"United Kingdom","canonicalUrl":"https://foursquare.com/v/chiquito/4b82a963f964a5200cdd30e3","category":"Mexican Restaurant","checkinsCount":314,"usersCount":210,"tipCount":8,"visitsCount":318,"url":"http://www.facebook.com/chiquito.restaurant","tier":"","message":"","currency":"","rating":6.3},{"name":"The Standard Bearer (Wetherspoon)","phone":"+441438731450","address":"1 The Plaza","lat":51.90132349809517,"lng":-0.20243035091484318,"city_fetched":"Stevenage","country":"United Kingdom","canonicalUrl":"https://foursquare.com/v/the-standard-bearer-wetherspoon/4bee8fe22c082d7f5d893042","category":"Pub","checkinsCount":803,"usersCount":309,"tipCount":14,"visitsCount":888,"url":"http://www.jdwetherspoon.co.uk","tier":"","message":"","currency":"","rating":5.6},{"name":"Coreys Mill (Beefeater)","phone":"+441438351318","twitter":"beefeatergrill","address":"Coreys Mill Ln","lat":51.923657,"lng":-0.21613325,"city_fetched":"Stevenage","state":"Hertfordshire","country":"United Kingdom","canonicalUrl":"https://foursquare.com/v/coreys-mill-beefeater/4c4d6df014b7b7139f0d5978","category":"Pub","checkinsCount":236,"usersCount":150,"tipCount":1,"visitsCount":256,"url":"http://www.beefeater.co.uk","tier":"","message":"","currency":"","rating":5.5}]