[{"name":"The George Payne","phone":"+441273329563","address":"18 Payne Ave","lat":50.83599761287589,"lng":-0.1859511469120701,"neighborhood":"Wish","city_fetched":"Steyning,UK","state":"Brighton and Hove","country":"United Kingdom","canonicalUrl":"https://foursquare.com/v/the-george-payne/4fba90a8e4b0f11cb4489c7d","categoryId":"4bf58dd8d48988d11b941735","category":"Pub","checkinsCount":225,"usersCount":167,"tipCount":4,"visitsCount":407,"url":"http://www.thegeorgepayne.co.uk","tier":"","message":"","currency":"","rating":8.3},{"name":"Shepherd And Dog","phone":"+441273857382","address":"The Street","lat":50.88774562012028,"lng":-0.2286509397378966,"city_fetched":"Steyning,UK","state":"West Sussex","country":"United Kingdom","canonicalUrl":"https://foursquare.com/v/shepherd-and-dog/4c6d738210faa14323eaed68","categoryId":"4bf58dd8d48988d11b941735","category":"Pub","checkinsCount":119,"usersCount":172,"tipCount":6,"visitsCount":237,"url":"http://shepherdanddogpub.co.uk","tier":"","message":"","currency":"","rating":8.3},{"name":"The Duke Of York","lat":50.94941170182714,"lng":-0.19788575173175763,"city_fetched":"Steyning,UK","country":"United Kingdom","canonicalUrl":"https://foursquare.com/v/the-duke-of-york/4f2470cde4b0dc27b97cb27e","categoryId":"4bf58dd8d48988d11b941735","category":"Pub","checkinsCount":81,"usersCount":45,"tipCount":1,"visitsCount":135,"tier":"","message":"","currency":"","rating":8.2},{"name":"The Urchin","phone":"+441273241881","twitter":"urchinpub","address":"15-17 Belfast St","lat":50.830433,"lng":-0.175209,"neighborhood":"Central Hove","city_fetched":"Steyning,UK","state":"Brighton and Hove","country":"United Kingdom","canonicalUrl":"https://foursquare.com/v/the-urchin/54e50142498e179cb1b70dff","categoryId":"4bf58dd8d48988d116941735","category":"Bar","checkinsCount":102,"usersCount":101,"tipCount":9,"visitsCount":207,"url":"http://www.urchinpub.co.uk","tier":"","message":"","currency":"","rating":8.2},{"name":"Royal Oak","address":"The St.","lat":50.8936034880173,"lng":-0.20679831504821777,"city_fetched":"Steyning,UK","state":"West Sussex","country":"United Kingdom","canonicalUrl":"https://foursquare.com/v/royal-oak/4c2f4366213c2d7fc57e305d","categoryId":"4bf58dd8d48988d11b941735","category":"Pub","checkinsCount":140,"usersCount":176,"tipCount":6,"visitsCount":226,"tier":"","message":"","currency":"","rating":8.1},{"name":"The Gun Inn","address":"High Street","lat":50.868208866439204,"lng":-0.4074758291244507,"city_fetched":"Steyning,UK","state":"West Sussex","country":"United Kingdom","canonicalUrl":"https://foursquare.com/v/the-gun-inn/4c1921104ff90f47a7760f49","categoryId":"4bf58dd8d48988d11b941735","category":"Pub","checkinsCount":95,"usersCount":68,"tipCount":2,"visitsCount":106,"tier":"","message":"","currency":"","rating":8.1},{"name":"Bolney Stage","lat":51.00042630057305,"lng":-0.1980769749075597,"city_fetched":"Steyning,UK","country":"United Kingdom","canonicalUrl":"https://foursquare.com/v/bolney-stage/4f6dc99be4b0e4284296c947","categoryId":"4bf58dd8d48988d11b941735","category":"Pub","checkinsCount":95,"usersCount":149,"tipCount":4,"visitsCount":189,"tier":"","message":"","currency":"","rating":8.1},{"name":"The View","phone":"+441273207100","address":"Western Esplanade","lat":50.82551148757445,"lng":-0.18735122680664462,"neighborhood":"Westbourne","city_fetched":"Steyning,UK","state":"Brighton and Hove","country":"United Kingdom","canonicalUrl":"https://foursquare.com/v/the-view/4d613de8d439cbff35d25dba","categoryId":"4bf58dd8d48988d116941735","category":"Bar","checkinsCount":333,"usersCount":319,"tipCount":4,"visitsCount":510,"url":"http://www.viewhove.com","tier":"","message":"","currency":"","rating":7.7},{"name":"The Connaught","phone":"+441273206578","address":"48 Hove St","lat":50.828394604788926,"lng":-0.178925867471807,"neighborhood":"Central Hove","city_fetched":"Steyning,UK","state":"Brighton and Hove","country":"United Kingdom","canonicalUrl":"https://foursquare.com/v/the-connaught/4b50e3c4f964a520223727e3","categoryId":"4bf58dd8d48988d11b941735","category":"Pub","checkinsCount":348,"usersCount":245,"tipCount":14,"visitsCount":437,"tier":"","message":"","currency":"","rating":7.7},{"name":"The Wick Inn","phone":"+441273321400","address":"63 Western Rd","lat":50.826337062133284,"lng":-0.1619342922702453,"neighborhood":"Brunswick and Adelaide","city_fetched":"Steyning,UK","state":"Brighton and Hove","country":"United Kingdom","canonicalUrl":"https://foursquare.com/v/the-wick-inn/4b058846f964a5207fbb22e3","categoryId":"4bf58dd8d48988d11b941735","category":"Pub","checkinsCount":1190,"usersCount":576,"tipCount":24,"visitsCount":1293,"url":"http://www.wickinnbrighton.co.uk","tier":2,"message":"Moderate","currency":"Â£","rating":7.6},{"name":"The Westbourne","phone":"+441273823633","twitter":"westbournehove","address":"90 Portland Rd","lat":50.832824341730586,"lng":-0.18178248229017882,"neighborhood":"Westbourne","city_fetched":"Steyning,UK","state":"Brighton and Hove","country":"United Kingdom","canonicalUrl":"https://foursquare.com/v/the-westbourne/4bf57a30706e20a1b186aa98","categoryId":"4bf58dd8d48988d116941735","category":"Bar","checkinsCount":392,"usersCount":216,"tipCount":7,"visitsCount":527,"url":"http://www.thewestbournehove.co.uk","tier":"","message":"","currency":"","rating":7.4},{"name":"George and Dragon","phone":"+441903202497","address":"1 High Street","lat":50.82493880761156,"lng":-0.3939467668533325,"city_fetched":"Steyning,UK","state":"West Sussex","country":"United Kingdom","canonicalUrl":"https://foursquare.com/v/george-and-dragon/4babde34f964a5208bd03ae3","categoryId":"4bf58dd8d48988d11b941735","category":"Pub","checkinsCount":162,"usersCount":68,"tipCount":5,"visitsCount":182,"url":"http://www.george-n-dragon.co.uk","tier":"","message":"","currency":"","rating":7.3},{"name":"The Partridge","lat":50.959224700927734,"lng":-0.3080892562866211,"city_fetched":"Steyning,UK","state":"West Sussex","country":"United Kingdom","canonicalUrl":"https://foursquare.com/v/the-partridge/4c6fb9da3444370498cf215f","categoryId":"4bf58dd8d48988d11b941735","category":"Pub","checkinsCount":93,"usersCount":62,"tipCount":4,"visitsCount":104,"tier":"","message":"","currency":"","rating":7.2},{"name":"The Sir Timothy Shelley (Wetherspoon)","phone":"+441903228070","address":"47-49 Chapel Rd.","lat":50.81305875671735,"lng":-0.370835062145812,"city_fetched":"Steyning,UK","state":"West Sussex","country":"United Kingdom","canonicalUrl":"https://foursquare.com/v/the-sir-timothy-shelley-wetherspoon/4bdd528e4ffaa59317396ff7","categoryId":"4bf58dd8d48988d11b941735","category":"Pub","checkinsCount":468,"usersCount":130,"tipCount":7,"visitsCount":478,"url":"http://www.jdwetherspoon.co.uk","tier":"","message":"","currency":"","rating":7},{"name":"The Exchange Inn","lat":50.83364422210071,"lng":-0.17404903226619436,"neighborhood":"Wilbury","city_fetched":"Steyning,UK","country":"United Kingdom","canonicalUrl":"https://foursquare.com/v/the-exchange-inn/4bbf9b36b492d13a85f2a260","categoryId":"4bf58dd8d48988d11b941735","category":"Pub","checkinsCount":185,"usersCount":143,"tipCount":2,"visitsCount":271,"tier":"","message":"","currency":"","rating":7},{"name":"The Ancient Mariner","phone":"+441273748595","twitter":"mariner_hove","address":"59 Rutland Rd","lat":50.835336,"lng":-0.18272,"neighborhood":"Westbourne","city_fetched":"Steyning,UK","state":"Brighton and Hove","country":"United Kingdom","canonicalUrl":"https://foursquare.com/v/the-ancient-mariner/4b129f36f964a520718b23e3","categoryId":"4bf58dd8d48988d11b941735","category":"Pub","checkinsCount":433,"usersCount":253,"tipCount":11,"visitsCount":590,"url":"http://www.drinkinbrighton.co.uk/ancient-mariner","tier":"","message":"","currency":"","rating":7},{"name":"The White Lion","phone":"+441798813141","address":"The St","lat":50.944951,"lng":-0.42440169,"city_fetched":"Steyning,UK","state":"West Sussex","country":"United Kingdom","canonicalUrl":"https://foursquare.com/v/the-white-lion/4d238f9853e4a093a9408077","categoryId":"4bf58dd8d48988d11b941735","category":"Pub","checkinsCount":123,"usersCount":48,"tipCount":1,"visitsCount":184,"url":"http://www.whitelion-thakeham.co.uk","tier":"","message":"","currency":"","rating":6.9},{"name":"Thomas A Beckett","phone":"+441903266643","address":"Rectory Rd","lat":50.83011530723065,"lng":-0.3918766103369969,"city_fetched":"Steyning,UK","state":"West Sussex","country":"United Kingdom","canonicalUrl":"https://foursquare.com/v/thomas-a-beckett/4c264c0af7ced13a8f17266d","categoryId":"4bf58dd8d48988d117941735","category":"Beer Garden","checkinsCount":359,"usersCount":152,"tipCount":2,"visitsCount":436,"tier":"","message":"","currency":"","rating":6.9},{"name":"The New Inn","address":"High St","lat":50.93283791694907,"lng":-0.17676363967312128,"city_fetched":"Steyning,UK","state":"West Sussex","country":"United Kingdom","canonicalUrl":"https://foursquare.com/v/the-new-inn/4bbcbeaba8cf76b057e2b0fd","categoryId":"4bf58dd8d48988d116941735","category":"Bar","checkinsCount":207,"usersCount":121,"tipCount":3,"visitsCount":368,"tier":"","message":"","currency":"","rating":6.9},{"name":"The Swallows Return","phone":"+441903506346","address":"1 Titnore Ln","lat":50.8226200916608,"lng":-0.4360250465760455,"city_fetched":"Steyning,UK","state":"West Sussex","country":"United Kingdom","canonicalUrl":"https://foursquare.com/v/the-swallows-return/4c026c85cbd876b09d3bf143","categoryId":"4bf58dd8d48988d11b941735","category":"Pub","checkinsCount":180,"usersCount":146,"tipCount":10,"visitsCount":249,"url":"http://www.vintageinn.co.uk/theswallowsreturnferring/","tier":"","message":"","currency":"","rating":6.9},{"name":"Longman Of Wilmington","twitter":"thelongmanpub","lat":50.85982178857563,"lng":-0.14171864926459654,"neighborhood":"Hollingbury","city_fetched":"Steyning,UK","country":"United Kingdom","canonicalUrl":"https://foursquare.com/v/longman-of-wilmington/4d3c79a33ec9a35d90f54881","categoryId":"4bf58dd8d48988d11b941735","category":"Pub","checkinsCount":165,"usersCount":87,"tipCount":4,"visitsCount":223,"tier":"","message":"","currency":"","rating":6.8},{"name":"The Worlds End","phone":"+441903871346","address":"Arundel Rd.","lat":50.840099,"lng":-0.457869,"city_fetched":"Steyning,UK","state":"West Sussex","country":"United Kingdom","canonicalUrl":"https://foursquare.com/v/the-worlds-end/4c70059cd7fab1f71a115dc9","categoryId":"4bf58dd8d48988d11b941735","category":"Pub","checkinsCount":159,"usersCount":133,"tipCount":7,"visitsCount":219,"tier":"","message":"","currency":"","rating":6.8},{"name":"The Castle, Bramber","address":"The Street","lat":50.88268518447876,"lng":-0.31160831451416016,"city_fetched":"Steyning,UK","state":"West Sussex","country":"United Kingdom","canonicalUrl":"https://foursquare.com/v/the-castle-bramber/4bb5d2d32f70c9b610898430","categoryId":"4bf58dd8d48988d11b941735","category":"Pub","checkinsCount":90,"usersCount":64,"tipCount":2,"visitsCount":95,"tier":"","message":"","currency":"","rating":6.7},{"name":"The Vintners Parrot","address":"10-12 Warwick St","lat":50.81175861685571,"lng":-0.36925073262154184,"city_fetched":"Steyning,UK","state":"West Sussex","country":"United Kingdom","canonicalUrl":"https://foursquare.com/v/the-vintners-parrot/4c65908caebea59323b570d0","categoryId":"4bf58dd8d48988d116941735","category":"Bar","checkinsCount":253,"usersCount":132,"tipCount":1,"visitsCount":256,"tier":"","message":"","currency":"","rating":6.7},{"name":"The Tudor Close","phone":"+441903243155","address":"Ferringham Ln","lat":50.80692775677713,"lng":-0.4509408080643445,"city_fetched":"Steyning,UK","state":"West Sussex","country":"United Kingdom","canonicalUrl":"https://foursquare.com/v/the-tudor-close/4dfd0951d4c001cca36eaba0","categoryId":"4bf58dd8d48988d11b941735","category":"Pub","checkinsCount":127,"usersCount":58,"tipCount":1,"visitsCount":190,"url":"http://www.tudorclose.co.uk","tier":"","message":"","currency":"","rating":6.7},{"name":"The White Horse","address":"23-53 High St","lat":50.8876954957574,"lng":-0.3287975806889932,"city_fetched":"Steyning,UK","state":"West Sussex","country":"United Kingdom","canonicalUrl":"https://foursquare.com/v/the-white-horse/4c0264a40d0e0f47fc05019a","categoryId":"4bf58dd8d48988d11b941735","category":"Pub","checkinsCount":126,"usersCount":67,"tipCount":4,"visitsCount":130,"tier":"","message":"","currency":"","rating":6.6},{"name":"Hove Place","address":"37 First Ave","lat":50.826478988506146,"lng":-0.16609209784415796,"neighborhood":"Central Hove","city_fetched":"Steyning,UK","state":"Brighton and Hove","country":"United Kingdom","canonicalUrl":"https://foursquare.com/v/hove-place/4b058846f964a5207dbb22e3","categoryId":"4bf58dd8d48988d11b941735","category":"Pub","checkinsCount":353,"usersCount":288,"tipCount":13,"visitsCount":444,"tier":"","message":"","currency":"","rating":6.6},{"name":"Eight Bells","address":"The St, Bolney","lat":50.98955680038983,"lng":-0.20444869995117188,"city_fetched":"Steyning,UK","state":"West Sussex","country":"United Kingdom","canonicalUrl":"https://foursquare.com/v/eight-bells/4bb62dce2f70c9b669008530","categoryId":"4bf58dd8d48988d11b941735","category":"Pub","checkinsCount":102,"usersCount":91,"tipCount":4,"visitsCount":140,"tier":"","message":"","currency":"","rating":6.6},{"name":"The Poets Ale and Smoke House","phone":"+441273272212","address":"33 Montgomery St","lat":50.83413811200272,"lng":-0.17890334129333496,"neighborhood":"Westbourne","city_fetched":"Steyning,UK","state":"Brighton and Hove","country":"United Kingdom","canonicalUrl":"https://foursquare.com/v/the-poets-ale-and-smoke-house/4b451985f964a520950426e3","categoryId":"4bf58dd8d48988d11b941735","category":"Pub","checkinsCount":487,"usersCount":137,"tipCount":3,"visitsCount":566,"url":"http://www.thepoets.co.uk","tier":"","message":"","currency":"","rating":6.6},{"name":"The Bridge Inn","phone":"+441273452477","address":"87 High St","lat":50.832189,"lng":-0.27846,"neighborhood":"Shoreham-by-Sea","city_fetched":"Steyning,UK","state":"Brighton and Hove","country":"United Kingdom","canonicalUrl":"https://foursquare.com/v/the-bridge-inn/4b3b5c15f964a520e67225e3","categoryId":"4bf58dd8d48988d11b941735","category":"Pub","checkinsCount":266,"usersCount":159,"tipCount":4,"visitsCount":292,"url":"http://bridgeshoreham.co.uk","tier":"","message":"","currency":"","rating":6.5},{"name":"The Station Bar","phone":"+441273733660","address":"100 Goldstone Villas","lat":50.83465385917065,"lng":-0.17099390873520834,"neighborhood":"Wilbury","city_fetched":"Steyning,UK","state":"Brighton and Hove","country":"United Kingdom","canonicalUrl":"https://foursquare.com/v/the-station-bar/4bf6db0f5ec320a1a0e485d3","categoryId":"4bf58dd8d48988d116941735","category":"Bar","checkinsCount":550,"usersCount":327,"tipCount":10,"visitsCount":584,"url":"http://www.thestationhove.co.uk","tier":"","message":"","currency":"","rating":6.5},{"name":"The Stoneham","phone":"+441273383840","twitter":"thestonehampub","address":"153 Portland Rd","lat":50.83350455322187,"lng":-0.1865851879119873,"neighborhood":"Wish","city_fetched":"Steyning,UK","state":"Brighton and Hove","country":"United Kingdom","canonicalUrl":"https://foursquare.com/v/the-stoneham/4ca77ac0d971b1f7e4a90ae1","categoryId":"4bf58dd8d48988d11b941735","category":"Pub","checkinsCount":821,"usersCount":324,"tipCount":16,"visitsCount":1093,"url":"http://www.thestoneham.co.uk","tier":"","message":"","currency":"","rating":6.4},{"name":"Tangerine","phone":"+441903207099","address":"37-39 Marine Pde","lat":50.8095,"lng":-0.370906,"city_fetched":"Steyning,UK","state":"West Sussex","country":"United Kingdom","canonicalUrl":"https://foursquare.com/v/tangerine/4bf92aa75317a593e3d2007f","categoryId":"4bf58dd8d48988d116941735","category":"Bar","checkinsCount":360,"usersCount":108,"tipCount":1,"visitsCount":372,"tier":"","message":"","currency":"","rating":6.4},{"name":"Crown and Anchor","twitter":"crownanchorchef","address":"High Street","lat":50.83163751335535,"lng":-0.27605432717398476,"neighborhood":"Shoreham-by-Sea","city_fetched":"Steyning,UK","state":"West Sussex","country":"United Kingdom","canonicalUrl":"https://foursquare.com/v/crown-and-anchor/4bba134e53649c74a19448fb","categoryId":"4bf58dd8d48988d11b941735","category":"Pub","checkinsCount":244,"usersCount":164,"tipCount":8,"visitsCount":282,"tier":"","message":"","currency":"","rating":6.3},{"name":"Blue Lagoon Sports Bar","phone":"+441273413402","address":"330 Kingsway","lat":50.82840083664796,"lng":-0.2000866975305471,"neighborhood":"Wish","city_fetched":"Steyning,UK","state":"Brighton and Hove","country":"United Kingdom","canonicalUrl":"https://foursquare.com/v/blue-lagoon-sports-bar/4d14f7ec1356a0937529cd82","categoryId":"4bf58dd8d48988d11d941735","category":"Sports Bar","checkinsCount":81,"usersCount":53,"tipCount":4,"visitsCount":82,"url":"http://www.brightonbnb.co.uk","tier":"","message":"","currency":"","rating":6.3},{"name":"North Star","lat":50.82896649998288,"lng":-0.4066457057007123,"city_fetched":"Steyning,UK","country":"United Kingdom","canonicalUrl":"https://foursquare.com/v/north-star/4c2b59f757a9c9b6a5b9f567","categoryId":"4bf58dd8d48988d116941735","category":"Bar","checkinsCount":135,"usersCount":106,"tipCount":4,"visitsCount":199,"tier":"","message":"","currency":"","rating":6.3},{"name":"The Black Horse","address":"High Street","lat":50.862944,"lng":-0.4086112,"city_fetched":"Steyning,UK","state":"West Sussex","country":"United Kingdom","canonicalUrl":"https://foursquare.com/v/the-black-horse/4c3778031e06d13ac7ff753e","categoryId":"4bf58dd8d48988d11b941735","category":"Pub","checkinsCount":131,"usersCount":102,"tipCount":2,"visitsCount":150,"url":"http://www.mountainrangerestaurants.websir.co.uk/blackhorse/","tier":"","message":"","currency":"","rating":6.2},{"name":"The Three Fishes (Wetherspoon)","phone":"+441903288640","address":"56 Chapel Rd.","lat":50.81365204341207,"lng":-0.3709867369399106,"city_fetched":"Steyning,UK","state":"West Sussex","country":"United Kingdom","canonicalUrl":"https://foursquare.com/v/the-three-fishes-wetherspoon/4c87ac68821e9eb029ce8d89","categoryId":"4bf58dd8d48988d11b941735","category":"Pub","checkinsCount":1226,"usersCount":257,"tipCount":5,"visitsCount":1342,"url":"http://www.jdwetherspoon.co.uk","tier":"","message":"","currency":"","rating":6.1},{"name":"Devils Dyke Inn","phone":"+441273857256","address":"Dyke Rd.","lat":50.88549211660664,"lng":-0.2121734619140625,"city_fetched":"Steyning,UK","state":"Brighton and Hove","country":"United Kingdom","canonicalUrl":"https://foursquare.com/v/devils-dyke-inn/4c0e8ebed64c0f473064285d","categoryId":"4bf58dd8d48988d116941735","category":"Bar","checkinsCount":408,"usersCount":280,"tipCount":11,"visitsCount":410,"tier":"","message":"","currency":"","rating":6.1},{"name":"The Cricketer's Pub","address":"Eaton Rd","lat":50.829902,"lng":-0.164783,"neighborhood":"Wilbury","city_fetched":"Steyning,UK","state":"Brighton and Hove","country":"United Kingdom","canonicalUrl":"https://foursquare.com/v/the-cricketers-pub/4b9e8b83f964a520a7ed36e3","categoryId":"4bf58dd8d48988d11b941735","category":"Pub","checkinsCount":205,"usersCount":156,"tipCount":5,"visitsCount":271,"tier":"","message":"","currency":"","rating":5.9},{"name":"The Longshore","phone":"+441273452365","address":"Brighton Rd","lat":50.827961775898885,"lng":-0.28830914290256904,"city_fetched":"Steyning,UK","state":"West Sussex","country":"United Kingdom","canonicalUrl":"https://foursquare.com/v/the-longshore/51cb2096498e6fe618ed7196","categoryId":"4bf58dd8d48988d11b941735","category":"Pub","checkinsCount":113,"usersCount":80,"tipCount":4,"visitsCount":185,"url":"http://www.longshorepubshoreham.co.uk","tier":"","message":"","currency":"","rating":5.9},{"name":"Jack And Jill Inn","lat":50.91290459295988,"lng":-0.15439894928941955,"city_fetched":"Steyning,UK","country":"United Kingdom","canonicalUrl":"https://foursquare.com/v/jack-and-jill-inn/4c1c74a88b3aa59319fb985f","categoryId":"4bf58dd8d48988d117941735","category":"Beer Garden","checkinsCount":151,"usersCount":122,"tipCount":8,"visitsCount":217,"tier":"","message":"","currency":"","rating":5.8},{"name":"The Cliftonville Inn (Wetherspoon)","phone":"+441273726969","address":"98-101 George St.","lat":50.828605033915345,"lng":-0.17404645537522162,"neighborhood":"Central Hove","city_fetched":"Steyning,UK","state":"Brighton and Hove","country":"United Kingdom","canonicalUrl":"https://foursquare.com/v/the-cliftonville-inn-wetherspoon/4c87ab38821e9eb029cd8d89","categoryId":"4bf58dd8d48988d11b941735","category":"Pub","checkinsCount":318,"usersCount":159,"tipCount":2,"visitsCount":342,"url":"http://www.jdwetherspoon.co.uk","tier":"","message":"","currency":"","rating":5.7},{"name":"Mistys Cocktail Bar","phone":"+441273220302","address":"116 Church Rd","lat":50.82794693263451,"lng":-0.17256208237486337,"neighborhood":"Central Hove","city_fetched":"Steyning,UK","state":"Brighton and Hove","country":"United Kingdom","canonicalUrl":"https://foursquare.com/v/mistys-cocktail-bar/4d2e20e590cb236a62de6178","categoryId":"4bf58dd8d48988d11e941735","category":"Cocktail Bar","checkinsCount":289,"usersCount":128,"tipCount":6,"visitsCount":289,"url":"http://www.mistysbar.co.uk","tier":"","message":"","currency":"","rating":5.5},{"name":"The Blind Busker","phone":"+441273749110","address":"72 Church Rd.","lat":50.827315,"lng":-0.16732692718505374,"neighborhood":"Central Hove","city_fetched":"Steyning,UK","state":"Brighton and Hove","country":"United Kingdom","canonicalUrl":"https://foursquare.com/v/the-blind-busker/4b8d1f25f964a52004e932e3","categoryId":"4bf58dd8d48988d11b941735","category":"Pub","checkinsCount":410,"usersCount":245,"tipCount":8,"visitsCount":412,"tier":"","message":"","currency":"","rating":5.4},{"name":"The Sportsman","address":"Withdean Rd","lat":50.85267527588391,"lng":-0.15884472000103628,"neighborhood":"Withdean","city_fetched":"Steyning,UK","state":"Brighton and Hove","country":"United Kingdom","canonicalUrl":"https://foursquare.com/v/the-sportsman/4ce2f23f18028cfae161b9f7","categoryId":"4bf58dd8d48988d116941735","category":"Bar","checkinsCount":212,"usersCount":85,"tipCount":6,"visitsCount":220,"tier":"","message":"","currency":"","rating":5.4},{"name":"The Grenadier","address":"200 Hangleton Road","lat":50.84498920956926,"lng":-0.19439202282866963,"neighborhood":"Hangleton","city_fetched":"Steyning,UK","state":"Brighton and Hove","country":"United Kingdom","canonicalUrl":"https://foursquare.com/v/the-grenadier/4c13b55f77cea593733ecf60","categoryId":"4bf58dd8d48988d11b941735","category":"Pub","checkinsCount":175,"usersCount":110,"tipCount":1,"visitsCount":245,"tier":"","message":"","currency":"","rating":5.1}]