[{"name":"Settle Inn","phone":"+441786474609","address":"91 St Marys Wynd","lat":56.12255563603617,"lng":-3.941956689676043,"city_fetched":"Stirling,UK","state":"Stirlingshire","country":"United Kingdom","canonicalUrl":"https://foursquare.com/v/settle-inn/4c019a4fb58376b0c472443c","categoryId":"4bf58dd8d48988d11b941735","category":"Pub","checkinsCount":104,"usersCount":83,"tipCount":4,"visitsCount":124,"tier":"","message":"","currency":"","rating":8},{"name":"BrewDog Stirling","phone":"+441358724924","twitter":"brewdogstirling","address":"7 Baker St","lat":56.11887131424312,"lng":-3.9385832704964656,"city_fetched":"Stirling,UK","state":"Stirlingshire","country":"United Kingdom","canonicalUrl":"https://foursquare.com/v/brewdog-stirling/564b3129498e8fda74e99172","categoryId":"56aa371ce4b08b9a8d57356c","category":"Beer Bar","checkinsCount":66,"usersCount":48,"tipCount":3,"visitsCount":68,"url":"https://www.brewdog.com/bars/uk/stirling","tier":"","message":"","currency":"","rating":7.7},{"name":"Fubar","phone":"+441786472619","address":"6 Maxwell Pl.","lat":56.11987623175016,"lng":-3.9374345541000366,"city_fetched":"Stirling,UK","state":"Stirlingshire","country":"United Kingdom","canonicalUrl":"https://foursquare.com/v/fubar/4ba4bf43f964a5204db138e3","categoryId":"4bf58dd8d48988d11f941735","category":"Nightclub","checkinsCount":261,"usersCount":85,"tipCount":2,"visitsCount":264,"tier":"","message":"","currency":"","rating":7.7},{"name":"The Bridge of Allan Brewery","phone":"+441786834555","twitter":"allanwater","address":"The Brewhouse","lat":56.1550155573412,"lng":-3.9495828774755695,"city_fetched":"Stirling,UK","state":"Stirlingshire","country":"United Kingdom","canonicalUrl":"https://foursquare.com/v/the-bridge-of-allan-brewery/4dcbe0e51520906ed15d8c57","categoryId":"50327c8591d4c4b30a586d5d","category":"Brewery","checkinsCount":152,"usersCount":66,"tipCount":3,"visitsCount":160,"tier":"","message":"","currency":"","rating":7.2},{"name":"The Meadowpark","phone":"+441786832203","address":"56 Kenilworth Rd.","lat":56.14883066472593,"lng":-3.9303696155548096,"city_fetched":"Stirling,UK","state":"Stirlingshire","country":"United Kingdom","canonicalUrl":"https://foursquare.com/v/the-meadowpark/4bf9849f5ec320a173638ad3","categoryId":"4bf58dd8d48988d11b941735","category":"Pub","checkinsCount":211,"usersCount":130,"tipCount":4,"visitsCount":276,"tier":"","message":"","currency":"","rating":7.2},{"name":"City Walls","phone":"+441786451063","address":"6 Back Walk Rock Terr","lat":56.117570147194286,"lng":-3.9386141938513615,"city_fetched":"Stirling,UK","state":"Stirlingshire","country":"United Kingdom","canonicalUrl":"https://foursquare.com/v/city-walls/4c25355b136d20a17f32e361","categoryId":"4bf58dd8d48988d11b941735","category":"Pub","checkinsCount":285,"usersCount":164,"tipCount":6,"visitsCount":302,"url":"http://www.citywalls-stirling.co.uk","tier":"","message":"","currency":"","rating":7.2},{"name":"Nicky Tams","address":"Baker St","lat":56.11918024,"lng":-3.9391367,"city_fetched":"Stirling,UK","state":"Stirlingshire","country":"United Kingdom","canonicalUrl":"https://foursquare.com/v/nicky-tams/4c13f4e3a1010f47169e4b18","categoryId":"4bf58dd8d48988d116941735","category":"Bar","checkinsCount":139,"usersCount":120,"tipCount":4,"visitsCount":152,"tier":"","message":"","currency":"","rating":7.1},{"name":"Sportsters","phone":"+441786409000","address":"52-54 King St","lat":56.11876676506202,"lng":-3.938298225402832,"city_fetched":"Stirling,UK","state":"Stirlingshire","country":"United Kingdom","canonicalUrl":"https://foursquare.com/v/sportsters/4ba4bed6f964a52028b138e3","categoryId":"4bf58dd8d48988d11d941735","category":"Sports Bar","checkinsCount":236,"usersCount":72,"tipCount":4,"visitsCount":236,"url":"http://stirling.sportsters.info","tier":"","message":"","currency":"","rating":7.1},{"name":"No 2 Baker Street","phone":"+441786448722","address":"2 Baker St.","lat":56.1187789,"lng":-3.938634,"city_fetched":"Stirling,UK","state":"Stirlingshire","country":"United Kingdom","canonicalUrl":"https://foursquare.com/v/no-2-baker-street/4c13fc4077cea593b9ddcf60","categoryId":"4bf58dd8d48988d116941735","category":"Bar","checkinsCount":317,"usersCount":236,"tipCount":4,"visitsCount":320,"tier":"","message":"","currency":"","rating":7.1},{"name":"The Kilted Kangaroo","phone":"+441786451138","twitter":"kiltedkangaroo","address":"9 Upper Craigs","lat":56.11640717292832,"lng":-3.9359593391418457,"city_fetched":"Stirling,UK","state":"Stirlingshire","country":"United Kingdom","canonicalUrl":"https://foursquare.com/v/the-kilted-kangaroo/4c14041ea5eb76b0f70bc1b7","categoryId":"4bf58dd8d48988d116941735","category":"Bar","checkinsCount":437,"usersCount":266,"tipCount":12,"visitsCount":494,"url":"http://www.kiltedkangaroo.com","tier":2,"message":"Moderate","currency":"Â£","rating":6.8},{"name":"The Crossed Peels (Wetherspoon)","address":"8 Spittal St","lat":56.11880415163499,"lng":-3.938605971363664,"city_fetched":"Stirling,UK","state":"Stirlingshire","country":"United Kingdom","canonicalUrl":"https://foursquare.com/v/the-crossed-peels-wetherspoon/53c5a09d498e3c9a5c917239","categoryId":"4bf58dd8d48988d116941735","category":"Bar","checkinsCount":183,"usersCount":132,"tipCount":2,"visitsCount":192,"tier":"","message":"","currency":"","rating":6.7},{"name":"Morrisons Cold Beer Company","phone":"+441786463524","address":"84 Murray Pl.","lat":56.11986045362993,"lng":-3.9373751849880967,"city_fetched":"Stirling,UK","state":"Stirlingshire","country":"United Kingdom","canonicalUrl":"https://foursquare.com/v/morrisons-cold-beer-company/4c325b3ea0ced13ab607156e","categoryId":"4bf58dd8d48988d116941735","category":"Bar","checkinsCount":514,"usersCount":244,"tipCount":8,"visitsCount":597,"tier":"","message":"","currency":"","rating":6.5},{"name":"Westerton Arms","phone":"+441786833659","address":"34 Henderson St.","lat":56.15489619573155,"lng":-3.9485549926757812,"city_fetched":"Stirling,UK","state":"Stirlingshire","country":"United Kingdom","canonicalUrl":"https://foursquare.com/v/westerton-arms/4c0e9afd2466a59354567921","categoryId":"4bf58dd8d48988d11b941735","category":"Pub","checkinsCount":241,"usersCount":98,"tipCount":11,"visitsCount":249,"url":"http://www.westertonarms.co.uk","tier":"","message":"","currency":"","rating":6.5},{"name":"Dusk","phone":"+441786464904","address":"64 Baker St","lat":56.119517378101,"lng":-3.938791751861572,"city_fetched":"Stirling,UK","state":"Stirlingshire","country":"United Kingdom","canonicalUrl":"https://foursquare.com/v/dusk/4c1ff3ad63750f47eaeebb67","categoryId":"4bf58dd8d48988d11f941735","category":"Nightclub","checkinsCount":288,"usersCount":119,"tipCount":0,"visitsCount":314,"url":"http://www.duskstirling.co.uk","tier":"","message":"","currency":"","rating":6.4},{"name":"Drouthy Neebors","phone":"+441786450858","address":"7 Baker St","lat":56.11893124327563,"lng":-3.9388132095336914,"city_fetched":"Stirling,UK","state":"Stirlingshire","country":"United Kingdom","canonicalUrl":"https://foursquare.com/v/drouthy-neebors/4cddd529f8a4a14300bbd2bc","categoryId":"4bf58dd8d48988d116941735","category":"Bar","checkinsCount":143,"usersCount":114,"tipCount":3,"visitsCount":144,"url":"http://www.drouthyneebors-stirling.co.uk","tier":"","message":"","currency":"","rating":5.8}]