[{"name":"Hop Inn","phone":"+441782711121","address":"102 Albert St","lat":53.014610391070725,"lng":-2.2164891884785534,"neighborhood":"Basford","city_fetched":"Stoke-on-Trent,UK","state":"Staffordshire","country":"United Kingdom","canonicalUrl":"https://foursquare.com/v/hop-inn/53027960498e0c3d35e823a8","categoryId":"4bf58dd8d48988d11b941735","category":"Pub","checkinsCount":118,"usersCount":52,"tipCount":4,"visitsCount":291,"tier":"","message":"","currency":"","rating":8.7},{"name":"The LRV & Verve","phone":"+441782294118","twitter":"staffsunion","address":"Leek Road","lat":53.00794086592205,"lng":-2.1754109859466553,"city_fetched":"Stoke-on-Trent,UK","state":"Stoke-on-Trent","country":"United Kingdom","canonicalUrl":"https://foursquare.com/v/the-lrv--verve/4b69fc84f964a520e2bf2be3","categoryId":"4bf58dd8d48988d11f941735","category":"Nightclub","checkinsCount":941,"usersCount":173,"tipCount":6,"visitsCount":998,"url":"http://www.staffsunion.com","tier":"","message":"","currency":"","rating":8.2},{"name":"The Swan","phone":"+441785258142","twitter":"theswanstafford","address":"46-46a Greengate Street","lat":52.80587469576147,"lng":-2.116960287094116,"city_fetched":"Stoke-on-Trent,UK","state":"Staffordshire","country":"United Kingdom","canonicalUrl":"https://foursquare.com/v/the-swan/4b938643f964a520024734e3","categoryId":"4bf58dd8d48988d1d5941735","category":"Hotel Bar","checkinsCount":498,"usersCount":262,"tipCount":9,"visitsCount":618,"url":"http://theswanstafford.co.uk","tier":"","message":"","currency":"","rating":7.9},{"name":"The Wheatsheaf (Wetherspoon)","phone":"+441782747462","address":"84-92 Church St.","lat":53.00432159633403,"lng":-2.1857813352531172,"city_fetched":"Stoke-on-Trent,UK","state":"Stoke-on-Trent","country":"United Kingdom","canonicalUrl":"https://foursquare.com/v/the-wheatsheaf-wetherspoon/4c87ac14821e9eb0ebcd8d89","categoryId":"4bf58dd8d48988d11b941735","category":"Pub","checkinsCount":1582,"usersCount":294,"tipCount":3,"visitsCount":1806,"url":"http://www.jdwetherspoon.co.uk","tier":"","message":"","currency":"","rating":7.8},{"name":"Bulls Head","address":"14 St John's Square","lat":53.044619297456,"lng":-2.199447313295398,"city_fetched":"Stoke-on-Trent,UK","state":"Stoke-on-Trent","country":"United Kingdom","canonicalUrl":"https://foursquare.com/v/bulls-head/4c02c147f56c2d7fe1e61b66","categoryId":"4bf58dd8d48988d11b941735","category":"Pub","checkinsCount":549,"usersCount":118,"tipCount":8,"visitsCount":588,"tier":"","message":"","currency":"","rating":7.8},{"name":"The Glebe","lat":53.00476559022157,"lng":-2.18145918039687,"city_fetched":"Stoke-on-Trent,UK","state":"Stoke-on-Trent","country":"United Kingdom","canonicalUrl":"https://foursquare.com/v/the-glebe/4ccc16aeba79a1cdca8b38cb","categoryId":"4bf58dd8d48988d116941735","category":"Bar","checkinsCount":429,"usersCount":110,"tipCount":4,"visitsCount":439,"tier":"","message":"","currency":"","rating":7.8},{"name":"Ye Olde Rose & Crown","phone":"+441785251343","address":"10 Market St.","lat":52.80727472337875,"lng":-2.1161790588668286,"city_fetched":"Stoke-on-Trent,UK","state":"Staffordshire","country":"United Kingdom","canonicalUrl":"https://foursquare.com/v/ye-olde-rose--crown/4ec7eaad99115348d987bc1f","categoryId":"4bf58dd8d48988d116941735","category":"Bar","checkinsCount":223,"usersCount":68,"tipCount":4,"visitsCount":232,"tier":"","message":"","currency":"","rating":7.6},{"name":"The Greyhound","twitter":"greyhoundbeers","address":"67 George Street","lat":53.012307,"lng":-2.215203,"city_fetched":"Stoke-on-Trent,UK","state":"Staffordshire","country":"United Kingdom","canonicalUrl":"https://foursquare.com/v/the-greyhound/4b732726f964a5209d9e2de3","categoryId":"4bf58dd8d48988d11b941735","category":"Pub","checkinsCount":1552,"usersCount":137,"tipCount":5,"visitsCount":1637,"tier":"","message":"","currency":"","rating":7.6},{"name":"The Holy Inadequate","phone":"+447876071462","address":"67 Etruria Old Rd.","lat":53.02038068517807,"lng":-2.2006019804388033,"city_fetched":"Stoke-on-Trent,UK","state":"Stoke-on-Trent","country":"United Kingdom","canonicalUrl":"https://foursquare.com/v/the-holy-inadequate/4d7a27bc15958cfad3a51a25","categoryId":"4bf58dd8d48988d11b941735","category":"Pub","checkinsCount":405,"usersCount":104,"tipCount":4,"visitsCount":606,"tier":"","message":"","currency":"","rating":7.5},{"name":"Cheshire Cat","lat":53.067847,"lng":-2.525921,"city_fetched":"Stoke-on-Trent,UK","state":"Cheshire","country":"United Kingdom","canonicalUrl":"https://foursquare.com/v/cheshire-cat/4bdc6ab33904a593f7134e9e","categoryId":"4bf58dd8d48988d116941735","category":"Bar","checkinsCount":428,"usersCount":191,"tipCount":12,"visitsCount":486,"tier":"","message":"","currency":"","rating":7.2},{"name":"The Orange Tree","address":"Newcastle Rd.","lat":52.996357988834156,"lng":-2.2108054161071777,"neighborhood":"Stoke and Trent Vale","city_fetched":"Stoke-on-Trent,UK","state":"Stoke-on-Trent","country":"United Kingdom","canonicalUrl":"https://foursquare.com/v/the-orange-tree/4c581972744a0f471164cacb","categoryId":"4bf58dd8d48988d11b941735","category":"Pub","checkinsCount":149,"usersCount":154,"tipCount":5,"visitsCount":256,"tier":"","message":"","currency":"","rating":6.9},{"name":"Leopard Hotel","phone":"+441782819644","address":"21 Market Place","lat":53.045513944641556,"lng":-2.1977780547081363,"city_fetched":"Stoke-on-Trent,UK","state":"Stoke-on-Trent","country":"United Kingdom","canonicalUrl":"https://foursquare.com/v/leopard-hotel/4b5a2d66f964a52052b228e3","categoryId":"4bf58dd8d48988d11b941735","category":"Pub","checkinsCount":202,"usersCount":73,"tipCount":5,"visitsCount":208,"tier":"","message":"","currency":"","rating":6.9},{"name":"The Exchange","phone":"+441782206032","address":"Trinity St","lat":53.025435,"lng":-2.178993,"city_fetched":"Stoke-on-Trent,UK","state":"Stoke-on-Trent","country":"United Kingdom","canonicalUrl":"https://foursquare.com/v/the-exchange/4bad1920f964a520512d3be3","categoryId":"4bf58dd8d48988d116941735","category":"Bar","checkinsCount":263,"usersCount":128,"tipCount":5,"visitsCount":264,"url":"http://www.theexchangestoke.com","tier":"","message":"","currency":"","rating":6.9},{"name":"The Factory","address":"67 Bryan St.","lat":53.028325665367134,"lng":-2.1770983058872933,"city_fetched":"Stoke-on-Trent,UK","state":"Stoke-on-Trent","country":"United Kingdom","canonicalUrl":"https://foursquare.com/v/the-factory/4c7f89811415b7135106015d","categoryId":"4bf58dd8d48988d1d8941735","category":"Gay Bar","checkinsCount":384,"usersCount":107,"tipCount":5,"visitsCount":392,"tier":"","message":"","currency":"","rating":6.9},{"name":"The Weathervane | Hungry Horse","phone":"+441782388799","address":"Lysander Rd","lat":52.97134201515267,"lng":-2.0872609109384754,"city_fetched":"Stoke-on-Trent,UK","state":"Stoke-on-Trent","country":"United Kingdom","canonicalUrl":"https://foursquare.com/v/the-weathervane--hungry-horse/4ba87946f964a52067dc39e3","categoryId":"4bf58dd8d48988d11b941735","category":"Pub","checkinsCount":231,"usersCount":94,"tipCount":3,"visitsCount":237,"url":"http://www.hungryhorse.co.uk/pubs/weathervane-stoke-trent","tier":"","message":"","currency":"","rating":6.8},{"name":"The Terrace","phone":"+441782848021","twitter":"theterracestoke","address":"185 Leek Road","lat":53.01014162115991,"lng":-2.1754041565124758,"city_fetched":"Stoke-on-Trent,UK","state":"Stoke-on-Trent","country":"United Kingdom","canonicalUrl":"https://foursquare.com/v/the-terrace/4d036ab3347da1cdf14d258f","categoryId":"4bf58dd8d48988d11b941735","category":"Pub","checkinsCount":765,"usersCount":191,"tipCount":5,"visitsCount":833,"url":"http://www.theterrace-stoke.co.uk","tier":"","message":"","currency":"","rating":6.8},{"name":"Duke William","address":"Newcastle St","lat":53.045091916910074,"lng":-2.199530858784558,"city_fetched":"Stoke-on-Trent,UK","state":"Stoke-on-Trent","country":"United Kingdom","canonicalUrl":"https://foursquare.com/v/duke-william/4bf4405f98ac0f4759c663a8","categoryId":"4bf58dd8d48988d116941735","category":"Bar","checkinsCount":235,"usersCount":57,"tipCount":3,"visitsCount":237,"tier":"","message":"","currency":"","rating":6.8},{"name":"Walkabout","phone":"+441782281543","twitter":"walkaboutalex","address":"38 Trinity St","lat":53.0256641,"lng":-2.1782889,"city_fetched":"Stoke-on-Trent,UK","state":"Stoke-on-Trent","country":"United Kingdom","canonicalUrl":"https://foursquare.com/walkaboutalex","categoryId":"4bf58dd8d48988d11d941735","category":"Sports Bar","checkinsCount":330,"usersCount":208,"tipCount":8,"visitsCount":346,"url":"http://walkaboutbars.com","tier":"","message":"","currency":"","rating":6.7},{"name":"Revolution","phone":"+441782214451","twitter":"revolutionbars","address":"Trinity Street","lat":53.02588366740303,"lng":-2.177588939666748,"city_fetched":"Stoke-on-Trent,UK","state":"Stoke-on-Trent","country":"United Kingdom","canonicalUrl":"https://foursquare.com/v/revolution/4b8c2a7af964a520bbc132e3","categoryId":"4bf58dd8d48988d11e941735","category":"Cocktail Bar","checkinsCount":222,"usersCount":131,"tipCount":8,"visitsCount":223,"url":"http://www.revolution-bars.co.uk","tier":"","message":"","currency":"","rating":6.7},{"name":"The Old Brown Jug","address":"41 Bridge St.","lat":53.012597,"lng":-2.230432,"city_fetched":"Stoke-on-Trent,UK","state":"Staffordshire","country":"United Kingdom","canonicalUrl":"https://foursquare.com/v/the-old-brown-jug/4b6350c8f964a520b1712ae3","categoryId":"4bf58dd8d48988d11b941735","category":"Pub","checkinsCount":225,"usersCount":130,"tipCount":7,"visitsCount":228,"tier":"","message":"","currency":"","rating":6.7},{"name":"The Reginald Mitchell (Wetherspoon)","phone":"+441782281082","address":"The Tontine","lat":53.02540958010104,"lng":-2.1744440024579417,"city_fetched":"Stoke-on-Trent,UK","state":"Stoke-on-Trent","country":"United Kingdom","canonicalUrl":"https://foursquare.com/v/the-reginald-mitchell-wetherspoon/4ba4c4acf964a52018b338e3","categoryId":"4bf58dd8d48988d11b941735","category":"Pub","checkinsCount":1767,"usersCount":518,"tipCount":10,"visitsCount":1930,"url":"http://www.jdwetherspoon.co.uk","tier":"","message":"","currency":"","rating":6.6},{"name":"The White Star","phone":"+441782848732","twitter":"titanic_brewers","address":"63 Kingsway","lat":53.00391561773432,"lng":-2.1843301877117667,"city_fetched":"Stoke-on-Trent,UK","state":"Stoke-on-Trent","country":"United Kingdom","canonicalUrl":"https://foursquare.com/v/the-white-star/4bdc43c063c5c9b6bcf82a68","categoryId":"4bf58dd8d48988d11b941735","category":"Pub","checkinsCount":615,"usersCount":199,"tipCount":6,"visitsCount":669,"tier":"","message":"","currency":"","rating":6.4},{"name":"Reflex","phone":"+441782206170","address":"Brockley Square","lat":53.026101768413184,"lng":-2.1764872843377323,"city_fetched":"Stoke-on-Trent,UK","state":"Stoke-on-Trent","country":"United Kingdom","canonicalUrl":"https://foursquare.com/v/reflex/4bdf5f6be75c0f47d8f6ca03","categoryId":"4bf58dd8d48988d11f941735","category":"Nightclub","checkinsCount":197,"usersCount":92,"tipCount":4,"visitsCount":198,"tier":"","message":"","currency":"","rating":6.3},{"name":"Legends & The Lounge","phone":"+441785353575","twitter":"loungelegends","address":"Staffordshire University","lat":52.813263455992754,"lng":-2.0836622440418293,"city_fetched":"Stoke-on-Trent,UK","state":"Staffordshire","country":"United Kingdom","canonicalUrl":"https://foursquare.com/v/legends--the-lounge/4b6cbc20f964a52040502ce3","categoryId":"4bf58dd8d48988d121941735","category":"Lounge","checkinsCount":1595,"usersCount":216,"tipCount":16,"visitsCount":1600,"url":"http://www.staffsunion.com","tier":"","message":"","currency":"","rating":6.1},{"name":"The Pepper Mill","address":"Phoenix Retail Park","lat":52.990925836736835,"lng":-2.1456086472307687,"neighborhood":"Fenton","city_fetched":"Stoke-on-Trent,UK","country":"United Kingdom","canonicalUrl":"https://foursquare.com/v/the-pepper-mill/4f96f51de4b0e750a20b2a9f","categoryId":"4bf58dd8d48988d11b941735","category":"Pub","checkinsCount":117,"usersCount":83,"tipCount":8,"visitsCount":148,"tier":"","message":"","currency":"","rating":5.9},{"name":"Horn And Trumpet","phone":"+441782274388","address":"Leek New Road","lat":53.04926503102764,"lng":-2.1599031237605177,"city_fetched":"Stoke-on-Trent,UK","state":"Stoke-on-Trent","country":"United Kingdom","canonicalUrl":"https://foursquare.com/v/horn-and-trumpet/4e30806a18383aa77b02a470","categoryId":"4bf58dd8d48988d11b941735","category":"Pub","checkinsCount":141,"usersCount":67,"tipCount":5,"visitsCount":146,"tier":"","message":"","currency":"","rating":5.9},{"name":"Liquid & Envy","phone":"+441782284333","address":"Brunswick St.","lat":53.02498025149043,"lng":-2.1777820587158203,"city_fetched":"Stoke-on-Trent,UK","state":"Stoke-on-Trent","country":"United Kingdom","canonicalUrl":"https://foursquare.com/v/liquid--envy/4b919e39f964a52048ca33e3","categoryId":"4bf58dd8d48988d11f941735","category":"Nightclub","checkinsCount":255,"usersCount":95,"tipCount":6,"visitsCount":255,"tier":"","message":"","currency":"","rating":5.9},{"name":"Man In Space","address":"New in lane","lat":52.970491,"lng":-2.19075578,"city_fetched":"Stoke-on-Trent,UK","state":"Stoke-on-Trent","country":"United Kingdom","canonicalUrl":"https://foursquare.com/v/man-in-space/4c52fc3b048b1b8d58d64b31","categoryId":"4bf58dd8d48988d11b941735","category":"Pub","checkinsCount":187,"usersCount":66,"tipCount":5,"visitsCount":194,"tier":"","message":"","currency":"","rating":5.7},{"name":"The Picture House (Wetherspoon)","phone":"+441785222941","address":"Bridge St.","lat":52.80433105545297,"lng":-2.1159732341766357,"city_fetched":"Stoke-on-Trent,UK","state":"Staffordshire","country":"United Kingdom","canonicalUrl":"https://foursquare.com/v/the-picture-house-wetherspoon/4b60bf6af964a52022f729e3","categoryId":"4bf58dd8d48988d11b941735","category":"Pub","checkinsCount":1611,"usersCount":490,"tipCount":13,"visitsCount":1782,"url":"http://www.jdwetherspoon.co.uk","tier":2,"message":"Moderate","currency":"Â£","rating":5.5},{"name":"Nakatcha","phone":"+441270629070","address":"20-24 Welsh Row","lat":53.067716,"lng":-2.525396,"city_fetched":"Stoke-on-Trent,UK","state":"Cheshire","country":"United Kingdom","canonicalUrl":"https://foursquare.com/v/nakatcha/4b6ca927f964a5202f4a2ce3","categoryId":"4bf58dd8d48988d116941735","category":"Bar","checkinsCount":104,"usersCount":65,"tipCount":5,"visitsCount":107,"tier":"","message":"","currency":"","rating":5.4}]