[{"name":"The Ale House","phone":"+441453755447","address":"9 John St","lat":51.7442907121674,"lng":-2.2158683396606706,"city_fetched":"Stroud,UK","state":"Gloucestershire","country":"United Kingdom","canonicalUrl":"https://foursquare.com/v/the-ale-house/50d62674e4b0a7a6515e2c6e","categoryId":"4bf58dd8d48988d11b941735","category":"Pub","checkinsCount":109,"usersCount":33,"tipCount":3,"visitsCount":109,"tier":"","message":"","currency":"","rating":7.9},{"name":"Weighbridge Inn","phone":"+441453832520","address":"Longfords","lat":51.692420129950285,"lng":-2.2011656931503483,"city_fetched":"Stroud,UK","country":"United Kingdom","canonicalUrl":"https://foursquare.com/v/weighbridge-inn/4b8a8774f964a520d97032e3","categoryId":"4bf58dd8d48988d11b941735","category":"Pub","checkinsCount":112,"usersCount":84,"tipCount":3,"visitsCount":128,"url":"http://www.easytorecall.com/2in1/index.html","tier":"","message":"","currency":"","rating":7.8},{"name":"The Woolpack Inn","phone":"+441452813429","twitter":"sladthewoolpack","address":"Slad Rd","lat":51.76426559686661,"lng":-2.18684,"city_fetched":"Stroud,UK","state":"Gloucestershire","country":"United Kingdom","canonicalUrl":"https://foursquare.com/v/the-woolpack-inn/4b6b5743f964a52012022ce3","categoryId":"4bf58dd8d48988d11b941735","category":"Pub","checkinsCount":112,"usersCount":107,"tipCount":7,"visitsCount":155,"url":"http://thewoolpackslad.com","tier":"","message":"","currency":"","rating":7.5},{"name":"The Crown Inn","phone":"+441285760601","address":"Frampton Mansell","lat":51.72304730629332,"lng":-2.112894058227539,"city_fetched":"Stroud,UK","state":"Gloucestershire","country":"United Kingdom","canonicalUrl":"https://foursquare.com/v/the-crown-inn/4b64628bf964a520f3ae2ae3","categoryId":"4bf58dd8d48988d11b941735","category":"Pub","checkinsCount":82,"usersCount":79,"tipCount":4,"visitsCount":120,"tier":"","message":"","currency":"","rating":7.5},{"name":"Stroud Brewery","phone":"+441453887122","twitter":"stroudbrewery","address":"Unit 11, (Off Hope Mill Lane), London Road, Thrupp","lat":51.724455721512825,"lng":-2.1995642060425173,"city_fetched":"Stroud,UK","state":"Gloucestershire","country":"United Kingdom","canonicalUrl":"https://foursquare.com/v/stroud-brewery/4f5a21f6e4b0357e5d44b5de","categoryId":"50327c8591d4c4b30a586d5d","category":"Brewery","checkinsCount":79,"usersCount":48,"tipCount":2,"visitsCount":95,"url":"http://www.stroudbrewery.co.uk.","tier":"","message":"","currency":"","rating":7.5},{"name":"The Black Horse","phone":"+441453872556","twitter":"bhamberley","address":"Littleworth","lat":51.71302236008849,"lng":-2.2200912221397644,"city_fetched":"Stroud,UK","country":"United Kingdom","canonicalUrl":"https://foursquare.com/v/the-black-horse/4c817ebc8ce59c74817073b0","categoryId":"4bf58dd8d48988d11b941735","category":"Pub","checkinsCount":165,"usersCount":97,"tipCount":10,"visitsCount":191,"url":"http://www.theblackhorseamberley.co.uk","tier":"","message":"","currency":"","rating":7.5},{"name":"The Prince Albert","phone":"+441453755600","twitter":"theprincealbert","address":"Rodborough Hill","lat":51.73909585292624,"lng":-2.2247637081864657,"city_fetched":"Stroud,UK","state":"Gloucestershire","country":"United Kingdom","canonicalUrl":"https://foursquare.com/v/the-prince-albert/4cf2e41288de370441e37b2b","categoryId":"4bf58dd8d48988d11b941735","category":"Pub","checkinsCount":723,"usersCount":57,"tipCount":4,"visitsCount":741,"url":"http://www.theprincealbertstroud.co.uk","tier":"","message":"","currency":"","rating":7.5},{"name":"The Old Fleece","address":"Bath Road","lat":51.72637024429127,"lng":-2.2299188375473022,"city_fetched":"Stroud,UK","state":"Gloucestershire","country":"United Kingdom","canonicalUrl":"https://foursquare.com/v/the-old-fleece/4d25c810903c8cfa7166d125","categoryId":"4bf58dd8d48988d11b941735","category":"Pub","checkinsCount":90,"usersCount":83,"tipCount":1,"visitsCount":120,"tier":"","message":"","currency":"","rating":6.9},{"name":"The Falcon","phone":"+441452814222","twitter":"falconpainswick","address":"New St","lat":51.785816164046324,"lng":-2.195613384246826,"city_fetched":"Stroud,UK","country":"United Kingdom","canonicalUrl":"https://foursquare.com/v/the-falcon/4b630da8f964a520fa5f2ae3","categoryId":"4bf58dd8d48988d11b941735","category":"Pub","checkinsCount":199,"usersCount":97,"tipCount":6,"visitsCount":223,"url":"http://www.falconpainswick.co.uk","tier":"","message":"","currency":"","rating":6.7},{"name":"The Old Lodge","phone":"+441453832047","twitter":"nick_and_chris","address":"Minchinhampton Common","lat":51.70612843891993,"lng":-2.2128445381902777,"city_fetched":"Stroud,UK","state":"Gloucestershire","country":"United Kingdom","canonicalUrl":"https://foursquare.com/v/the-old-lodge/4bd7c6a7304fce722f0334ab","categoryId":"4bf58dd8d48988d11b941735","category":"Pub","checkinsCount":194,"usersCount":119,"tipCount":4,"visitsCount":246,"url":"http://www.food-club.com/old-lodge.htm","tier":"","message":"","currency":"","rating":6.7},{"name":"The Retreat","phone":"+441453750208","address":"28 Church St","lat":51.74530151226009,"lng":-2.21543149620682,"city_fetched":"Stroud,UK","country":"United Kingdom","canonicalUrl":"https://foursquare.com/v/the-retreat/4bca21b3937ca593db33a792","categoryId":"4bf58dd8d48988d11b941735","category":"Pub","checkinsCount":422,"usersCount":97,"tipCount":5,"visitsCount":422,"url":"http://www.retreatstroud.com","tier":"","message":"","currency":"","rating":6.6},{"name":"The Ragged Cot","phone":"+441453884643","address":"Cirencester Rd.","lat":51.709254782936426,"lng":-2.1651899097999943,"city_fetched":"Stroud,UK","state":"Gloucestershire","country":"United Kingdom","canonicalUrl":"https://foursquare.com/v/the-ragged-cot/4bdecd8bfe0e62b526f60506","categoryId":"4bf58dd8d48988d11b941735","category":"Pub","checkinsCount":80,"usersCount":70,"tipCount":1,"visitsCount":106,"url":"http://www.theraggedcot.co.uk","tier":"","message":"","currency":"","rating":6.5},{"name":"Old Nelson (Brewers Fayre)","phone":"+441453765821","address":"Stratford Lodge","lat":51.74828,"lng":-2.222289,"city_fetched":"Stroud,UK","country":"United Kingdom","canonicalUrl":"https://foursquare.com/v/old-nelson-brewers-fayre/4bd6d666cfa7b7132e1b28da","categoryId":"4bf58dd8d48988d11b941735","category":"Pub","checkinsCount":119,"usersCount":68,"tipCount":1,"visitsCount":120,"tier":"","message":"","currency":"","rating":5.8},{"name":"The Lord John (Wetherspoon)","phone":"+441453767610","address":"15-17 Russell St","lat":51.744670034306445,"lng":-2.2182934509020926,"city_fetched":"Stroud,UK","state":"Gloucestershire","country":"United Kingdom","canonicalUrl":"https://foursquare.com/v/the-lord-john-wetherspoon/4be5dcb3bcef2d7faa7104e5","categoryId":"4bf58dd8d48988d11b941735","category":"Pub","checkinsCount":1110,"usersCount":138,"tipCount":9,"visitsCount":1118,"url":"http://www.jdwetherspoon.co.uk","tier":"","message":"","currency":"","rating":5.8},{"name":"The Britannia","phone":"+441453832501","twitter":"nick_and_chris","address":"Cossack Sq","lat":51.693813,"lng":-2.220807,"city_fetched":"Stroud,UK","country":"United Kingdom","canonicalUrl":"https://foursquare.com/v/the-britannia/4be0578f2aed2d7f2300c86f","categoryId":"4bf58dd8d48988d11b941735","category":"Pub","checkinsCount":108,"usersCount":81,"tipCount":1,"visitsCount":122,"url":"http://www.food-club.com/britannia.htm","tier":"","message":"","currency":"","rating":5.4}]