[{"name":"The Brewery Tap","lat":52.0404975808647,"lng":0.7332843382661545,"city_fetched":"Sudbury","state":"Suffolk","country":"United Kingdom","canonicalUrl":"https://foursquare.com/v/the-brewery-tap/4c080d357e3fc928a7b5ef82","category":"Pub","checkinsCount":150,"usersCount":34,"tipCount":10,"visitsCount":152,"tier":"","message":"","currency":"","rating":7},{"name":"The Horse and Groom","phone":"+441787581152","twitter":"hngsudbury","address":"35 East Street","lat":52.04165199,"lng":0.734516666666667,"city_fetched":"Sudbury","state":"Suffolk","country":"United Kingdom","canonicalUrl":"https://foursquare.com/v/the-horse-and-groom/4d505bb0edc68eec16f3b8a4","category":"Pub","checkinsCount":339,"usersCount":10,"tipCount":12,"visitsCount":339,"tier":"","message":"","currency":"","rating":6.2},{"name":"The Silkworm","phone":"+441787464050","address":"Queensbury House, 1 East Street","lat":52.03961013809472,"lng":0.7321786880493164,"city_fetched":"Sudbury","state":"Suffolk","country":"United Kingdom","canonicalUrl":"https://foursquare.com/v/the-silkworm/4bdda68b0ee3a59308172eb0","category":"Pub","checkinsCount":259,"usersCount":79,"tipCount":5,"visitsCount":261,"tier":"","message":"","currency":"","rating":5.9},{"name":"The White Horse","address":"North Street","lat":52.039360502783914,"lng":0.7316014846766542,"city_fetched":"Sudbury","state":"Suffolk","country":"United Kingdom","canonicalUrl":"https://foursquare.com/v/the-white-horse/4babc235f964a520ffc63ae3","category":"Pub","checkinsCount":135,"usersCount":38,"tipCount":3,"visitsCount":138,"tier":"","message":"","currency":"","rating":5.9},{"name":"Grover & Allen (Wetherspoon)","phone":"+441787467660","address":"68-69 North St.","lat":52.040889,"lng":0.730381666666667,"city_fetched":"Sudbury","country":"United Kingdom","canonicalUrl":"https://foursquare.com/v/grover--allen-wetherspoon/4c87ac1e821e9eb0f0cd8d89","category":"Pub","checkinsCount":596,"usersCount":162,"tipCount":9,"visitsCount":649,"url":"http://www.jdwetherspoon.co.uk","tier":"","message":"","currency":"","rating":5.5}]