[{"name":"Isis","phone":"+441915147684","twitter":"isispub","address":"26 Silksworth Row","lat":54.9069900095759,"lng":-1.3925049618705365,"city_fetched":"Sunderland","country":"United Kingdom","canonicalUrl":"https://foursquare.com/v/isis/4e38160fb0fbcceaf0e72839","category":"Bar","checkinsCount":325,"usersCount":101,"tipCount":5,"visitsCount":353,"tier":"","message":"","currency":"","rating":8.2},{"name":"Black Cats Bar","phone":"+448719111555","twitter":"safcofficial","address":"Stadium of Light","lat":54.9150936933424,"lng":-1.3890194892883299,"city_fetched":"Sunderland","country":"United Kingdom","canonicalUrl":"https://foursquare.com/v/black-cats-bar/520e30642fc635ed9de2887f","category":"Sports Bar","checkinsCount":56,"usersCount":35,"tipCount":2,"visitsCount":56,"url":"http://t.co/crmTiaUzKq","tier":"","message":"","currency":"","rating":8.1},{"name":"New Derby","address":"roker baths road","lat":54.922018145561644,"lng":-1.3724650567345766,"city_fetched":"Sunderland","state":"Sunderland","country":"United Kingdom","canonicalUrl":"https://foursquare.com/v/new-derby/4c796d3293ef236a2890af0f","category":"Pub","checkinsCount":212,"usersCount":65,"tipCount":4,"visitsCount":249,"url":"http://www.gkmeetandeat.co.uk/locations/new-derby-sunderland","tier":"","message":"","currency":"","rating":8},{"name":"Fitzgeralds","phone":"+441915670852","address":"12-14 Green Ter","lat":54.90424805319855,"lng":-1.3887730341083266,"city_fetched":"Sunderland","country":"United Kingdom","canonicalUrl":"https://foursquare.com/v/fitzgeralds/4b9d3457f964a520399936e3","category":"Pub","checkinsCount":769,"usersCount":185,"tipCount":13,"visitsCount":829,"tier":"","message":"","currency":"","rating":7.9},{"name":"Revolution","phone":"+441916402300","address":"1-6 Low Row","lat":54.905929,"lng":-1.389912,"city_fetched":"Sunderland","country":"United Kingdom","canonicalUrl":"https://foursquare.com/v/revolution/4bc8d5db68f976b06d145c83","category":"Cocktail Bar","checkinsCount":849,"usersCount":382,"tipCount":13,"visitsCount":944,"url":"http://www.revolution-bars.co.uk/sunderland","tier":"","message":"","currency":"","rating":7.7},{"name":"The Lambton Worm (Wetherspoon)","phone":"+441915689910","address":"Victoria Bluiding","lat":54.90526061051987,"lng":-1.3894477481336112,"city_fetched":"Sunderland","country":"United Kingdom","canonicalUrl":"https://foursquare.com/v/the-lambton-worm-wetherspoon/4b65abf1f964a520e1f82ae3","category":"Pub","checkinsCount":1682,"usersCount":523,"tipCount":14,"visitsCount":1770,"url":"http://www.jdwetherspoon.co.uk","tier":"","message":"","currency":"","rating":7.7},{"name":"The Rosedene","lat":54.891038,"lng":-1.388386825,"city_fetched":"Sunderland","state":"Sunderland","country":"United Kingdom","canonicalUrl":"https://foursquare.com/v/the-rosedene/4dcebc1645ddbe15f8908ab4","category":"Bar","checkinsCount":140,"usersCount":115,"tipCount":2,"visitsCount":195,"tier":"","message":"","currency":"","rating":7.7},{"name":"Life of Riley","twitter":"lifeofrileysun","address":"3 Green Ter.","lat":54.903998976580525,"lng":-1.3885416841474991,"city_fetched":"Sunderland","country":"United Kingdom","canonicalUrl":"https://foursquare.com/v/life-of-riley/514c7967e4b06258661497f1","category":"Bar","checkinsCount":243,"usersCount":73,"tipCount":4,"visitsCount":248,"tier":"","message":"","currency":"","rating":7.6},{"name":"The Ivy House","phone":"+441915673399","twitter":"theivyhouse","address":"Worcester Ter.","lat":54.88670694261929,"lng":-1.3716750580997528,"city_fetched":"Sunderland","country":"United Kingdom","canonicalUrl":"https://foursquare.com/v/the-ivy-house/4bcb1959937ca59365d5a892","category":"Pub","checkinsCount":288,"usersCount":86,"tipCount":7,"visitsCount":298,"tier":"","message":"","currency":"","rating":7.4},{"name":"The Museum Vaults","phone":"+441915659443","twitter":"saravaults","address":"33 Silksworth Row","lat":54.907015274753874,"lng":-1.39298576917594,"city_fetched":"Sunderland","state":"Sunderland","country":"United Kingdom","canonicalUrl":"https://foursquare.com/v/the-museum-vaults/4d8238e546fd6ea8ae4b6e02","category":"Pub","checkinsCount":105,"usersCount":36,"tipCount":2,"visitsCount":108,"tier":"","message":"","currency":"","rating":7.3},{"name":"The Cooper Rose (Lloyds No.1 Bar)","phone":"+441915148530","twitter":"jdwtweet","address":"2-4 Albion Place","lat":54.903550618358196,"lng":-1.3880590808206854,"city_fetched":"Sunderland","country":"United Kingdom","canonicalUrl":"https://foursquare.com/v/the-cooper-rose-lloyds-no1-bar/4d6ff35d5b5ca1cdf6157444","category":"Pub","checkinsCount":1432,"usersCount":395,"tipCount":15,"visitsCount":1509,"url":"http://www.jdwetherspoon.co.uk","tier":"","message":"","currency":"","rating":7.3},{"name":"The Chesters","address":"Chester Road","lat":54.90231079776778,"lng":-1.4031336537859278,"city_fetched":"Sunderland","state":"Sunderland","country":"United Kingdom","canonicalUrl":"https://foursquare.com/v/the-chesters/4be7ff09947820a18950b4db","category":"Pub","checkinsCount":283,"usersCount":138,"tipCount":3,"visitsCount":321,"tier":"","message":"","currency":"","rating":7.1},{"name":"Passion","address":"Sunderland","lat":54.90415942257745,"lng":-1.3842434322951633,"city_fetched":"Sunderland","country":"United Kingdom","canonicalUrl":"https://foursquare.com/v/passion/4f3dcdf6e4b046e8232be541","category":"Nightclub","checkinsCount":400,"usersCount":159,"tipCount":5,"visitsCount":401,"tier":"","message":"","currency":"","rating":6.9},{"name":"Independent","phone":"+441915648830","twitter":"independent_sr1","address":"27/28 Holmeside","lat":54.90444938817227,"lng":-1.3830104267903989,"city_fetched":"Sunderland","country":"United Kingdom","canonicalUrl":"https://foursquare.com/v/independent/4bc77fafaf07a593724c7f2d","category":"Nightclub","checkinsCount":258,"usersCount":109,"tipCount":3,"visitsCount":258,"tier":"","message":"","currency":"","rating":6.8},{"name":"The William Jameson (Wetherspoon)","phone":"+441915145016","address":"30-32 Fawcett St.","lat":54.90446068358748,"lng":-1.3811016082763672,"city_fetched":"Sunderland","country":"United Kingdom","canonicalUrl":"https://foursquare.com/v/the-william-jameson-wetherspoon/4b6f1a6df964a5202bdd2ce3","category":"Pub","checkinsCount":1332,"usersCount":344,"tipCount":12,"visitsCount":1363,"url":"http://www.jdwetherspoon.co.uk","tier":"","message":"","currency":"","rating":6.8},{"name":"Liberty Brown","twitter":"liberty__brown","address":"10 Timber Beach Rd. Sunderland","lat":54.91857163206791,"lng":-1.428673267364502,"city_fetched":"Sunderland","country":"United Kingdom","canonicalUrl":"https://foursquare.com/v/liberty-brown/4eda1fadb6344371f67fb531","category":"Cocktail Bar","checkinsCount":239,"usersCount":157,"tipCount":4,"visitsCount":276,"url":"http://www.libertybrown.com","tier":"","message":"","currency":"","rating":6.4},{"name":"Ttonic","phone":"+441915655755","address":"12-14 Vine Pl.","lat":54.90367576129186,"lng":-1.3872602009621666,"city_fetched":"Sunderland","country":"United Kingdom","canonicalUrl":"https://foursquare.com/v/ttonic/4bc8e8b868f976b05e455c83","category":"Bar","checkinsCount":541,"usersCount":232,"tipCount":8,"visitsCount":579,"tier":"","message":"","currency":"","rating":6.4},{"name":"Oak Tree Farm","phone":"+441915287682","address":"Camberwell Way","lat":54.86653456014833,"lng":-1.4315371468698759,"city_fetched":"Sunderland","country":"United Kingdom","canonicalUrl":"https://foursquare.com/v/oak-tree-farm/4ead40977ee59f1608dd1f50","category":"Gastropub","checkinsCount":354,"usersCount":163,"tipCount":10,"visitsCount":412,"tier":"","message":"","currency":"","rating":6.3},{"name":"Stumble Inn","address":"13-15 Chester Rd.","lat":54.90336511731751,"lng":-1.398371257737801,"city_fetched":"Sunderland","state":"Sunderland","country":"United Kingdom","canonicalUrl":"https://foursquare.com/v/stumble-inn/4bd1896aa8b3a593efd6655f","category":"Pub","checkinsCount":241,"usersCount":67,"tipCount":4,"visitsCount":241,"tier":"","message":"","currency":"","rating":6.2},{"name":"Roker Hotel","lat":54.924003,"lng":-1.366491,"city_fetched":"Sunderland","state":"Sunderland","country":"United Kingdom","canonicalUrl":"https://foursquare.com/v/roker-hotel/4bedbbeca40fc928d86b820c","category":"Bar","checkinsCount":122,"usersCount":83,"tipCount":1,"visitsCount":125,"tier":"","message":"","currency":"","rating":6},{"name":"The Borough","lat":54.904001,"lng":-1.386017,"city_fetched":"Sunderland","country":"United Kingdom","canonicalUrl":"https://foursquare.com/v/the-borough/4c1414b1b7b9c92837c8aa37","category":"Bar","checkinsCount":217,"usersCount":96,"tipCount":5,"visitsCount":217,"tier":"","message":"","currency":"","rating":5.9},{"name":"The Wessington (Brewers Fayre)","phone":"+441915489384","twitter":"brewersfayre","address":"Wessington Way","lat":54.91122742572774,"lng":-1.4563020392042714,"city_fetched":"Sunderland","state":"Sunderland","country":"United Kingdom","canonicalUrl":"https://foursquare.com/v/the-wessington-brewers-fayre/4c5ff29412e5c9288eff1d4c","category":"Pub","checkinsCount":347,"usersCount":152,"tipCount":2,"visitsCount":393,"url":"http://www.brewersfayre.co.uk/pub-restaurant/Sunderland/Wessington-North-Hylton.html","tier":"","message":"","currency":"","rating":5.8},{"name":"The Grange","phone":"+441915498962","address":"225-227 Newcastle Rd.","lat":54.926642712130764,"lng":-1.3890938183667472,"city_fetched":"Sunderland","country":"United Kingdom","canonicalUrl":"https://foursquare.com/v/the-grange/4c7273e81b11199c2e935813","category":"Pub","checkinsCount":586,"usersCount":142,"tipCount":2,"visitsCount":784,"tier":"","message":"","currency":"","rating":5.7},{"name":"The Royal Marine","phone":"+441915485961","address":"Sea Rd","lat":54.930439,"lng":-1.376283,"city_fetched":"Sunderland","state":"Sunderland","country":"United Kingdom","canonicalUrl":"https://foursquare.com/v/the-royal-marine/4c1e1b7163750f47ec2fb967","category":"Pub","checkinsCount":230,"usersCount":62,"tipCount":2,"visitsCount":239,"tier":"","message":"","currency":"","rating":5.4},{"name":"Arizona","address":"The Point","lat":54.90394268335058,"lng":-1.3856798827333763,"city_fetched":"Sunderland","country":"United Kingdom","canonicalUrl":"https://foursquare.com/v/arizona/4bc8f375b6c49c74aa818d91","category":"Bar","checkinsCount":183,"usersCount":102,"tipCount":2,"visitsCount":184,"tier":"","message":"","currency":"","rating":5.4},{"name":"North Shore","phone":"+441915153030","address":"University of Sunderland - The Sir Tom Cowie Campus at St Peter's","lat":54.91260099994299,"lng":-1.3770818706833778,"city_fetched":"Sunderland","country":"United Kingdom","canonicalUrl":"https://foursquare.com/v/north-shore/4bd8a7572e6f0f47afff0708","category":"Bar","checkinsCount":295,"usersCount":122,"tipCount":6,"visitsCount":304,"url":"http://www.sunderlandsu.co.uk/north_shore","tier":"","message":"","currency":"","rating":5.2},{"name":"The Hollymere","address":"Leechmere Rd.","lat":54.881313,"lng":-1.38099,"city_fetched":"Sunderland","country":"United Kingdom","canonicalUrl":"https://foursquare.com/v/the-hollymere/4c6af8209c76d13a6d6c4d0f","category":"Pub","checkinsCount":239,"usersCount":77,"tipCount":6,"visitsCount":268,"tier":"","message":"","currency":"","rating":5.1}]