[{"name":"Weighbridge Brewhouse","phone":"+441793881500","address":"Penzance Dr","lat":51.55870337511689,"lng":-1.8022513389587402,"city_fetched":"Swindon","state":"Wiltshire","country":"United Kingdom","canonicalUrl":"https://foursquare.com/v/weighbridge-brewhouse/4e4824c6d4c065cb6bb64122","category":"Pub","checkinsCount":319,"usersCount":246,"tipCount":11,"visitsCount":420,"tier":"","message":"","currency":"","rating":8.7},{"name":"The Hop Inn","phone":"+441793976833","twitter":"hopinnswindon","address":"7 Devizes Rd","lat":51.55152570122183,"lng":-1.777274308472581,"neighborhood":"Old Town","city_fetched":"Swindon","state":"Swindon","country":"United Kingdom","canonicalUrl":"https://foursquare.com/v/the-hop-inn/50805cbfe4b07dd17a8cbf45","category":"Bar","checkinsCount":99,"usersCount":60,"tipCount":8,"visitsCount":113,"url":"http://www.hopinnswindon.co.uk","tier":"","message":"","currency":"","rating":8.5},{"name":"The Merlin","phone":"+441793431496","address":"Drove Rd","lat":51.55990273684383,"lng":-1.7718397586058008,"city_fetched":"Swindon","state":"Swindon","country":"United Kingdom","canonicalUrl":"https://foursquare.com/v/the-merlin/4b291fbff964a520389924e3","category":"Pub","checkinsCount":234,"usersCount":86,"tipCount":0,"visitsCount":257,"tier":"","message":"","currency":"","rating":7.9},{"name":"The Sun Inn","phone":"+441793523292","address":"Coate","lat":51.544988092909094,"lng":-1.7442645002632682,"city_fetched":"Swindon","state":"Wiltshire","country":"United Kingdom","canonicalUrl":"https://foursquare.com/v/the-sun-inn/4c341f30a0ced13afac0176e","category":"Gastropub","checkinsCount":293,"usersCount":167,"tipCount":8,"visitsCount":360,"url":"http://www.suninn-swindon.co.uk","tier":"","message":"","currency":"","rating":7.6},{"name":"Tawny Owl Pub","phone":"+441793706770","lat":51.58916328661866,"lng":-1.826582166023286,"city_fetched":"Swindon","country":"United Kingdom","canonicalUrl":"https://foursquare.com/v/tawny-owl-pub/4b6c57a9f964a5201e322ce3","category":"Pub","checkinsCount":204,"usersCount":138,"tipCount":1,"visitsCount":302,"tier":"","message":"","currency":"","rating":7.4},{"name":"The Old Bank","phone":"+441793527798","address":"18 Wood St","lat":51.552599345012794,"lng":-1.7755380916249113,"city_fetched":"Swindon","state":"Swindon","country":"United Kingdom","canonicalUrl":"https://foursquare.com/v/the-old-bank/4b211a69f964a520e03624e3","category":"Bar","checkinsCount":355,"usersCount":193,"tipCount":2,"visitsCount":364,"url":"http://www.tobb.co.uk","tier":"","message":"","currency":"","rating":7.3},{"name":"The Glue Pot","address":"5 Emlyn Square","lat":51.56153650233568,"lng":-1.7903335528412825,"city_fetched":"Swindon","state":"Swindon","country":"United Kingdom","canonicalUrl":"https://foursquare.com/v/the-glue-pot/4bbe189bf57ba59399edaeb9","category":"Pub","checkinsCount":306,"usersCount":81,"tipCount":9,"visitsCount":308,"tier":"","message":"","currency":"","rating":6.9},{"name":"The Steam Railway","phone":"+441793538048","twitter":"londonirishpubs","address":"14 Newport St","lat":51.55053577812876,"lng":-1.7750390753716072,"city_fetched":"Swindon","state":"Wiltshire","country":"United Kingdom","canonicalUrl":"https://foursquare.com/v/the-steam-railway/4ee61a462da504839760f90f","category":"Pub","checkinsCount":193,"usersCount":58,"tipCount":3,"visitsCount":196,"url":"http://www.londonirishpubs.co.uk","tier":"","message":"","currency":"","rating":6.7},{"name":"The Dockle Farmhouse  (Wetherspoon)","phone":"+441793838910","address":"2 Bridge End Rd.","lat":51.574659847226165,"lng":-1.7543440873382095,"city_fetched":"Swindon","state":"Wiltshire","country":"United Kingdom","canonicalUrl":"https://foursquare.com/v/the-dockle-farmhouse--wetherspoon/4c87ac28821e9eb0f6cd8d89","category":"Pub","checkinsCount":869,"usersCount":319,"tipCount":6,"visitsCount":1088,"url":"http://www.jdwetherspoon.co.uk","tier":"","message":"","currency":"","rating":6.7},{"name":"Rudi's","phone":"+441793523892","address":"19-20 Regent Circus","lat":51.558452,"lng":-1.7807883024215698,"city_fetched":"Swindon","state":"Swindon","country":"United Kingdom","canonicalUrl":"https://foursquare.com/v/rudis/4b291cdbf964a520f59824e3","category":"Bar","checkinsCount":157,"usersCount":94,"tipCount":0,"visitsCount":159,"tier":"","message":"","currency":"","rating":6.5},{"name":"The Groves Company Inn (Wetherspoon)","phone":"+441793402040","address":"22-23 Fleet St.","lat":51.56286753291454,"lng":-1.7861631351226301,"city_fetched":"Swindon","state":"Wiltshire","country":"United Kingdom","canonicalUrl":"https://foursquare.com/v/the-groves-company-inn-wetherspoon/4b64763af964a5201bb52ae3","category":"Pub","checkinsCount":269,"usersCount":110,"tipCount":3,"visitsCount":272,"url":"http://www.jdwetherspoon.co.uk","tier":"","message":"","currency":"","rating":6.3},{"name":"The Sir Daniel Arms (Wetherspoon)","phone":"+441793509270","twitter":"jdwtweet","address":"Fleet St.","lat":51.562291828696345,"lng":-1.7876386642456055,"city_fetched":"Swindon","state":"Wiltshire","country":"United Kingdom","canonicalUrl":"https://foursquare.com/v/the-sir-daniel-arms-wetherspoon/4b7133d5f964a5205e3c2de3","category":"Pub","checkinsCount":778,"usersCount":384,"tipCount":10,"visitsCount":880,"tier":"","message":"","currency":"","rating":6.3},{"name":"Longs Bar","address":"1-4 Union Row","lat":51.553955,"lng":-1.777007,"city_fetched":"Swindon","state":"Swindon","country":"United Kingdom","canonicalUrl":"https://foursquare.com/v/longs-bar/4b1e3152f964a520cc1724e3","category":"Cocktail Bar","checkinsCount":207,"usersCount":109,"tipCount":1,"visitsCount":212,"tier":"","message":"","currency":"","rating":6.2},{"name":"The Blunsdon Arms","phone":"+441793729801","address":"Thamesdown Drive","lat":51.60013842862957,"lng":-1.8018141388893127,"city_fetched":"Swindon","country":"United Kingdom","canonicalUrl":"https://foursquare.com/v/the-blunsdon-arms/4b9cffb8f964a520968736e3","category":"Pub","checkinsCount":259,"usersCount":163,"tipCount":8,"visitsCount":370,"tier":"","message":"","currency":"","rating":6},{"name":"Goddard Arms","lat":51.552579672269054,"lng":-1.7742919921875,"city_fetched":"Swindon","state":"Swindon","country":"United Kingdom","canonicalUrl":"https://foursquare.com/v/goddard-arms/4b5ee4cbf964a520c49c29e3","category":"Pub","checkinsCount":372,"usersCount":254,"tipCount":5,"visitsCount":502,"tier":"","message":"","currency":"","rating":6},{"name":"The Pig On The Hill","address":"8 Devizes Rd","lat":51.55127968922506,"lng":-1.7769318455075596,"city_fetched":"Swindon","state":"Swindon","country":"United Kingdom","canonicalUrl":"https://foursquare.com/v/the-pig-on-the-hill/4c1f5856eac020a14ae94ac2","category":"Pub","checkinsCount":523,"usersCount":166,"tipCount":6,"visitsCount":594,"tier":"","message":"","currency":"","rating":6},{"name":"The Lydiard (Beefeater)","phone":"+441793881490","twitter":"beefeatergrill","address":"Lydiard Fields, Great Western Way","lat":51.54811645443522,"lng":-1.8523120880126953,"city_fetched":"Swindon","state":"Swindon","country":"United Kingdom","canonicalUrl":"https://foursquare.com/v/the-lydiard-beefeater/4bae5d65f964a52063a83be3","category":"Pub","checkinsCount":434,"usersCount":269,"tipCount":5,"visitsCount":525,"url":"http://www.beefeater.co.uk/steak-restaurant/Wiltshire/Lydiard.html","tier":"","message":"","currency":"","rating":6},{"name":"The Savoy (Wetherspoon)","phone":"+441793533970","address":"38-40 Regent St.","lat":51.55954308712509,"lng":-1.7823961043273615,"city_fetched":"Swindon","state":"Wiltshire","country":"United Kingdom","canonicalUrl":"https://foursquare.com/v/the-savoy-wetherspoon/4b291f6ef964a5202f9924e3","category":"Pub","checkinsCount":597,"usersCount":305,"tipCount":8,"visitsCount":716,"url":"http://www.jdwetherspoon.co.uk","tier":"","message":"","currency":"","rating":5.9},{"name":"Brewers Fayre Kembrey Inn","phone":"+441793522215","twitter":"brewersfayre","address":"Larch Close, Kembrey Business Park","lat":51.577932799608426,"lng":-1.773866217203074,"city_fetched":"Swindon","state":"Wiltshire","country":"United Kingdom","canonicalUrl":"https://foursquare.com/v/brewers-fayre-kembrey-inn/4c529bed2d51952109504390","category":"Pub","checkinsCount":9,"usersCount":8,"tipCount":1,"visitsCount":12,"url":"http://www.brewersfayre.co.uk/pub-restaurant/Wiltshire/Kembrey-Inn-Kembrey-Park.html?utm_source=yext&utm_medium=directories&utm_campaign=BFKembreyInnSwindon","tier":"","message":"","currency":"","rating":5.9},{"name":"Brookhouse Farm (Hungry Horse)","phone":"+441793874223","address":"Middleleaze Drive","lat":51.566571302792156,"lng":-1.846550217175316,"city_fetched":"Swindon","state":"Wiltshire","country":"United Kingdom","canonicalUrl":"https://foursquare.com/v/brookhouse-farm-hungry-horse/4dbac4724b22153e34ba5fa2","category":"Gastropub","checkinsCount":107,"usersCount":101,"tipCount":5,"visitsCount":193,"url":"http://www.hungryhorse.co.uk/pubs/brookhouse-farm-swindon","tier":"","message":"","currency":"","rating":5.8},{"name":"The Queen's Tap","address":"74 Station Road","lat":51.5651544004914,"lng":-1.7846725836108697,"city_fetched":"Swindon","state":"Wiltshire","country":"United Kingdom","canonicalUrl":"https://foursquare.com/v/the-queens-tap/4bbb5ef6935e9521b1162990","category":"Pub","checkinsCount":246,"usersCount":129,"tipCount":2,"visitsCount":246,"tier":"","message":"","currency":"","rating":5.7},{"name":"Mackenzies Café / Bar Swindon","phone":"+441793430111","address":"16 Wood St.","lat":51.55258430521712,"lng":-1.7755130235300176,"city_fetched":"Swindon","state":"Swindon","country":"United Kingdom","canonicalUrl":"https://foursquare.com/v/mackenzies-caf%C3%A9--bar-swindon/4b291b0ef964a520d09824e3","category":"Café","checkinsCount":418,"usersCount":219,"tipCount":2,"visitsCount":451,"url":"http://www.mackenzies.co.uk","tier":2,"message":"Moderate","currency":"£","rating":5.6},{"name":"The Bayberry","lat":51.54050147203256,"lng":-1.7879439123032652,"city_fetched":"Swindon","country":"United Kingdom","canonicalUrl":"https://foursquare.com/v/the-bayberry/5009a6b7e4b099ec36183540","category":"Gastropub","checkinsCount":112,"usersCount":94,"tipCount":4,"visitsCount":209,"tier":"","message":"","currency":"","rating":5.3},{"name":"Jurys Inn","address":"Fleming Way","lat":51.56239854416969,"lng":-1.7802143096923828,"city_fetched":"Swindon","state":"Wiltshire","country":"United Kingdom","canonicalUrl":"https://foursquare.com/v/jurys-inn/4ca0a17c0e9bb1f76502fa5f","category":"Hotel","checkinsCount":1737,"usersCount":423,"tipCount":13,"visitsCount":2011,"tier":"","message":"","currency":"","rating":4.9},{"name":"Yates","lat":51.5621258,"lng":-1.786359,"city_fetched":"Swindon","state":"Swindon","country":"United Kingdom","canonicalUrl":"https://foursquare.com/v/yates/4c3a0ca2ae2da593ba8a03c6","category":"Gastropub","checkinsCount":86,"usersCount":67,"tipCount":1,"visitsCount":86,"tier":"","message":"","currency":"","rating":4.7}]