[{"name":"The Riftswood","lat":52.644299043041975,"lng":-1.6976073641146836,"city_fetched":"Tamworth","state":"Staffordshire","country":"United Kingdom","canonicalUrl":"https://foursquare.com/v/the-riftswood/4d67ba0e8f70a093393d1635","category":"Pub","checkinsCount":176,"usersCount":68,"tipCount":3,"visitsCount":282,"tier":"","message":"","currency":"","rating":6.7},{"name":"BonDs Bar","phone":"+44182755080","address":"12 Church Street","lat":52.63392240231571,"lng":-1.6962718963623047,"city_fetched":"Tamworth","state":"Staffordshire","country":"United Kingdom","canonicalUrl":"https://foursquare.com/v/bonds-bar/4d02bad29d33a1431755af78","category":"Pub","checkinsCount":500,"usersCount":85,"tipCount":3,"visitsCount":504,"tier":"","message":"","currency":"","rating":6.5},{"name":"The Penny Black","phone":"+441827316163","address":"2 The Precinct","lat":52.63407867536005,"lng":-1.692795753479004,"city_fetched":"Tamworth","state":"Staffordshire","country":"United Kingdom","canonicalUrl":"https://foursquare.com/v/the-penny-black/4bfb8e6a8f32ef3b751e05aa","category":"Nightclub","checkinsCount":115,"usersCount":73,"tipCount":3,"visitsCount":135,"tier":"","message":"","currency":"","rating":6.3},{"name":"Grill Inn","phone":"+441827252499","twitter":"thegrillinn","address":"Drayton Manor","lat":52.60943574036592,"lng":-1.7140190160885267,"city_fetched":"Tamworth","state":"Staffordshire","country":"United Kingdom","canonicalUrl":"https://foursquare.com/v/grill-inn/4e8317187ee6cb77879bc5f5","category":"Bar","checkinsCount":121,"usersCount":78,"tipCount":5,"visitsCount":124,"url":"http://www.thegrillinn.co.uk","tier":"","message":"","currency":"","rating":6.2},{"name":"The Centurion","phone":"+447943572974","address":"Centurion Park","lat":52.60433269,"lng":-1.64866,"city_fetched":"Tamworth","state":"Staffordshire","country":"United Kingdom","canonicalUrl":"https://foursquare.com/v/the-centurion/4c6fb7b6df6b8cfac1f1b54d","category":"Pub","checkinsCount":235,"usersCount":163,"tipCount":3,"visitsCount":320,"tier":"","message":"","currency":"","rating":6},{"name":"The Ladybridge (Beefeater)","phone":"+44182754414","twitter":"beefeatergrill","address":"Bonehill Rd","lat":52.629371621764285,"lng":-1.70165949286964,"city_fetched":"Tamworth","state":"Staffordshire","country":"United Kingdom","canonicalUrl":"https://foursquare.com/v/the-ladybridge-beefeater/4c08f3b1bbc676b00e4947d5","category":"Pub","checkinsCount":225,"usersCount":165,"tipCount":7,"visitsCount":271,"url":"http://www.beefeater.co.uk","tier":"","message":"","currency":"","rating":5.7},{"name":"The Bole Bridge  (Wetherspoon)","phone":"+441827317510","address":"8 Bolebridge St.","lat":52.63298776573748,"lng":-1.6911491306343662,"city_fetched":"Tamworth","state":"Staffordshire","country":"United Kingdom","canonicalUrl":"https://foursquare.com/v/the-bole-bridge--wetherspoon/4bdad115a8d976b0d68d0cb5","category":"Pub","checkinsCount":487,"usersCount":196,"tipCount":6,"visitsCount":525,"url":"http://www.jdwetherspoon.co.uk","tier":"","message":"","currency":"","rating":5.7},{"name":"The Phoenix","phone":"+44182764931","address":"32-33 George St.","lat":52.63318522495665,"lng":-1.6933075325507474,"city_fetched":"Tamworth","state":"Staffordshire","country":"United Kingdom","canonicalUrl":"https://foursquare.com/v/the-phoenix/4e33231dd4c0c0830948968b","category":"Bar","checkinsCount":85,"usersCount":42,"tipCount":3,"visitsCount":90,"tier":"","message":"","currency":"","rating":5.6}]