[{"name":"Ring Of Bells","phone":"+441823259480","address":"16-17 St James St","lat":51.017446,"lng":-3.101825,"city_fetched":"Taunton","state":"Somerset","country":"United Kingdom","canonicalUrl":"https://foursquare.com/v/ring-of-bells/4cacb215f47ea1434ca29321","category":"Bar","checkinsCount":68,"usersCount":43,"tipCount":2,"visitsCount":77,"tier":"","message":"","currency":"","rating":8},{"name":"The Castle Hotel","phone":"+441823272671","twitter":"castletaunton","address":"Castle Green","lat":51.01537575683513,"lng":-3.103934452717268,"city_fetched":"Taunton","state":"Somerset","country":"United Kingdom","canonicalUrl":"https://foursquare.com/v/the-castle-hotel/4bc4cc0a2a89ef3be4d7f688","category":"Hotel","checkinsCount":155,"usersCount":106,"tipCount":7,"visitsCount":155,"tier":"","message":"","currency":"","rating":7},{"name":"Mambo","phone":"+441823351055","twitter":"mambotaunton","address":"Mill Ln","lat":51.01620250394174,"lng":-3.103725407015547,"city_fetched":"Taunton","state":"Somerset","country":"United Kingdom","canonicalUrl":"https://foursquare.com/v/mambo/4bca277ccc8cd13ad917bdcf","category":"Bar","checkinsCount":743,"usersCount":170,"tipCount":7,"visitsCount":772,"url":"http://www.cafemambo.co.uk","tier":"","message":"","currency":"","rating":7},{"name":"The Coal Orchard (Wetherspoon)","phone":"+441823447330","address":"30 Bridge St","lat":51.018295906781084,"lng":-3.104632673167713,"city_fetched":"Taunton","state":"Somerset","country":"United Kingdom","canonicalUrl":"https://foursquare.com/v/the-coal-orchard-wetherspoon/4beb03df415e20a107c6e5bb","category":"Pub","checkinsCount":856,"usersCount":218,"tipCount":6,"visitsCount":903,"url":"http://www.jdwetherspoon.co.uk","tier":"","message":"","currency":"","rating":6.9},{"name":"The Plough","phone":"+441823324404","address":"75 Station Rd","lat":51.021115249999994,"lng":-3.1035733222961426,"city_fetched":"Taunton","state":"Somerset","country":"United Kingdom","canonicalUrl":"https://foursquare.com/v/the-plough/4b9e30d3f964a5209fd036e3","category":"Pub","checkinsCount":254,"usersCount":104,"tipCount":16,"visitsCount":262,"tier":"","message":"","currency":"","rating":6.2},{"name":"The Apple & Parrott","phone":"+441823350197","address":"Corporation St","lat":51.01474939620058,"lng":-3.1047402678552403,"city_fetched":"Taunton","state":"Somerset","country":"United Kingdom","canonicalUrl":"https://foursquare.com/v/the-apple--parrott/4eed431d9a52993fb717c950","category":"Pub","checkinsCount":139,"usersCount":37,"tipCount":3,"visitsCount":139,"tier":"","message":"","currency":"","rating":6.2},{"name":"Pitcher & Piano","phone":"+441823350104","address":"Corporation St.","lat":51.01443639664903,"lng":-3.1043826349451558,"city_fetched":"Taunton","state":"Somerset","country":"United Kingdom","canonicalUrl":"https://foursquare.com/v/pitcher--piano/4b7ee941f964a520c10830e3","category":"Pub","checkinsCount":462,"usersCount":172,"tipCount":11,"visitsCount":475,"url":"http://www.pitcherandpiano.com","tier":"","message":"","currency":"","rating":5.9},{"name":"White Lodge (Beefeater)","phone":"+441823321112","twitter":"beefeatergrill","address":"81 Bridgwater Rd","lat":51.02273968669074,"lng":-3.0722816484931026,"city_fetched":"Taunton","state":"Somerset","country":"United Kingdom","canonicalUrl":"https://foursquare.com/v/white-lodge-beefeater/4c4dba27fa9d95210e241e0a","category":"Pub","checkinsCount":94,"usersCount":70,"tipCount":2,"visitsCount":97,"url":"http://www.beefeater.co.uk","tier":"","message":"","currency":"","rating":5.7},{"name":"The Perkin Warbeck  (Wetherspoon)","phone":"+441823335830","address":"22-23 East St","lat":51.01505922407148,"lng":-3.099695120514349,"city_fetched":"Taunton","state":"Somerset","country":"United Kingdom","canonicalUrl":"https://foursquare.com/v/the-perkin-warbeck--wetherspoon/4c87ac2d821e9eb0facd8d89","category":"Pub","checkinsCount":908,"usersCount":270,"tipCount":7,"visitsCount":968,"url":"http://www.jdwetherspoon.co.uk","tier":"","message":"","currency":"","rating":5.6},{"name":"The O'Bridge (Brewers Fayre)","phone":"+441823422340","twitter":"brewersfayre","address":"Massingham Park","lat":51.02738630710704,"lng":-3.091042026431169,"city_fetched":"Taunton","state":"Somerset","country":"United Kingdom","canonicalUrl":"https://foursquare.com/v/the-obridge-brewers-fayre/4c529d862d519521fa664390","category":"Pub","checkinsCount":374,"usersCount":127,"tipCount":2,"visitsCount":391,"url":"http://www.brewersfayre.co.uk/pub-restaurant/Somerset/OBridge-Taunton.html","tier":"","message":"","currency":"","rating":5.5},{"name":"Brazz","lat":51.01523,"lng":-3.103225,"city_fetched":"Taunton","state":"Somerset","country":"United Kingdom","canonicalUrl":"https://foursquare.com/v/brazz/4ba4ca67f964a5202cb538e3","category":"Bar","checkinsCount":130,"usersCount":55,"tipCount":2,"visitsCount":130,"tier":"","message":"","currency":"","rating":5.3}]