[{"name":"The Smugglers Inn","phone":"+441626862301","address":"27 Teignmouth Road","lat":50.5688263010279,"lng":-3.4744155406951904,"city_fetched":"Teignmouth,UK","state":"Devon","country":"United Kingdom","canonicalUrl":"https://foursquare.com/v/the-smugglers-inn/4be9339dfbbb9c7424381e8e","categoryId":"4bf58dd8d48988d11b941735","category":"Pub","checkinsCount":149,"usersCount":86,"tipCount":3,"visitsCount":172,"tier":"","message":"","currency":"","rating":7.8},{"name":"Coombe Cellars","phone":"+441626872423","address":"Shaldon Road","lat":50.540640209213805,"lng":-3.5504937171936035,"city_fetched":"Teignmouth,UK","state":"Devon","country":"United Kingdom","canonicalUrl":"https://foursquare.com/v/coombe-cellars/4b93a4baf964a520614b34e3","categoryId":"4bf58dd8d48988d11b941735","category":"Pub","checkinsCount":195,"usersCount":169,"tipCount":6,"visitsCount":261,"tier":"","message":"","currency":"","rating":7.4},{"name":"The Ness","phone":"+441626873480","address":"Ness Drive","lat":50.53788721561432,"lng":-3.499226,"city_fetched":"Teignmouth,UK","state":"Devon","country":"United Kingdom","canonicalUrl":"https://foursquare.com/v/the-ness/4be092624c55b6510577eab7","categoryId":"4bf58dd8d48988d11b941735","category":"Pub","checkinsCount":190,"usersCount":161,"tipCount":10,"visitsCount":240,"url":"http://theness.co.uk","tier":"","message":"","currency":"","rating":6.5},{"name":"The Ship","address":"Queen Street","lat":50.544247060508845,"lng":-3.4983495622873306,"city_fetched":"Teignmouth,UK","state":"Devon","country":"United Kingdom","canonicalUrl":"https://foursquare.com/v/the-ship/4bb8db84b35776b0df50c901","categoryId":"4bf58dd8d48988d11b941735","category":"Pub","checkinsCount":252,"usersCount":106,"tipCount":3,"visitsCount":254,"tier":"","message":"","currency":"","rating":6.4}]