[{"name":"The William Withering (Wetherspoon)","phone":"+441952642800","twitter":"jdwtweet","address":"43-45 New St.","lat":52.700651,"lng":-2.516707,"city_fetched":"Telford","state":"Shropshire","country":"United Kingdom","canonicalUrl":"https://foursquare.com/v/the-william-withering-wetherspoon/4e2ed56262e1fbac6104bc98","category":"Pub","checkinsCount":373,"usersCount":170,"tipCount":10,"visitsCount":461,"url":"http://www.jdwetherspoon.co.uk","tier":"","message":"","currency":"","rating":7.4},{"name":"Fighting Cocks","lat":52.695107053675095,"lng":-2.4493955530960876,"city_fetched":"Telford","country":"United Kingdom","canonicalUrl":"https://foursquare.com/v/fighting-cocks/4ba3c4a7f964a520165d38e3","category":"Pub","checkinsCount":187,"usersCount":48,"tipCount":9,"visitsCount":210,"tier":"","message":"","currency":"","rating":7},{"name":"Apley Arms","address":"Wellington","lat":52.717213,"lng":-2.524589,"city_fetched":"Telford","state":"Shropshire","country":"United Kingdom","canonicalUrl":"https://foursquare.com/v/apley-arms/4cd6cfe2a5b3468879b79550","category":"Pub","checkinsCount":204,"usersCount":129,"tipCount":8,"visitsCount":229,"tier":"","message":"","currency":"","rating":6.4},{"name":"The Grazing Cow","phone":"+441952501562","address":"Gresham Drive","lat":52.67720154646206,"lng":-2.478749428257753,"neighborhood":"Lawley Village","city_fetched":"Telford","state":"Telford and Wrekin","country":"United Kingdom","canonicalUrl":"https://foursquare.com/v/the-grazing-cow/511022b8e4b00568407bb8b3","category":"Pub","checkinsCount":180,"usersCount":121,"tipCount":6,"visitsCount":254,"tier":"","message":"","currency":"","rating":6.4},{"name":"Hadley Park House Hotel","phone":"+441952677269","address":"Hadley Park East","lat":52.7176128377382,"lng":-2.4808801486703564,"city_fetched":"Telford","state":"Telford and Wrekin","country":"United Kingdom","canonicalUrl":"https://foursquare.com/v/hadley-park-house-hotel/4bc8789ddc55eee14c7be8ac","category":"Hotel","checkinsCount":180,"usersCount":111,"tipCount":3,"visitsCount":230,"url":"http://www.hadleypark.co.uk","tier":"","message":"","currency":"","rating":6.4},{"name":"The White House Hotel & Restaurant","phone":"+441952603603","address":"Wellington Rd.","lat":52.72563018160517,"lng":-2.428847551345825,"city_fetched":"Telford","state":"Shropshire","country":"United Kingdom","canonicalUrl":"https://foursquare.com/v/the-white-house-hotel--restaurant/4c8cab32f128199cf11f31b1","category":"Restaurant","checkinsCount":80,"usersCount":50,"tipCount":2,"visitsCount":100,"tier":"","message":"","currency":"","rating":6.3},{"name":"The Severn Gorge","phone":"+441952290404","address":"1 Southwater Way","lat":52.676643,"lng":-2.453812,"city_fetched":"Telford","country":"United Kingdom","canonicalUrl":"https://foursquare.com/v/the-severn-gorge/4b5ef12bf964a520e19e29e3","category":"Pub","checkinsCount":234,"usersCount":126,"tipCount":4,"visitsCount":266,"tier":"","message":"","currency":"","rating":5.9},{"name":"The Beacon","phone":"+441952222417","address":"6-7 Market Sq","lat":52.701182,"lng":-2.518782,"city_fetched":"Telford","state":"Telford and Wrekin","country":"United Kingdom","canonicalUrl":"https://foursquare.com/v/the-beacon/4be55c14cf200f47d516133c","category":"Pub","checkinsCount":138,"usersCount":66,"tipCount":6,"visitsCount":139,"tier":"","message":"","currency":"","rating":5.9},{"name":"Beefeater","phone":"+441952201075","twitter":"beefeatergrill","address":"Euston Way","lat":52.68120343312317,"lng":-2.4396893302723,"city_fetched":"Telford","state":"Telford and Wrekin","country":"United Kingdom","canonicalUrl":"https://foursquare.com/v/beefeater/4dac968690a0773d6bfc6152","category":"Pub","checkinsCount":219,"usersCount":114,"tipCount":6,"visitsCount":223,"url":"http://www.beefeater.co.uk","tier":"","message":"","currency":"","rating":5.8},{"name":"The Clock Tower (Brewers Fayre)","phone":"+441952677568","address":"Donnington Wood Way","lat":52.724680316053856,"lng":-2.4355591115924593,"city_fetched":"Telford","state":"Telford and Wrekin","country":"United Kingdom","canonicalUrl":"https://foursquare.com/v/the-clock-tower-brewers-fayre/4bddc7e1ffdec9288b64e6a1","category":"Gastropub","checkinsCount":239,"usersCount":125,"tipCount":6,"visitsCount":262,"tier":"","message":"","currency":"","rating":5.7},{"name":"The Euston Way","address":"Euston Way","lat":52.68111751341264,"lng":-2.4396514892578125,"city_fetched":"Telford","state":"Shropshire","country":"United Kingdom","canonicalUrl":"https://foursquare.com/v/the-euston-way/4b45b6d6f964a520800f26e3","category":"Pub","checkinsCount":278,"usersCount":125,"tipCount":5,"visitsCount":293,"tier":"","message":"","currency":"","rating":5.5},{"name":"The Thomas Botfield (Wetherspoon)","phone":"+441952292672","address":"Telford Shopping Centre","lat":52.675411152426136,"lng":-2.445363676242902,"city_fetched":"Telford","state":"Shropshire","country":"United Kingdom","canonicalUrl":"https://foursquare.com/v/the-thomas-botfield-wetherspoon/4b599eb6f964a520478f28e3","category":"Pub","checkinsCount":3310,"usersCount":413,"tipCount":19,"visitsCount":3410,"url":"http://www.jdwetherspoon.co.uk","tier":"","message":"","currency":"","rating":5.3},{"name":"The Bridge Builder (Fayre & Square)","phone":"+441952897517","address":"Wrekin Business Park","lat":52.69313991685968,"lng":-2.491609658924241,"city_fetched":"Telford","state":"Shropshire","country":"United Kingdom","canonicalUrl":"https://foursquare.com/v/the-bridge-builder-fayre--square/4c4c32e7bad7a593b4d8e7ac","category":"Pub","checkinsCount":161,"usersCount":98,"tipCount":5,"visitsCount":161,"tier":"","message":"","currency":"","rating":5.3}]