[{"name":"The Thatch","phone":"+441844214340","twitter":"thatchthame","address":"30 Lower High St","lat":51.7490328112381,"lng":-0.9814739227294922,"city_fetched":"Thame,UK","state":"Oxfordshire","country":"United Kingdom","canonicalUrl":"https://foursquare.com/v/the-thatch/4bc0c7f5920eb713758b192c","categoryId":"4bf58dd8d48988d11b941735","category":"Pub","checkinsCount":373,"usersCount":233,"tipCount":8,"visitsCount":459,"url":"http://www.thethatchthame.co.uk","tier":"","message":"","currency":"","rating":8.1},{"name":"Cross Keys","twitter":"crosskeysthame","address":"East St","lat":51.74509623471172,"lng":-0.9734889091022458,"city_fetched":"Thame,UK","state":"Oxfordshire","country":"United Kingdom","canonicalUrl":"https://foursquare.com/v/cross-keys/4c4749f1417b20a18b19dda9","categoryId":"4bf58dd8d48988d11b941735","category":"Pub","checkinsCount":505,"usersCount":90,"tipCount":6,"visitsCount":603,"tier":2,"message":"Moderate","currency":"Â£","rating":7.7},{"name":"The James Figg","phone":"+441844260166","twitter":"jamesfigg","address":"21 Cornmarket","lat":51.747185,"lng":-0.978242,"city_fetched":"Thame,UK","state":"Oxfordshire","country":"United Kingdom","canonicalUrl":"https://foursquare.com/v/the-james-figg/4c0a4a2fbbc676b0b38649d5","categoryId":"4bf58dd8d48988d11b941735","category":"Pub","checkinsCount":404,"usersCount":150,"tipCount":5,"visitsCount":501,"url":"http://thejamesfiggthame.co.uk","tier":"","message":"","currency":"","rating":7.6},{"name":"The Old Fisherman, Shabbington","lat":51.753196,"lng":-1.03374,"city_fetched":"Thame,UK","state":"Buckinghamshire","country":"United Kingdom","canonicalUrl":"https://foursquare.com/v/the-old-fisherman-shabbington/4bee84b13686c9b6c894246e","categoryId":"4bf58dd8d48988d11b941735","category":"Pub","checkinsCount":77,"usersCount":76,"tipCount":2,"visitsCount":122,"tier":"","message":"","currency":"","rating":7.4},{"name":"Lassco Three Pigeons","phone":"+441844277188","address":"London Road","lat":51.72556011449608,"lng":-1.0563895642671557,"city_fetched":"Thame,UK","state":"Oxfordshire","country":"United Kingdom","canonicalUrl":"https://foursquare.com/v/lassco-three-pigeons/4c8b78fa9ef0224baf55647b","categoryId":"4bf58dd8d48988d11b941735","category":"Pub","checkinsCount":69,"usersCount":40,"tipCount":7,"visitsCount":69,"url":"http://www.lassco.co.uk","tier":"","message":"","currency":"","rating":7.2},{"name":"The Six Bells","phone":"+441844212088","twitter":"6bellsthame","address":"43 lower high street","lat":51.749505,"lng":-0.982758,"city_fetched":"Thame,UK","state":"Oxfordshire","country":"United Kingdom","canonicalUrl":"https://foursquare.com/v/the-six-bells/4bb77df598c7ef3b1bd72f02","categoryId":"4bf58dd8d48988d11b941735","category":"Pub","checkinsCount":323,"usersCount":167,"tipCount":6,"visitsCount":429,"url":"http://www.sixbellsthame.co.uk","tier":"","message":"","currency":"","rating":7},{"name":"Rising Sun Pad Thai","phone":"+441844214206","address":"High St","lat":51.748797,"lng":-0.9807497262954712,"city_fetched":"Thame,UK","state":"Oxfordshire","country":"United Kingdom","canonicalUrl":"https://foursquare.com/v/rising-sun-pad-thai/4bc31046461576b016147e32","categoryId":"4bf58dd8d48988d11b941735","category":"Pub","checkinsCount":232,"usersCount":83,"tipCount":7,"visitsCount":241,"url":"http://www.risingsun-thame.co.uk","tier":"","message":"","currency":"","rating":6.9},{"name":"The Churchill Arms","phone":"+441844208344","twitter":"churchillarms","address":"1 High St","lat":51.77205309686096,"lng":-0.9946902603646725,"city_fetched":"Thame,UK","state":"Buckinghamshire","country":"United Kingdom","canonicalUrl":"https://foursquare.com/v/the-churchill-arms/4de0e33245dd3eae8778ed64","categoryId":"4bf58dd8d48988d11b941735","category":"Pub","checkinsCount":44,"usersCount":42,"tipCount":2,"visitsCount":67,"url":"http://www.thechurchillarms.co.uk","tier":"","message":"","currency":"","rating":6.9},{"name":"The Birdcage","phone":"+441844260381","twitter":"thebirdcagepub","address":"4 Cornmarket","lat":51.747086575494464,"lng":-0.9776866436004639,"city_fetched":"Thame,UK","state":"Oxfordshire","country":"United Kingdom","canonicalUrl":"https://foursquare.com/v/the-birdcage/5154cc3ce4b01b95f99e226b","categoryId":"4bf58dd8d48988d11b941735","category":"Pub","checkinsCount":184,"usersCount":84,"tipCount":3,"visitsCount":187,"url":"http://www.birdcagepub.co.uk","tier":"","message":"","currency":"","rating":6.2},{"name":"The Black Horse Hotel","phone":"+441844212886","address":"11 Cornmarket","lat":51.74667473329082,"lng":-0.9772574901580809,"city_fetched":"Thame,UK","state":"Oxfordshire","country":"United Kingdom","canonicalUrl":"https://foursquare.com/v/the-black-horse-hotel/4bc0f7a22a89ef3b9a8bf188","categoryId":"4bf58dd8d48988d11b941735","category":"Pub","checkinsCount":53,"usersCount":39,"tipCount":2,"visitsCount":54,"url":"http://www.theblackhorsethame.com","tier":"","message":"","currency":"","rating":5.4}]