[{"name":"The Minerva","phone":"+441482210025","twitter":"minerva_hull","address":"Pier Hall","lat":53.738019360472485,"lng":-0.33488988876342773,"city_fetched":"Thorngumbald,UK","state":"Kingston upon Hull","country":"United Kingdom","canonicalUrl":"https://foursquare.com/v/the-minerva/4b4c8fe1f964a5202bb626e3","categoryId":"4bf58dd8d48988d11b941735","category":"Pub","checkinsCount":386,"usersCount":192,"tipCount":15,"visitsCount":473,"url":"http://www.minerva-hull.co.uk","tier":"","message":"","currency":"","rating":8.8},{"name":"Furley & Co","phone":"+447964227906","twitter":"furleyandco","address":"18-20 Princes Dock Street","lat":53.74210378697928,"lng":-0.3383777067911702,"city_fetched":"Thorngumbald,UK","state":"Kingston upon Hull","country":"United Kingdom","canonicalUrl":"https://foursquare.com/v/furley--co/566470ac498e2afbdee3d32e","categoryId":"4bf58dd8d48988d116941735","category":"Bar","checkinsCount":71,"usersCount":36,"tipCount":4,"visitsCount":74,"tier":"","message":"","currency":"","rating":8.1},{"name":"Ye Olde White Harte","phone":"+441482326363","address":"25 Silver St.","lat":53.742981,"lng":-0.33345009999999997,"city_fetched":"Thorngumbald,UK","state":"Kingston upon Hull","country":"United Kingdom","canonicalUrl":"https://foursquare.com/v/ye-olde-white-harte/4b4c8755f964a5203fb526e3","categoryId":"4bf58dd8d48988d11b941735","category":"Pub","checkinsCount":278,"usersCount":167,"tipCount":9,"visitsCount":280,"tier":"","message":"","currency":"","rating":7.9},{"name":"Lion & Key","phone":"+441482225212","address":"48 High St.","lat":53.74258433381421,"lng":-0.3312206268310547,"city_fetched":"Thorngumbald,UK","state":"Kingston upon Hull","country":"United Kingdom","canonicalUrl":"https://foursquare.com/v/lion--key/4c3eacaa80bc20a18366ab58","categoryId":"4bf58dd8d48988d11b941735","category":"Pub","checkinsCount":410,"usersCount":164,"tipCount":9,"visitsCount":433,"tier":"","message":"","currency":"","rating":7.9},{"name":"New Clarence","phone":"+441482320327","address":"Charles St.","lat":53.74761410756777,"lng":-0.3395014814541895,"city_fetched":"Thorngumbald,UK","country":"United Kingdom","canonicalUrl":"https://foursquare.com/v/new-clarence/4bdabdf5c79cc928748a7fe9","categoryId":"4bf58dd8d48988d11b941735","category":"Pub","checkinsCount":169,"usersCount":73,"tipCount":3,"visitsCount":179,"tier":"","message":"","currency":"","rating":7.8},{"name":"Ye Olde Black Boy","phone":"+441482326516","address":"150 High Street","lat":53.74268966373763,"lng":-0.3314244747161865,"city_fetched":"Thorngumbald,UK","state":"Kingston upon Hull","country":"United Kingdom","canonicalUrl":"https://foursquare.com/v/ye-olde-black-boy/4b4c8d3ff964a520e1b526e3","categoryId":"4bf58dd8d48988d116941735","category":"Bar","checkinsCount":239,"usersCount":112,"tipCount":7,"visitsCount":239,"tier":"","message":"","currency":"","rating":7.7},{"name":"Manor Farm","phone":"+441482505604","address":"164 Willerby Rd.","lat":53.75297709441462,"lng":-0.4076957702636719,"city_fetched":"Thorngumbald,UK","state":"Kingston upon Hull","country":"United Kingdom","canonicalUrl":"https://foursquare.com/v/manor-farm/4babfe72f964a5207cdc3ae3","categoryId":"4bf58dd8d48988d11b941735","category":"Pub","checkinsCount":208,"usersCount":99,"tipCount":1,"visitsCount":250,"tier":"","message":"","currency":"","rating":7.6},{"name":"The White Horse (Nellies)","phone":"+441482861973","address":"22 Hengate","lat":53.84455184056492,"lng":-0.4317283630371094,"city_fetched":"Thorngumbald,UK","state":"East Yorkshire","country":"United Kingdom","canonicalUrl":"https://foursquare.com/v/the-white-horse-nellies/4f0ad9d0e4b0e8907cf9bea4","categoryId":"4bf58dd8d48988d11b941735","category":"Pub","checkinsCount":477,"usersCount":122,"tipCount":10,"visitsCount":485,"tier":"","message":"","currency":"","rating":7.6},{"name":"Walters","phone":"+441482224004","address":"21 Scale Lane","lat":53.74286098292865,"lng":-0.3328084945678711,"city_fetched":"Thorngumbald,UK","state":"Kingston upon Hull","country":"United Kingdom","canonicalUrl":"https://foursquare.com/v/walters/4b4c92c7f964a52081b626e3","categoryId":"4bf58dd8d48988d116941735","category":"Bar","checkinsCount":328,"usersCount":106,"tipCount":8,"visitsCount":331,"tier":"","message":"","currency":"","rating":7.5},{"name":"Wm Hawkes","address":"Scale Lane","lat":53.74265793788488,"lng":-0.33195018768310547,"city_fetched":"Thorngumbald,UK","state":"Kingston upon Hull","country":"United Kingdom","canonicalUrl":"https://foursquare.com/v/wm-hawkes/4ff34ac4e4b01d081eb33ca2","categoryId":"4bf58dd8d48988d11b941735","category":"Pub","checkinsCount":103,"usersCount":62,"tipCount":5,"visitsCount":105,"tier":"","message":"","currency":"","rating":7.4},{"name":"Fuel","phone":"+441482228436","address":"6 Baker St","lat":53.747200836133516,"lng":-0.3436446189880371,"city_fetched":"Thorngumbald,UK","state":"Kingston upon Hull","country":"United Kingdom","canonicalUrl":"https://foursquare.com/v/fuel/4b4c9579f964a520c1b626e3","categoryId":"4bf58dd8d48988d1d8941735","category":"Gay Bar","checkinsCount":292,"usersCount":120,"tipCount":3,"visitsCount":304,"tier":"","message":"","currency":"","rating":7.4},{"name":"Pave","phone":"+441482333181","address":"16-20 Princes Ave","lat":53.753728806030416,"lng":-0.35993099212646484,"neighborhood":"Avenue","city_fetched":"Thorngumbald,UK","state":"Kingston upon Hull","country":"United Kingdom","canonicalUrl":"https://foursquare.com/v/pave/4b605cb2f964a520c7e129e3","categoryId":"4bf58dd8d48988d116941735","category":"Bar","checkinsCount":1206,"usersCount":386,"tipCount":20,"visitsCount":1350,"tier":"","message":"","currency":"","rating":7.4},{"name":"Sailmakers Arms","phone":"+441482227437","twitter":"sailmakersarms","address":"Chandlers Court, High Street","lat":53.74343204185434,"lng":-0.33109724521636963,"city_fetched":"Thorngumbald,UK","state":"Kingston upon Hull","country":"United Kingdom","canonicalUrl":"https://foursquare.com/v/sailmakers-arms/4c137026a9c220a1a3b8559d","categoryId":"4bf58dd8d48988d11b941735","category":"Pub","checkinsCount":289,"usersCount":104,"tipCount":14,"visitsCount":297,"url":"http://www.thesailmakersarms.com","tier":"","message":"","currency":"","rating":7.3},{"name":"The Cornerhouse","phone":"+441482882652","address":"2 Norwood","lat":53.84485566877821,"lng":-0.4314279556274414,"city_fetched":"Thorngumbald,UK","state":"East Yorkshire","country":"United Kingdom","canonicalUrl":"https://foursquare.com/v/the-cornerhouse/4bc4b3bcb492d13a606daa60","categoryId":"4bf58dd8d48988d116941735","category":"Bar","checkinsCount":118,"usersCount":50,"tipCount":4,"visitsCount":119,"tier":"","message":"","currency":"","rating":7.3},{"name":"The Haworth Arms","phone":"+441482498951","address":"449 Beverley Rd.","lat":53.76855887898141,"lng":-0.3540274500846863,"neighborhood":"University","city_fetched":"Thorngumbald,UK","state":"Kingston upon Hull","country":"United Kingdom","canonicalUrl":"https://foursquare.com/v/the-haworth-arms/4b51ddd2f964a520af5827e3","categoryId":"4bf58dd8d48988d11b941735","category":"Pub","checkinsCount":936,"usersCount":264,"tipCount":6,"visitsCount":965,"tier":"","message":"","currency":"","rating":7.2},{"name":"Garbutts","phone":"+441482343490","address":"54 Princes Ave","lat":53.75463366508484,"lng":-0.359487,"neighborhood":"Avenue","city_fetched":"Thorngumbald,UK","state":"Kingston upon Hull","country":"United Kingdom","canonicalUrl":"https://foursquare.com/v/garbutts/4b5c7185f964a5201a3029e3","categoryId":"4bf58dd8d48988d116941735","category":"Bar","checkinsCount":513,"usersCount":181,"tipCount":12,"visitsCount":559,"tier":"","message":"","currency":"","rating":7.2},{"name":"The Three John Scotts (Wetherspoon)","phone":"+441482381910","address":"City Exchange","lat":53.743850813467645,"lng":-0.3330874443054199,"city_fetched":"Thorngumbald,UK","state":"Kingston upon Hull","country":"United Kingdom","canonicalUrl":"https://foursquare.com/v/the-three-john-scotts-wetherspoon/4c87ab4a821e9eb03bcd8d89","categoryId":"4bf58dd8d48988d11b941735","category":"Pub","checkinsCount":1274,"usersCount":413,"tipCount":16,"visitsCount":1384,"url":"http://www.jdwetherspoon.co.uk","tier":"","message":"","currency":"","rating":7.1},{"name":"Spiders","phone":"+441482326698","address":"9 Cleveland St","lat":53.75166711755382,"lng":-0.32918214797973633,"neighborhood":"Drypool","city_fetched":"Thorngumbald,UK","state":"Kingston upon Hull","country":"United Kingdom","canonicalUrl":"https://foursquare.com/v/spiders/4b65a8a6f964a5203af82ae3","categoryId":"4bf58dd8d48988d11f941735","category":"Nightclub","checkinsCount":697,"usersCount":174,"tipCount":7,"visitsCount":717,"tier":"","message":"","currency":"","rating":7.1},{"name":"Henry Yeast & Sons","address":"2-16 Newland Ave","lat":53.76056870131177,"lng":-0.35895960900408114,"neighborhood":"Avenue","city_fetched":"Thorngumbald,UK","state":"Kingston upon Hull","country":"United Kingdom","canonicalUrl":"https://foursquare.com/v/henry-yeast--sons/4e0e231c45ddc2c6d174d5b4","categoryId":"4bf58dd8d48988d118941735","category":"Dive Bar","checkinsCount":108,"usersCount":70,"tipCount":7,"visitsCount":118,"tier":"","message":"","currency":"","rating":7},{"name":"The Welly","phone":"+441482221113","twitter":"giveitsomewelly","address":"105 - 107 Beverley Rd","lat":53.753613829914194,"lng":-0.3484538197517395,"city_fetched":"Thorngumbald,UK","state":"Kingston upon Hull","country":"United Kingdom","canonicalUrl":"https://foursquare.com/v/the-welly/4b5b58cff964a5207ff628e3","categoryId":"4bf58dd8d48988d11f941735","category":"Nightclub","checkinsCount":773,"usersCount":208,"tipCount":4,"visitsCount":818,"url":"http://www.giveitsomewelly.com","tier":"","message":"","currency":"","rating":7},{"name":"Willy's Pub and Brewery","phone":"+441472602145","address":"17 High Cliff Road","lat":53.5566420383931,"lng":-0.023132205366081772,"city_fetched":"Thorngumbald,UK","state":"North East Lincolnshire","country":"United Kingdom","canonicalUrl":"https://foursquare.com/v/willys-pub-and-brewery/4da05d6d784f370472ca97af","categoryId":"50327c8591d4c4b30a586d5d","category":"Brewery","checkinsCount":172,"usersCount":62,"tipCount":1,"visitsCount":179,"tier":"","message":"","currency":"","rating":6.9},{"name":"Propaganda","phone":"+441482222700","address":"107 Ferensway","lat":53.745525858187115,"lng":-0.34510374069213867,"city_fetched":"Thorngumbald,UK","state":"Kingston upon Hull","country":"United Kingdom","canonicalUrl":"https://foursquare.com/v/propaganda/4b6f12fdf964a5202fdb2ce3","categoryId":"4bf58dd8d48988d1d8941735","category":"Gay Bar","checkinsCount":270,"usersCount":128,"tipCount":5,"visitsCount":271,"tier":"","message":"","currency":"","rating":6.9},{"name":"Jaz Bar","phone":"+441482228063","address":"41 Lowgate","lat":53.74287367321129,"lng":-0.33282995223999023,"city_fetched":"Thorngumbald,UK","state":"Kingston upon Hull","country":"United Kingdom","canonicalUrl":"https://foursquare.com/v/jaz-bar/4b9ba685f964a520bf1636e3","categoryId":"4bf58dd8d48988d116941735","category":"Bar","checkinsCount":403,"usersCount":121,"tipCount":10,"visitsCount":431,"tier":"","message":"","currency":"","rating":6.9},{"name":"The Gardeners Arms","phone":"+441482342396","address":"35 Cottingham Rd","lat":53.76830364243514,"lng":-0.35656481981277466,"neighborhood":"Newland","city_fetched":"Thorngumbald,UK","state":"Kingston upon Hull","country":"United Kingdom","canonicalUrl":"https://foursquare.com/v/the-gardeners-arms/4b51dd69f964a520955827e3","categoryId":"4bf58dd8d48988d11b941735","category":"Pub","checkinsCount":1651,"usersCount":384,"tipCount":3,"visitsCount":1830,"url":"http://www.thegardenersarmshull.co.uk","tier":"","message":"","currency":"","rating":6.8},{"name":"Queens Hotel","phone":"+441482343541","address":"Queens Road","lat":53.75998198321385,"lng":-0.35661998745396634,"neighborhood":"Avenue","city_fetched":"Thorngumbald,UK","state":"Kingston upon Hull","country":"United Kingdom","canonicalUrl":"https://foursquare.com/v/queens-hotel/4b9bb407f964a520c41b36e3","categoryId":"4bf58dd8d48988d11b941735","category":"Pub","checkinsCount":336,"usersCount":100,"tipCount":5,"visitsCount":356,"tier":"","message":"","currency":"","rating":6.8},{"name":"Old English Gentleman","address":"Albion Street","lat":53.747612007203266,"lng":-0.33666974323848253,"city_fetched":"Thorngumbald,UK","country":"United Kingdom","canonicalUrl":"https://foursquare.com/v/old-english-gentleman/4c3dd70a7d002d7fc44cb018","categoryId":"4bf58dd8d48988d11b941735","category":"Pub","checkinsCount":114,"usersCount":36,"tipCount":3,"visitsCount":115,"tier":"","message":"","currency":"","rating":6.7},{"name":"Hop & Vine","phone":"+447787564264","address":"24 Albion Street","lat":53.746845543360934,"lng":-0.34096240997314453,"city_fetched":"Thorngumbald,UK","state":"Kingston upon Hull","country":"United Kingdom","canonicalUrl":"https://foursquare.com/v/hop--vine/4c3747fe2c8020a184b08800","categoryId":"4bf58dd8d48988d11b941735","category":"Pub","checkinsCount":77,"usersCount":43,"tipCount":7,"visitsCount":78,"tier":"","message":"","currency":"","rating":6.7},{"name":"The Mission","phone":"+441482221751","address":"11-13 Posterngate","lat":53.742194737706875,"lng":-0.33701419830322266,"city_fetched":"Thorngumbald,UK","state":"Kingston upon Hull","country":"United Kingdom","canonicalUrl":"https://foursquare.com/v/the-mission/4b4c88d3f964a52066b526e3","categoryId":"4bf58dd8d48988d11b941735","category":"Pub","checkinsCount":364,"usersCount":176,"tipCount":7,"visitsCount":390,"tier":"","message":"","currency":"","rating":6.5},{"name":"Wellington Inn","phone":"+441482329486","address":"55 Russell Street","lat":53.74926908797783,"lng":-0.34392356872558594,"city_fetched":"Thorngumbald,UK","state":"Kingston upon Hull","country":"United Kingdom","canonicalUrl":"https://foursquare.com/v/wellington-inn/4b954043f964a520fa9734e3","categoryId":"4bf58dd8d48988d11b941735","category":"Pub","checkinsCount":271,"usersCount":84,"tipCount":8,"visitsCount":272,"tier":"","message":"","currency":"","rating":6.4},{"name":"The Admiral Of The Humber (Wetherspoon)","phone":"+441482381850","address":"1 Anlaby Rd.","lat":53.743197274124284,"lng":-0.3438591957092285,"city_fetched":"Thorngumbald,UK","state":"Kingston upon Hull","country":"United Kingdom","canonicalUrl":"https://foursquare.com/v/the-admiral-of-the-humber-wetherspoon/4b4c8b27f964a520abb526e3","categoryId":"4bf58dd8d48988d11b941735","category":"Pub","checkinsCount":1395,"usersCount":529,"tipCount":13,"visitsCount":1563,"url":"http://www.jdwetherspoon.co.uk","tier":"","message":"","currency":"","rating":6.4},{"name":"The Wheatsheaf","phone":"+441472246821","address":"Bargate","lat":53.55772218608372,"lng":-0.09115219116210938,"city_fetched":"Thorngumbald,UK","state":"North East Lincolnshire","country":"United Kingdom","canonicalUrl":"https://foursquare.com/v/the-wheatsheaf/4b840fa0f964a520221e31e3","categoryId":"4bf58dd8d48988d11b941735","category":"Pub","checkinsCount":1432,"usersCount":134,"tipCount":3,"visitsCount":1547,"tier":"","message":"","currency":"","rating":6.4},{"name":"The William Wilberforce (Lloyd's No. 1 Bar)","phone":"+441482586099","address":"Trinity House Ln","lat":53.74276580568652,"lng":-0.33438563346862793,"city_fetched":"Thorngumbald,UK","state":"Kingston upon Hull","country":"United Kingdom","canonicalUrl":"https://foursquare.com/v/the-william-wilberforce-lloyds-no-1-bar/4c87ab4b821e9eb03ccd8d89","categoryId":"4bf58dd8d48988d11b941735","category":"Pub","checkinsCount":1016,"usersCount":398,"tipCount":12,"visitsCount":1069,"url":"http://www.jdwetherspoon.co.uk","tier":"","message":"","currency":"","rating":6.3},{"name":"Sandpiper","phone":"+441482632511","address":"Melton Park","lat":53.72256431823605,"lng":-0.5227518081665039,"city_fetched":"Thorngumbald,UK","state":"Kingston upon Hull","country":"United Kingdom","canonicalUrl":"https://foursquare.com/v/sandpiper/4c6443f07f7be21ecb8ff90f","categoryId":"4bf58dd8d48988d11b941735","category":"Pub","checkinsCount":265,"usersCount":97,"tipCount":3,"visitsCount":318,"tier":"","message":"","currency":"","rating":6.2},{"name":"Oscars Bar","phone":"+441482228750","address":"Suffolk House","lat":53.74291174403629,"lng":-0.33362388610839844,"city_fetched":"Thorngumbald,UK","state":"Kingston upon Hull","country":"United Kingdom","canonicalUrl":"https://foursquare.com/v/oscars-bar/4d1907dfbb64224b6baacb65","categoryId":"4bf58dd8d48988d11e941735","category":"Cocktail Bar","checkinsCount":174,"usersCount":70,"tipCount":4,"visitsCount":174,"tier":"","message":"","currency":"","rating":6.2},{"name":"The Empress","phone":"+441482326839","address":"20 Alfred Gelder Street","lat":53.74405970063869,"lng":-0.33750626685595997,"neighborhood":"Queen's Gardens","city_fetched":"Thorngumbald,UK","state":"Kingston upon Hull","country":"United Kingdom","canonicalUrl":"https://foursquare.com/v/the-empress/4b4c89d5f964a52085b526e3","categoryId":"4bf58dd8d48988d116941735","category":"Bar","checkinsCount":176,"usersCount":58,"tipCount":2,"visitsCount":180,"tier":"","message":"","currency":"","rating":6.1},{"name":"The Goldcrest","phone":"+441482229505","address":"Plimsoll Way","lat":53.743287985378004,"lng":-0.3219667619535751,"neighborhood":"Victoria Dock","city_fetched":"Thorngumbald,UK","state":"Kingston upon Hull","country":"United Kingdom","canonicalUrl":"https://foursquare.com/v/the-goldcrest/4f4001c3e4b0ae0655c07ee6","categoryId":"4bf58dd8d48988d11b941735","category":"Pub","checkinsCount":283,"usersCount":83,"tipCount":3,"visitsCount":293,"url":"http://www.goldcrestpubhull.co.uk","tier":"","message":"","currency":"","rating":6.1},{"name":"The Zachariah Pearson (Wetherspoon)","phone":"+441482474181","address":"386 Beverley Rd.","lat":53.76365521226965,"lng":-0.35111188888549805,"neighborhood":"Newland","city_fetched":"Thorngumbald,UK","state":"Kingston upon Hull","country":"United Kingdom","canonicalUrl":"https://foursquare.com/v/the-zachariah-pearson-wetherspoon/4c87ab4c821e9eb03dcd8d89","categoryId":"4bf58dd8d48988d11b941735","category":"Pub","checkinsCount":1171,"usersCount":340,"tipCount":12,"visitsCount":1352,"url":"http://www.jdwetherspoon.co.uk","tier":"","message":"","currency":"","rating":6},{"name":"Lounge Cafe Bar","phone":"+441482440659","address":"26 - 28 Princes Ave","lat":53.75384933237989,"lng":-0.35978078842163086,"neighborhood":"Avenue","city_fetched":"Thorngumbald,UK","state":"Kingston upon Hull","country":"United Kingdom","canonicalUrl":"https://foursquare.com/v/lounge-cafe-bar/4bc0a961f8219c7480e7b110","categoryId":"4bf58dd8d48988d116941735","category":"Bar","checkinsCount":486,"usersCount":165,"tipCount":9,"visitsCount":491,"tier":"","message":"","currency":"","rating":5.8},{"name":"The Goodfellowship","phone":"+441482342858","twitter":"goodfellowship1","address":"Cottingham Rd","lat":53.769780179124425,"lng":-0.3817551263642544,"neighborhood":"Bricknell","city_fetched":"Thorngumbald,UK","state":"Kingston upon Hull","country":"United Kingdom","canonicalUrl":"https://foursquare.com/v/the-goodfellowship/4bab9657f964a5209cb63ae3","categoryId":"4bf58dd8d48988d11b941735","category":"Pub","checkinsCount":520,"usersCount":129,"tipCount":13,"visitsCount":544,"url":"http://goodfellowshipinnhull.co.uk","tier":"","message":"","currency":"","rating":5.6},{"name":"Pozition","address":"135 George Street","lat":53.747316261433006,"lng":-0.33422250016984784,"city_fetched":"Thorngumbald,UK","state":"Kingston upon Hull","country":"United Kingdom","canonicalUrl":"https://foursquare.com/v/pozition/4b5b57ecf964a5202df628e3","categoryId":"4bf58dd8d48988d11f941735","category":"Nightclub","checkinsCount":401,"usersCount":159,"tipCount":3,"visitsCount":416,"tier":"","message":"","currency":"","rating":5.6},{"name":"Green Bricks","phone":"+441482591961","address":"9 Humber Dock Street","lat":53.73977713062668,"lng":-0.3367137908935547,"city_fetched":"Thorngumbald,UK","state":"Kingston upon Hull","country":"United Kingdom","canonicalUrl":"https://foursquare.com/v/green-bricks/4cb1b2a2ef1b3704ae464500","categoryId":"4bf58dd8d48988d11b941735","category":"Pub","checkinsCount":124,"usersCount":88,"tipCount":3,"visitsCount":129,"tier":"","message":"","currency":"","rating":5.3},{"name":"The Mill","phone":"+441482375148","address":"602 Holderness Road","lat":53.76225994864256,"lng":-0.29770374298095703,"neighborhood":"Park","city_fetched":"Thorngumbald,UK","state":"Kingston upon Hull","country":"United Kingdom","canonicalUrl":"https://foursquare.com/v/the-mill/4c0021d7c30a2d7f0112121d","categoryId":"4bf58dd8d48988d11b941735","category":"Pub","checkinsCount":315,"usersCount":55,"tipCount":4,"visitsCount":324,"tier":"","message":"","currency":"","rating":5.2},{"name":"Hayride","phone":"+441482861486","address":"Grangeway","lat":53.85832317061296,"lng":-0.4348182678222656,"city_fetched":"Thorngumbald,UK","state":"East Yorkshire","country":"United Kingdom","canonicalUrl":"https://foursquare.com/v/hayride/4bab8d70f964a520ebb23ae3","categoryId":"50327c8591d4c4b30a586d5d","category":"Brewery","checkinsCount":198,"usersCount":95,"tipCount":7,"visitsCount":283,"tier":"","message":"","currency":"","rating":5.1},{"name":"Garbo's","phone":"+441482606700","address":"Lowgate","lat":53.74344790449152,"lng":-0.3328835964202881,"city_fetched":"Thorngumbald,UK","state":"Kingston upon Hull","country":"United Kingdom","canonicalUrl":"https://foursquare.com/v/garbos/4b4c8c97f964a520cfb526e3","categoryId":"4bf58dd8d48988d116941735","category":"Bar","checkinsCount":195,"usersCount":103,"tipCount":4,"visitsCount":197,"tier":"","message":"","currency":"","rating":5}]