[{"name":"The Little Brown Jug","phone":"+441892870318","address":"Chiddingstone Causeway","lat":51.19783,"lng":0.174025,"city_fetched":"Tonbridge,UK","state":"Kent","country":"United Kingdom","canonicalUrl":"https://foursquare.com/v/the-little-brown-jug/4b548ce7f964a52097bf27e3","categoryId":"4bf58dd8d48988d11b941735","category":"Pub","checkinsCount":972,"usersCount":247,"tipCount":6,"visitsCount":1105,"tier":2,"message":"Moderate","currency":"Â£","rating":8.6},{"name":"The Spotted Dog","address":"Smarts Hill","lat":51.156862,"lng":0.175212,"city_fetched":"Tonbridge,UK","state":"Kent","country":"United Kingdom","canonicalUrl":"https://foursquare.com/v/the-spotted-dog/4b5c5975f964a520f82b29e3","categoryId":"4bf58dd8d48988d11b941735","category":"Pub","checkinsCount":112,"usersCount":117,"tipCount":5,"visitsCount":152,"tier":"","message":"","currency":"","rating":7.8},{"name":"The Chaser Inn","phone":"+441732810360","twitter":"thechaserinn","address":"Stumble Hill, Shipbourne","lat":51.24672520909811,"lng":0.27935826077132375,"city_fetched":"Tonbridge,UK","state":"Kent","country":"United Kingdom","canonicalUrl":"https://foursquare.com/v/the-chaser-inn/4d29be0f55a8b60cc37fd9c0","categoryId":"4bf58dd8d48988d11b941735","category":"Pub","checkinsCount":830,"usersCount":211,"tipCount":7,"visitsCount":942,"url":"http://www.thechaser.co.uk","tier":"","message":"","currency":"","rating":7.4},{"name":"The Hand & Sceptre","address":"21 London Rd","lat":51.163749,"lng":0.253988,"city_fetched":"Tonbridge,UK","state":"Kent","country":"United Kingdom","canonicalUrl":"https://foursquare.com/v/the-hand--sceptre/4c3782e33849c92807d7bdb1","categoryId":"4bf58dd8d48988d11b941735","category":"Pub","checkinsCount":204,"usersCount":187,"tipCount":3,"visitsCount":356,"tier":"","message":"","currency":"","rating":7.1},{"name":"Saint Johns Yard","lat":51.141612,"lng":0.260429,"city_fetched":"Tonbridge,UK","country":"United Kingdom","canonicalUrl":"https://foursquare.com/v/saint-johns-yard/4c165d29a9c220a1ea815a9d","categoryId":"4bf58dd8d48988d116941735","category":"Bar","checkinsCount":190,"usersCount":87,"tipCount":6,"visitsCount":245,"tier":"","message":"","currency":"","rating":6.6},{"name":"The Imperial - Shepherd Neame","phone":"+441892528757","address":"London Road","lat":51.16145575788822,"lng":0.25660157203674316,"city_fetched":"Tonbridge,UK","state":"Kent","country":"United Kingdom","canonicalUrl":"https://foursquare.com/v/the-imperial--shepherd-neame/4c246e85c11dc9b6a8732524","categoryId":"4bf58dd8d48988d11b941735","category":"Pub","checkinsCount":78,"usersCount":48,"tipCount":1,"visitsCount":109,"url":"http://www.shepherdneame.co.uk","tier":"","message":"","currency":"","rating":6.6},{"name":"The Cock Horse - Shepherd Neame","phone":"+441732833232","address":"Hildenborough","lat":51.22683251336701,"lng":0.22216200828552246,"city_fetched":"Tonbridge,UK","state":"Kent","country":"United Kingdom","canonicalUrl":"https://foursquare.com/v/the-cock-horse--shepherd-neame/4be6a6fd2457a593f703ad15","categoryId":"4bf58dd8d48988d11b941735","category":"Pub","checkinsCount":24,"usersCount":23,"tipCount":1,"visitsCount":25,"url":"http://www.shepherdneame.co.uk","tier":"","message":"","currency":"","rating":6.6},{"name":"Camden Arms","lat":51.14282221028786,"lng":0.32163754510739145,"city_fetched":"Tonbridge,UK","country":"United Kingdom","canonicalUrl":"https://foursquare.com/v/camden-arms/4badff91f964a52069793be3","categoryId":"4bf58dd8d48988d11b941735","category":"Pub","checkinsCount":167,"usersCount":101,"tipCount":2,"visitsCount":214,"tier":"","message":"","currency":"","rating":6.6},{"name":"The Nelson Arms - Shepherd Neame","phone":"+441732350822","address":"Cromer St","lat":51.192797547107986,"lng":0.26462405920028687,"city_fetched":"Tonbridge,UK","state":"Kent","country":"United Kingdom","canonicalUrl":"https://foursquare.com/v/the-nelson-arms--shepherd-neame/4dc19b8b8877c00d6adcbcbf","categoryId":"4bf58dd8d48988d11b941735","category":"Pub","checkinsCount":69,"usersCount":11,"tipCount":1,"visitsCount":69,"url":"http://www.shepherdneame.co.uk","tier":"","message":"","currency":"","rating":6.5},{"name":"The Foresters Arms - Shepherd Neame","phone":"+441732360129","address":"52 Quarry Hill","lat":51.18838149260999,"lng":0.2683281898498535,"city_fetched":"Tonbridge,UK","state":"Kent","country":"United Kingdom","canonicalUrl":"https://foursquare.com/v/the-foresters-arms--shepherd-neame/4e4a87b7922e15493debf62b","categoryId":"4bf58dd8d48988d11b941735","category":"Pub","checkinsCount":7,"usersCount":6,"tipCount":0,"visitsCount":10,"url":"http://www.shepherdneame.co.uk","tier":"","message":"","currency":"","rating":6.4},{"name":"The Black Horse - Shepherd Neame","phone":"+441892523910","address":"Camden Road","lat":51.13802841514794,"lng":0.2702164649963379,"city_fetched":"Tonbridge,UK","state":"Kent","country":"United Kingdom","canonicalUrl":"https://foursquare.com/v/the-black-horse--shepherd-neame/4e143ee0b3ad51e832e99b92","categoryId":"4bf58dd8d48988d11b941735","category":"Pub","checkinsCount":16,"usersCount":14,"tipCount":1,"visitsCount":16,"url":"http://www.shepherdneame.co.uk","tier":"","message":"","currency":"","rating":6.4},{"name":"Black Horse","lat":51.142989277525764,"lng":0.3205146286895323,"city_fetched":"Tonbridge,UK","country":"United Kingdom","canonicalUrl":"https://foursquare.com/v/black-horse/4bae6085f964a5203faa3be3","categoryId":"4bf58dd8d48988d11b941735","category":"Pub","checkinsCount":162,"usersCount":60,"tipCount":3,"visitsCount":184,"tier":"","message":"","currency":"","rating":6.1},{"name":"Slug & lettuce","address":"115 High Street","lat":51.196144950000004,"lng":0.275212,"city_fetched":"Tonbridge,UK","state":"Kent","country":"United Kingdom","canonicalUrl":"https://foursquare.com/v/slug--lettuce/4c1be1e763750f47d0a1b567","categoryId":"4bf58dd8d48988d11b941735","category":"Pub","checkinsCount":312,"usersCount":93,"tipCount":1,"visitsCount":315,"tier":"","message":"","currency":"","rating":5.9},{"name":"Hilden Manor (Beefeater)","phone":"+441732362784","twitter":"beefeatergrill","address":"London Rd","lat":51.20643739449316,"lng":0.261589142508091,"city_fetched":"Tonbridge,UK","state":"Kent","country":"United Kingdom","canonicalUrl":"https://foursquare.com/v/hilden-manor-beefeater/4c2088fed38ec9b6fe334e83","categoryId":"4bf58dd8d48988d11b941735","category":"Pub","checkinsCount":222,"usersCount":107,"tipCount":9,"visitsCount":249,"url":"http://www.beefeater.co.uk/steak-restaurant/Kent/Hilden-Manor-Tonbridge.html","tier":"","message":"","currency":"","rating":5.5},{"name":"The Humphrey Bean (Wetherspoon)","phone":"+441732773850","address":"94 High St.","lat":51.195188,"lng":0.274279,"city_fetched":"Tonbridge,UK","state":"Kent","country":"United Kingdom","canonicalUrl":"https://foursquare.com/v/the-humphrey-bean-wetherspoon/4bb8c51acf2fc9b614d39f02","categoryId":"4bf58dd8d48988d11b941735","category":"Pub","checkinsCount":790,"usersCount":279,"tipCount":7,"visitsCount":882,"url":"http://www.jdwetherspoon.co.uk","tier":"","message":"","currency":"","rating":5.4}]