[{"name":"Cherub Inn","phone":"+441803832571","address":"13 Higher St.","lat":50.35041886020439,"lng":-3.5786595940589905,"city_fetched":"Torbay,UK","state":"Devon","country":"United Kingdom","canonicalUrl":"https://foursquare.com/v/cherub-inn/4cb9b6520180721e4da19561","categoryId":"4bf58dd8d48988d11b941735","category":"Pub","checkinsCount":123,"usersCount":84,"tipCount":6,"visitsCount":123,"tier":"","message":"","currency":"","rating":8.3},{"name":"Ye Olde Cider Bar","phone":"+441626354221","address":"99 East St.","lat":50.52899548652234,"lng":-3.6079767391674604,"city_fetched":"Torbay,UK","state":"Devon","country":"United Kingdom","canonicalUrl":"https://foursquare.com/v/ye-olde-cider-bar/4c0abcc46071a5936a21e032","categoryId":"4bf58dd8d48988d11b941735","category":"Pub","checkinsCount":172,"usersCount":121,"tipCount":2,"visitsCount":206,"tier":"","message":"","currency":"","rating":7.9},{"name":"The Hole In The Wall","phone":"+441803200755","address":"6 Park Ln.","lat":50.460819,"lng":-3.522874,"city_fetched":"Torbay,UK","state":"Devon","country":"United Kingdom","canonicalUrl":"https://foursquare.com/v/the-hole-in-the-wall/4b898083f964a520883c32e3","categoryId":"4bf58dd8d48988d11b941735","category":"Pub","checkinsCount":217,"usersCount":143,"tipCount":10,"visitsCount":231,"tier":"","message":"","currency":"","rating":7.8},{"name":"The Bowling Green","address":"Blackboy road","lat":50.729618,"lng":-3.51758,"city_fetched":"Torbay,UK","state":"Devon","country":"United Kingdom","canonicalUrl":"https://foursquare.com/v/the-bowling-green/4b5b77c6f964a520710029e3","categoryId":"4bf58dd8d48988d116941735","category":"Bar","checkinsCount":329,"usersCount":112,"tipCount":5,"visitsCount":333,"tier":"","message":"","currency":"","rating":7.8},{"name":"Rock Garden","phone":"+441803200558","address":"40-42 Swan St","lat":50.46378598359118,"lng":-3.527019634914771,"city_fetched":"Torbay,UK","state":"Devon","country":"United Kingdom","canonicalUrl":"https://foursquare.com/v/rock-garden/51e14fda498e13baf12fa4ad","categoryId":"4bf58dd8d48988d116941735","category":"Bar","checkinsCount":93,"usersCount":67,"tipCount":0,"visitsCount":112,"url":"http://www.rockgardencafe.co.uk","tier":"","message":"","currency":"","rating":7.6},{"name":"The Cary Arms","phone":"+441803327110","address":"Beach Rd.","lat":50.478646575057674,"lng":-3.50888729095459,"city_fetched":"Torbay,UK","state":"Devon","country":"United Kingdom","canonicalUrl":"https://foursquare.com/v/the-cary-arms/4b799e7ff964a520fa052fe3","categoryId":"4bf58dd8d48988d11b941735","category":"Pub","checkinsCount":171,"usersCount":113,"tipCount":7,"visitsCount":174,"url":"http://www.caryarms.co.uk","tier":"","message":"","currency":"","rating":7.6},{"name":"Shoreline Beach Bar & Restaurant","phone":"+441803556943","address":"Eastern Esplanade","lat":50.43536242772605,"lng":-3.5592942052739684,"city_fetched":"Torbay,UK","state":"Devon","country":"United Kingdom","canonicalUrl":"https://foursquare.com/v/shoreline-beach-bar--restaurant/4b59da64f964a520099c28e3","categoryId":"52e81612bcbc57f1066b7a0d","category":"Beach Bar","checkinsCount":168,"usersCount":108,"tipCount":6,"visitsCount":170,"tier":"","message":"","currency":"","rating":7.6},{"name":"The Isaac Merritt (Wetherspoon)","phone":"+441803556066","address":"54-58 Torquay Rd","lat":50.43731166193382,"lng":-3.56753058782588,"city_fetched":"Torbay,UK","state":"Devon","country":"United Kingdom","canonicalUrl":"https://foursquare.com/v/the-isaac-merritt-wetherspoon/4c87abb4821e9eb099cd8d89","categoryId":"4bf58dd8d48988d11b941735","category":"Pub","checkinsCount":598,"usersCount":170,"tipCount":4,"visitsCount":659,"url":"http://www.jdwetherspoon.co.uk","tier":"","message":"","currency":"","rating":7.4},{"name":"City Gate Hotel","phone":"+441392495811","twitter":"citygateexeter","address":"Iron Bridge, Lower North St","lat":50.72370292660438,"lng":-3.534908943600969,"city_fetched":"Torbay,UK","state":"Devon","country":"United Kingdom","canonicalUrl":"https://foursquare.com/v/city-gate-hotel/4c25dbbbf7ced13aec46256d","categoryId":"4bf58dd8d48988d11b941735","category":"Pub","checkinsCount":343,"usersCount":176,"tipCount":2,"visitsCount":371,"url":"http://www.citygatehotel.com","tier":"","message":"","currency":"","rating":7.2},{"name":"The Drum Inn","phone":"+441803690264","address":"Cockington Village","lat":50.46405403295023,"lng":-3.5609060525894165,"city_fetched":"Torbay,UK","state":"Devon","country":"United Kingdom","canonicalUrl":"https://foursquare.com/v/the-drum-inn/4bd5d3915631c9b609c8a430","categoryId":"4bf58dd8d48988d11b941735","category":"Pub","checkinsCount":148,"usersCount":126,"tipCount":8,"visitsCount":177,"tier":"","message":"","currency":"","rating":7.2},{"name":"Dolphin Inn","phone":"+441803833835","address":"5 Market St.","lat":50.351873,"lng":-3.580148,"city_fetched":"Torbay,UK","state":"Devon","country":"United Kingdom","canonicalUrl":"https://foursquare.com/v/dolphin-inn/4c5c4a169b28d13a9b5a5670","categoryId":"4bf58dd8d48988d11b941735","category":"Pub","checkinsCount":227,"usersCount":128,"tipCount":8,"visitsCount":237,"url":"http://www.venture-inns.com/dolphin-inn","tier":"","message":"","currency":"","rating":7.1},{"name":"Spinning Wheel","phone":"+441803555000","address":"19 Esplanade Rd","lat":50.43605446815491,"lng":-3.560621738433838,"city_fetched":"Torbay,UK","state":"Devon","country":"United Kingdom","canonicalUrl":"https://foursquare.com/v/spinning-wheel/4c0f92abc6cf76b0d9768251","categoryId":"4bf58dd8d48988d11b941735","category":"Pub","checkinsCount":450,"usersCount":201,"tipCount":2,"visitsCount":502,"url":"http://www.spinningwheelinn.co.uk","tier":"","message":"","currency":"","rating":7.1},{"name":"The Monkey Suit","phone":"+441392431420","address":"Sidwell St.","lat":50.72652894946282,"lng":-3.5246936582027932,"city_fetched":"Torbay,UK","state":"Devon","country":"United Kingdom","canonicalUrl":"https://foursquare.com/v/the-monkey-suit/4be5cff85254d13a519060e1","categoryId":"4bf58dd8d48988d116941735","category":"Bar","checkinsCount":540,"usersCount":339,"tipCount":8,"visitsCount":683,"tier":"","message":"","currency":"","rating":7},{"name":"Babbacombe Inn","phone":"+441803316200","address":"59 Babbacombe Downs Road","lat":50.47890601797066,"lng":-3.5130929946899414,"city_fetched":"Torbay,UK","state":"Devon","country":"United Kingdom","canonicalUrl":"https://foursquare.com/v/babbacombe-inn/4eb16f1e0cd62834990b20b4","categoryId":"4bf58dd8d48988d11b941735","category":"Pub","checkinsCount":103,"usersCount":74,"tipCount":2,"visitsCount":107,"tier":"","message":"","currency":"","rating":7},{"name":"Park Lane","phone":"+441803214446","address":"1 Torwood St.","lat":50.46113361090861,"lng":-3.5232061662924266,"city_fetched":"Torbay,UK","state":"Devon","country":"United Kingdom","canonicalUrl":"https://foursquare.com/v/park-lane/4ba6315bf964a520683a39e3","categoryId":"4bf58dd8d48988d11f941735","category":"Nightclub","checkinsCount":220,"usersCount":107,"tipCount":6,"visitsCount":226,"tier":"","message":"","currency":"","rating":6.9},{"name":"The Hare & Hounds","phone":"+441803873119","address":"Torquay Rd","lat":50.492081114131175,"lng":-3.575448989868164,"city_fetched":"Torbay,UK","state":"Devon","country":"United Kingdom","canonicalUrl":"https://foursquare.com/v/the-hare--hounds/4decc16a1f6e3ddebe05d7d4","categoryId":"4bf58dd8d48988d11b941735","category":"Pub","checkinsCount":135,"usersCount":92,"tipCount":5,"visitsCount":171,"url":"http://www.hare-and-hounds-kingskerswell.co.uk","tier":"","message":"","currency":"","rating":6.7},{"name":"Offshore Bar And Restaurant","phone":"+441803292108","twitter":"offshoretorquay","address":"13-14 Vaughan Parade","lat":50.461082196953754,"lng":-3.525440674218331,"city_fetched":"Torbay,UK","state":"Devon","country":"United Kingdom","canonicalUrl":"https://foursquare.com/v/offshore-bar-and-restaurant/4c0780468a81c9b6dc462790","categoryId":"4bf58dd8d48988d116941735","category":"Bar","checkinsCount":352,"usersCount":223,"tipCount":6,"visitsCount":374,"tier":"","message":"","currency":"","rating":6.7},{"name":"Henry's Bar","phone":"+441803551190","address":"53 Torbay Rd","lat":50.435285962452,"lng":-3.560943603515625,"city_fetched":"Torbay,UK","state":"Devon","country":"United Kingdom","canonicalUrl":"https://foursquare.com/v/henrys-bar/4c3cd15e7c1ee21e9c188d71","categoryId":"4bf58dd8d48988d11b941735","category":"Pub","checkinsCount":123,"usersCount":52,"tipCount":2,"visitsCount":124,"tier":"","message":"","currency":"","rating":6.6},{"name":"The Vigilance  (Wetherspoon)","phone":"+441803850489","address":"5 Bolton St","lat":50.39348301750263,"lng":-3.515690611032418,"city_fetched":"Torbay,UK","state":"Devon","country":"United Kingdom","canonicalUrl":"https://foursquare.com/v/the-vigilance--wetherspoon/4c87aa83821e9eb07ecc8d89","categoryId":"4bf58dd8d48988d11b941735","category":"Pub","checkinsCount":973,"usersCount":98,"tipCount":3,"visitsCount":996,"url":"http://www.jdwetherspoon.co.uk","tier":"","message":"","currency":"","rating":6.6},{"name":"The Green Ginger  (Wetherspoon)","phone":"+441803217960","address":"Lower Ground Floor Winter Garden","lat":50.46223733206078,"lng":-3.5256564617156982,"city_fetched":"Torbay,UK","state":"Devon","country":"United Kingdom","canonicalUrl":"https://foursquare.com/v/the-green-ginger--wetherspoon/4c87ac33821e9eb0fecd8d89","categoryId":"4bf58dd8d48988d11b941735","category":"Pub","checkinsCount":1179,"usersCount":450,"tipCount":11,"visitsCount":1301,"url":"http://www.jdwetherspoon.co.uk","tier":"","message":"","currency":"","rating":6.6},{"name":"The Boathouse","phone":"+441803665066","address":"Marine Dr.","lat":50.44190260100852,"lng":-3.5576133276391633,"city_fetched":"Torbay,UK","state":"Devon","country":"United Kingdom","canonicalUrl":"https://foursquare.com/v/the-boathouse/4c5557cfa724e21e621de9f7","categoryId":"4bf58dd8d48988d116941735","category":"Bar","checkinsCount":258,"usersCount":108,"tipCount":5,"visitsCount":279,"tier":"","message":"","currency":"","rating":6.6},{"name":"The Old Market House","phone":"+441803856891","address":"The Old Market House","lat":50.39634210381092,"lng":-3.5130478955909217,"city_fetched":"Torbay,UK","state":"Devon","country":"United Kingdom","canonicalUrl":"https://foursquare.com/v/the-old-market-house/4c58130d744a0f474453cacb","categoryId":"4bf58dd8d48988d11b941735","category":"Pub","checkinsCount":204,"usersCount":141,"tipCount":9,"visitsCount":213,"tier":"","message":"","currency":"","rating":6.5},{"name":"The Ness","phone":"+441626873480","address":"Ness Drive","lat":50.53788721561432,"lng":-3.499226,"city_fetched":"Torbay,UK","state":"Devon","country":"United Kingdom","canonicalUrl":"https://foursquare.com/v/the-ness/4be092624c55b6510577eab7","categoryId":"4bf58dd8d48988d11b941735","category":"Pub","checkinsCount":190,"usersCount":161,"tipCount":10,"visitsCount":240,"url":"http://theness.co.uk","tier":"","message":"","currency":"","rating":6.5},{"name":"Apple & Parrot","phone":"+441803298626","address":"17 The Strand","lat":50.4611549377441,"lng":-3.523375,"city_fetched":"Torbay,UK","state":"Devon","country":"United Kingdom","canonicalUrl":"https://foursquare.com/v/apple--parrot/4bb8a6f698c7ef3bb03f3102","categoryId":"4bf58dd8d48988d11b941735","category":"Pub","checkinsCount":377,"usersCount":128,"tipCount":4,"visitsCount":378,"url":"http://www.appleandparrot.co.uk","tier":"","message":"","currency":"","rating":6.5},{"name":"White Rock (Beefeater)","phone":"+441803698931","twitter":"beefeatergrill","address":"Long Rd S","lat":50.413998140303406,"lng":-3.579775346225835,"city_fetched":"Torbay,UK","state":"Devon","country":"United Kingdom","canonicalUrl":"https://foursquare.com/v/white-rock-beefeater/4f7ae174e4b07cdfacf218b8","categoryId":"4bf58dd8d48988d11b941735","category":"Pub","checkinsCount":162,"usersCount":95,"tipCount":4,"visitsCount":213,"url":"http://www.beefeater.co.uk/steak-restaurant/Devon/White-Rock-Paignton.html","tier":"","message":"","currency":"","rating":6.3},{"name":"The Barn Owl","phone":"+441803872130","address":"Aller Rd","lat":50.509978959042506,"lng":-3.5852604459904787,"city_fetched":"Torbay,UK","state":"Devon","country":"United Kingdom","canonicalUrl":"https://foursquare.com/v/the-barn-owl/4c29b396ce3fc9280b1f6f88","categoryId":"4bf58dd8d48988d11b941735","category":"Pub","checkinsCount":146,"usersCount":126,"tipCount":8,"visitsCount":304,"url":"http://thebarnowl.co.uk","tier":"","message":"","currency":"","rating":6.3},{"name":"The Sloop Inn (Hungry Horse)","phone":"+441803872979","address":"Newton Rd","lat":50.49988886726742,"lng":-3.578495979309082,"city_fetched":"Torbay,UK","state":"Devon","country":"United Kingdom","canonicalUrl":"https://foursquare.com/v/the-sloop-inn-hungry-horse/4c29afbefe6e2d7fce30553c","categoryId":"4bf58dd8d48988d11b941735","category":"Pub","checkinsCount":380,"usersCount":172,"tipCount":9,"visitsCount":450,"tier":"","message":"","currency":"","rating":6.3},{"name":"The Jolly Farmer","phone":"+441626354010","address":"8 Market St.","lat":50.530595358562245,"lng":-3.61206471913043,"city_fetched":"Torbay,UK","state":"Devon","country":"United Kingdom","canonicalUrl":"https://foursquare.com/v/the-jolly-farmer/4c0aceb4009a0f47491aeabf","categoryId":"4bf58dd8d48988d11b941735","category":"Pub","checkinsCount":153,"usersCount":65,"tipCount":3,"visitsCount":153,"tier":"","message":"","currency":"","rating":6.2},{"name":"The Willow Tree","phone":"+441803615245","address":"Condor Dr.","lat":50.49003341283337,"lng":-3.557145595550537,"city_fetched":"Torbay,UK","state":"Devon","country":"United Kingdom","canonicalUrl":"https://foursquare.com/v/the-willow-tree/4c5af15dec2520a1a7bc5212","categoryId":"4bf58dd8d48988d116941735","category":"Bar","checkinsCount":165,"usersCount":69,"tipCount":3,"visitsCount":169,"tier":"","message":"","currency":"","rating":6.2},{"name":"The Factory","phone":"+441803557740","address":"42-44 Torbay Rd","lat":50.435234324999996,"lng":-3.56176,"city_fetched":"Torbay,UK","state":"Devon","country":"United Kingdom","canonicalUrl":"https://foursquare.com/v/the-factory/4c94bd2e38dd8cfaaf87cb62","categoryId":"4bf58dd8d48988d116941735","category":"Bar","checkinsCount":96,"usersCount":47,"tipCount":3,"visitsCount":97,"tier":"","message":"","currency":"","rating":6.1},{"name":"The Pen Inn","phone":"+441626354661","address":"Torquay Rd","lat":50.527219448201826,"lng":-3.600822553828227,"city_fetched":"Torbay,UK","state":"Devon","country":"United Kingdom","canonicalUrl":"https://foursquare.com/v/the-pen-inn/4c41f4b13735be9ac23719a4","categoryId":"4bf58dd8d48988d11b941735","category":"Pub","checkinsCount":181,"usersCount":101,"tipCount":2,"visitsCount":213,"url":"http://www.thepeninn.co.uk","tier":"","message":"","currency":"","rating":6.1},{"name":"Shiraz","address":"2-7 Vaughan Parade","lat":50.461465716362,"lng":-3.525134,"city_fetched":"Torbay,UK","state":"Devon","country":"United Kingdom","canonicalUrl":"https://foursquare.com/v/shiraz/4c1be8ab63750f47a8adb567","categoryId":"4bf58dd8d48988d116941735","category":"Bar","checkinsCount":134,"usersCount":102,"tipCount":1,"visitsCount":135,"tier":"","message":"","currency":"","rating":6.1},{"name":"Brewers Fayre Inn On The Quay","phone":"+441803559754","twitter":"brewersfayre","address":"Tanners Rd","lat":50.42505013374108,"lng":-3.5596321441776593,"city_fetched":"Torbay,UK","country":"United Kingdom","canonicalUrl":"https://foursquare.com/v/brewers-fayre-inn-on-the-quay/4c40a63eda3dc92892acc7b9","categoryId":"4bf58dd8d48988d11b941735","category":"Pub","checkinsCount":228,"usersCount":155,"tipCount":7,"visitsCount":231,"url":"http://www.brewersfayre.co.uk/pub-restaurant/Devon/Inn-on-the-Quay-Paignton.html?utm_source=yext&utm_medium=directories&utm_campaign=BFInnOnQuayTorbay","tier":"","message":"","currency":"","rating":6},{"name":"The Belgrave (Beefeater)","phone":"+441803202282","twitter":"beefeatergrill","address":"Seafront","lat":50.46340156414205,"lng":-3.5354287316065283,"city_fetched":"Torbay,UK","state":"Devon","country":"United Kingdom","canonicalUrl":"https://foursquare.com/v/the-belgrave-beefeater/4bcf64cccaff95215415cdf0","categoryId":"4bf58dd8d48988d11b941735","category":"Pub","checkinsCount":179,"usersCount":117,"tipCount":2,"visitsCount":179,"url":"http://www.beefeater.co.uk","tier":"","message":"","currency":"","rating":5.7},{"name":"Royal Clarence Hotel","address":"Cathedral Yard","lat":50.72310468898827,"lng":-3.5303770299615396,"city_fetched":"Torbay,UK","state":"Devon","country":"United Kingdom","canonicalUrl":"https://foursquare.com/v/royal-clarence-hotel/4bd72256304fce72d81f33ab","categoryId":"4bf58dd8d48988d1d5941735","category":"Hotel Bar","checkinsCount":562,"usersCount":150,"tipCount":4,"visitsCount":564,"tier":"","message":"","currency":"","rating":5.7},{"name":"Talk of the Town (Wetherspoon)","phone":"+441803668070","address":"46-52 Torbay Rd","lat":50.43510845488176,"lng":-3.5615867557298198,"city_fetched":"Torbay,UK","state":"Devon","country":"United Kingdom","canonicalUrl":"https://foursquare.com/v/talk-of-the-town-wetherspoon/4c1fe93c8b3aa59357349e5f","categoryId":"4bf58dd8d48988d11b941735","category":"Pub","checkinsCount":541,"usersCount":307,"tipCount":3,"visitsCount":621,"url":"http://www.jdwetherspoon.co.uk","tier":"","message":"","currency":"","rating":5.7},{"name":"The London Inn (Wetherspoon)","phone":"+441803380003","address":"15-16 Strand","lat":50.46125724075972,"lng":-3.5237520933151245,"city_fetched":"Torbay,UK","state":"Devon","country":"United Kingdom","canonicalUrl":"https://foursquare.com/v/the-london-inn-wetherspoon/4be2c8ea1dd22d7f2cc894bd","categoryId":"4bf58dd8d48988d11b941735","category":"Pub","checkinsCount":760,"usersCount":390,"tipCount":11,"visitsCount":790,"url":"http://www.jdwetherspoon.co.uk","tier":"","message":"","currency":"","rating":5.7},{"name":"The Richard Hopkins (Wetherspoon)","phone":"+441626323930","address":"34-42 Queen St","lat":50.53075310836654,"lng":-3.6078030052450103,"city_fetched":"Torbay,UK","state":"Devon","country":"United Kingdom","canonicalUrl":"https://foursquare.com/v/the-richard-hopkins-wetherspoon/4c87ab9d821e9eb086cd8d89","categoryId":"4bf58dd8d48988d11b941735","category":"Pub","checkinsCount":1421,"usersCount":304,"tipCount":9,"visitsCount":1694,"url":"http://www.jdwetherspoon.co.uk","tier":"","message":"","currency":"","rating":5.5},{"name":"Appleby's (Heritage Hotel)","phone":"+441803215541","address":"Shedden Hill Rd","lat":50.46401632019625,"lng":-3.533699613046631,"city_fetched":"Torbay,UK","state":"Devon","country":"United Kingdom","canonicalUrl":"https://foursquare.com/v/applebys-heritage-hotel/4bb4fbe662fca5939c37f17e","categoryId":"4bf58dd8d48988d1d5941735","category":"Hotel Bar","checkinsCount":376,"usersCount":155,"tipCount":6,"visitsCount":434,"tier":"","message":"","currency":"","rating":5.5},{"name":"The Kents","phone":"+441803292522","twitter":"kentspub","address":"1 llsham Rd","lat":50.46671394771804,"lng":-3.507320589970934,"city_fetched":"Torbay,UK","state":"Devon","country":"United Kingdom","canonicalUrl":"https://foursquare.com/v/the-kents/4b7f114cf964a5201e1430e3","categoryId":"4bf58dd8d48988d11b941735","category":"Pub","checkinsCount":163,"usersCount":84,"tipCount":3,"visitsCount":225,"tier":"","message":"","currency":"","rating":5.5},{"name":"Vaults","address":"Gandy St","lat":50.72441464367363,"lng":-3.5310637950897217,"city_fetched":"Torbay,UK","state":"Devon","country":"United Kingdom","canonicalUrl":"https://foursquare.com/v/vaults/4bef1cf1d1b7d13a6459cdec","categoryId":"4bf58dd8d48988d1d8941735","category":"Gay Bar","checkinsCount":132,"usersCount":75,"tipCount":2,"visitsCount":134,"tier":"","message":"","currency":"","rating":5.4}]