[{"name":"Edgcumbe Arms","phone":"+441752822294","address":"Cremyll","lat":50.36047623417309,"lng":-4.175325036048889,"neighborhood":"Cremyll","city_fetched":"Torpoint,UK","state":"Cornwall","country":"United Kingdom","canonicalUrl":"https://foursquare.com/v/edgcumbe-arms/4c32036e7cc0c9b68690ef9a","categoryId":"4bf58dd8d48988d11b941735","category":"Pub","checkinsCount":188,"usersCount":177,"tipCount":7,"visitsCount":230,"tier":"","message":"","currency":"","rating":8.1},{"name":"Finnygook Inn","address":"Crafthole","lat":50.36502957344055,"lng":-4.299280643463135,"city_fetched":"Torpoint,UK","state":"Cornwall","country":"United Kingdom","canonicalUrl":"https://foursquare.com/v/finnygook-inn/4d3c79078edf3704568fb0a5","categoryId":"4bf58dd8d48988d11b941735","category":"Pub","checkinsCount":65,"usersCount":62,"tipCount":4,"visitsCount":91,"tier":"","message":"","currency":"","rating":7.5},{"name":"The Britannia Inn (Wetherspoon)","phone":"+441752607596","address":"1 Wolseley Rd","lat":50.385537663600836,"lng":-4.157209396362305,"city_fetched":"Torpoint,UK","state":"Devon","country":"United Kingdom","canonicalUrl":"https://foursquare.com/v/the-britannia-inn-wetherspoon/4c87abc1821e9eb0a3cd8d89","categoryId":"4bf58dd8d48988d11b941735","category":"Pub","checkinsCount":1272,"usersCount":250,"tipCount":11,"visitsCount":1410,"url":"http://www.jdwetherspoon.co.uk","tier":"","message":"","currency":"","rating":6.3}]