[{"name":"The Castle Inn","phone":"+441225865657","address":"10 Mount Pleasant","lat":51.35035034067344,"lng":-2.2492952299624482,"city_fetched":"Trowbridge,UK","state":"Wiltshire","country":"United Kingdom","canonicalUrl":"https://foursquare.com/v/the-castle-inn/4b93a7aef964a520c94b34e3","categoryId":"4bf58dd8d48988d11b941735","category":"Pub","checkinsCount":669,"usersCount":206,"tipCount":8,"visitsCount":823,"tier":"","message":"","currency":"","rating":8.4},{"name":"The Lock Inn","phone":"+441225868068","address":"Frome Rd.","lat":51.3417278260755,"lng":-2.2520977307940484,"city_fetched":"Trowbridge,UK","state":"Wiltshire","country":"United Kingdom","canonicalUrl":"https://foursquare.com/v/the-lock-inn/4bb9e1ffb35776b0153dca01","categoryId":"4bf58dd8d48988d11b941735","category":"Pub","checkinsCount":204,"usersCount":167,"tipCount":11,"visitsCount":244,"url":"http://www.thelockinn.co.uk","tier":"","message":"","currency":"","rating":7.6},{"name":"The Somerset Arms","phone":"+441380870067","address":"High Street","lat":51.34539306163788,"lng":-2.147736,"city_fetched":"Trowbridge,UK","state":"Wiltshire","country":"United Kingdom","canonicalUrl":"https://foursquare.com/v/the-somerset-arms/4c28cc29e19720a13674f858","categoryId":"4bf58dd8d48988d11b941735","category":"Pub","checkinsCount":51,"usersCount":47,"tipCount":3,"visitsCount":58,"url":"http://www.somersetarmssemington.co.uk","tier":"","message":"","currency":"","rating":7.1},{"name":"The Albany Palace (Wetherspoon)","phone":"+441225781980","address":"1 Park Rd","lat":51.3199648,"lng":-2.206213,"city_fetched":"Trowbridge,UK","state":"Wiltshire","country":"United Kingdom","canonicalUrl":"https://foursquare.com/v/the-albany-palace-wetherspoon/4c378a700a71c9b6b30a3fc9","categoryId":"4bf58dd8d48988d11b941735","category":"Pub","checkinsCount":260,"usersCount":94,"tipCount":3,"visitsCount":261,"url":"http://www.jdwetherspoon.co.uk","tier":"","message":"","currency":"","rating":6.6},{"name":"Sir Isaac Pitman (Wetherspoon)","phone":"+441225763287","address":"1-2 Castle Place","lat":51.32009303843333,"lng":-2.207457435511515,"city_fetched":"Trowbridge,UK","state":"Wiltshire","country":"United Kingdom","canonicalUrl":"https://foursquare.com/v/sir-isaac-pitman-wetherspoon/4bf56ddde6d6b7132675642e","categoryId":"4bf58dd8d48988d11b941735","category":"Pub","checkinsCount":142,"usersCount":73,"tipCount":3,"visitsCount":142,"url":"http://www.jdwetherspoon.co.uk/home/pubs/sir-isaac-pitman","tier":"","message":"","currency":"","rating":6.3},{"name":"The Twelve Bells","phone":"+441225752905","address":"2 Seymour Road","lat":51.324067186752096,"lng":-2.2125379224993176,"city_fetched":"Trowbridge,UK","state":"Wiltshire","country":"United Kingdom","canonicalUrl":"https://foursquare.com/v/the-twelve-bells/4bf56e79e6d6b7133f75642e","categoryId":"4bf58dd8d48988d11b941735","category":"Pub","checkinsCount":17,"usersCount":6,"tipCount":1,"visitsCount":17,"tier":"","message":"","currency":"","rating":6},{"name":"The Barge Inn","phone":"+441225863403","address":"17 Frome Rd","lat":51.340225904846996,"lng":-2.25193339380681,"city_fetched":"Trowbridge,UK","state":"Wiltshire","country":"United Kingdom","canonicalUrl":"https://foursquare.com/v/the-barge-inn/4bf845e05ec320a1d87988d3","categoryId":"4bf58dd8d48988d11b941735","category":"Pub","checkinsCount":136,"usersCount":84,"tipCount":6,"visitsCount":144,"url":"http://thebargeinn.co.uk","tier":"","message":"","currency":"","rating":5.9}]