[{"name":"Fuggles Beer Café","phone":"+441892457739","twitter":"fugglesbeercafe","address":"28 Grosvenor Road","lat":51.13550644195938,"lng":0.2633021471669397,"city_fetched":"Tunbridge Wells,UK","state":"Kent","country":"United Kingdom","canonicalUrl":"https://foursquare.com/v/fuggles-beer-caf%C3%A9/528a874f11d269ef28ba9f8c","categoryId":"4bf58dd8d48988d116941735","category":"Bar","checkinsCount":489,"usersCount":171,"tipCount":7,"visitsCount":743,"url":"http://www.fugglesbeercafe.co.uk","tier":"","message":"","currency":"","rating":9},{"name":"Sankey's","phone":"+441892511422","twitter":"sankeysrtw","address":"39 Mount Ephraim","lat":51.13544334333894,"lng":0.2604961395263672,"city_fetched":"Tunbridge Wells,UK","state":"Kent","country":"United Kingdom","canonicalUrl":"https://foursquare.com/v/sankeys/4b47bd7ef964a520ad3c26e3","categoryId":"4bf58dd8d48988d11b941735","category":"Pub","checkinsCount":941,"usersCount":338,"tipCount":17,"visitsCount":1083,"url":"http://www.sankeys.co.uk","tier":"","message":"","currency":"","rating":8.6},{"name":"Nevill Crest & Gun","phone":"+441892864209","address":"Eridge Green","lat":51.099857820047795,"lng":0.2239387070865896,"city_fetched":"Tunbridge Wells,UK","state":"Kent","country":"United Kingdom","canonicalUrl":"https://foursquare.com/v/nevill-crest--gun/4c52a0972d519521089e4390","categoryId":"4bf58dd8d48988d11b941735","category":"Pub","checkinsCount":141,"usersCount":151,"tipCount":2,"visitsCount":220,"tier":"","message":"","currency":"","rating":8.4},{"name":"Mount Edgcumbe","phone":"+441892618854","twitter":"tmountedgcumbe","address":"The Common","lat":51.131100904801215,"lng":0.25542140007019043,"city_fetched":"Tunbridge Wells,UK","state":"Kent","country":"United Kingdom","canonicalUrl":"https://foursquare.com/v/mount-edgcumbe/4bc77d9e15a7ef3bee8079da","categoryId":"4bf58dd8d48988d11b941735","category":"Pub","checkinsCount":135,"usersCount":116,"tipCount":6,"visitsCount":185,"url":"http://themountedgcumbe.com","tier":"","message":"","currency":"","rating":8.3},{"name":"The Beacon Hotel","phone":"+441892524252","address":"Tea Garden Lane","lat":51.130191970636375,"lng":0.23157119750976562,"city_fetched":"Tunbridge Wells,UK","state":"Kent","country":"United Kingdom","canonicalUrl":"https://foursquare.com/v/the-beacon-hotel/4bce9ccecc8cd13afbafc4cf","categoryId":"4bf58dd8d48988d11b941735","category":"Pub","checkinsCount":163,"usersCount":172,"tipCount":9,"visitsCount":253,"url":"http://www.the-beacon.co.uk","tier":"","message":"","currency":"","rating":8},{"name":"Beau Nash","address":"62 Mount Ephraim","lat":51.134865,"lng":0.25828532,"city_fetched":"Tunbridge Wells,UK","state":"Kent","country":"United Kingdom","canonicalUrl":"https://foursquare.com/v/beau-nash/4bd08e0e41b9ef3b9e51fae5","categoryId":"4bf58dd8d48988d11b941735","category":"Pub","checkinsCount":189,"usersCount":85,"tipCount":4,"visitsCount":203,"tier":"","message":"","currency":"","rating":7.9},{"name":"The Compasses","address":"45 Little Mount Sion","lat":51.127383959286014,"lng":0.26356490875102556,"city_fetched":"Tunbridge Wells,UK","state":"Kent","country":"United Kingdom","canonicalUrl":"https://foursquare.com/v/the-compasses/4ba53273f964a52085ea38e3","categoryId":"4bf58dd8d48988d116941735","category":"Bar","checkinsCount":345,"usersCount":142,"tipCount":6,"visitsCount":419,"tier":"","message":"","currency":"","rating":7.8},{"name":"The Spotted Dog","address":"Smarts Hill","lat":51.156862,"lng":0.175212,"city_fetched":"Tunbridge Wells,UK","state":"Kent","country":"United Kingdom","canonicalUrl":"https://foursquare.com/v/the-spotted-dog/4b5c5975f964a520f82b29e3","categoryId":"4bf58dd8d48988d11b941735","category":"Pub","checkinsCount":112,"usersCount":117,"tipCount":5,"visitsCount":152,"tier":"","message":"","currency":"","rating":7.8},{"name":"Tunbridge Wells Bar & Grill","phone":"+441892522963","address":"84 High St.","lat":51.12775042672675,"lng":0.2606272109581966,"city_fetched":"Tunbridge Wells,UK","state":"Kent","country":"United Kingdom","canonicalUrl":"https://foursquare.com/v/tunbridge-wells-bar--grill/4bdc6b7af1499c74866c38f3","categoryId":"4bf58dd8d48988d116941735","category":"Bar","checkinsCount":417,"usersCount":205,"tipCount":4,"visitsCount":455,"url":"http://www.therestaurantbarandgrill.co.uk/tunbridge.html","tier":"","message":"","currency":"","rating":7.5},{"name":"The Bedford","phone":"+441892510133","twitter":"thebedfordtw","address":"2 High Street","lat":51.12940876736916,"lng":0.2628929979315225,"city_fetched":"Tunbridge Wells,UK","state":"Kent","country":"United Kingdom","canonicalUrl":"https://foursquare.com/thebedfordtw","categoryId":"4bf58dd8d48988d11b941735","category":"Pub","checkinsCount":289,"usersCount":125,"tipCount":6,"visitsCount":291,"url":"http://www.thebedfordtw.co.uk","tier":2,"message":"Moderate","currency":"£","rating":7.5},{"name":"The Duke Of York","lat":51.12629611421186,"lng":0.25821693566146475,"city_fetched":"Tunbridge Wells,UK","country":"United Kingdom","canonicalUrl":"https://foursquare.com/v/the-duke-of-york/4bb5d5682ea1952171cbaa2f","categoryId":"4bf58dd8d48988d11b941735","category":"Pub","checkinsCount":328,"usersCount":154,"tipCount":3,"visitsCount":335,"tier":"","message":"","currency":"","rating":7.3},{"name":"The Hand & Sceptre","address":"21 London Rd","lat":51.163749,"lng":0.253988,"city_fetched":"Tunbridge Wells,UK","state":"Kent","country":"United Kingdom","canonicalUrl":"https://foursquare.com/v/the-hand--sceptre/4c3782e33849c92807d7bdb1","categoryId":"4bf58dd8d48988d11b941735","category":"Pub","checkinsCount":204,"usersCount":187,"tipCount":3,"visitsCount":356,"tier":"","message":"","currency":"","rating":7.1},{"name":"The Ragged Trousers","phone":"+441892542715","address":"44 The Pantiles","lat":51.12590290658849,"lng":0.2571648359298706,"city_fetched":"Tunbridge Wells,UK","state":"Kent","country":"United Kingdom","canonicalUrl":"https://foursquare.com/v/the-ragged-trousers/4ba29544f964a5207b0638e3","categoryId":"4bf58dd8d48988d116941735","category":"Bar","checkinsCount":485,"usersCount":184,"tipCount":4,"visitsCount":496,"tier":"","message":"","currency":"","rating":7},{"name":"The Opera House (Wetherspoon)","phone":"+441892511770","address":"88 Mount Pleasant Rd.","lat":51.13368621972383,"lng":0.2639293670654297,"city_fetched":"Tunbridge Wells,UK","state":"Kent","country":"United Kingdom","canonicalUrl":"https://foursquare.com/v/the-opera-house-wetherspoon/4b86bb83f964a520879931e3","categoryId":"4bf58dd8d48988d11b941735","category":"Pub","checkinsCount":1211,"usersCount":360,"tipCount":14,"visitsCount":1292,"url":"http://www.jdwetherspoon.co.uk","tier":"","message":"","currency":"","rating":6.9},{"name":"Saint Johns Yard","lat":51.141612,"lng":0.260429,"city_fetched":"Tunbridge Wells,UK","country":"United Kingdom","canonicalUrl":"https://foursquare.com/v/saint-johns-yard/4c165d29a9c220a1ea815a9d","categoryId":"4bf58dd8d48988d116941735","category":"Bar","checkinsCount":190,"usersCount":87,"tipCount":6,"visitsCount":245,"tier":"","message":"","currency":"","rating":6.6},{"name":"The Bull (Shepherd Neame)","phone":"+441892536526","address":"79 Frant Rd","lat":51.118408,"lng":0.259991,"city_fetched":"Tunbridge Wells,UK","state":"Kent","country":"United Kingdom","canonicalUrl":"https://foursquare.com/v/the-bull-shepherd-neame/4bcdade88920b713f40da0dc","categoryId":"4bf58dd8d48988d11b941735","category":"Pub","checkinsCount":23,"usersCount":33,"tipCount":1,"visitsCount":58,"url":"http://www.shepherdneame.co.uk","tier":"","message":"","currency":"","rating":6.6},{"name":"The Imperial - Shepherd Neame","phone":"+441892528757","address":"London Road","lat":51.16145575788822,"lng":0.25660157203674316,"city_fetched":"Tunbridge Wells,UK","state":"Kent","country":"United Kingdom","canonicalUrl":"https://foursquare.com/v/the-imperial--shepherd-neame/4c246e85c11dc9b6a8732524","categoryId":"4bf58dd8d48988d11b941735","category":"Pub","checkinsCount":78,"usersCount":48,"tipCount":1,"visitsCount":109,"url":"http://www.shepherdneame.co.uk","tier":"","message":"","currency":"","rating":6.6},{"name":"The Nelson Arms - Shepherd Neame","phone":"+441732350822","address":"Cromer St","lat":51.192797547107986,"lng":0.26462405920028687,"city_fetched":"Tunbridge Wells,UK","state":"Kent","country":"United Kingdom","canonicalUrl":"https://foursquare.com/v/the-nelson-arms--shepherd-neame/4dc19b8b8877c00d6adcbcbf","categoryId":"4bf58dd8d48988d11b941735","category":"Pub","checkinsCount":69,"usersCount":11,"tipCount":1,"visitsCount":69,"url":"http://www.shepherdneame.co.uk","tier":"","message":"","currency":"","rating":6.5},{"name":"The Black Horse - Shepherd Neame","phone":"+441892523910","address":"Camden Road","lat":51.13802841514794,"lng":0.2702164649963379,"city_fetched":"Tunbridge Wells,UK","state":"Kent","country":"United Kingdom","canonicalUrl":"https://foursquare.com/v/the-black-horse--shepherd-neame/4e143ee0b3ad51e832e99b92","categoryId":"4bf58dd8d48988d11b941735","category":"Pub","checkinsCount":16,"usersCount":14,"tipCount":1,"visitsCount":16,"url":"http://www.shepherdneame.co.uk","tier":"","message":"","currency":"","rating":6.4},{"name":"The Barn - Shepherd Neame","phone":"+441892510424","address":"1 Lonsdale Gardens","lat":51.130902287381566,"lng":0.26282966136932373,"city_fetched":"Tunbridge Wells,UK","state":"Kent","country":"United Kingdom","canonicalUrl":"https://foursquare.com/v/the-barn--shepherd-neame/4bacb1f6f964a52091043be3","categoryId":"4bf58dd8d48988d11b941735","category":"Pub","checkinsCount":310,"usersCount":161,"tipCount":7,"visitsCount":315,"url":"http://www.shepherdneame.co.uk","tier":"","message":"","currency":"","rating":6},{"name":"The Humphrey Bean (Wetherspoon)","phone":"+441732773850","address":"94 High St.","lat":51.195188,"lng":0.274279,"city_fetched":"Tunbridge Wells,UK","state":"Kent","country":"United Kingdom","canonicalUrl":"https://foursquare.com/v/the-humphrey-bean-wetherspoon/4bb8c51acf2fc9b614d39f02","categoryId":"4bf58dd8d48988d11b941735","category":"Pub","checkinsCount":790,"usersCount":279,"tipCount":7,"visitsCount":882,"url":"http://www.jdwetherspoon.co.uk","tier":"","message":"","currency":"","rating":5.4}]