[{"name":"The Griffin Inn","phone":"+441825722890","twitter":"griffininnpub","address":"High St","lat":50.993698298381446,"lng":0.03439259555435437,"city_fetched":"Uckfield,UK","state":"East Sussex","country":"United Kingdom","canonicalUrl":"https://foursquare.com/v/the-griffin-inn/4bd45c4877b29c74aa739282","categoryId":"4bf58dd8d48988d11b941735","category":"Pub","checkinsCount":234,"usersCount":183,"tipCount":13,"visitsCount":288,"url":"http://thegriffininn.co.uk","tier":"","message":"","currency":"","rating":8.4},{"name":"Highlands Pub","lat":50.96095160399348,"lng":0.09976704902753872,"city_fetched":"Uckfield,UK","state":"East Sussex","country":"United Kingdom","canonicalUrl":"https://foursquare.com/v/highlands-pub/4bc6c33604e8b713e47e362d","categoryId":"4bf58dd8d48988d11b941735","category":"Pub","checkinsCount":143,"usersCount":106,"tipCount":3,"visitsCount":238,"tier":"","message":"","currency":"","rating":7.5},{"name":"Blackboys Inn","address":"Lewes R","lat":50.96258941770532,"lng":0.1659107208251953,"city_fetched":"Uckfield,UK","state":"Brighton and Hove","country":"United Kingdom","canonicalUrl":"https://foursquare.com/v/blackboys-inn/4be321091dd22d7f25cc95bd","categoryId":"4bf58dd8d48988d11b941735","category":"Pub","checkinsCount":93,"usersCount":74,"tipCount":2,"visitsCount":132,"tier":"","message":"","currency":"","rating":7.2},{"name":"The Bull - Shepherd Neame","phone":"+441825722055","twitter":"shepherdneame","address":"The Green","lat":50.974021392911254,"lng":0.01922607421875,"city_fetched":"Uckfield,UK","state":"East Sussex","country":"United Kingdom","canonicalUrl":"https://foursquare.com/v/the-bull--shepherd-neame/4e244157814d32181a6f166e","categoryId":"4bf58dd8d48988d11b941735","category":"Pub","checkinsCount":48,"usersCount":49,"tipCount":0,"visitsCount":64,"url":"http://www.shepherdneame.co.uk","tier":"","message":"","currency":"","rating":6.7}]