[{"name":"The Water Bridge","phone":"+441889561800","address":"Derby Rd","lat":52.90716406490615,"lng":-1.8540005157007446,"city_fetched":"Uttoxeter,UK","state":"Staffordshire","country":"United Kingdom","canonicalUrl":"https://foursquare.com/v/the-water-bridge/4c680bfeb80abe9ab50bd1e5","categoryId":"4bf58dd8d48988d11b941735","category":"Pub","checkinsCount":157,"usersCount":135,"tipCount":1,"visitsCount":180,"url":"http://www.tabletable.co.uk/content/tabletable/our-pubs/derbyshire/the-waterbridge.html","tier":"","message":"","currency":"","rating":5.9},{"name":"The Old Swan (Wetherspoon)","phone":"+441889598650","address":"7-19 Queen St","lat":52.89807597632444,"lng":-1.8633393290686822,"city_fetched":"Uttoxeter,UK","state":"Staffordshire","country":"United Kingdom","canonicalUrl":"https://foursquare.com/v/the-old-swan-wetherspoon/4c1bf91063750f4791ccb567","categoryId":"4bf58dd8d48988d11b941735","category":"Pub","checkinsCount":761,"usersCount":188,"tipCount":5,"visitsCount":798,"url":"http://www.jdwetherspoon.co.uk","tier":"","message":"","currency":"","rating":5.8},{"name":"The Dapple Grey","phone":"+441889562117","twitter":"thedapplegrey","address":"Town Meadows Way","lat":52.900922,"lng":-1.860144,"city_fetched":"Uttoxeter,UK","state":"Staffordshire","country":"United Kingdom","canonicalUrl":"https://foursquare.com/v/the-dapple-grey/4d039d3cc2e5370479d7b267","categoryId":"4bf58dd8d48988d11b941735","category":"Pub","checkinsCount":261,"usersCount":154,"tipCount":4,"visitsCount":307,"url":"http://www.dapplegreypub.co.uk","tier":"","message":"","currency":"","rating":5.2}]