[{"name":"The Hop","phone":"+441924367111","twitter":"thehopwakefield","address":"19 Bank St","lat":53.68146,"lng":-1.501267,"city_fetched":"Wakefield","country":"United Kingdom","canonicalUrl":"https://foursquare.com/v/the-hop/4b4c661df964a5203fb226e3","category":"Pub","checkinsCount":742,"usersCount":305,"tipCount":10,"visitsCount":828,"url":"http://www.myspace.com/thehopwakefield","tier":"","message":"","currency":"","rating":8.3},{"name":"The Cricketers Arms","address":"22 Cluntergate","lat":53.65933729630816,"lng":-1.5520519606179326,"city_fetched":"Wakefield","country":"United Kingdom","canonicalUrl":"https://foursquare.com/v/the-cricketers-arms/4d2d7b756cdea090291c5243","category":"Pub","checkinsCount":364,"usersCount":62,"tipCount":3,"visitsCount":378,"tier":"","message":"","currency":"","rating":8.2},{"name":"Harry's Bar","phone":"+448721077077","address":"107b Westgate","lat":53.681007486441544,"lng":-1.5033888816833496,"city_fetched":"Wakefield","country":"United Kingdom","canonicalUrl":"https://foursquare.com/v/harrys-bar/4b80477af964a5208f6330e3","category":"Pub","checkinsCount":270,"usersCount":93,"tipCount":5,"visitsCount":281,"tier":"","message":"","currency":"","rating":7.8},{"name":"Fernandes Brewery Tap and Bier Keller","phone":"+441924369547","address":"Avison Yard","lat":53.680325,"lng":-1.49297,"city_fetched":"Wakefield","country":"United Kingdom","canonicalUrl":"https://foursquare.com/v/fernandes-brewery-tap-and-bier-keller/4b6c6601f964a520d0362ce3","category":"Brewery","checkinsCount":311,"usersCount":144,"tipCount":4,"visitsCount":334,"tier":"","message":"","currency":"","rating":7.4},{"name":"Holmfield Arms","phone":"+441924375953","address":"Thornes Park, Denby Dale Road","lat":53.671486,"lng":-1.506359,"city_fetched":"Wakefield","state":"Wakefield","country":"United Kingdom","canonicalUrl":"https://foursquare.com/v/holmfield-arms/4b45a1fff964a520be0e26e3","category":"Hotel","checkinsCount":176,"usersCount":112,"tipCount":3,"visitsCount":208,"tier":"","message":"","currency":"","rating":7.4},{"name":"Silkwood Farm","phone":"+441924283517","twitter":"silkwoodfarmpub","address":"Mothers Way","lat":53.68341273511352,"lng":-1.5460014453571274,"city_fetched":"Wakefield","country":"United Kingdom","canonicalUrl":"https://foursquare.com/v/silkwood-farm/4fa562efe4b0dd0f1297d165","category":"Pub","checkinsCount":286,"usersCount":173,"tipCount":5,"visitsCount":419,"url":"http://www.silkwoodfarmpub.co.uk","tier":"","message":"","currency":"","rating":7.2},{"name":"Henry Boons","phone":"+441924378126","address":"130 Westgate","lat":53.681272457754815,"lng":-1.5055250137846665,"city_fetched":"Wakefield","state":"Wakefield","country":"United Kingdom","canonicalUrl":"https://foursquare.com/v/henry-boons/4b44d84bf964a520f5fd25e3","category":"Bar","checkinsCount":302,"usersCount":128,"tipCount":5,"visitsCount":310,"tier":"","message":"","currency":"","rating":7.1},{"name":"The Gate","phone":"+441924299627","address":"60 Northgate","lat":53.6842102,"lng":-1.4990534,"city_fetched":"Wakefield","state":"Wakefield","country":"United Kingdom","canonicalUrl":"https://foursquare.com/v/the-gate/4b461418f964a520ad1526e3","category":"Bar","checkinsCount":113,"usersCount":79,"tipCount":2,"visitsCount":114,"tier":"","message":"","currency":"","rating":6.9},{"name":"The Swan And Cygnet","phone":"+441924242499","address":"Denby Dale Rd.","lat":53.6587037194187,"lng":-1.5127229690551758,"city_fetched":"Wakefield","country":"United Kingdom","canonicalUrl":"https://foursquare.com/v/the-swan-and-cygnet/4c28f0b49fb5d13a4c5f9a57","category":"Bar","checkinsCount":338,"usersCount":144,"tipCount":1,"visitsCount":399,"tier":"","message":"","currency":"","rating":6.6},{"name":"The Castle Pub","lat":53.657158561814086,"lng":-1.4839227658165863,"city_fetched":"Wakefield","country":"United Kingdom","canonicalUrl":"https://foursquare.com/v/the-castle-pub/4d3e800944f5a093c54ddebb","category":"Pub","checkinsCount":133,"usersCount":83,"tipCount":3,"visitsCount":194,"tier":"","message":"","currency":"","rating":6.5},{"name":"The Ruddy Duck PH","address":"Bridge Street","lat":53.67442078462367,"lng":-1.4893790378521605,"city_fetched":"Wakefield","state":"Wakefield","country":"United Kingdom","canonicalUrl":"https://foursquare.com/v/the-ruddy-duck-ph/50055d9be4b06a37b1d96410","category":"Pub","checkinsCount":192,"usersCount":129,"tipCount":5,"visitsCount":242,"tier":"","message":"","currency":"","rating":6.4},{"name":"The Dam Inn","phone":"+441924255625","address":"669 Barnsley Rd.","lat":53.63851510588426,"lng":-1.4980012282753161,"city_fetched":"Wakefield","country":"United Kingdom","canonicalUrl":"https://foursquare.com/v/the-dam-inn/4ba4c0c1f964a520dfb138e3","category":"Diner","checkinsCount":119,"usersCount":75,"tipCount":5,"visitsCount":119,"url":"http://www.thedaminnwakefield.co.uk","tier":1,"message":"Cheap","currency":"Â£","rating":6.4},{"name":"The Six Chimneys (Wetherspoon)","phone":"+441924239449","address":"41-43 Kirkgate","lat":53.6828616,"lng":-1.4944812,"city_fetched":"Wakefield","country":"United Kingdom","canonicalUrl":"https://foursquare.com/v/the-six-chimneys-wetherspoon/4c87ac3f821e9eb006ce8d89","category":"Pub","checkinsCount":430,"usersCount":181,"tipCount":5,"visitsCount":438,"url":"http://www.jdwetherspoon.co.uk","tier":"","message":"","currency":"","rating":6.2},{"name":"Rhubarb Triangle","lat":53.698846906427825,"lng":-1.5079091411781484,"city_fetched":"Wakefield","country":"United Kingdom","canonicalUrl":"https://foursquare.com/v/rhubarb-triangle/4f12c844e4b038020409886c","category":"Gastropub","checkinsCount":212,"usersCount":121,"tipCount":7,"visitsCount":255,"tier":"","message":"","currency":"","rating":6.1},{"name":"The Red Kite","phone":"+441924251542","address":"Denby Dale Rd.","lat":53.65252344316531,"lng":-1.5225934982299805,"city_fetched":"Wakefield","country":"United Kingdom","canonicalUrl":"https://foursquare.com/v/the-red-kite/4b4508acf964a520e80126e3","category":"Pub","checkinsCount":470,"usersCount":281,"tipCount":12,"visitsCount":580,"url":"http://www.vintageinn.co.uk/theredkitewakefield/","tier":"","message":"","currency":"","rating":6},{"name":"Brewers Fayre","phone":"+448708506302","address":"Red Hall Court","lat":53.698711,"lng":-1.507858,"city_fetched":"Wakefield","state":"Wakefield","country":"United Kingdom","canonicalUrl":"https://foursquare.com/v/brewers-fayre/4b44f00ff964a520450026e3","category":"Pub","checkinsCount":165,"usersCount":83,"tipCount":4,"visitsCount":165,"tier":"","message":"","currency":"","rating":5.8},{"name":"The Walnut Tree","address":"Barnsley Rd, Sandal","lat":53.650713740459,"lng":-1.4908054403714133,"city_fetched":"Wakefield","state":"Wakefield","country":"United Kingdom","canonicalUrl":"https://foursquare.com/v/the-walnut-tree/4c28fbbefe6e2d7f721f543c","category":"Brewery","checkinsCount":202,"usersCount":93,"tipCount":4,"visitsCount":221,"tier":"","message":"","currency":"","rating":5.7},{"name":"Reflex 80's Bar","lat":53.68232534669611,"lng":-1.500732810260362,"city_fetched":"Wakefield","country":"United Kingdom","canonicalUrl":"https://foursquare.com/v/reflex-80s-bar/4cc2070742d1b60cabbb0d13","category":"Bar","checkinsCount":68,"usersCount":56,"tipCount":2,"visitsCount":68,"tier":"","message":"","currency":"","rating":5.6},{"name":"The Old Mill","lat":53.66539160537193,"lng":-1.5406686657182522,"city_fetched":"Wakefield","country":"United Kingdom","canonicalUrl":"https://foursquare.com/v/the-old-mill/4ba64f88f964a520ed4439e3","category":"Pub","checkinsCount":147,"usersCount":58,"tipCount":6,"visitsCount":150,"tier":"","message":"","currency":"","rating":5.5}]