[{"name":"The Nag's Head","phone":"+441189574649","twitter":"nagsheadreading","address":"5 Russell St","lat":51.45457518213495,"lng":-0.9822919964790344,"city_fetched":"Wallingford,UK","country":"United Kingdom","canonicalUrl":"https://foursquare.com/v/the-nags-head/4addf273f964a520a26621e3","categoryId":"4bf58dd8d48988d11b941735","category":"Pub","checkinsCount":1955,"usersCount":492,"tipCount":18,"visitsCount":2418,"url":"http://nagsheadreading.com","tier":"","message":"","currency":"","rating":8.8},{"name":"The Isis Farmhouse","phone":"+441865243870","address":"The Towing Path, Iffley Lock","lat":51.730759470968636,"lng":-1.2414926290512085,"city_fetched":"Wallingford,UK","state":"Oxfordshire","country":"United Kingdom","canonicalUrl":"https://foursquare.com/v/the-isis-farmhouse/4bc9f561cc8cd13aa58bbccf","categoryId":"4bf58dd8d48988d11b941735","category":"Pub","checkinsCount":511,"usersCount":347,"tipCount":17,"visitsCount":639,"tier":"","message":"","currency":"","rating":8.8},{"name":"The Packhorse","lat":51.497933,"lng":-1.0047016684843264,"city_fetched":"Wallingford,UK","state":"Oxfordshire","country":"United Kingdom","canonicalUrl":"https://foursquare.com/v/the-packhorse/4b8a663ef964a520576b32e3","categoryId":"4bf58dd8d48988d11b941735","category":"Pub","checkinsCount":141,"usersCount":162,"tipCount":8,"visitsCount":215,"tier":"","message":"","currency":"","rating":8.8},{"name":"The Castle Tap","phone":"+441189590172","twitter":"castle_tap","address":"120 Castle St","lat":51.45189764866534,"lng":-0.9788661137049237,"city_fetched":"Wallingford,UK","state":"Berkshire","country":"United Kingdom","canonicalUrl":"https://foursquare.com/v/the-castle-tap/54edcfc5498e8773f43f4756","categoryId":"4bf58dd8d48988d11b941735","category":"Pub","checkinsCount":135,"usersCount":109,"tipCount":4,"visitsCount":294,"url":"http://thecastletap.co.uk","tier":"","message":"","currency":"","rating":8.7},{"name":"The Greyfriar","phone":"+441189580560","twitter":"thegreyfriarrdg","address":"53 Greyfriars Rd","lat":51.458666029950194,"lng":-0.9755219807786496,"city_fetched":"Wallingford,UK","country":"United Kingdom","canonicalUrl":"https://foursquare.com/v/the-greyfriar/52fc6bee498e6578f5536619","categoryId":"4bf58dd8d48988d11b941735","category":"Pub","checkinsCount":502,"usersCount":187,"tipCount":10,"visitsCount":587,"url":"http://www.thegreyfriarreading.co.uk","tier":"","message":"","currency":"","rating":8.6},{"name":"The Chester","phone":"+441865790438","twitter":"thechesterox4","lat":51.741796,"lng":-1.240417,"city_fetched":"Wallingford,UK","country":"United Kingdom","canonicalUrl":"https://foursquare.com/v/the-chester/541c5a93498e3fbc9980d2c4","categoryId":"4bf58dd8d48988d11b941735","category":"Pub","checkinsCount":123,"usersCount":113,"tipCount":6,"visitsCount":245,"tier":"","message":"","currency":"","rating":8.6},{"name":"Rusty Bicycle","phone":"+441865204842","twitter":"rustybicycle","address":"28 Magdalen Rd","lat":51.742932,"lng":-1.234185,"city_fetched":"Wallingford,UK","state":"Oxfordshire","country":"United Kingdom","canonicalUrl":"https://foursquare.com/v/rusty-bicycle/4b0da7f7f964a520464d23e3","categoryId":"4bf58dd8d48988d11b941735","category":"Pub","checkinsCount":886,"usersCount":421,"tipCount":17,"visitsCount":1138,"url":"http://www.therustybicycle.com","tier":"","message":"","currency":"","rating":8.6},{"name":"The Catherine Wheel","twitter":"tcwgoring","address":"Station road","lat":51.52147481715572,"lng":-1.1370205879211426,"city_fetched":"Wallingford,UK","state":"Oxfordshire","country":"United Kingdom","canonicalUrl":"https://foursquare.com/v/the-catherine-wheel/4bfed4dc4e5d0f47b33a7d1f","categoryId":"4bf58dd8d48988d11b941735","category":"Pub","checkinsCount":148,"usersCount":135,"tipCount":5,"visitsCount":220,"tier":"","message":"","currency":"","rating":8.4},{"name":"Joe Perks & Co.","twitter":"joeperksandco","address":"76 St Clements St","lat":51.75112931309975,"lng":-1.2386091574000757,"neighborhood":"St. Clement's","city_fetched":"Wallingford,UK","state":"Oxfordshire","country":"United Kingdom","canonicalUrl":"https://foursquare.com/v/joe-perks--co/53f45671498ec8ad5a3fa1b5","categoryId":"4bf58dd8d48988d11e941735","category":"Cocktail Bar","checkinsCount":213,"usersCount":168,"tipCount":7,"visitsCount":393,"url":"http://joeperksandco.co.uk","tier":"","message":"","currency":"","rating":8.4},{"name":"The Kings Head & Bell","phone":"+441235525362","address":"10 East St. Helen St.","lat":51.66958091839713,"lng":-1.281580924987793,"city_fetched":"Wallingford,UK","state":"Oxfordshire","country":"United Kingdom","canonicalUrl":"https://foursquare.com/v/the-kings-head--bell/4b8167cbf964a52017a430e3","categoryId":"4bf58dd8d48988d11b941735","category":"Pub","checkinsCount":623,"usersCount":197,"tipCount":4,"visitsCount":722,"tier":"","message":"","currency":"","rating":8.4},{"name":"Milk","phone":"+441189561482","twitter":"milkreading","address":"8 Merchants Place","lat":51.45736752064362,"lng":-0.973571695538369,"city_fetched":"Wallingford,UK","country":"United Kingdom","canonicalUrl":"https://foursquare.com/v/milk/4f42b723e4b0c80f8617bc92","categoryId":"4bf58dd8d48988d116941735","category":"Bar","checkinsCount":437,"usersCount":253,"tipCount":8,"visitsCount":563,"url":"http://www.milkreading.com","tier":"","message":"","currency":"","rating":8.4},{"name":"The Allied Arms","phone":"+441189583323","twitter":"thealliedarms","address":"57 St. Marys Butts","lat":51.45453798297077,"lng":-0.9742606284096308,"city_fetched":"Wallingford,UK","country":"United Kingdom","canonicalUrl":"https://foursquare.com/v/the-allied-arms/4bacc8eef964a5200f0c3be3","categoryId":"4bf58dd8d48988d11b941735","category":"Pub","checkinsCount":1131,"usersCount":421,"tipCount":13,"visitsCount":1195,"url":"http://www.allied-arms.co.uk","tier":"","message":"","currency":"","rating":8.3},{"name":"The Library","phone":"+441865241776","twitter":"thelibrarypub","address":"182 Cowley Road","lat":51.74719949931376,"lng":-1.2347602844238281,"neighborhood":"St. Clement's","city_fetched":"Wallingford,UK","state":"Oxfordshire","country":"United Kingdom","canonicalUrl":"https://foursquare.com/v/the-library/4e22eb2e18a88345f05b2976","categoryId":"4bf58dd8d48988d11b941735","category":"Pub","checkinsCount":711,"usersCount":196,"tipCount":4,"visitsCount":787,"url":"http://thelibrarypuboxford.com","tier":"","message":"","currency":"","rating":8.3},{"name":"Fox and Hounds","twitter":"foxandhounds2bb","address":"51 Gosbrook Rd","lat":51.46656589090385,"lng":-0.9701238538967611,"city_fetched":"Wallingford,UK","country":"United Kingdom","canonicalUrl":"https://foursquare.com/v/fox-and-hounds/4d03f02b9d33a143dab7b778","categoryId":"4bf58dd8d48988d11b941735","category":"Pub","checkinsCount":274,"usersCount":102,"tipCount":6,"visitsCount":310,"url":"http://www.foxandhoundscaversham.co.uk","tier":"","message":"","currency":"","rating":8.3},{"name":"Stag & Huntsman Inn","phone":"+441491571227","address":"Hambledon","lat":51.57249152367816,"lng":-0.8690410512899478,"city_fetched":"Wallingford,UK","state":"Buckinghamshire","country":"United Kingdom","canonicalUrl":"https://foursquare.com/v/stag--huntsman-inn/4c7f954a1009a093c7b6474e","categoryId":"4bf58dd8d48988d11b941735","category":"Pub","checkinsCount":123,"usersCount":135,"tipCount":3,"visitsCount":192,"tier":"","message":"","currency":"","rating":8.2},{"name":"The Greyhound","phone":"+441865862110","address":"Bessels Leigh","lat":51.71304803385421,"lng":-1.3356852117467368,"city_fetched":"Wallingford,UK","state":"Oxfordshire","country":"United Kingdom","canonicalUrl":"https://foursquare.com/v/the-greyhound/4c4f35e6eaa1be9a19279145","categoryId":"4bf58dd8d48988d11b941735","category":"Pub","checkinsCount":149,"usersCount":129,"tipCount":7,"visitsCount":220,"tier":"","message":"","currency":"","rating":8.2},{"name":"Abbot Cook","phone":"+441189354095","twitter":"londonirishpubs","address":"153 London Rd","lat":51.45283759220702,"lng":-0.950792068381829,"city_fetched":"Wallingford,UK","country":"United Kingdom","canonicalUrl":"https://foursquare.com/v/abbot-cook/4ee61a462da504839760f89c","categoryId":"4bf58dd8d48988d11b941735","category":"Pub","checkinsCount":1366,"usersCount":559,"tipCount":19,"visitsCount":2081,"url":"http://www.londonirishpubs.co.uk","tier":2,"message":"Moderate","currency":"£","rating":8.2},{"name":"The Bull on Bell Street","twitter":"bullonbell","address":"Bell St","lat":51.539311628869726,"lng":-0.9047220982198844,"city_fetched":"Wallingford,UK","state":"Oxfordshire","country":"United Kingdom","canonicalUrl":"https://foursquare.com/v/the-bull-on-bell-street/51797667e4b00682a9159af8","categoryId":"4bf58dd8d48988d11b941735","category":"Pub","checkinsCount":426,"usersCount":208,"tipCount":5,"visitsCount":517,"url":"http://www.bullonbell.co.uk","tier":"","message":"","currency":"","rating":8.2},{"name":"Crown And Thistle","phone":"+441235522556","twitter":"thecrownthistle","address":"18 Bridge St","lat":51.669646081163464,"lng":-1.2804224909907163,"city_fetched":"Wallingford,UK","state":"Oxfordshire","country":"United Kingdom","canonicalUrl":"https://foursquare.com/v/crown-and-thistle/4db31e840cb6729b6a79120d","categoryId":"4bf58dd8d48988d11b941735","category":"Pub","checkinsCount":178,"usersCount":71,"tipCount":3,"visitsCount":194,"url":"http://crownandthistleabingdon.co.uk","tier":"","message":"","currency":"","rating":8.1},{"name":"The Nags Head","phone":"+441235524516","address":"The Bridge","lat":51.668651388293696,"lng":-1.279184833097042,"city_fetched":"Wallingford,UK","state":"Oxfordshire","country":"United Kingdom","canonicalUrl":"https://foursquare.com/v/the-nags-head/508c3e2be4b0c3505360d984","categoryId":"4bf58dd8d48988d11b941735","category":"Pub","checkinsCount":262,"usersCount":229,"tipCount":7,"visitsCount":428,"url":"http://www.thenagsheadonthethames.co.uk","tier":"","message":"","currency":"","rating":8.1},{"name":"The Thatch","phone":"+441844214340","twitter":"thatchthame","address":"30 Lower High St","lat":51.7490328112381,"lng":-0.9814739227294922,"city_fetched":"Wallingford,UK","state":"Oxfordshire","country":"United Kingdom","canonicalUrl":"https://foursquare.com/v/the-thatch/4bc0c7f5920eb713758b192c","categoryId":"4bf58dd8d48988d11b941735","category":"Pub","checkinsCount":373,"usersCount":233,"tipCount":8,"visitsCount":459,"url":"http://www.thethatchthame.co.uk","tier":"","message":"","currency":"","rating":8.1},{"name":"The Brewery Tap","phone":"+441235521655","address":"40-42 Ock Street","lat":51.6699094,"lng":-1.2865232,"city_fetched":"Wallingford,UK","state":"Oxfordshire","country":"United Kingdom","canonicalUrl":"https://foursquare.com/v/the-brewery-tap/4b560437f964a52023fc27e3","categoryId":"4bf58dd8d48988d11b941735","category":"Pub","checkinsCount":692,"usersCount":195,"tipCount":9,"visitsCount":858,"tier":"","message":"","currency":"","rating":8.1},{"name":"The Oakford Social Club","phone":"+441189594267","twitter":"oakfordsocial","address":"53 Blagrave St","lat":51.457832544481114,"lng":-0.9714874499296665,"city_fetched":"Wallingford,UK","country":"United Kingdom","canonicalUrl":"https://foursquare.com/v/the-oakford-social-club/4afeda97f964a520eb3022e3","categoryId":"4bf58dd8d48988d116941735","category":"Bar","checkinsCount":3604,"usersCount":1163,"tipCount":24,"visitsCount":3843,"tier":2,"message":"Moderate","currency":"£","rating":8.1},{"name":"The Eyston Arms","phone":"+441235833320","address":"High St.","lat":51.596183,"lng":-1.336185,"city_fetched":"Wallingford,UK","country":"United Kingdom","canonicalUrl":"https://foursquare.com/v/the-eyston-arms/4c6aee9f599fbe9a8d89913f","categoryId":"4bf58dd8d48988d117941735","category":"Beer Garden","checkinsCount":97,"usersCount":70,"tipCount":2,"visitsCount":143,"tier":"","message":"","currency":"","rating":8},{"name":"Leander Club","lat":51.53794332505672,"lng":-0.8992096777230275,"city_fetched":"Wallingford,UK","country":"United Kingdom","canonicalUrl":"https://foursquare.com/v/leander-club/4bf5e18f5efe2d7f5b486634","categoryId":"4bf58dd8d48988d116941735","category":"Bar","checkinsCount":370,"usersCount":155,"tipCount":1,"visitsCount":375,"tier":"","message":"","currency":"","rating":7.9},{"name":"RYND","address":"11 Castle St","lat":51.45345898601755,"lng":-0.9742768173441144,"city_fetched":"Wallingford,UK","state":"Berkshire","country":"United Kingdom","canonicalUrl":"https://foursquare.com/v/rynd/5411e65d498e9ebd5e33f8d6","categoryId":"4bf58dd8d48988d116941735","category":"Bar","checkinsCount":274,"usersCount":182,"tipCount":10,"visitsCount":334,"url":"http://ryndreading.com","tier":"","message":"","currency":"","rating":7.9},{"name":"Seven Stars","phone":"+441865343337","address":"The Green","lat":51.68919820524702,"lng":-1.1870080346756726,"city_fetched":"Wallingford,UK","state":"Oxfordshire","country":"United Kingdom","canonicalUrl":"https://foursquare.com/v/seven-stars/4df2a0aaa8091416299fbf41","categoryId":"4bf58dd8d48988d11b941735","category":"Pub","checkinsCount":65,"usersCount":57,"tipCount":4,"visitsCount":83,"tier":"","message":"","currency":"","rating":7.9},{"name":"The Back of Beyond (Wetherspoon)","phone":"+441189595906","address":"104-108 Kings Rd","lat":51.45459228848191,"lng":-0.9631940591909518,"city_fetched":"Wallingford,UK","state":"Berkshire","country":"United Kingdom","canonicalUrl":"https://foursquare.com/v/the-back-of-beyond-wetherspoon/4b16bf9bf964a520e6bc23e3","categoryId":"4bf58dd8d48988d11b941735","category":"Pub","checkinsCount":3001,"usersCount":689,"tipCount":20,"visitsCount":3417,"url":"http://www.jdwetherspoon.co.uk","tier":1,"message":"Cheap","currency":"£","rating":7.9},{"name":"The Magdalen Arms","phone":"+441865243159","address":"243 Iffley Road","lat":51.74124433812421,"lng":-1.2370104817945435,"city_fetched":"Wallingford,UK","state":"Oxfordshire","country":"United Kingdom","canonicalUrl":"https://foursquare.com/v/the-magdalen-arms/4b1ac3c9f964a52049f123e3","categoryId":"4bf58dd8d48988d11b941735","category":"Pub","checkinsCount":576,"usersCount":490,"tipCount":16,"visitsCount":883,"tier":"","message":"","currency":"","rating":7.8},{"name":"The Star","phone":"+441865248011","address":"21 Rectory Rd","lat":51.749391089630066,"lng":-1.238498,"neighborhood":"St. Clement's","city_fetched":"Wallingford,UK","state":"Oxfordshire","country":"United Kingdom","canonicalUrl":"https://foursquare.com/v/the-star/4b5b4f75f964a5209af328e3","categoryId":"4bf58dd8d48988d11b941735","category":"Pub","checkinsCount":521,"usersCount":239,"tipCount":4,"visitsCount":698,"tier":"","message":"","currency":"","rating":7.8},{"name":"The Bunk","phone":"+441635200400","twitter":"bunkcurridge","address":"Curridge","lat":51.446605,"lng":-1.293574,"city_fetched":"Wallingford,UK","state":"West Berkshire","country":"United Kingdom","canonicalUrl":"https://foursquare.com/v/the-bunk/4c3ef81e83a3a5930fc0ee33","categoryId":"4bf58dd8d48988d11b941735","category":"Pub","checkinsCount":124,"usersCount":98,"tipCount":6,"visitsCount":196,"url":"http://www.thebunkinn.co.uk","tier":"","message":"","currency":"","rating":7.8},{"name":"Temple Lounge","phone":"+441865246660","twitter":"nazchoudhury","address":"21 Temple St","lat":51.74830215236006,"lng":-1.2403607368469238,"city_fetched":"Wallingford,UK","state":"Oxfordshire","country":"United Kingdom","canonicalUrl":"https://foursquare.com/nazchoudhury","categoryId":"4bf58dd8d48988d119941735","category":"Hookah Bar","checkinsCount":2625,"usersCount":687,"tipCount":12,"visitsCount":3333,"url":"http://www.temple-lounge.com","tier":"","message":"","currency":"","rating":7.7},{"name":"RISC Global Cafe","phone":"+441189583555","address":"35-39 London St.","lat":51.4528799,"lng":-0.9682911000000001,"city_fetched":"Wallingford,UK","country":"United Kingdom","canonicalUrl":"https://foursquare.com/v/risc-global-cafe/4ba55d3df964a52079ff38e3","categoryId":"4bf58dd8d48988d116941735","category":"Bar","checkinsCount":519,"usersCount":239,"tipCount":5,"visitsCount":567,"url":"http://www.risc.org.uk/globalcafe","tier":"","message":"","currency":"","rating":7.7},{"name":"Cross Keys","twitter":"crosskeysthame","address":"East St","lat":51.74509623471172,"lng":-0.9734889091022458,"city_fetched":"Wallingford,UK","state":"Oxfordshire","country":"United Kingdom","canonicalUrl":"https://foursquare.com/v/cross-keys/4c4749f1417b20a18b19dda9","categoryId":"4bf58dd8d48988d11b941735","category":"Pub","checkinsCount":505,"usersCount":90,"tipCount":6,"visitsCount":603,"tier":2,"message":"Moderate","currency":"£","rating":7.7},{"name":"The Six Bells","phone":"+441865858265","address":"16 The Green South","lat":51.637382800653526,"lng":-1.1350004405138399,"city_fetched":"Wallingford,UK","state":"Oxfordshire","country":"United Kingdom","canonicalUrl":"https://foursquare.com/v/the-six-bells/4e024fde62e12fb0893d3501","categoryId":"4bf58dd8d48988d11b941735","category":"Pub","checkinsCount":44,"usersCount":58,"tipCount":0,"visitsCount":84,"url":"http://www.thesixbellswarborough.co.uk","tier":"","message":"","currency":"","rating":7.6},{"name":"The Fir Tree","phone":"+441865245290","address":"163 Iffley Rd","lat":51.744339,"lng":-1.240137,"city_fetched":"Wallingford,UK","state":"Oxfordshire","country":"United Kingdom","canonicalUrl":"https://foursquare.com/v/the-fir-tree/4b6c64c4f964a52070362ce3","categoryId":"4bf58dd8d48988d11b941735","category":"Pub","checkinsCount":557,"usersCount":223,"tipCount":7,"visitsCount":726,"tier":"","message":"","currency":"","rating":7.6},{"name":"The James Figg","phone":"+441844260166","twitter":"jamesfigg","address":"21 Cornmarket","lat":51.747185,"lng":-0.978242,"city_fetched":"Wallingford,UK","state":"Oxfordshire","country":"United Kingdom","canonicalUrl":"https://foursquare.com/v/the-james-figg/4c0a4a2fbbc676b0b38649d5","categoryId":"4bf58dd8d48988d11b941735","category":"Pub","checkinsCount":404,"usersCount":150,"tipCount":5,"visitsCount":501,"url":"http://thejamesfiggthame.co.uk","tier":"","message":"","currency":"","rating":7.6},{"name":"The Gateway","phone":"+441189590376","twitter":"londonirishpubs","address":"31 Greyfriars Rd","lat":51.4581182691351,"lng":-0.9759255487840752,"city_fetched":"Wallingford,UK","country":"United Kingdom","canonicalUrl":"https://foursquare.com/v/the-gateway/4ee61a462da504839760f8ee","categoryId":"4bf58dd8d48988d11b941735","category":"Pub","checkinsCount":1430,"usersCount":235,"tipCount":0,"visitsCount":1573,"url":"http://www.londonirishpubs.co.uk","tier":"","message":"","currency":"","rating":7.5},{"name":"The Fox Inn","phone":"+441635201545","address":"High Street","lat":51.45486265825492,"lng":-1.268320083618164,"city_fetched":"Wallingford,UK","state":"West Berkshire","country":"United Kingdom","canonicalUrl":"https://foursquare.com/v/the-fox-inn/4c5c762ded29ef3b0c988576","categoryId":"4bf58dd8d48988d11b941735","category":"Pub","checkinsCount":127,"usersCount":45,"tipCount":2,"visitsCount":219,"tier":"","message":"","currency":"","rating":7.5},{"name":"The Alehouse","phone":"+441189508119","address":"2 Broad St","lat":51.45520513875443,"lng":-0.9703097590509394,"city_fetched":"Wallingford,UK","country":"United Kingdom","canonicalUrl":"https://foursquare.com/v/the-alehouse/4be5d1aa2468c9281c9b0043","categoryId":"4bf58dd8d48988d11b941735","category":"Pub","checkinsCount":1193,"usersCount":469,"tipCount":14,"visitsCount":1207,"url":"http://www.the-alehouse-reading.co.uk","tier":2,"message":"Moderate","currency":"£","rating":7.5},{"name":"The Port Mahon","phone":"+441865790970","address":"82 St. Clements St","lat":51.75041438844966,"lng":-1.2400174140930176,"neighborhood":"St. Clement's","city_fetched":"Wallingford,UK","state":"Oxfordshire","country":"United Kingdom","canonicalUrl":"https://foursquare.com/v/the-port-mahon/4b75a2ddf964a520d1182ee3","categoryId":"4bf58dd8d48988d11b941735","category":"Pub","checkinsCount":575,"usersCount":293,"tipCount":8,"visitsCount":661,"tier":"","message":"","currency":"","rating":7.4},{"name":"The Old Fisherman, Shabbington","lat":51.753196,"lng":-1.03374,"city_fetched":"Wallingford,UK","state":"Buckinghamshire","country":"United Kingdom","canonicalUrl":"https://foursquare.com/v/the-old-fisherman-shabbington/4bee84b13686c9b6c894246e","categoryId":"4bf58dd8d48988d11b941735","category":"Pub","checkinsCount":77,"usersCount":76,"tipCount":2,"visitsCount":122,"tier":"","message":"","currency":"","rating":7.4},{"name":"The Moderation","phone":"+441183750767","twitter":"londonirishpubs","address":"213 Caversham Rd","lat":51.46424255570143,"lng":-0.9773662955585769,"city_fetched":"Wallingford,UK","country":"United Kingdom","canonicalUrl":"https://foursquare.com/v/the-moderation/4ee61a462da504839760f8fa","categoryId":"4bf58dd8d48988d11b941735","category":"Pub","checkinsCount":950,"usersCount":373,"tipCount":16,"visitsCount":1071,"url":"http://www.londonirishpubs.co.uk","tier":"","message":"","currency":"","rating":7.4},{"name":"Be At One","address":"Gun St","lat":51.45370156257946,"lng":-0.9734672902822189,"city_fetched":"Wallingford,UK","country":"United Kingdom","canonicalUrl":"https://foursquare.com/v/be-at-one/5150b0d9e4b0176619e4e45b","categoryId":"4bf58dd8d48988d11e941735","category":"Cocktail Bar","checkinsCount":503,"usersCount":288,"tipCount":12,"visitsCount":527,"tier":3,"message":"Expensive","currency":"£","rating":7.4},{"name":"The Purple Turtle","phone":"+441189597196","address":"9 Gun St","lat":51.45403365243374,"lng":-0.972864031791687,"city_fetched":"Wallingford,UK","country":"United Kingdom","canonicalUrl":"https://foursquare.com/v/the-purple-turtle/4ae3711cf964a520269521e3","categoryId":"4bf58dd8d48988d116941735","category":"Bar","checkinsCount":1768,"usersCount":1008,"tipCount":25,"visitsCount":2094,"url":"http://www.purpleturtlebar.com/reading/","tier":"","message":"","currency":"","rating":7.4},{"name":"The Queens Head","phone":"+441189863040","address":"54 Christchurch Rd","lat":51.443034,"lng":-0.956373,"city_fetched":"Wallingford,UK","country":"United Kingdom","canonicalUrl":"https://foursquare.com/v/the-queens-head/4b697ff0f964a520d8a42be3","categoryId":"4bf58dd8d48988d11b941735","category":"Pub","checkinsCount":368,"usersCount":220,"tipCount":11,"visitsCount":490,"url":"http://www.queensheadreading.co.uk","tier":"","message":"","currency":"","rating":7.3},{"name":"Eldon Arms","address":"Eldon Terrace","lat":51.45290437298501,"lng":-0.9575777984904812,"city_fetched":"Wallingford,UK","country":"United Kingdom","canonicalUrl":"https://foursquare.com/v/eldon-arms/5482233d498e54a29841d9c6","categoryId":"4bf58dd8d48988d11b941735","category":"Pub","checkinsCount":62,"usersCount":55,"tipCount":2,"visitsCount":116,"tier":"","message":"","currency":"","rating":7.3},{"name":"Crown Inn","phone":"+441189302310","address":"Church Street","lat":51.437017,"lng":-1.077026,"city_fetched":"Wallingford,UK","state":"West Berkshire","country":"United Kingdom","canonicalUrl":"https://foursquare.com/v/crown-inn/4c627ce086b6be9a44218c34","categoryId":"4bf58dd8d48988d116941735","category":"Bar","checkinsCount":276,"usersCount":71,"tipCount":4,"visitsCount":327,"tier":"","message":"","currency":"","rating":7.3},{"name":"Magoos","phone":"+441491574595","address":"22 Hart St","lat":51.537634681597446,"lng":-0.9031879118136734,"city_fetched":"Wallingford,UK","state":"Oxfordshire","country":"United Kingdom","canonicalUrl":"https://foursquare.com/v/magoos/4b63747df964a5201e7b2ae3","categoryId":"4bf58dd8d48988d117941735","category":"Beer Garden","checkinsCount":246,"usersCount":88,"tipCount":4,"visitsCount":253,"tier":"","message":"","currency":"","rating":7.2},{"name":"The Elephant Hotel","phone":"+441189842244","address":"Church Rd","lat":51.483647,"lng":-1.08765,"city_fetched":"Wallingford,UK","country":"United Kingdom","canonicalUrl":"https://foursquare.com/v/the-elephant-hotel/4b0bdf0cf964a5204d3423e3","categoryId":"4bf58dd8d48988d1d5941735","category":"Hotel Bar","checkinsCount":285,"usersCount":140,"tipCount":10,"visitsCount":301,"url":"http://www.elephanthotel.co.uk","tier":"","message":"","currency":"","rating":7.2},{"name":"The Half Moon","phone":"+441865247808","address":"17-18 St Clements","lat":51.75026161997064,"lng":-1.2434828281402588,"neighborhood":"St. Clement's","city_fetched":"Wallingford,UK","state":"Oxfordshire","country":"United Kingdom","canonicalUrl":"https://foursquare.com/v/the-half-moon/4b537a99f964a520049f27e3","categoryId":"4bf58dd8d48988d11b941735","category":"Pub","checkinsCount":532,"usersCount":205,"tipCount":8,"visitsCount":540,"tier":"","message":"","currency":"","rating":7.2},{"name":"The Griffin","phone":"+441189475018","twitter":"chefandbrewer","address":"10-12 Church Rd, Caversham","lat":51.46734439547267,"lng":-0.977359414100647,"city_fetched":"Wallingford,UK","country":"United Kingdom","canonicalUrl":"https://foursquare.com/v/the-griffin/4beff2b63a002d7f048085a4","categoryId":"4bf58dd8d48988d11b941735","category":"Pub","checkinsCount":833,"usersCount":464,"tipCount":8,"visitsCount":1040,"url":"http://www.thegriffincaversham.co.uk","tier":"","message":"","currency":"","rating":7.2},{"name":"Prince Of Wales","phone":"+447751969443","twitter":"powcaversham","address":"76 Prospect St","lat":51.46940535275388,"lng":-0.9700505335115505,"city_fetched":"Wallingford,UK","country":"United Kingdom","canonicalUrl":"https://foursquare.com/v/prince-of-wales/4bdc51f92a3a0f472b47b2b6","categoryId":"4bf58dd8d48988d11b941735","category":"Pub","checkinsCount":429,"usersCount":106,"tipCount":5,"visitsCount":482,"url":"http://www.princeofwalescaversham.co.uk","tier":"","message":"","currency":"","rating":7.2},{"name":"Perch & Pike","lat":51.5470128562893,"lng":-1.1370930003234998,"city_fetched":"Wallingford,UK","state":"Oxfordshire","country":"United Kingdom","canonicalUrl":"https://foursquare.com/v/perch--pike/4bc9cdddcc8cd13a1828bccf","categoryId":"4bf58dd8d48988d11b941735","category":"Pub","checkinsCount":71,"usersCount":59,"tipCount":3,"visitsCount":100,"tier":"","message":"","currency":"","rating":7.1},{"name":"Angel & Greyhound","phone":"+441865242660","address":"30 St. Clements St.","lat":51.75028,"lng":-1.242573,"neighborhood":"St. Clement's","city_fetched":"Wallingford,UK","state":"Oxfordshire","country":"United Kingdom","canonicalUrl":"https://foursquare.com/v/angel--greyhound/4b3b922ef964a520157625e3","categoryId":"4bf58dd8d48988d11b941735","category":"Pub","checkinsCount":873,"usersCount":385,"tipCount":10,"visitsCount":901,"tier":"","message":"","currency":"","rating":7.1},{"name":"The Cape of Good Hope","phone":"+441865262291","address":"1 Iffley Rd","lat":51.749806275000005,"lng":-1.243587,"neighborhood":"St. Clement's","city_fetched":"Wallingford,UK","state":"Oxfordshire","country":"United Kingdom","canonicalUrl":"https://foursquare.com/v/the-cape-of-good-hope/4b2a7febf964a52058aa24e3","categoryId":"4bf58dd8d48988d11b941735","category":"Pub","checkinsCount":1452,"usersCount":770,"tipCount":15,"visitsCount":1786,"tier":"","message":"","currency":"","rating":7},{"name":"The Volunteer","phone":"+441189302489","twitter":"volunteertheale","address":"Church St","lat":51.43574824155268,"lng":-1.0836607217788696,"city_fetched":"Wallingford,UK","state":"West Berkshire","country":"United Kingdom","canonicalUrl":"https://foursquare.com/v/the-volunteer/4b5b1217f964a52011e228e3","categoryId":"4bf58dd8d48988d11b941735","category":"Pub","checkinsCount":365,"usersCount":103,"tipCount":7,"visitsCount":461,"url":"http://www.volunteertheale.co.uk","tier":"","message":"","currency":"","rating":7},{"name":"The Water Tower","phone":"+441189076704","twitter":"flaminggrillpub","address":"160 Park Lane","lat":51.45049980743438,"lng":-1.047101540837181,"city_fetched":"Wallingford,UK","state":"Berkshire","country":"United Kingdom","canonicalUrl":"https://foursquare.com/v/the-water-tower/4f43f8dae4b0bf8743b654f5","categoryId":"4bf58dd8d48988d11b941735","category":"Pub","checkinsCount":400,"usersCount":85,"tipCount":1,"visitsCount":436,"tier":"","message":"","currency":"","rating":7},{"name":"Hop Leaf","phone":"+441189314700","address":"163 Southampton St","lat":51.44787604739588,"lng":-0.9675742951252876,"city_fetched":"Wallingford,UK","state":"Berkshire","country":"United Kingdom","canonicalUrl":"https://foursquare.com/v/hop-leaf/4c4b600c959220a102677b0f","categoryId":"4bf58dd8d48988d11b941735","category":"Pub","checkinsCount":251,"usersCount":103,"tipCount":5,"visitsCount":287,"tier":"","message":"","currency":"","rating":7},{"name":"The Six Bells","phone":"+441844212088","twitter":"6bellsthame","address":"43 lower high street","lat":51.749505,"lng":-0.982758,"city_fetched":"Wallingford,UK","state":"Oxfordshire","country":"United Kingdom","canonicalUrl":"https://foursquare.com/v/the-six-bells/4bb77df598c7ef3b1bd72f02","categoryId":"4bf58dd8d48988d11b941735","category":"Pub","checkinsCount":323,"usersCount":167,"tipCount":6,"visitsCount":429,"url":"http://www.sixbellsthame.co.uk","tier":"","message":"","currency":"","rating":7},{"name":"Blagrave Arms","phone":"+441189575005","address":"35 Blagrave St","lat":51.457552583170354,"lng":-0.9703261327700489,"city_fetched":"Wallingford,UK","country":"United Kingdom","canonicalUrl":"https://foursquare.com/v/blagrave-arms/4c1793ed59cc2d7f01d45287","categoryId":"4bf58dd8d48988d11b941735","category":"Pub","checkinsCount":713,"usersCount":265,"tipCount":9,"visitsCount":857,"tier":"","message":"","currency":"","rating":6.9},{"name":"The City Arms","phone":"+441865725299","address":"288 Cowley Rd","lat":51.74496588016635,"lng":-1.2298142910003662,"city_fetched":"Wallingford,UK","state":"Oxfordshire","country":"United Kingdom","canonicalUrl":"https://foursquare.com/v/the-city-arms/4b771086f964a52095792ee3","categoryId":"4bf58dd8d48988d11b941735","category":"Pub","checkinsCount":1388,"usersCount":699,"tipCount":9,"visitsCount":1877,"url":"http://www.screampubs.co.uk/thecityarmsoxford","tier":"","message":"","currency":"","rating":6.9},{"name":"Rising Sun Pad Thai","phone":"+441844214206","address":"High St","lat":51.748797,"lng":-0.9807497262954712,"city_fetched":"Wallingford,UK","state":"Oxfordshire","country":"United Kingdom","canonicalUrl":"https://foursquare.com/v/rising-sun-pad-thai/4bc31046461576b016147e32","categoryId":"4bf58dd8d48988d11b941735","category":"Pub","checkinsCount":232,"usersCount":83,"tipCount":7,"visitsCount":241,"url":"http://www.risingsun-thame.co.uk","tier":"","message":"","currency":"","rating":6.9},{"name":"Be At One","address":"St Clements St","lat":51.75018350839111,"lng":-1.2437969423338493,"neighborhood":"St. Clement's","city_fetched":"Wallingford,UK","state":"Oxfordshire","country":"United Kingdom","canonicalUrl":"https://foursquare.com/v/be-at-one/552d5cf7498e2c593c8c73f2","categoryId":"4bf58dd8d48988d11e941735","category":"Cocktail Bar","checkinsCount":96,"usersCount":82,"tipCount":3,"visitsCount":108,"tier":"","message":"","currency":"","rating":6.9},{"name":"Vodka Revolution Bar","phone":"+441189587397","twitter":"rev_reading","address":"12-16 Station Rd","lat":51.45740763281833,"lng":-0.9718732782857897,"city_fetched":"Wallingford,UK","country":"United Kingdom","canonicalUrl":"https://foursquare.com/v/vodka-revolution-bar/4b758a32f964a520b7122ee3","categoryId":"4bf58dd8d48988d116941735","category":"Bar","checkinsCount":1523,"usersCount":542,"tipCount":4,"visitsCount":1537,"tier":"","message":"","currency":"","rating":6.8},{"name":"The Fleur de Lys","phone":"+441865340520","address":"9 High St","lat":51.643447,"lng":-1.165579,"city_fetched":"Wallingford,UK","state":"Oxfordshire","country":"United Kingdom","canonicalUrl":"https://foursquare.com/v/the-fleur-de-lys/4bd5f9329649ce7231c3511d","categoryId":"4bf58dd8d48988d11b941735","category":"Pub","checkinsCount":37,"usersCount":30,"tipCount":6,"visitsCount":37,"url":"http://www.fleurdelys-dorchester.co.uk","tier":"","message":"","currency":"","rating":6.8},{"name":"Café Tarifa","phone":"+441865256091","address":"56-60 Cowley Rd","lat":51.74900721718479,"lng":-1.2414162018889605,"city_fetched":"Wallingford,UK","state":"Oxfordshire","country":"United Kingdom","canonicalUrl":"https://foursquare.com/v/caf%C3%A9-tarifa/4b5deca6f964a520157429e3","categoryId":"4bf58dd8d48988d116941735","category":"Bar","checkinsCount":615,"usersCount":471,"tipCount":9,"visitsCount":792,"tier":"","message":"","currency":"","rating":6.8},{"name":"Cafe Coco","phone":"+441865200232","address":"23 Cowley Rd.","lat":51.74955904483795,"lng":-1.242836,"neighborhood":"St. Clement's","city_fetched":"Wallingford,UK","state":"Oxfordshire","country":"United Kingdom","canonicalUrl":"https://foursquare.com/v/cafe-coco/4b4e0a8cf964a52045df26e3","categoryId":"4bf58dd8d48988d11e941735","category":"Cocktail Bar","checkinsCount":509,"usersCount":302,"tipCount":7,"visitsCount":523,"tier":"","message":"","currency":"","rating":6.8},{"name":"The Cunning Man","phone":"+441189598067","twitter":"vintage_inns","address":"Burghfield Rd","lat":51.431508862692404,"lng":-1.0223502711137085,"city_fetched":"Wallingford,UK","state":"West Berkshire","country":"United Kingdom","canonicalUrl":"https://foursquare.com/v/the-cunning-man/4c03be400d0e0f472dee029a","categoryId":"4bf58dd8d48988d11b941735","category":"Pub","checkinsCount":525,"usersCount":409,"tipCount":20,"visitsCount":690,"url":"http://www.vintageinn.co.uk/thecunningmanburghfieldbridge/","tier":"","message":"","currency":"","rating":6.8},{"name":"The Big Society","phone":"+441865792755","twitter":"bigsocoxford","address":"95 Cowley Rd","lat":51.748568,"lng":-1.239184,"neighborhood":"St. Clement's","city_fetched":"Wallingford,UK","state":"Oxfordshire","country":"United Kingdom","canonicalUrl":"https://foursquare.com/v/the-big-society/51156316e4b0a897c92a0bd0","categoryId":"4bf58dd8d48988d11b941735","category":"Pub","checkinsCount":1147,"usersCount":394,"tipCount":12,"visitsCount":1243,"url":"http://www.bigsocietyoxford.com","tier":2,"message":"Moderate","currency":"£","rating":6.7},{"name":"Pitcher & Piano","address":"Friar St","lat":51.456691164716155,"lng":-0.9723423697820053,"city_fetched":"Wallingford,UK","country":"United Kingdom","canonicalUrl":"https://foursquare.com/v/pitcher--piano/4b2d10b2f964a52079cd24e3","categoryId":"4bf58dd8d48988d116941735","category":"Bar","checkinsCount":1270,"usersCount":789,"tipCount":10,"visitsCount":1458,"tier":"","message":"","currency":"","rating":6.6},{"name":"Bull Inn Streatley","address":"Reading Road,","lat":51.52254333013392,"lng":-1.1488521984646998,"city_fetched":"Wallingford,UK","state":"West Berkshire","country":"United Kingdom","canonicalUrl":"https://foursquare.com/v/bull-inn-streatley/4bd75565304fce720f6533ab","categoryId":"4bf58dd8d48988d11b941735","category":"Pub","checkinsCount":121,"usersCount":120,"tipCount":3,"visitsCount":181,"tier":"","message":"","currency":"","rating":6.6},{"name":"The Baron Cadogan (Wetherspoon)","phone":"+441189470626","address":"22-24 Prospect St","lat":51.46815840108851,"lng":-0.9725307745701192,"city_fetched":"Wallingford,UK","state":"Berkshire","country":"United Kingdom","canonicalUrl":"https://foursquare.com/v/the-baron-cadogan-wetherspoon/4b8d5631f964a5206af532e3","categoryId":"4bf58dd8d48988d11b941735","category":"Pub","checkinsCount":639,"usersCount":237,"tipCount":4,"visitsCount":726,"url":"http://www.jdwetherspoon.co.uk","tier":"","message":"","currency":"","rating":6.5},{"name":"The Flower Pot","phone":"+441491574721","address":"Aston","lat":51.55135216423221,"lng":-0.8703982830047607,"city_fetched":"Wallingford,UK","state":"Oxfordshire","country":"United Kingdom","canonicalUrl":"https://foursquare.com/v/the-flower-pot/4bf7c7b792d195215e185a1f","categoryId":"4bf58dd8d48988d11b941735","category":"Pub","checkinsCount":145,"usersCount":175,"tipCount":5,"visitsCount":224,"tier":"","message":"","currency":"","rating":6.5},{"name":"Zerodegrees","phone":"+441189597959","twitter":"zerodegreesbeer","address":"9 Bridge St","lat":51.4535924012608,"lng":-0.9732985496520996,"city_fetched":"Wallingford,UK","state":"Berkshire","country":"United Kingdom","canonicalUrl":"https://foursquare.com/v/zerodegrees/4b54c792f964a5201ccc27e3","categoryId":"50327c8591d4c4b30a586d5d","category":"Brewery","checkinsCount":1458,"usersCount":881,"tipCount":26,"visitsCount":1594,"url":"http://www.zerodegrees.co.uk","tier":"","message":"","currency":"","rating":6.5},{"name":"The Southcote (Beefeater)","phone":"+441189572685","twitter":"beefeater","address":"Southcote Ln","lat":51.447481302560234,"lng":-0.9964513778686523,"city_fetched":"Wallingford,UK","country":"United Kingdom","canonicalUrl":"https://foursquare.com/v/the-southcote-beefeater/4b80408cf964a5200c6130e3","categoryId":"4bf58dd8d48988d11b941735","category":"Pub","checkinsCount":421,"usersCount":300,"tipCount":6,"visitsCount":636,"url":"http://www.beefeater.co.uk/steak-restaurant/Berkshire/Southcote-Southcote.html","tier":"","message":"","currency":"","rating":6.4},{"name":"World Turned Upside Down","twitter":"crowncarveries","address":"387 Basingstoke Rd","lat":51.42950225152348,"lng":-0.9686312746938509,"city_fetched":"Wallingford,UK","state":"Berkshire","country":"United Kingdom","canonicalUrl":"https://foursquare.com/v/world-turned-upside-down/4bae0999f964a520757d3be3","categoryId":"4bf58dd8d48988d11b941735","category":"Pub","checkinsCount":477,"usersCount":204,"tipCount":7,"visitsCount":603,"tier":"","message":"","currency":"","rating":6.4},{"name":"Wild Lime Bar and Kitchen","phone":"+441189581457","twitter":"wildlimebars","address":"12-14 Friar St","lat":51.456637680942755,"lng":-0.9714069777100254,"city_fetched":"Wallingford,UK","country":"United Kingdom","canonicalUrl":"https://foursquare.com/v/wild-lime-bar-and-kitchen/51f950ae498e559718222541","categoryId":"4bf58dd8d48988d116941735","category":"Bar","checkinsCount":289,"usersCount":173,"tipCount":6,"visitsCount":311,"url":"http://www.wildlimebars.com/bars/cape-reading","tier":"","message":"","currency":"","rating":6.3},{"name":"Lola Lo","address":"126-127 Friar St.","lat":51.45659221908181,"lng":-0.973840401504376,"city_fetched":"Wallingford,UK","country":"United Kingdom","canonicalUrl":"https://foursquare.com/v/lola-lo/4c481999eb489c74017fca47","categoryId":"4bf58dd8d48988d11f941735","category":"Nightclub","checkinsCount":395,"usersCount":243,"tipCount":8,"visitsCount":412,"tier":"","message":"","currency":"","rating":6.3},{"name":"The James Street Tavern","address":"47 James St","lat":51.747492,"lng":-1.23739186,"city_fetched":"Wallingford,UK","state":"Oxfordshire","country":"United Kingdom","canonicalUrl":"https://foursquare.com/v/the-james-street-tavern/4afb2b54f964a520ba1b22e3","categoryId":"4bf58dd8d48988d11b941735","category":"Pub","checkinsCount":299,"usersCount":135,"tipCount":3,"visitsCount":325,"tier":"","message":"","currency":"","rating":6.3},{"name":"The Barley Mow","lat":51.65376673446358,"lng":-1.2088320702288846,"city_fetched":"Wallingford,UK","state":"Oxfordshire","country":"United Kingdom","canonicalUrl":"https://foursquare.com/v/the-barley-mow/4bbf8f42abf4952104dabd93","categoryId":"4bf58dd8d48988d11b941735","category":"Pub","checkinsCount":150,"usersCount":140,"tipCount":7,"visitsCount":203,"tier":"","message":"","currency":"","rating":6.3},{"name":"The Longwall (Beefeater)","phone":"+441865779230","twitter":"beefeater","address":"Oxford Business Park, Garsington Road","lat":51.73114155607728,"lng":-1.203179955482483,"city_fetched":"Wallingford,UK","state":"Oxfordshire","country":"United Kingdom","canonicalUrl":"https://foursquare.com/v/the-longwall-beefeater/4bcee31efb84c9b61c69243e","categoryId":"4bf58dd8d48988d11b941735","category":"Pub","checkinsCount":478,"usersCount":263,"tipCount":5,"visitsCount":662,"url":"http://www.beefeater.co.uk/steak-restaurant/oxford/Longwall-Cowley.html","tier":"","message":"","currency":"","rating":6.3},{"name":"The Bull","phone":"+441189303478","twitter":"londonirishpubs","address":"41 The High Street","lat":51.437919755629174,"lng":-1.0741248340576244,"city_fetched":"Wallingford,UK","country":"United Kingdom","canonicalUrl":"https://foursquare.com/v/the-bull/4ee61a462da504839760f8dd","categoryId":"4bf58dd8d48988d11b941735","category":"Pub","checkinsCount":252,"usersCount":134,"tipCount":3,"visitsCount":303,"url":"http://www.londonirishpubs.co.uk","tier":"","message":"","currency":"","rating":6.3},{"name":"The Catherine Wheel (Wetherspoon)","phone":"+441491848488","address":"7-15 Hart St","lat":51.53772560156244,"lng":-0.9038534760475159,"city_fetched":"Wallingford,UK","state":"Oxfordshire","country":"United Kingdom","canonicalUrl":"https://foursquare.com/v/the-catherine-wheel-wetherspoon/4b634f8df964a5205e712ae3","categoryId":"4bf58dd8d48988d11b941735","category":"Pub","checkinsCount":1015,"usersCount":495,"tipCount":11,"visitsCount":1104,"url":"http://www.jdwetherspoon.co.uk","tier":"","message":"","currency":"","rating":6.3},{"name":"The Narrows (Wetherspoon)","address":"25 High St","lat":51.670443245417054,"lng":-1.283341479233141,"city_fetched":"Wallingford,UK","state":"Oxfordshire","country":"United Kingdom","canonicalUrl":"https://foursquare.com/v/the-narrows-wetherspoon/525445ee498ef18127871866","categoryId":"4bf58dd8d48988d11b941735","category":"Pub","checkinsCount":221,"usersCount":98,"tipCount":5,"visitsCount":279,"tier":"","message":"","currency":"","rating":6.3},{"name":"Ye Olde Red Lion","address":"graces lane","lat":51.461012876401774,"lng":-1.3154840469360352,"city_fetched":"Wallingford,UK","state":"West Berkshire","country":"United Kingdom","canonicalUrl":"https://foursquare.com/v/ye-olde-red-lion/4bbf0387f353d13abeec7d10","categoryId":"4bf58dd8d48988d116941735","category":"Bar","checkinsCount":152,"usersCount":116,"tipCount":3,"visitsCount":318,"tier":"","message":"","currency":"","rating":6.2},{"name":"The Monks' Retreat (Wetherspoon)","phone":"+441189507592","address":"163 Friar St","lat":51.45654569432817,"lng":-0.9707209467887878,"city_fetched":"Wallingford,UK","country":"United Kingdom","canonicalUrl":"https://foursquare.com/v/the-monks-retreat-wetherspoon/4c87abd4821e9eb0b1cd8d89","categoryId":"4bf58dd8d48988d11b941735","category":"Pub","checkinsCount":1597,"usersCount":685,"tipCount":4,"visitsCount":1709,"url":"http://www.jdwetherspoon.co.uk","tier":"","message":"","currency":"","rating":6.2},{"name":"Q Club","address":"16-18 Friar St","lat":51.45685010605532,"lng":-0.9718529911854005,"city_fetched":"Wallingford,UK","state":"Berkshire","country":"United Kingdom","canonicalUrl":"https://foursquare.com/v/q-club/4b75f31bf964a52069312ee3","categoryId":"4bf58dd8d48988d11f941735","category":"Nightclub","checkinsCount":349,"usersCount":172,"tipCount":3,"visitsCount":354,"tier":"","message":"","currency":"","rating":6.2},{"name":"The Bowery District","phone":"+441189595395","twitter":"bowerydistrict","address":"110-117 Friar St","lat":51.456626476854176,"lng":-0.9743057345420004,"city_fetched":"Wallingford,UK","country":"United Kingdom","canonicalUrl":"https://foursquare.com/v/the-bowery-district/4cb34b2539458cfab56319a0","categoryId":"4bf58dd8d48988d11f941735","category":"Nightclub","checkinsCount":182,"usersCount":118,"tipCount":1,"visitsCount":185,"url":"http://www.thebowerydistrict.co.uk","tier":"","message":"","currency":"","rating":6.2},{"name":"The Birdcage","phone":"+441844260381","twitter":"thebirdcagepub","address":"4 Cornmarket","lat":51.747086575494464,"lng":-0.9776866436004639,"city_fetched":"Wallingford,UK","state":"Oxfordshire","country":"United Kingdom","canonicalUrl":"https://foursquare.com/v/the-birdcage/5154cc3ce4b01b95f99e226b","categoryId":"4bf58dd8d48988d11b941735","category":"Pub","checkinsCount":184,"usersCount":84,"tipCount":3,"visitsCount":187,"url":"http://www.birdcagepub.co.uk","tier":"","message":"","currency":"","rating":6.2},{"name":"All Bar One","phone":"+441189596749","address":"Unit 13, The Riverside, The Oracle Shopping Centre","lat":51.453365088385986,"lng":-0.9713029861450195,"city_fetched":"Wallingford,UK","country":"United Kingdom","canonicalUrl":"https://foursquare.com/v/all-bar-one/4d8b6da9f6528eecda3d961b","categoryId":"4bf58dd8d48988d116941735","category":"Bar","checkinsCount":1242,"usersCount":589,"tipCount":12,"visitsCount":1257,"tier":"","message":"","currency":"","rating":6.2},{"name":"The Marsh Harrier","phone":"+441865718225","address":"40 Marsh Road","lat":51.738365,"lng":-1.217613,"neighborhood":"Temple Cowley","city_fetched":"Wallingford,UK","state":"Oxfordshire","country":"United Kingdom","canonicalUrl":"https://foursquare.com/v/the-marsh-harrier/4b6891cbf964a5206c802be3","categoryId":"4bf58dd8d48988d11b941735","category":"Pub","checkinsCount":394,"usersCount":122,"tipCount":4,"visitsCount":488,"url":"http://www.themarshharrier.com","tier":"","message":"","currency":"","rating":6.1},{"name":"Lovibonds","phone":"+441491576596","twitter":"lovibonds","address":"Rear of 19-21 Market Place","lat":51.536945,"lng":-0.905378,"city_fetched":"Wallingford,UK","state":"Oxfordshire","country":"United Kingdom","canonicalUrl":"https://foursquare.com/v/lovibonds/4ca63790f47ea1438f715e21","categoryId":"50327c8591d4c4b30a586d5d","category":"Brewery","checkinsCount":175,"usersCount":49,"tipCount":6,"visitsCount":182,"url":"http://www.lovibonds.com","tier":"","message":"","currency":"","rating":6.1},{"name":"Yates' Wine Lodge","address":"Friar St.","lat":51.45665432908274,"lng":-0.9708309173583984,"city_fetched":"Wallingford,UK","country":"United Kingdom","canonicalUrl":"https://foursquare.com/v/yates-wine-lodge/4b58cafef964a5207d6b28e3","categoryId":"4bf58dd8d48988d116941735","category":"Bar","checkinsCount":590,"usersCount":358,"tipCount":9,"visitsCount":604,"tier":"","message":"","currency":"","rating":6.1},{"name":"The Royal Oak","address":"The Square","lat":51.466785,"lng":-1.206029,"city_fetched":"Wallingford,UK","country":"United Kingdom","canonicalUrl":"https://foursquare.com/v/the-royal-oak/4d6a4b5f67a8f04d1b3a18be","categoryId":"50327c8591d4c4b30a586d5d","category":"Brewery","checkinsCount":89,"usersCount":104,"tipCount":4,"visitsCount":153,"url":"http://www.royaloakyattendon.co.uk","tier":"","message":"","currency":"","rating":6.1},{"name":"Island Bar and Restaurant","phone":"+441189479530","address":"Pipers Island","lat":51.465539,"lng":-0.976353,"city_fetched":"Wallingford,UK","state":"Berkshire","country":"United Kingdom","canonicalUrl":"https://foursquare.com/v/island-bar-and-restaurant/4bf80dac4a67c928d4a124cf","categoryId":"4bf58dd8d48988d116941735","category":"Bar","checkinsCount":233,"usersCount":150,"tipCount":5,"visitsCount":235,"tier":"","message":"","currency":"","rating":6},{"name":"Park Bar","phone":"+441183788803","twitter":"unirdg_bars","address":"Building 14, London Road Campus","lat":51.44421441994981,"lng":-0.9471648945049086,"city_fetched":"Wallingford,UK","country":"United Kingdom","canonicalUrl":"https://foursquare.com/v/park-bar/4dc19f72d22da015335406c7","categoryId":"4bf58dd8d48988d116941735","category":"Bar","checkinsCount":613,"usersCount":237,"tipCount":1,"visitsCount":895,"url":"http://www.reading.ac.uk/catering/BarsandLateNight/Cater_Park_Bar.aspx","tier":"","message":"","currency":"","rating":6},{"name":"The Butler","phone":"+441189595500","address":"89-91 Chatham St","lat":51.456221219423874,"lng":-0.9807816508208035,"city_fetched":"Wallingford,UK","country":"United Kingdom","canonicalUrl":"https://foursquare.com/v/the-butler/4bedc24a2c082d7f8d732f42","categoryId":"4bf58dd8d48988d116941735","category":"Bar","checkinsCount":353,"usersCount":89,"tipCount":6,"visitsCount":427,"url":"http://www.butlerreading.co.uk","tier":"","message":"","currency":"","rating":6},{"name":"The White Horse","phone":"+441865762447","address":"1 London Road","lat":51.75767093,"lng":-1.219479,"neighborhood":"Headington","city_fetched":"Wallingford,UK","state":"Oxfordshire","country":"United Kingdom","canonicalUrl":"https://foursquare.com/v/the-white-horse/4bc76ec46501c9b67e6c3e29","categoryId":"4bf58dd8d48988d116941735","category":"Bar","checkinsCount":1040,"usersCount":640,"tipCount":8,"visitsCount":1385,"tier":"","message":"","currency":"","rating":6},{"name":"The Three Tuns","phone":"+441491410138","twitter":"threetunshenley","address":"5 Market Place","lat":51.53740694905917,"lng":-0.9050846099853516,"city_fetched":"Wallingford,UK","state":"Oxfordshire","country":"United Kingdom","canonicalUrl":"https://foursquare.com/v/the-three-tuns/4bd89898f645c9b6f768a8e0","categoryId":"4bf58dd8d48988d11b941735","category":"Pub","checkinsCount":244,"usersCount":130,"tipCount":3,"visitsCount":246,"url":"http://www.threetunshenley.co.uk","tier":"","message":"","currency":"","rating":6},{"name":"Ock Mill (Beefeater)","phone":"+441235554148","twitter":"beefeatergrill","address":"Marcham Rd","lat":51.66930810452529,"lng":-1.29913330078125,"city_fetched":"Wallingford,UK","state":"Oxfordshire","country":"United Kingdom","canonicalUrl":"https://foursquare.com/v/ock-mill-beefeater/4b5461c5f964a5204cb927e3","categoryId":"4bf58dd8d48988d11b941735","category":"Pub","checkinsCount":163,"usersCount":93,"tipCount":2,"visitsCount":167,"url":"http://www.beefeater.co.uk","tier":"","message":"","currency":"","rating":6},{"name":"The Grosvenor","phone":"+441189474643","twitter":"emberpubdining","address":"Kidmore Rd","lat":51.4802484050272,"lng":-0.9855961664029521,"city_fetched":"Wallingford,UK","country":"United Kingdom","canonicalUrl":"https://foursquare.com/v/the-grosvenor/4c30d02e16adc928eeb1bf9c","categoryId":"4bf58dd8d48988d11b941735","category":"Pub","checkinsCount":414,"usersCount":127,"tipCount":8,"visitsCount":491,"url":"http://www.emberpubanddining.co.uk/the-grosvenor-caversham/","tier":"","message":"","currency":"","rating":6},{"name":"The New Inn","phone":"+441189723115","address":"Chalkhouse Green Rd.","lat":51.50741524377396,"lng":-0.9934846320177035,"city_fetched":"Wallingford,UK","state":"Oxfordshire","country":"United Kingdom","canonicalUrl":"https://foursquare.com/v/the-new-inn/4e0606507d8b2a0180516a55","categoryId":"4bf58dd8d48988d11b941735","category":"Pub","checkinsCount":193,"usersCount":48,"tipCount":5,"visitsCount":204,"url":"http://www.thenewinnkidmoreend.co.uk","tier":"","message":"","currency":"","rating":5.9},{"name":"The Lambert Arms Hotel","phone":"+441844351496","twitter":"thelambertarms","address":"London Rd.","lat":51.677472019924195,"lng":-0.9553404545564717,"city_fetched":"Wallingford,UK","state":"Oxfordshire","country":"United Kingdom","canonicalUrl":"https://foursquare.com/v/the-lambert-arms-hotel/4bded050fe0e62b526f80506","categoryId":"4bf58dd8d48988d11b941735","category":"Pub","checkinsCount":200,"usersCount":158,"tipCount":7,"visitsCount":280,"url":"http://www.bespokehotels.com/lambertarms","tier":"","message":"","currency":"","rating":5.9},{"name":"Mix Bar","phone":"+441189571365","twitter":"mixcocktailbar","address":"Yield Hall Place","lat":51.45411,"lng":-0.969422,"city_fetched":"Wallingford,UK","country":"United Kingdom","canonicalUrl":"https://foursquare.com/v/mix-bar/4b7efb8af964a520210e30e3","categoryId":"4bf58dd8d48988d116941735","category":"Bar","checkinsCount":482,"usersCount":255,"tipCount":5,"visitsCount":489,"url":"http://www.mix-bar.com","tier":"","message":"","currency":"","rating":5.9},{"name":"Bar Aroma","phone":"+441865246607","address":"234 Cowley Rd.","lat":51.7462562446249,"lng":-1.2328290939331055,"city_fetched":"Wallingford,UK","state":"Oxfordshire","country":"United Kingdom","canonicalUrl":"https://foursquare.com/v/bar-aroma/4ba961abf964a5205e233ae3","categoryId":"4bf58dd8d48988d11e941735","category":"Cocktail Bar","checkinsCount":179,"usersCount":88,"tipCount":1,"visitsCount":180,"url":"http://www.bararoma.co.uk","tier":"","message":"","currency":"","rating":5.9},{"name":"The Travellers Rest","phone":"+441189479441","address":"180 Henley Rd., Caversham","lat":51.47093155172017,"lng":-0.9536942122955118,"city_fetched":"Wallingford,UK","country":"United Kingdom","canonicalUrl":"https://foursquare.com/v/the-travellers-rest/4ba23a08f964a52029e537e3","categoryId":"4bf58dd8d48988d11b941735","category":"Pub","checkinsCount":280,"usersCount":161,"tipCount":4,"visitsCount":438,"tier":"","message":"","currency":"","rating":5.8},{"name":"Pavlov's Dog","phone":"+441189519001","address":"31 St Mary's Butts","lat":51.454340092914585,"lng":-0.9745337849203847,"city_fetched":"Wallingford,UK","country":"United Kingdom","canonicalUrl":"https://foursquare.com/v/pavlovs-dog/4b8ee996f964a520473e33e3","categoryId":"4bf58dd8d48988d11b941735","category":"Pub","checkinsCount":1180,"usersCount":591,"tipCount":16,"visitsCount":1321,"tier":"","message":"","currency":"","rating":5.8},{"name":"Sakura","address":"Gun Street","lat":51.453776339828174,"lng":-0.9730360109694093,"city_fetched":"Wallingford,UK","country":"United Kingdom","canonicalUrl":"https://foursquare.com/v/sakura/52994f37498e5f7338a4018c","categoryId":"4bf58dd8d48988d11f941735","category":"Nightclub","checkinsCount":158,"usersCount":109,"tipCount":2,"visitsCount":161,"tier":"","message":"","currency":"","rating":5.8},{"name":"King's Arms","phone":"+441865777095","address":"Church Rd.","lat":51.708437,"lng":-1.232256,"city_fetched":"Wallingford,UK","state":"Oxfordshire","country":"United Kingdom","canonicalUrl":"https://foursquare.com/v/kings-arms/4c38978a2c8020a1a1098b00","categoryId":"4bf58dd8d48988d11b941735","category":"Pub","checkinsCount":494,"usersCount":262,"tipCount":9,"visitsCount":634,"url":"http://www.chefandbrewer.com","tier":"","message":"","currency":"","rating":5.8},{"name":"Bowyer Arms","phone":"+441235523452","twitter":"bowyerarms","address":"Foxborough Road","lat":51.686026557868225,"lng":-1.2412542784538387,"city_fetched":"Wallingford,UK","state":"Oxfordshire","country":"United Kingdom","canonicalUrl":"https://foursquare.com/v/bowyer-arms/4da19cf59935a0933f7da36f","categoryId":"4bf58dd8d48988d11b941735","category":"Pub","checkinsCount":113,"usersCount":43,"tipCount":5,"visitsCount":129,"tier":"","message":"","currency":"","rating":5.8},{"name":"Great Expectations","phone":"+441189503925","address":"33 London St","lat":51.45306572258879,"lng":-0.9679680217348355,"city_fetched":"Wallingford,UK","country":"United Kingdom","canonicalUrl":"https://foursquare.com/v/great-expectations/4b4fa9a3f964a520b90f27e3","categoryId":"4bf58dd8d48988d11b941735","category":"Pub","checkinsCount":1036,"usersCount":411,"tipCount":13,"visitsCount":1197,"tier":"","message":"","currency":"","rating":5.8},{"name":"The Outlook","phone":"+441189586549","address":"76-78a Kings Rd","lat":51.4546704505846,"lng":-0.9652934968471527,"city_fetched":"Wallingford,UK","country":"United Kingdom","canonicalUrl":"https://foursquare.com/v/the-outlook/4c177520c2dfc928b9ffa769","categoryId":"4bf58dd8d48988d11b941735","category":"Pub","checkinsCount":1487,"usersCount":389,"tipCount":17,"visitsCount":1536,"url":"http://gkpubs.co.uk/pubs-in-reading/the-outlook-pub/","tier":"","message":"","currency":"","rating":5.7},{"name":"The Cowley Retreat","address":"172 Cowley Rd","lat":51.747248973163266,"lng":-1.2354441308000992,"city_fetched":"Wallingford,UK","state":"Oxfordshire","country":"United Kingdom","canonicalUrl":"https://foursquare.com/v/the-cowley-retreat/4b801b20f964a520be5230e3","categoryId":"4bf58dd8d48988d11b941735","category":"Pub","checkinsCount":597,"usersCount":352,"tipCount":5,"visitsCount":683,"url":"http://www.thecowleyretreat.com","tier":"","message":"","currency":"","rating":5.6},{"name":"The Old Anchor Inn","lat":51.666759,"lng":-1.28328528,"city_fetched":"Wallingford,UK","country":"United Kingdom","canonicalUrl":"https://foursquare.com/v/the-old-anchor-inn/4c418eed3735be9a899418a4","categoryId":"4bf58dd8d48988d11b941735","category":"Pub","checkinsCount":136,"usersCount":60,"tipCount":1,"visitsCount":145,"tier":"","message":"","currency":"","rating":5.6},{"name":"After Dark Club","address":"112 London Street","lat":51.450927375432016,"lng":-0.9679822088695804,"city_fetched":"Wallingford,UK","country":"United Kingdom","canonicalUrl":"https://foursquare.com/v/after-dark-club/4b6c1c7ff964a52069242ce3","categoryId":"4bf58dd8d48988d11f941735","category":"Nightclub","checkinsCount":368,"usersCount":178,"tipCount":4,"visitsCount":400,"tier":"","message":"","currency":"","rating":5.6},{"name":"The Boundary House","address":"69 Oxford Rd.","lat":51.68194800069372,"lng":-1.27333538423664,"city_fetched":"Wallingford,UK","state":"Oxfordshire","country":"United Kingdom","canonicalUrl":"https://foursquare.com/v/the-boundary-house/4b5a08eef964a52016a928e3","categoryId":"4bf58dd8d48988d11b941735","category":"Pub","checkinsCount":369,"usersCount":108,"tipCount":3,"visitsCount":423,"tier":"","message":"","currency":"","rating":5.6},{"name":"The Hope Tap (Wetherspoon)","phone":"+441189582266","address":"99-105 Friar St","lat":51.45637909275357,"lng":-0.9754559848233707,"city_fetched":"Wallingford,UK","country":"United Kingdom","canonicalUrl":"https://foursquare.com/v/the-hope-tap-wetherspoon/4b7ee470f964a520610730e3","categoryId":"4bf58dd8d48988d11b941735","category":"Pub","checkinsCount":1618,"usersCount":826,"tipCount":25,"visitsCount":1805,"url":"http://www.jdwetherspoon.co.uk","tier":1,"message":"Cheap","currency":"£","rating":5.5},{"name":"The White Horse","phone":"+441235524490","address":"189 Ock Street","lat":51.66955762947222,"lng":-1.2948203086853027,"city_fetched":"Wallingford,UK","state":"Oxfordshire","country":"United Kingdom","canonicalUrl":"https://foursquare.com/v/the-white-horse/4b62d747f964a520ea542ae3","categoryId":"4bf58dd8d48988d11b941735","category":"Pub","checkinsCount":411,"usersCount":130,"tipCount":2,"visitsCount":499,"tier":"","message":"","currency":"","rating":5.5},{"name":"The Horn","phone":"+441189574794","twitter":"londonirishpubs","address":"2 Castle St","lat":51.453808668547,"lng":-0.9739504604810089,"city_fetched":"Wallingford,UK","country":"United Kingdom","canonicalUrl":"https://foursquare.com/v/the-horn/4cddb94869136dcb4bf1d0e6","categoryId":"4bf58dd8d48988d11b941735","category":"Pub","checkinsCount":314,"usersCount":184,"tipCount":3,"visitsCount":321,"url":"http://www.londonirishpubs.co.uk","tier":"","message":"","currency":"","rating":5.5},{"name":"Three Guineas","phone":"+441189572743","twitter":"thethreeguineas","address":"Station Approach","lat":51.45872669642711,"lng":-0.9724831581115723,"city_fetched":"Wallingford,UK","country":"United Kingdom","canonicalUrl":"https://foursquare.com/v/three-guineas/4c19279598f4a5939da6fff5","categoryId":"4bf58dd8d48988d11b941735","category":"Pub","checkinsCount":1671,"usersCount":730,"tipCount":15,"visitsCount":1694,"tier":"","message":"","currency":"","rating":5.4},{"name":"The Ladygrove","phone":"+441235519218","address":"23 Cow Lane","lat":51.61365968696534,"lng":-1.2358224391937256,"city_fetched":"Wallingford,UK","state":"Oxfordshire","country":"United Kingdom","canonicalUrl":"https://foursquare.com/v/the-ladygrove/4b4e8981f964a520d1f026e3","categoryId":"4bf58dd8d48988d11b941735","category":"Pub","checkinsCount":442,"usersCount":124,"tipCount":1,"visitsCount":605,"tier":"","message":"","currency":"","rating":5.4},{"name":"The Slug and Lettuce","phone":"+441189571839","address":"Riverside, The Oracle Shopping Centre","lat":51.45319844913375,"lng":-0.9704649093412194,"city_fetched":"Wallingford,UK","country":"United Kingdom","canonicalUrl":"https://foursquare.com/v/the-slug-and-lettuce/4c8938f294f5a093a555d61e","categoryId":"4bf58dd8d48988d116941735","category":"Bar","checkinsCount":1156,"usersCount":682,"tipCount":15,"visitsCount":1169,"tier":"","message":"","currency":"","rating":5.4},{"name":"The Pack Horse","lat":51.608796,"lng":-1.311407,"city_fetched":"Wallingford,UK","country":"United Kingdom","canonicalUrl":"https://foursquare.com/v/the-pack-horse/4c39e35b0a71c9b6112843c9","categoryId":"4bf58dd8d48988d11b941735","category":"Pub","checkinsCount":87,"usersCount":76,"tipCount":2,"visitsCount":125,"tier":"","message":"","currency":"","rating":5.4},{"name":"The Britannia Inn","phone":"+441865760192","address":"London Road","lat":51.7590283661478,"lng":-1.213839054107666,"neighborhood":"Headington","city_fetched":"Wallingford,UK","state":"Oxfordshire","country":"United Kingdom","canonicalUrl":"https://foursquare.com/v/the-britannia-inn/4b5b38a4f964a52042ec28e3","categoryId":"4bf58dd8d48988d11b941735","category":"Pub","checkinsCount":401,"usersCount":258,"tipCount":3,"visitsCount":487,"tier":"","message":"","currency":"","rating":5.3},{"name":"Boathouse","lat":51.6009451183864,"lng":-1.1206735227228435,"city_fetched":"Wallingford,UK","country":"United Kingdom","canonicalUrl":"https://foursquare.com/v/boathouse/4bbf503030c99c743ef05411","categoryId":"4bf58dd8d48988d116941735","category":"Bar","checkinsCount":106,"usersCount":81,"tipCount":5,"visitsCount":107,"tier":"","message":"","currency":"","rating":5.3}]