[{"name":"The Sow and Pigs","address":"Cambridge Road","lat":51.83320531563727,"lng":-0.03233458215149624,"city_fetched":"Ware,UK","state":"Hertfordshire","country":"United Kingdom","canonicalUrl":"https://foursquare.com/v/the-sow-and-pigs/4b6f149ef964a520a0db2ce3","categoryId":"4bf58dd8d48988d11b941735","category":"Pub","checkinsCount":120,"usersCount":132,"tipCount":11,"visitsCount":174,"tier":"","message":"","currency":"","rating":8.5},{"name":"The Dog and Whistle","phone":"+441992552274","twitter":"dogandwhistle","address":"112 Fore St","lat":51.796688079833984,"lng":-0.07514689862728119,"city_fetched":"Ware,UK","state":"Hertfordshire","country":"United Kingdom","canonicalUrl":"https://foursquare.com/v/the-dog-and-whistle/5353cc4e498e7c38a9ab8170","categoryId":"4bf58dd8d48988d11b941735","category":"Pub","checkinsCount":95,"usersCount":43,"tipCount":0,"visitsCount":98,"url":"http://www.dogandwhistlepub.co.uk","tier":"","message":"","currency":"","rating":7.7},{"name":"Baroosh","phone":"+441992584911","address":"76-78 Fore St","lat":51.796219038950454,"lng":-0.07648012253092726,"city_fetched":"Ware,UK","state":"Hertfordshire","country":"United Kingdom","canonicalUrl":"https://foursquare.com/v/baroosh/4d124e2a957fa1cd1cfc6c9f","categoryId":"4bf58dd8d48988d116941735","category":"Bar","checkinsCount":526,"usersCount":260,"tipCount":8,"visitsCount":569,"url":"http://www.baroosh.co.uk/locations/baroosh-hertford","tier":"","message":"","currency":"","rating":7.7},{"name":"The Old Barge","address":"The Folly, Hertford","lat":51.797921,"lng":-0.078244,"city_fetched":"Ware,UK","state":"Hertfordshire","country":"United Kingdom","canonicalUrl":"https://foursquare.com/v/the-old-barge/4b5e2492f964a520078029e3","categoryId":"4bf58dd8d48988d11b941735","category":"Pub","checkinsCount":541,"usersCount":247,"tipCount":11,"visitsCount":610,"tier":"","message":"","currency":"","rating":7.6},{"name":"The Old Cross Tavern","lat":51.796864,"lng":-0.081221,"city_fetched":"Ware,UK","country":"United Kingdom","canonicalUrl":"https://foursquare.com/v/the-old-cross-tavern/4b6d9f0bf964a520fc802ce3","categoryId":"4bf58dd8d48988d11b941735","category":"Pub","checkinsCount":258,"usersCount":90,"tipCount":3,"visitsCount":309,"tier":"","message":"","currency":"","rating":7.4},{"name":"The Old Punch House","phone":"+441920467675","address":"7 West St.","lat":51.811444,"lng":-0.032154,"city_fetched":"Ware,UK","state":"Hertfordshire","country":"United Kingdom","canonicalUrl":"https://foursquare.com/v/the-old-punch-house/4b9f682ef964a520c22037e3","categoryId":"4bf58dd8d48988d11b941735","category":"Pub","checkinsCount":497,"usersCount":131,"tipCount":9,"visitsCount":528,"tier":"","message":"","currency":"","rating":7.4},{"name":"The Snug","address":"Railway Street","lat":51.79718323524258,"lng":-0.07604155217812072,"city_fetched":"Ware,UK","state":"Hertfordshire","country":"United Kingdom","canonicalUrl":"https://foursquare.com/v/the-snug/4bb8a64798c7ef3bee3e3102","categoryId":"4bf58dd8d48988d116941735","category":"Bar","checkinsCount":288,"usersCount":120,"tipCount":12,"visitsCount":298,"tier":"","message":"","currency":"","rating":7.4},{"name":"Saracens Head","phone":"+441920463640","address":"Bridge Foot","lat":51.80979073047638,"lng":-0.029588,"city_fetched":"Ware,UK","state":"Hertfordshire","country":"United Kingdom","canonicalUrl":"https://foursquare.com/v/saracens-head/4b815b6bf964a52046a130e3","categoryId":"4bf58dd8d48988d11b941735","category":"Pub","checkinsCount":305,"usersCount":104,"tipCount":2,"visitsCount":314,"tier":"","message":"","currency":"","rating":6.6},{"name":"The Snug Ware","phone":"+441920462462","address":"23 High St","lat":51.810402245446966,"lng":-0.029562618498978586,"city_fetched":"Ware,UK","state":"Hertfordshire","country":"United Kingdom","canonicalUrl":"https://foursquare.com/v/the-snug-ware/4b6d5064f964a520a5702ce3","categoryId":"4bf58dd8d48988d123941735","category":"Wine Bar","checkinsCount":720,"usersCount":193,"tipCount":10,"visitsCount":782,"tier":"","message":"","currency":"","rating":6.6},{"name":"The College Arms","address":"40 London Rd","lat":51.780422866492195,"lng":-0.0421281398959905,"city_fetched":"Ware,UK","state":"Hertfordshire","country":"United Kingdom","canonicalUrl":"https://foursquare.com/v/the-college-arms/4d3208db98336dcb09161ff0","categoryId":"4bf58dd8d48988d11b941735","category":"Pub","checkinsCount":157,"usersCount":93,"tipCount":7,"visitsCount":255,"url":"http://www.thecollegearmshertfordheath.com","tier":"","message":"","currency":"","rating":6.6},{"name":"The Woolpack","lat":51.79689738164094,"lng":-0.07991812413501427,"city_fetched":"Ware,UK","state":"Hertfordshire","country":"United Kingdom","canonicalUrl":"https://foursquare.com/v/the-woolpack/4bb8d7cf1261d13aaa00e998","categoryId":"4bf58dd8d48988d116941735","category":"Bar","checkinsCount":192,"usersCount":143,"tipCount":2,"visitsCount":238,"tier":"","message":"","currency":"","rating":6.3},{"name":"The Brewery Tap","phone":"+441920485315","twitter":"brewerytap_ware","address":"83 High St","lat":51.811399,"lng":-0.033213,"city_fetched":"Ware,UK","state":"Hertfordshire","country":"United Kingdom","canonicalUrl":"https://foursquare.com/v/the-brewery-tap/4bd35970caff95211bb3d4f0","categoryId":"4bf58dd8d48988d11b941735","category":"Pub","checkinsCount":189,"usersCount":105,"tipCount":4,"visitsCount":208,"url":"http://brewerytapware.co.uk","tier":"","message":"","currency":"","rating":6.1},{"name":"Jacoby's","address":"15 West St.","lat":51.811508,"lng":-0.03286,"city_fetched":"Ware,UK","state":"Hertfordshire","country":"United Kingdom","canonicalUrl":"https://foursquare.com/v/jacobys/4c9f403d0e9bb1f794adee5f","categoryId":"4bf58dd8d48988d116941735","category":"Bar","checkinsCount":108,"usersCount":52,"tipCount":2,"visitsCount":114,"url":"http://www.jacobys.co.uk","tier":"","message":"","currency":"","rating":5.8},{"name":"The Six Templars (Wetherspoon)","phone":"+441992517430","address":"1 The Wash","lat":51.796367583783656,"lng":-0.07928609848022461,"city_fetched":"Ware,UK","state":"Hertfordshire","country":"United Kingdom","canonicalUrl":"https://foursquare.com/v/the-six-templars-wetherspoon/4c87ab29821e9eb01bcd8d89","categoryId":"4bf58dd8d48988d11b941735","category":"Pub","checkinsCount":990,"usersCount":318,"tipCount":6,"visitsCount":1116,"url":"http://www.jdwetherspoon.co.uk","tier":"","message":"","currency":"","rating":5.1}]