[{"name":"Phoenix Inn","phone":"+441744751890","twitter":"innphoenix","address":"34 Canal St","lat":53.44998950962225,"lng":-2.7412521983807214,"city_fetched":"Warrington,UK","country":"United Kingdom","canonicalUrl":"https://foursquare.com/v/phoenix-inn/4d77ee83926a6dcb934f5100","categoryId":"4bf58dd8d48988d11b941735","category":"Pub","checkinsCount":781,"usersCount":32,"tipCount":10,"visitsCount":795,"tier":"","message":"","currency":"","rating":8.6},{"name":"The Black Swan","phone":"+441612224444","twitter":"blackswanrixton","address":"Manchester Road","lat":53.416438287528095,"lng":-2.4562597274780273,"city_fetched":"Warrington,UK","state":"Warrington","country":"United Kingdom","canonicalUrl":"https://foursquare.com/v/the-black-swan/4ba131a5f964a520cea037e3","categoryId":"4bf58dd8d48988d11b941735","category":"Pub","checkinsCount":123,"usersCount":123,"tipCount":1,"visitsCount":225,"tier":"","message":"","currency":"","rating":7.7},{"name":"Tank","address":"Westfield Street","lat":53.4533492,"lng":-2.7407982,"city_fetched":"Warrington,UK","state":"St. Helens","country":"United Kingdom","canonicalUrl":"https://foursquare.com/v/tank/4e6166e618a8ce02fc65ed4a","categoryId":"4bf58dd8d48988d1d4941735","category":"Speakeasy","checkinsCount":99,"usersCount":29,"tipCount":2,"visitsCount":100,"tier":"","message":"","currency":"","rating":7.6},{"name":"Chapelford Farm","phone":"+441925717732","address":"Santa Rosa Boulevard","lat":53.39653448433746,"lng":-2.6392078399658203,"city_fetched":"Warrington,UK","state":"Warrington","country":"United Kingdom","canonicalUrl":"https://foursquare.com/v/chapelford-farm/4fcf9ce5e4b065df8f527bb2","categoryId":"4bf58dd8d48988d11b941735","category":"Pub","checkinsCount":648,"usersCount":184,"tipCount":8,"visitsCount":1037,"url":"http://www.chapelfordfarmpub.co.uk","tier":"","message":"","currency":"","rating":7.6},{"name":"The Waterside Pub","phone":"+441925248380","address":"1430 Centre Park","lat":53.384371441496555,"lng":-2.5938838720321655,"city_fetched":"Warrington,UK","state":"Warrington","country":"United Kingdom","canonicalUrl":"https://foursquare.com/v/the-waterside-pub/4bf3df3fe5eba5936bf21e90","categoryId":"4bf58dd8d48988d116941735","category":"Bar","checkinsCount":411,"usersCount":180,"tipCount":5,"visitsCount":495,"tier":"","message":"","currency":"","rating":7.5},{"name":"The Farmers Arms","phone":"+441925811660","address":"Fearnhead Ln","lat":53.412487,"lng":-2.556272,"city_fetched":"Warrington,UK","state":"Halton","country":"United Kingdom","canonicalUrl":"https://foursquare.com/v/the-farmers-arms/4ca4c39f750ca093bd2f2467","categoryId":"4bf58dd8d48988d11b941735","category":"Pub","checkinsCount":111,"usersCount":41,"tipCount":1,"visitsCount":147,"tier":"","message":"","currency":"","rating":7.5},{"name":"Grill On The Square","address":"7 Palmyra Sq N","lat":53.38812,"lng":-2.598149,"city_fetched":"Warrington,UK","state":"Warrington","country":"United Kingdom","canonicalUrl":"https://foursquare.com/v/grill-on-the-square/4be47a102468c928dcd4fe42","categoryId":"4bf58dd8d48988d116941735","category":"Bar","checkinsCount":186,"usersCount":109,"tipCount":9,"visitsCount":189,"tier":"","message":"","currency":"","rating":7.5},{"name":"The Palmyra","lat":53.38779447321475,"lng":-2.5983823603265965,"city_fetched":"Warrington,UK","country":"United Kingdom","canonicalUrl":"https://foursquare.com/v/the-palmyra/4f4d431fe4b0cb12b8fc569c","categoryId":"4bf58dd8d48988d116941735","category":"Bar","checkinsCount":159,"usersCount":55,"tipCount":6,"visitsCount":170,"tier":"","message":"","currency":"","rating":7.2},{"name":"The Ferry Tavern","phone":"+441925791117","address":"Station Rd.","lat":53.375283681418,"lng":-2.6574254035949707,"city_fetched":"Warrington,UK","state":"Warrington","country":"United Kingdom","canonicalUrl":"https://foursquare.com/v/the-ferry-tavern/4bf6bb3113aed13a091ceaf7","categoryId":"4bf58dd8d48988d11b941735","category":"Pub","checkinsCount":127,"usersCount":101,"tipCount":6,"visitsCount":174,"tier":"","message":"","currency":"","rating":7.2},{"name":"Stretton Fox","address":"Spark Hall Close","lat":53.336394408488246,"lng":-2.5692420788904466,"city_fetched":"Warrington,UK","state":"Warrington","country":"United Kingdom","canonicalUrl":"https://foursquare.com/v/stretton-fox/4c0d36c798102d7f80d7e106","categoryId":"4bf58dd8d48988d11b941735","category":"Pub","checkinsCount":443,"usersCount":361,"tipCount":8,"visitsCount":656,"tier":"","message":"","currency":"","rating":7.2},{"name":"Porters Ale House","address":"78 Buttermarket St.","lat":53.38970799656788,"lng":-2.589823007583618,"city_fetched":"Warrington,UK","state":"Warrington","country":"United Kingdom","canonicalUrl":"https://foursquare.com/v/porters-ale-house/4b9110b4f964a520e8a133e3","categoryId":"4bf58dd8d48988d11b941735","category":"Pub","checkinsCount":249,"usersCount":66,"tipCount":6,"visitsCount":252,"tier":"","message":"","currency":"","rating":7.1},{"name":"London Bridge","phone":"+441925267904","address":"163 London Rd.","lat":53.367202265949906,"lng":-2.5789761543273926,"city_fetched":"Warrington,UK","state":"Warrington","country":"United Kingdom","canonicalUrl":"https://foursquare.com/v/london-bridge/4bfebee4369476b07ac98c1f","categoryId":"4bf58dd8d48988d11b941735","category":"Pub","checkinsCount":313,"usersCount":224,"tipCount":3,"visitsCount":411,"tier":"","message":"","currency":"","rating":7},{"name":"The Plough","phone":"+441925815409","address":"Mill Ln, Houghton Green","lat":53.4223072,"lng":-2.569654,"city_fetched":"Warrington,UK","state":"Warrington","country":"United Kingdom","canonicalUrl":"https://foursquare.com/v/the-plough/4c485a3231e41b8d02c24f35","categoryId":"4bf58dd8d48988d11b941735","category":"Pub","checkinsCount":138,"usersCount":77,"tipCount":8,"visitsCount":166,"tier":"","message":"","currency":"","rating":6.7},{"name":"The Swan with Two Nicks","phone":"+441619282914","address":"Park Ln.","lat":53.379613,"lng":-2.408327,"city_fetched":"Warrington,UK","state":"Cheshire","country":"United Kingdom","canonicalUrl":"https://foursquare.com/v/the-swan-with-two-nicks/4bcb1173511f9521cdb1b0c7","categoryId":"4bf58dd8d48988d11b941735","category":"Pub","checkinsCount":281,"usersCount":219,"tipCount":4,"visitsCount":315,"url":"http://www.swanwithtwonicks.co.uk","tier":"","message":"","currency":"","rating":6.6},{"name":"The Friar Penketh (Wetherspoon)","phone":"+441925237320","address":"Barbauld St.","lat":53.3871486754342,"lng":-2.5937733867755792,"city_fetched":"Warrington,UK","state":"Warrington","country":"United Kingdom","canonicalUrl":"https://foursquare.com/v/the-friar-penketh-wetherspoon/4bfa8e545ec320a135c88bd3","categoryId":"4bf58dd8d48988d11b941735","category":"Pub","checkinsCount":714,"usersCount":258,"tipCount":3,"visitsCount":800,"url":"http://www.jdwetherspoon.co.uk","tier":"","message":"","currency":"","rating":6.5},{"name":"Barley Mow","address":"Golden Square","lat":53.389935137246134,"lng":-2.5945812463760376,"city_fetched":"Warrington,UK","state":"Warrington","country":"United Kingdom","canonicalUrl":"https://foursquare.com/v/barley-mow/4bed4a1dbac3c9b6ca08fee9","categoryId":"4bf58dd8d48988d11b941735","category":"Pub","checkinsCount":287,"usersCount":143,"tipCount":2,"visitsCount":288,"tier":"","message":"","currency":"","rating":6.4},{"name":"Rope and Anchor","address":"Paddock Lane","lat":53.392231,"lng":-2.413014,"neighborhood":"Bowdon","city_fetched":"Warrington,UK","country":"United Kingdom","canonicalUrl":"https://foursquare.com/v/rope-and-anchor/4c6eb674a437224b2da930b1","categoryId":"4bf58dd8d48988d11b941735","category":"Pub","checkinsCount":164,"usersCount":152,"tipCount":5,"visitsCount":230,"tier":"","message":"","currency":"","rating":6.3},{"name":"The Lord Rodney","phone":"+441925234296","address":"67 Winwick Rd.","lat":53.39460884748357,"lng":-2.5937283039093018,"city_fetched":"Warrington,UK","state":"Warrington","country":"United Kingdom","canonicalUrl":"https://foursquare.com/v/the-lord-rodney/4d6562dd36a96dcbffdd5bf4","categoryId":"4bf58dd8d48988d11b941735","category":"Pub","checkinsCount":114,"usersCount":67,"tipCount":1,"visitsCount":120,"tier":"","message":"","currency":"","rating":6.2},{"name":"The Looking Glass (Wetherspoon)","phone":"+441925405030","address":"41-43 Buttermarket St.","lat":53.389874353239755,"lng":-2.591697871685028,"city_fetched":"Warrington,UK","state":"Warrington","country":"United Kingdom","canonicalUrl":"https://foursquare.com/v/the-looking-glass-wetherspoon/4c87ac45821e9eb00dce8d89","categoryId":"4bf58dd8d48988d11b941735","category":"Pub","checkinsCount":1028,"usersCount":270,"tipCount":4,"visitsCount":1101,"url":"http://www.jdwetherspoon.co.uk","tier":"","message":"","currency":"","rating":6.2},{"name":"The Lounge","address":"6 Springfield St.","lat":53.38825832261836,"lng":-2.598331413824604,"city_fetched":"Warrington,UK","state":"Warrington","country":"United Kingdom","canonicalUrl":"https://foursquare.com/v/the-lounge/4bcf2614843a9521a3ad84dd","categoryId":"4bf58dd8d48988d116941735","category":"Bar","checkinsCount":166,"usersCount":68,"tipCount":2,"visitsCount":169,"tier":"","message":"","currency":"","rating":6.1},{"name":"The Springbrook","lat":53.37713,"lng":-2.53956,"city_fetched":"Warrington,UK","state":"Warrington","country":"United Kingdom","canonicalUrl":"https://foursquare.com/v/the-springbrook/4b7c3db0f964a520b0862fe3","categoryId":"4bf58dd8d48988d11b941735","category":"Pub","checkinsCount":214,"usersCount":94,"tipCount":4,"visitsCount":253,"tier":"","message":"","currency":"","rating":6.1},{"name":"Mojo Bar and Grill","phone":"+441925576576","address":"15 Cairo St.","lat":53.388370721241465,"lng":-2.5952035188674927,"city_fetched":"Warrington,UK","state":"Warrington","country":"United Kingdom","canonicalUrl":"https://foursquare.com/v/mojo-bar-and-grill/4b93f28df964a5200a5c34e3","categoryId":"4bf58dd8d48988d116941735","category":"Bar","checkinsCount":100,"usersCount":61,"tipCount":2,"visitsCount":102,"tier":"","message":"","currency":"","rating":6},{"name":"Showbar","phone":"+441925650205","address":"15-17 Friars Gate","lat":53.387382019457704,"lng":-2.593292336044265,"city_fetched":"Warrington,UK","state":"Warrington","country":"United Kingdom","canonicalUrl":"https://foursquare.com/v/showbar/4c03f2ac310fc9b6a292c661","categoryId":"4bf58dd8d48988d11f941735","category":"Nightclub","checkinsCount":90,"usersCount":57,"tipCount":1,"visitsCount":91,"url":"http://theshowbar.co.uk","tier":"","message":"","currency":"","rating":5.7},{"name":"Memphis Belle","lat":53.411879,"lng":-2.6329287999999997,"city_fetched":"Warrington,UK","country":"United Kingdom","canonicalUrl":"https://foursquare.com/v/memphis-belle/4c0bb5a8009a0f47bd6febbf","categoryId":"4bf58dd8d48988d11b941735","category":"Pub","checkinsCount":471,"usersCount":243,"tipCount":13,"visitsCount":583,"tier":"","message":"","currency":"","rating":5.7},{"name":"The Red Lion Inn","phone":"+441925861041","address":"London Rd.","lat":53.37089910368428,"lng":-2.581615447998047,"city_fetched":"Warrington,UK","state":"Warrington","country":"United Kingdom","canonicalUrl":"https://foursquare.com/v/the-red-lion-inn/4bfeddf84e5d0f4727487d1f","categoryId":"4bf58dd8d48988d11b941735","category":"Pub","checkinsCount":130,"usersCount":51,"tipCount":1,"visitsCount":132,"tier":"","message":"","currency":"","rating":5.6},{"name":"The Pied Bull","phone":"+441925224549","address":"54 High Street","lat":53.45717488707073,"lng":-2.618595786622666,"city_fetched":"Warrington,UK","country":"United Kingdom","canonicalUrl":"https://foursquare.com/v/the-pied-bull/4c604c0112e5c928e6d81e4c","categoryId":"4bf58dd8d48988d11b941735","category":"Pub","checkinsCount":309,"usersCount":63,"tipCount":7,"visitsCount":313,"tier":"","message":"","currency":"","rating":5.5},{"name":"The Trigger Pond","phone":"+441925791165","address":"Lingley Green Avenue","lat":53.394231,"lng":-2.671502,"city_fetched":"Warrington,UK","state":"Warrington","country":"United Kingdom","canonicalUrl":"https://foursquare.com/v/the-trigger-pond/4c76555dd8948cfa69086ada","categoryId":"4bf58dd8d48988d11b941735","category":"Pub","checkinsCount":224,"usersCount":119,"tipCount":8,"visitsCount":267,"url":"http://www.triggerpondpub.co.uk","tier":"","message":"","currency":"","rating":5.4},{"name":"The Oak Tree","phone":"+441925228668","address":"2-4 Crow Lane East","lat":53.45844104749782,"lng":-2.6233720779418945,"city_fetched":"Warrington,UK","country":"United Kingdom","canonicalUrl":"https://foursquare.com/v/the-oak-tree/4c38af05ae2da593aa1801c6","categoryId":"4bf58dd8d48988d11b941735","category":"Pub","checkinsCount":179,"usersCount":77,"tipCount":6,"visitsCount":228,"tier":"","message":"","currency":"","rating":5.3},{"name":"The Counting House","phone":"+441744739562","address":"16 Hardshaw St.","lat":53.45308528686872,"lng":-2.735622333463212,"city_fetched":"Warrington,UK","country":"United Kingdom","canonicalUrl":"https://foursquare.com/v/the-counting-house/4b60ba28f964a5201df629e3","categoryId":"4bf58dd8d48988d11b941735","category":"Pub","checkinsCount":222,"usersCount":78,"tipCount":8,"visitsCount":232,"tier":"","message":"","currency":"","rating":5.3},{"name":"The Maltings","phone":"+441925638201","address":"Bewsey Farm Cl.","lat":53.400398290142675,"lng":-2.618136405944824,"city_fetched":"Warrington,UK","state":"Warrington","country":"United Kingdom","canonicalUrl":"https://foursquare.com/v/the-maltings/4bc5e5e6d35d9c7408c3e13a","categoryId":"4bf58dd8d48988d11b941735","category":"Pub","checkinsCount":102,"usersCount":37,"tipCount":0,"visitsCount":109,"tier":"","message":"","currency":"","rating":5.1}]