[{"name":"Sheffield Tap","phone":"+441142737558","twitter":"sheffieldtap","address":"Sheffield Railway Station","lat":53.37870291447737,"lng":-1.4625438772557566,"neighborhood":"Central Sheffield","city_fetched":"Warsop,UK","country":"United Kingdom","canonicalUrl":"https://foursquare.com/v/sheffield-tap/4b4e33e7f964a52016e526e3","categoryId":"4bf58dd8d48988d11b941735","category":"Pub","checkinsCount":5063,"usersCount":1459,"tipCount":78,"visitsCount":5153,"url":"http://www.sheffieldtap.com","tier":2,"message":"Moderate","currency":"£","rating":9.1},{"name":"Ye Olde Trip to Jerusalem","phone":"+441159473171","twitter":"triptojerusalem","address":"1 Brewhouse Yard","lat":52.949258467937916,"lng":-1.1525774002075195,"neighborhood":"City Centre West","city_fetched":"Warsop,UK","state":"Nottinghamshire","country":"United Kingdom","canonicalUrl":"https://foursquare.com/v/ye-olde-trip-to-jerusalem/4b1fc555f964a520e12824e3","categoryId":"4bf58dd8d48988d11b941735","category":"Pub","checkinsCount":2890,"usersCount":2624,"tipCount":80,"visitsCount":3380,"url":"http://www.triptojerusalem.com","tier":2,"message":"Moderate","currency":"£","rating":9},{"name":"The Bath Hotel","phone":"+441142495151","twitter":"beerinthebath","address":"66-68 Victoria St","lat":53.379305424173445,"lng":-1.4821029857420769,"neighborhood":"Central Sheffield","city_fetched":"Warsop,UK","country":"United Kingdom","canonicalUrl":"https://foursquare.com/v/the-bath-hotel/4b919ce1f964a520dec933e3","categoryId":"4bf58dd8d48988d11b941735","category":"Pub","checkinsCount":719,"usersCount":326,"tipCount":13,"visitsCount":917,"url":"http://www.beerinthebath.co.uk","tier":"","message":"","currency":"","rating":8.9},{"name":"Devonshire Cat","phone":"+441142796700","twitter":"devonshirecat","address":"49 Wellington St","lat":53.378029413393286,"lng":-1.476733088493347,"neighborhood":"Central Sheffield","city_fetched":"Warsop,UK","country":"United Kingdom","canonicalUrl":"https://foursquare.com/v/devonshire-cat/4b0956faf964a520e91523e3","categoryId":"4bf58dd8d48988d11b941735","category":"Pub","checkinsCount":2258,"usersCount":1035,"tipCount":37,"visitsCount":2564,"url":"http://www.devonshirecat.co.uk","tier":2,"message":"Moderate","currency":"£","rating":8.8},{"name":"The Canalhouse","phone":"+441159555011","twitter":"canalhousebar","address":"48-52 Canal St","lat":52.94830981263958,"lng":-1.1484789848327637,"neighborhood":"City Centre","city_fetched":"Warsop,UK","state":"Nottinghamshire","country":"United Kingdom","canonicalUrl":"https://foursquare.com/v/the-canalhouse/4b9d3900f964a520d99a36e3","categoryId":"4bf58dd8d48988d116941735","category":"Bar","checkinsCount":1756,"usersCount":1092,"tipCount":26,"visitsCount":2133,"url":"http://thecanalhouse.co.uk","tier":2,"message":"Moderate","currency":"£","rating":8.8},{"name":"Rutland Arms","phone":"+441142729003","twitter":"rutlandarms","address":"86 Brown St","lat":53.37653270008916,"lng":-1.4676028570044328,"neighborhood":"Central Sheffield","city_fetched":"Warsop,UK","country":"United Kingdom","canonicalUrl":"https://foursquare.com/v/rutland-arms/4b599b8af964a520a88e28e3","categoryId":"4bf58dd8d48988d11b941735","category":"Pub","checkinsCount":4220,"usersCount":817,"tipCount":55,"visitsCount":4770,"url":"http://www.rutlandarmspeople.co.uk","tier":2,"message":"Moderate","currency":"£","rating":8.7},{"name":"The Fat Cat","phone":"+441142494801","address":"23 Alma St","lat":53.38855947796067,"lng":-1.4717763662338257,"neighborhood":"Central Sheffield","city_fetched":"Warsop,UK","country":"United Kingdom","canonicalUrl":"https://foursquare.com/v/the-fat-cat/4b6db5c3f964a52096882ce3","categoryId":"4bf58dd8d48988d11b941735","category":"Pub","checkinsCount":2173,"usersCount":772,"tipCount":39,"visitsCount":2372,"url":"http://www.thefatcat.co.uk","tier":1,"message":"Cheap","currency":"£","rating":8.7},{"name":"Junkyard Bottle Shop and Pour House","phone":"+441159501758","twitter":"jydpoho","address":"12 Bridlesmith Walk","lat":52.95256904102519,"lng":-1.1461594307228287,"neighborhood":"City Centre","city_fetched":"Warsop,UK","state":"Nottinghamshire","country":"United Kingdom","canonicalUrl":"https://foursquare.com/v/junkyard-bottle-shop-and-pour-house/541c9a42498e537b40511b9a","categoryId":"4bf58dd8d48988d116941735","category":"Bar","checkinsCount":659,"usersCount":277,"tipCount":15,"visitsCount":797,"url":"http://www.junkbars.com","tier":"","message":"","currency":"","rating":8.7},{"name":"The Beer Engine","lat":53.372488655072615,"lng":-1.477625838572737,"neighborhood":"Central Sheffield","city_fetched":"Warsop,UK","country":"United Kingdom","canonicalUrl":"https://foursquare.com/v/the-beer-engine/552032ea498e070eca5e131f","categoryId":"4bf58dd8d48988d11b941735","category":"Pub","checkinsCount":236,"usersCount":102,"tipCount":4,"visitsCount":315,"tier":"","message":"","currency":"","rating":8.6},{"name":"The Shakespeare","phone":"+441142755959","twitter":"shakespearesshf","address":"146-148 Gibraltar St.","lat":53.38671986409586,"lng":-1.4715296030044556,"neighborhood":"Central Sheffield","city_fetched":"Warsop,UK","country":"United Kingdom","canonicalUrl":"https://foursquare.com/v/the-shakespeare/4e272d2262e14d5da15614b7","categoryId":"4bf58dd8d48988d11b941735","category":"Pub","checkinsCount":1324,"usersCount":450,"tipCount":19,"visitsCount":1545,"url":"http://www.shakespeares-sheffield.co.uk/shakespeare-pub-sheffield-yorkshire","tier":2,"message":"Moderate","currency":"£","rating":8.6},{"name":"The Brothers Arms","phone":"+441142553995","twitter":"thebroarms","address":"106 Well Road","lat":53.361140199387016,"lng":-1.4698938184550114,"neighborhood":"Heeley, Sheffield","city_fetched":"Warsop,UK","state":"Sheffield","country":"United Kingdom","canonicalUrl":"https://foursquare.com/v/the-brothers-arms/53ff64c6498eebee81f7d4ac","categoryId":"4bf58dd8d48988d11b941735","category":"Pub","checkinsCount":274,"usersCount":127,"tipCount":5,"visitsCount":421,"tier":"","message":"","currency":"","rating":8.6},{"name":"Sheaf View","phone":"+441142496455","address":"25 Gleadless Road","lat":53.36211578913104,"lng":-1.4710092544555664,"city_fetched":"Warsop,UK","state":"Sheffield","country":"United Kingdom","canonicalUrl":"https://foursquare.com/v/sheaf-view/4b6c7605f964a5200f3c2ce3","categoryId":"4bf58dd8d48988d11b941735","category":"Pub","checkinsCount":956,"usersCount":284,"tipCount":20,"visitsCount":1157,"tier":"","message":"","currency":"","rating":8.6},{"name":"Peddler Night Market","address":"92 Burton Road","lat":53.39248582351688,"lng":-1.476028353746214,"neighborhood":"Central Sheffield","city_fetched":"Warsop,UK","state":"Sheffield","country":"United Kingdom","canonicalUrl":"https://foursquare.com/v/peddler-night-market/54fa0228498eab354bd622c6","categoryId":"53e510b7498ebcb1801b55d4","category":"Night Market","checkinsCount":172,"usersCount":93,"tipCount":2,"visitsCount":205,"tier":"","message":"","currency":"","rating":8.5},{"name":"The Sir John Borlase Warren","phone":"+441159881889","twitter":"thesirjohn","address":"1 Ilkeston Road","lat":52.95574306993269,"lng":-1.162132940882487,"neighborhood":"City Centre West","city_fetched":"Warsop,UK","state":"Nottinghamshire","country":"United Kingdom","canonicalUrl":"https://foursquare.com/v/the-sir-john-borlase-warren/538f1169498e9e17bc7bd2e3","categoryId":"4bf58dd8d48988d11b941735","category":"Pub","checkinsCount":227,"usersCount":80,"tipCount":2,"visitsCount":240,"tier":2,"message":"Moderate","currency":"£","rating":8.5},{"name":"The White Lion","address":"74 Swingate","lat":52.99058358665737,"lng":-1.254321889215609,"city_fetched":"Warsop,UK","state":"Nottinghamshire","country":"United Kingdom","canonicalUrl":"https://foursquare.com/v/the-white-lion/517d3c0fe4b0a7bf682f6ab2","categoryId":"4bf58dd8d48988d11b941735","category":"Pub","checkinsCount":386,"usersCount":40,"tipCount":6,"visitsCount":438,"tier":"","message":"","currency":"","rating":8.5},{"name":"The Brown Cow","phone":"+441623429594","twitter":"rawbrowncow","address":"35 Ratcliffe Gate","lat":53.14313176481314,"lng":-1.1894448055608051,"city_fetched":"Warsop,UK","state":"Nottinghamshire","country":"United Kingdom","canonicalUrl":"https://foursquare.com/v/the-brown-cow/4d2760a277a2a1cdc23158b7","categoryId":"4bf58dd8d48988d11b941735","category":"Pub","checkinsCount":306,"usersCount":90,"tipCount":8,"visitsCount":391,"tier":"","message":"","currency":"","rating":8.5},{"name":"Boilermaker","phone":"+441159587528","twitter":"boilermakerbar","address":"36b Carlton St, Hockley","lat":52.953523787141094,"lng":-1.1438138743352597,"neighborhood":"City Centre","city_fetched":"Warsop,UK","state":"Nottinghamshire","country":"United Kingdom","canonicalUrl":"https://foursquare.com/v/boilermaker/51c495ea498e2a060cbe2672","categoryId":"4bf58dd8d48988d1d4941735","category":"Speakeasy","checkinsCount":432,"usersCount":292,"tipCount":21,"visitsCount":461,"url":"http://boilermakerbar.co.uk","tier":2,"message":"Moderate","currency":"£","rating":8.5},{"name":"Tilt Bar","phone":"+441159501226","address":"9 Pelham Street","lat":52.95373,"lng":-1.1469447612762451,"neighborhood":"City Centre","city_fetched":"Warsop,UK","state":"Nottinghamshire","country":"United Kingdom","canonicalUrl":"https://foursquare.com/v/tilt-bar/4b9922cff964a520dd6335e3","categoryId":"4bf58dd8d48988d11e941735","category":"Cocktail Bar","checkinsCount":633,"usersCount":356,"tipCount":22,"visitsCount":667,"tier":"","message":"","currency":"","rating":8.5},{"name":"The Masons Arms","phone":"+441623472704","address":"Unwin Rd","lat":53.12854288673473,"lng":-1.2446681730660853,"city_fetched":"Warsop,UK","state":"Nottinghamshire","country":"United Kingdom","canonicalUrl":"https://foursquare.com/v/the-masons-arms/4d35ddfe329e54814ebfce1d","categoryId":"4bf58dd8d48988d11b941735","category":"Pub","checkinsCount":324,"usersCount":29,"tipCount":4,"visitsCount":371,"url":"http://www.themasonsarmspub.co.uk","tier":"","message":"","currency":"","rating":8.4},{"name":"The Blake Hotel","phone":"+441142339336","address":"53 Blake St","lat":53.39118434745451,"lng":-1.4917679724710893,"city_fetched":"Warsop,UK","country":"United Kingdom","canonicalUrl":"https://foursquare.com/v/the-blake-hotel/4d30bf975acfa35dfe34fccb","categoryId":"4bf58dd8d48988d11b941735","category":"Pub","checkinsCount":567,"usersCount":146,"tipCount":12,"visitsCount":644,"tier":"","message":"","currency":"","rating":8.4},{"name":"The Old House","phone":"+441142766002","twitter":"theoldhouse","address":"113-117 Devonshire St","lat":53.379386213257284,"lng":-1.4769744873046875,"neighborhood":"Central Sheffield","city_fetched":"Warsop,UK","country":"United Kingdom","canonicalUrl":"https://foursquare.com/v/the-old-house/4b642df9f964a520c6a22ae3","categoryId":"4bf58dd8d48988d116941735","category":"Bar","checkinsCount":2169,"usersCount":871,"tipCount":23,"visitsCount":2362,"url":"http://www.theoldhousesheffield.co.uk","tier":2,"message":"Moderate","currency":"£","rating":8.4},{"name":"Broadfield Ale House","phone":"+441142550200","address":"452 Abbeydale Road","lat":53.35822664731911,"lng":-1.4825643056953344,"neighborhood":"Nether Edge","city_fetched":"Warsop,UK","state":"Sheffield","country":"United Kingdom","canonicalUrl":"https://foursquare.com/v/broadfield-ale-house/4ee9e08aaa1f7c78108171b4","categoryId":"4bf58dd8d48988d11b941735","category":"Pub","checkinsCount":1201,"usersCount":539,"tipCount":20,"visitsCount":1632,"tier":"","message":"","currency":"","rating":8.4},{"name":"Bungalows and Bears","phone":"+441142792901","twitter":"bungsandbears","address":"The Old Fire Station, Division St.","lat":53.37992380124576,"lng":-1.4749360084533691,"neighborhood":"Central Sheffield","city_fetched":"Warsop,UK","country":"United Kingdom","canonicalUrl":"https://foursquare.com/v/bungalows-and-bears/4ad0c6c0f964a520b9d920e3","categoryId":"4bf58dd8d48988d116941735","category":"Bar","checkinsCount":2215,"usersCount":1223,"tipCount":31,"visitsCount":2709,"url":"http://www.bungalowsandbears.com/#","tier":2,"message":"Moderate","currency":"£","rating":8.4},{"name":"The Rising Sun","phone":"+441142303855","address":"471 Fulwood Rd","lat":53.367282,"lng":-1.5303925013595503,"city_fetched":"Warsop,UK","country":"United Kingdom","canonicalUrl":"https://foursquare.com/v/the-rising-sun/4b62dc8cf964a5200b562ae3","categoryId":"4bf58dd8d48988d11b941735","category":"Pub","checkinsCount":264,"usersCount":126,"tipCount":8,"visitsCount":291,"url":"http://risingsunsheffield.co.uk","tier":"","message":"","currency":"","rating":8.3},{"name":"Gardeners Rest","phone":"+441142724978","twitter":"gardeners_rest","address":"105 Neepsend Ln.","lat":53.3932915390278,"lng":-1.4786124920533055,"city_fetched":"Warsop,UK","country":"United Kingdom","canonicalUrl":"https://foursquare.com/v/gardeners-rest/4b93dc3bf964a520c05534e3","categoryId":"4bf58dd8d48988d11b941735","category":"Pub","checkinsCount":542,"usersCount":182,"tipCount":12,"visitsCount":621,"tier":"","message":"","currency":"","rating":8.3},{"name":"The Clock Inn","phone":"+441773811396","twitter":"theclockinn","address":"107 Market St","lat":53.10465952300996,"lng":-1.342697492541969,"city_fetched":"Warsop,UK","state":"Derbyshire","country":"United Kingdom","canonicalUrl":"https://foursquare.com/v/the-clock-inn/4c8402f5d4e237048f3f7688","categoryId":"4bf58dd8d48988d11b941735","category":"Pub","checkinsCount":939,"usersCount":39,"tipCount":6,"visitsCount":1000,"url":"http://www.theclockinn.co.uk","tier":"","message":"","currency":"","rating":8.2},{"name":"The Ship Inn Artisan Tap","phone":"+441142812204","address":"312 Shalesmoor","lat":53.38831617214221,"lng":-1.4763182737080467,"neighborhood":"Central Sheffield","city_fetched":"Warsop,UK","country":"United Kingdom","canonicalUrl":"https://foursquare.com/v/the-ship-inn-artisan-tap/4c2fa335452620a18be81d0f","categoryId":"4bf58dd8d48988d11b941735","category":"Pub","checkinsCount":268,"usersCount":132,"tipCount":2,"visitsCount":322,"tier":"","message":"","currency":"","rating":8.2},{"name":"Hockley Arts Club","address":"20 Carlton St","lat":52.95343634168915,"lng":-1.1442112619142921,"neighborhood":"City Centre","city_fetched":"Warsop,UK","state":"Nottinghamshire","country":"United Kingdom","canonicalUrl":"https://foursquare.com/v/hockley-arts-club/5654db1d498e006b1a3ba88e","categoryId":"4bf58dd8d48988d121941735","category":"Lounge","checkinsCount":109,"usersCount":77,"tipCount":2,"visitsCount":114,"tier":"","message":"","currency":"","rating":8.2},{"name":"Revolucion De Cuba","phone":"+441142799250","twitter":"cubanmotweeto","address":"1 Mappin St.","lat":53.38045818257945,"lng":-1.479061245918274,"neighborhood":"Central Sheffield","city_fetched":"Warsop,UK","country":"United Kingdom","canonicalUrl":"https://foursquare.com/v/revolucion-de-cuba/4d8e6162fa943704499301c6","categoryId":"4bf58dd8d48988d11e941735","category":"Cocktail Bar","checkinsCount":1135,"usersCount":550,"tipCount":15,"visitsCount":1245,"tier":"","message":"","currency":"","rating":8.1},{"name":"The Vat And Fiddle","phone":"+441159850611","address":"12–14 Queensbridge Rd","lat":52.945749794010055,"lng":-1.1482590436935425,"neighborhood":"City Centre","city_fetched":"Warsop,UK","state":"Nottinghamshire","country":"United Kingdom","canonicalUrl":"https://foursquare.com/v/the-vat-and-fiddle/4c1d1c82b9f876b0af0c7d46","categoryId":"4bf58dd8d48988d11b941735","category":"Pub","checkinsCount":637,"usersCount":314,"tipCount":16,"visitsCount":747,"tier":"","message":"","currency":"","rating":8.1},{"name":"The Stratford Haven","phone":"+441159825981","twitter":"stratfordhaven","address":"2 Stratford Rd","lat":52.93361188662541,"lng":-1.129617691040039,"city_fetched":"Warsop,UK","state":"Nottinghamshire","country":"United Kingdom","canonicalUrl":"https://foursquare.com/v/the-stratford-haven/4bbb84b4e436ef3bf86f5564","categoryId":"4bf58dd8d48988d11b941735","category":"Pub","checkinsCount":811,"usersCount":311,"tipCount":8,"visitsCount":879,"url":"http://www.castlerockbrewery.co.uk/site/?page_id=18","tier":"","message":"","currency":"","rating":8},{"name":"The Railway Inn","phone":"+441623623086","address":"Station St.","lat":53.14220137666793,"lng":-1.1966782808303833,"city_fetched":"Warsop,UK","state":"Nottinghamshire","country":"United Kingdom","canonicalUrl":"https://foursquare.com/v/the-railway-inn/4bd2e423b221c9b6a969d8d0","categoryId":"4bf58dd8d48988d11b941735","category":"Pub","checkinsCount":939,"usersCount":73,"tipCount":7,"visitsCount":1040,"url":"http://www.railwaylive.co.uk","tier":"","message":"","currency":"","rating":8},{"name":"The York","twitter":"yorksheffield","address":"243-247 Fulwood Road","lat":53.37728165808202,"lng":-1.5015986640624777,"city_fetched":"Warsop,UK","country":"United Kingdom","canonicalUrl":"https://foursquare.com/v/the-york/4c62bdf479d1e21e53c5d615","categoryId":"4bf58dd8d48988d11b941735","category":"Pub","checkinsCount":880,"usersCount":445,"tipCount":21,"visitsCount":1195,"url":"http://www.theyorksheffield.co.uk","tier":1,"message":"Cheap","currency":"£","rating":8},{"name":"The Gladstone","phone":"+441159129994","address":"45 Loscoe Rd","lat":52.974727749824524,"lng":-1.152539849281311,"neighborhood":"Sherwood","city_fetched":"Warsop,UK","state":"Nottinghamshire","country":"United Kingdom","canonicalUrl":"https://foursquare.com/v/the-gladstone/4bd2ff44046076b065e87471","categoryId":"4bf58dd8d48988d11b941735","category":"Pub","checkinsCount":326,"usersCount":104,"tipCount":9,"visitsCount":364,"tier":"","message":"","currency":"","rating":7.9},{"name":"Curious Manor","lat":52.95580475869724,"lng":-1.1492615950753586,"neighborhood":"City Centre Northeast","city_fetched":"Warsop,UK","country":"United Kingdom","canonicalUrl":"https://foursquare.com/v/curious-manor/55cb97eb498e79b3bbae39b7","categoryId":"4bf58dd8d48988d121941735","category":"Lounge","checkinsCount":72,"usersCount":52,"tipCount":2,"visitsCount":72,"tier":"","message":"","currency":"","rating":7.9},{"name":"Larwood & Voce","phone":"+441159819960","address":"Fox Rd","lat":52.936801752878175,"lng":-1.1305610062156093,"city_fetched":"Warsop,UK","state":"Nottinghamshire","country":"United Kingdom","canonicalUrl":"https://foursquare.com/v/larwood--voce/4beaa43e415e20a15638e5bb","categoryId":"4bf58dd8d48988d11b941735","category":"Pub","checkinsCount":572,"usersCount":250,"tipCount":11,"visitsCount":664,"tier":"","message":"","currency":"","rating":7.9},{"name":"The Devonshire Arms","phone":"+441773810748","address":"Market St","lat":53.10586267103518,"lng":-1.3426105116874014,"city_fetched":"Warsop,UK","state":"Derbyshire","country":"United Kingdom","canonicalUrl":"https://foursquare.com/v/the-devonshire-arms/4c6023c012e5c92886861e4c","categoryId":"4bf58dd8d48988d11b941735","category":"Pub","checkinsCount":5417,"usersCount":55,"tipCount":4,"visitsCount":5472,"tier":"","message":"","currency":"","rating":7.9},{"name":"The Great Gatsby","phone":"+441142763939","address":"73-75 Division St","lat":53.37970620692513,"lng":-1.47515594959259,"neighborhood":"Central Sheffield","city_fetched":"Warsop,UK","country":"United Kingdom","canonicalUrl":"https://foursquare.com/v/the-great-gatsby/4d6fc97056dea09399e0c48c","categoryId":"4bf58dd8d48988d116941735","category":"Bar","checkinsCount":925,"usersCount":543,"tipCount":9,"visitsCount":1090,"tier":"","message":"","currency":"","rating":7.9},{"name":"The Burnt Stump","address":"Burntstump Hill","lat":53.051122,"lng":-1.141623,"city_fetched":"Warsop,UK","state":"Nottinghamshire","country":"United Kingdom","canonicalUrl":"https://foursquare.com/v/the-burnt-stump/51a0b3e0498e3a83dcc14b69","categoryId":"4bf58dd8d48988d11b941735","category":"Pub","checkinsCount":65,"usersCount":60,"tipCount":0,"visitsCount":83,"tier":"","message":"","currency":"","rating":7.8},{"name":"The Lescar","phone":"+441142668974","twitter":"lescarsheffield","address":"303 Sharrow Vale Rd","lat":53.36734630459511,"lng":-1.4983463287353516,"neighborhood":"Nether Edge","city_fetched":"Warsop,UK","country":"United Kingdom","canonicalUrl":"https://foursquare.com/v/the-lescar/4b43c67ef964a52070e925e3","categoryId":"4bf58dd8d48988d11b941735","category":"Pub","checkinsCount":1060,"usersCount":504,"tipCount":10,"visitsCount":1281,"url":"http://www.thelescarhuntersbar.co.uk","tier":"","message":"","currency":"","rating":7.8},{"name":"The Victoria Hotel","phone":"+441159254049","address":"85 Dovecote Ln","lat":52.92023342073717,"lng":-1.2089041177509625,"city_fetched":"Warsop,UK","state":"Nottinghamshire","country":"United Kingdom","canonicalUrl":"https://foursquare.com/v/the-victoria-hotel/4b68e1def964a52073912be3","categoryId":"4bf58dd8d48988d11b941735","category":"Pub","checkinsCount":1272,"usersCount":408,"tipCount":20,"visitsCount":1531,"url":"http://www.victoriabeeston.co.uk","tier":"","message":"","currency":"","rating":7.8},{"name":"Hallamshire House","phone":"+441142664466","twitter":"hallamshirehaus","address":"49-51 Commonside","lat":53.38609277755033,"lng":-1.4972305297851562,"city_fetched":"Warsop,UK","country":"United Kingdom","canonicalUrl":"https://foursquare.com/v/hallamshire-house/4bddbaa80ee3a5931b672eb0","categoryId":"4bf58dd8d48988d11b941735","category":"Pub","checkinsCount":878,"usersCount":195,"tipCount":7,"visitsCount":997,"url":"http://www.myhallamshire.co.uk","tier":"","message":"","currency":"","rating":7.8},{"name":"The Factory","phone":"+447883773625","address":"22 Union Rd","lat":52.958507,"lng":-1.144508,"neighborhood":"City Centre Northeast","city_fetched":"Warsop,UK","state":"Nottinghamshire","country":"United Kingdom","canonicalUrl":"https://foursquare.com/v/the-factory/4c930a401221b1f7ddee16e2","categoryId":"4bf58dd8d48988d119941735","category":"Hookah Bar","checkinsCount":365,"usersCount":210,"tipCount":2,"visitsCount":564,"tier":"","message":"","currency":"","rating":7.8},{"name":"Rocket at Saltwater","twitter":"saltwater_bar","address":"The Corner House Burton St.","lat":52.955464416999185,"lng":-1.1501107883628392,"neighborhood":"City Centre Northeast","city_fetched":"Warsop,UK","state":"Nottinghamshire","country":"United Kingdom","canonicalUrl":"https://foursquare.com/v/rocket-at-saltwater/5054e99ae4b0a133029fa3d7","categoryId":"4bf58dd8d48988d11e941735","category":"Cocktail Bar","checkinsCount":112,"usersCount":78,"tipCount":3,"visitsCount":112,"url":"http://www.rocketrestaurants.co.uk/venues/nottingham/","tier":"","message":"","currency":"","rating":7.8},{"name":"The Mallard","twitter":"mallard_worksop","address":"Worksop Station","lat":53.31136458024037,"lng":-1.1221852741098814,"city_fetched":"Warsop,UK","state":"Nottinghamshire","country":"United Kingdom","canonicalUrl":"https://foursquare.com/v/the-mallard/4f59197be4b017e9a1f2646e","categoryId":"4bf58dd8d48988d116941735","category":"Bar","checkinsCount":199,"usersCount":52,"tipCount":4,"visitsCount":201,"tier":"","message":"","currency":"","rating":7.7},{"name":"The Forest Lodge and Restaurant","phone":"+441623824443","address":"4 Church St.","lat":53.195463535363224,"lng":-1.064490699386425,"city_fetched":"Warsop,UK","state":"Nottinghamshire","country":"United Kingdom","canonicalUrl":"https://foursquare.com/v/the-forest-lodge-and-restaurant/4cf6d7a1c28df04d7c2bcd15","categoryId":"4bf58dd8d48988d1d5941735","category":"Hotel Bar","checkinsCount":149,"usersCount":66,"tipCount":3,"visitsCount":195,"url":"http://www.forestlodgehotel.co.uk","tier":"","message":"","currency":"","rating":7.7},{"name":"Griffin's Head","phone":"+441159633672","address":"Moor Rd.","lat":53.053852,"lng":-1.1825162172317505,"city_fetched":"Warsop,UK","state":"Nottinghamshire","country":"United Kingdom","canonicalUrl":"https://foursquare.com/v/griffins-head/4d96f56cdaec224bd895233e","categoryId":"4bf58dd8d48988d11b941735","category":"Pub","checkinsCount":143,"usersCount":102,"tipCount":3,"visitsCount":210,"url":"http://www.griffinshead.co.uk","tier":"","message":"","currency":"","rating":7.7},{"name":"Bell and Harp","phone":"+441332781725","address":"227 Alfreton Road","lat":52.98072198862195,"lng":-1.4535319805145264,"neighborhood":"Little Eaton","city_fetched":"Warsop,UK","state":"Derbyshire","country":"United Kingdom","canonicalUrl":"https://foursquare.com/v/bell-and-harp/4e2c3745a809f1b164178adc","categoryId":"4bf58dd8d48988d11b941735","category":"Pub","checkinsCount":45,"usersCount":30,"tipCount":4,"visitsCount":89,"tier":"","message":"","currency":"","rating":7.7},{"name":"Ned Ludd","phone":"+441159243415","twitter":"nedluddnottm","address":"27 friar lane","lat":52.95202919427281,"lng":-1.1521579569065166,"neighborhood":"City Centre","city_fetched":"Warsop,UK","state":"Nottinghamshire","country":"United Kingdom","canonicalUrl":"https://foursquare.com/v/ned-ludd/524f038411d2bf1129b2bd57","categoryId":"4bf58dd8d48988d11b941735","category":"Pub","checkinsCount":499,"usersCount":200,"tipCount":12,"visitsCount":519,"url":"http://www.thenedludd.co.uk","tier":"","message":"","currency":"","rating":7.6},{"name":"The Wick at Both Ends","phone":"+441142723039","twitter":"wickatbothends","address":"West St","lat":53.380154194020385,"lng":-1.4788144826889038,"neighborhood":"Central Sheffield","city_fetched":"Warsop,UK","country":"United Kingdom","canonicalUrl":"https://foursquare.com/v/the-wick-at-both-ends/4b916145f964a520b8b733e3","categoryId":"4bf58dd8d48988d116941735","category":"Bar","checkinsCount":1173,"usersCount":506,"tipCount":18,"visitsCount":1225,"url":"http://thewickatbothends.co.uk","tier":"","message":"","currency":"","rating":7.6},{"name":"The Lincolnshire Poacher","phone":"+441159411584","address":"161-163 Mansfield Rd","lat":52.96218283334165,"lng":-1.1513207852840424,"neighborhood":"City Centre Northeast","city_fetched":"Warsop,UK","state":"Nottinghamshire","country":"United Kingdom","canonicalUrl":"https://foursquare.com/v/the-lincolnshire-poacher/4bb78e06314e9521b14b479d","categoryId":"4bf58dd8d48988d11b941735","category":"Pub","checkinsCount":569,"usersCount":308,"tipCount":18,"visitsCount":688,"tier":"","message":"","currency":"","rating":7.6},{"name":"The Plough","phone":"+441159372401","address":"Old Melton Rd.","lat":52.888097,"lng":-1.07457,"city_fetched":"Warsop,UK","state":"Nottinghamshire","country":"United Kingdom","canonicalUrl":"https://foursquare.com/v/the-plough/4c4b4a2ebad7a593d6b0a8ab","categoryId":"4bf58dd8d48988d11b941735","category":"Pub","checkinsCount":46,"usersCount":50,"tipCount":3,"visitsCount":82,"tier":"","message":"","currency":"","rating":7.6},{"name":"The Lord Nelson","address":"Lord Nelson St.","lat":52.951154,"lng":-1.126338,"neighborhood":"Sneinton","city_fetched":"Warsop,UK","state":"Nottinghamshire","country":"United Kingdom","canonicalUrl":"https://foursquare.com/v/the-lord-nelson/4c794bca2dc195219c4aa577","categoryId":"4bf58dd8d48988d11b941735","category":"Pub","checkinsCount":278,"usersCount":57,"tipCount":5,"visitsCount":329,"tier":"","message":"","currency":"","rating":7.5},{"name":"The White Horse Inn","phone":"+441159844550","twitter":"twhruddington","address":"60 Church St","lat":52.891017434337506,"lng":-1.1510136723518372,"city_fetched":"Warsop,UK","state":"Nottinghamshire","country":"United Kingdom","canonicalUrl":"https://foursquare.com/v/the-white-horse-inn/4b7a7bedf964a5203e2e2fe3","categoryId":"4bf58dd8d48988d11b941735","category":"Pub","checkinsCount":440,"usersCount":60,"tipCount":6,"visitsCount":450,"url":"http://www.whitehorse-inn.co.uk","tier":"","message":"","currency":"","rating":7.5},{"name":"University Arms","phone":"+441142228969","address":"197 Brook Hill","lat":53.38163479595304,"lng":-1.4854475679471972,"city_fetched":"Warsop,UK","country":"United Kingdom","canonicalUrl":"https://foursquare.com/v/university-arms/4b883cd8f964a52099e931e3","categoryId":"4bf58dd8d48988d11b941735","category":"Pub","checkinsCount":945,"usersCount":344,"tipCount":6,"visitsCount":1071,"tier":"","message":"","currency":"","rating":7.5},{"name":"Riverside","phone":"+441142724633","address":"1 Mowbray St.","lat":53.38926908799904,"lng":-1.4686664848463786,"neighborhood":"Central Sheffield","city_fetched":"Warsop,UK","country":"United Kingdom","canonicalUrl":"https://foursquare.com/v/riverside/4ba0d126f964a520a57f37e3","categoryId":"4bf58dd8d48988d11b941735","category":"Pub","checkinsCount":1001,"usersCount":548,"tipCount":15,"visitsCount":1269,"url":"http://www.riversidesheffield.co.uk","tier":"","message":"","currency":"","rating":7.5},{"name":"The Bell Inn","phone":"+441159475241","address":"18 Angel Row","lat":52.9534536344141,"lng":-1.152014136314392,"neighborhood":"City Centre","city_fetched":"Warsop,UK","state":"Nottinghamshire","country":"United Kingdom","canonicalUrl":"https://foursquare.com/v/the-bell-inn/4b6d91a3f964a520267d2ce3","categoryId":"4bf58dd8d48988d11b941735","category":"Pub","checkinsCount":1244,"usersCount":720,"tipCount":21,"visitsCount":1290,"url":"http://www.bellinnnottingham.co.uk","tier":"","message":"","currency":"","rating":7.5},{"name":"Red Lion","phone":"+441142765852","address":"109 Charles St.","lat":53.3776966068245,"lng":-1.4671897888183594,"neighborhood":"Central Sheffield","city_fetched":"Warsop,UK","country":"United Kingdom","canonicalUrl":"https://foursquare.com/v/red-lion/4bc4e6dfe58e95211e23c9e1","categoryId":"4bf58dd8d48988d11b941735","category":"Pub","checkinsCount":690,"usersCount":228,"tipCount":2,"visitsCount":707,"tier":"","message":"","currency":"","rating":7.5},{"name":"The Station Hotel","phone":"+441909474108","address":"Carlton Rd.","lat":53.31067275143846,"lng":-1.1212921142578125,"city_fetched":"Warsop,UK","state":"Nottinghamshire","country":"United Kingdom","canonicalUrl":"https://foursquare.com/v/the-station-hotel/4e92cc2c754a50cc7daebd74","categoryId":"4bf58dd8d48988d1d5941735","category":"Hotel Bar","checkinsCount":233,"usersCount":39,"tipCount":4,"visitsCount":268,"tier":"","message":"","currency":"","rating":7.5},{"name":"Brass Monkey","phone":"+441158404101","twitter":"brassmonkeyng1","address":"11 High Pavement","lat":52.951074,"lng":-1.1452377857142857,"neighborhood":"City Centre","city_fetched":"Warsop,UK","state":"Nottinghamshire","country":"United Kingdom","canonicalUrl":"https://foursquare.com/v/brass-monkey/4b89856df964a520733e32e3","categoryId":"4bf58dd8d48988d116941735","category":"Bar","checkinsCount":365,"usersCount":244,"tipCount":10,"visitsCount":366,"tier":"","message":"","currency":"","rating":7.4},{"name":"Ye Olde Salutation Inn","phone":"+441159881948","address":"73-75 Maid Marian Way","lat":52.95122673276398,"lng":-1.1518178574275266,"neighborhood":"City Centre","city_fetched":"Warsop,UK","state":"Nottinghamshire","country":"United Kingdom","canonicalUrl":"https://foursquare.com/v/ye-olde-salutation-inn/4bab3a78f964a5207a9a3ae3","categoryId":"4bf58dd8d48988d11b941735","category":"Pub","checkinsCount":920,"usersCount":550,"tipCount":13,"visitsCount":1053,"tier":"","message":"","currency":"","rating":7.4},{"name":"Wheatsheaf Hotel Baslow","address":"Nether End Baslow Derbyshire","lat":53.246566,"lng":-1.612401,"city_fetched":"Warsop,UK","state":"Derbyshire","country":"United Kingdom","canonicalUrl":"https://foursquare.com/v/wheatsheaf-hotel-baslow/4bcf1ae90ffdce72d83db2c0","categoryId":"4bf58dd8d48988d11b941735","category":"Pub","checkinsCount":158,"usersCount":152,"tipCount":4,"visitsCount":214,"tier":"","message":"","currency":"","rating":7.4},{"name":"The Common Room","phone":"+441142808230","twitter":"commonroom","address":"127-129 Devonshire St","lat":53.37931581432767,"lng":-1.4772427082061768,"neighborhood":"Central Sheffield","city_fetched":"Warsop,UK","country":"United Kingdom","canonicalUrl":"https://foursquare.com/v/the-common-room/4b7d330df964a5206bb22fe3","categoryId":"4bf58dd8d48988d11d941735","category":"Sports Bar","checkinsCount":1825,"usersCount":731,"tipCount":20,"visitsCount":1857,"url":"http://www.common-room.co.uk","tier":"","message":"","currency":"","rating":7.3},{"name":"Interval Cafe Bar","twitter":"sheffieldunion","address":"Glossop Rd","lat":53.38064057467325,"lng":-1.486673355102539,"city_fetched":"Warsop,UK","state":"Sheffield","country":"United Kingdom","canonicalUrl":"https://foursquare.com/v/interval-cafe-bar/4b55daa6f964a52007f327e3","categoryId":"4bf58dd8d48988d123941735","category":"Wine Bar","checkinsCount":1282,"usersCount":427,"tipCount":14,"visitsCount":1412,"tier":1,"message":"Cheap","currency":"£","rating":7.3},{"name":"Doctor's Orders","twitter":"domicropub","address":"351 Mansfield Road","lat":52.97257856322191,"lng":-1.152190337113764,"neighborhood":"Sherwood","city_fetched":"Warsop,UK","state":"Nottinghamshire","country":"United Kingdom","canonicalUrl":"https://foursquare.com/v/doctors-orders/50d74680e4b0496abe88aa29","categoryId":"4bf58dd8d48988d11b941735","category":"Pub","checkinsCount":541,"usersCount":108,"tipCount":5,"visitsCount":695,"url":"http://www.doctorsordersmicropub.co.uk","tier":"","message":"","currency":"","rating":7.3},{"name":"Dove & Rainbow","phone":"+441142721594","address":"Hartshead","lat":53.38354811943735,"lng":-1.4668473872595422,"neighborhood":"Central Sheffield","city_fetched":"Warsop,UK","country":"United Kingdom","canonicalUrl":"https://foursquare.com/v/dove--rainbow/4c0555c639d476b095ba32a7","categoryId":"4bf58dd8d48988d11b941735","category":"Pub","checkinsCount":690,"usersCount":175,"tipCount":8,"visitsCount":696,"url":"http://www.doveandrainbow.com","tier":"","message":"","currency":"","rating":7.3},{"name":"The Liquorice Gardens (Wetherspoon)","phone":"+441909512220","address":"1a Newcastle St.","lat":53.30425381250001,"lng":-1.123734,"city_fetched":"Warsop,UK","country":"United Kingdom","canonicalUrl":"https://foursquare.com/v/the-liquorice-gardens-wetherspoon/4bdde356e75c0f473903c603","categoryId":"4bf58dd8d48988d11b941735","category":"Pub","checkinsCount":494,"usersCount":125,"tipCount":5,"visitsCount":521,"url":"http://www.jdwetherspoon.co.uk","tier":"","message":"","currency":"","rating":7.3},{"name":"Hart's","phone":"+441159881900","address":"2-3 Park Row","lat":52.95156419277191,"lng":-1.156464,"neighborhood":"City Centre West","city_fetched":"Warsop,UK","state":"Nottinghamshire","country":"United Kingdom","canonicalUrl":"https://foursquare.com/v/harts/4b715e2df964a52026432de3","categoryId":"4bf58dd8d48988d1d5941735","category":"Hotel Bar","checkinsCount":319,"usersCount":229,"tipCount":4,"visitsCount":338,"url":"http://www.hartsnottingham.co.uk","tier":"","message":"","currency":"","rating":7.3},{"name":"Fagan's","phone":"+441142728430","address":"69 Broad Lane","lat":53.383097737482146,"lng":-1.4764022266896657,"neighborhood":"Central Sheffield","city_fetched":"Warsop,UK","country":"United Kingdom","canonicalUrl":"https://foursquare.com/v/fagans/4b804dd4f964a520346630e3","categoryId":"4bf58dd8d48988d11b941735","category":"Pub","checkinsCount":249,"usersCount":156,"tipCount":6,"visitsCount":277,"tier":"","message":"","currency":"","rating":7.2},{"name":"The Wollaton Pub & Kitchen","phone":"+441159288610","address":"Lambourne Drive","lat":52.95539304130417,"lng":-1.2078683319662635,"city_fetched":"Warsop,UK","state":"Nottinghamshire","country":"United Kingdom","canonicalUrl":"https://foursquare.com/v/the-wollaton-pub--kitchen/4b53099cf964a520338d27e3","categoryId":"4bf58dd8d48988d11b941735","category":"Pub","checkinsCount":544,"usersCount":289,"tipCount":11,"visitsCount":626,"url":"http://www.thewollaton.co.uk","tier":"","message":"","currency":"","rating":7.2},{"name":"The Robin Hood","phone":"+441623822359","address":"Rufford Crossroads","lat":53.18328865137526,"lng":-1.0552089798927238,"city_fetched":"Warsop,UK","state":"Nottinghamshire","country":"United Kingdom","canonicalUrl":"https://foursquare.com/v/the-robin-hood/4cefe390ed62721e55fb62fd","categoryId":"4bf58dd8d48988d11b941735","category":"Pub","checkinsCount":76,"usersCount":70,"tipCount":3,"visitsCount":103,"tier":"","message":"","currency":"","rating":7.2},{"name":"The Hardwick Inn","phone":"+441246850245","address":"Hardwick Park","lat":53.165249,"lng":-1.314942,"city_fetched":"Warsop,UK","state":"Derbyshire","country":"United Kingdom","canonicalUrl":"https://foursquare.com/v/the-hardwick-inn/4be6b90bbcef2d7f5a6205e5","categoryId":"4bf58dd8d48988d11b941735","category":"Pub","checkinsCount":222,"usersCount":157,"tipCount":4,"visitsCount":247,"tier":"","message":"","currency":"","rating":7.2},{"name":"The Harley","phone":"+441142752288","twitter":"harleysheffield","address":"334 Glossop Rd","lat":53.380282189467664,"lng":-1.4848226308822632,"city_fetched":"Warsop,UK","country":"United Kingdom","canonicalUrl":"https://foursquare.com/v/the-harley/4b6c73d5f964a5204d3b2ce3","categoryId":"4bf58dd8d48988d11b941735","category":"Pub","checkinsCount":1224,"usersCount":611,"tipCount":15,"visitsCount":1334,"url":"http://www.theharley.co.uk","tier":"","message":"","currency":"","rating":7.2},{"name":"The Star Inn","address":"Middle Street","lat":52.924921092999256,"lng":-1.2134330525502912,"city_fetched":"Warsop,UK","state":"Nottinghamshire","country":"United Kingdom","canonicalUrl":"https://foursquare.com/v/the-star-inn/4e22e038483b041af1faf7d6","categoryId":"4bf58dd8d48988d11b941735","category":"Pub","checkinsCount":207,"usersCount":68,"tipCount":1,"visitsCount":243,"tier":"","message":"","currency":"","rating":7.2},{"name":"The Viper Rooms","phone":"+441142750934","twitter":"viper_rooms","address":"35 Carver Street","lat":53.38025499046729,"lng":-1.4737612009048462,"neighborhood":"Central Sheffield","city_fetched":"Warsop,UK","state":"Sheffield","country":"United Kingdom","canonicalUrl":"https://foursquare.com/v/the-viper-rooms/4e73cf5bb0fb9680327576f6","categoryId":"4bf58dd8d48988d11f941735","category":"Nightclub","checkinsCount":868,"usersCount":270,"tipCount":14,"visitsCount":914,"url":"http://www.theviperrooms.com","tier":"","message":"","currency":"","rating":7.1},{"name":"The Commercial","phone":"+441142469066","address":"107 Station Rd.","lat":53.46505338860069,"lng":-1.4647034014024694,"city_fetched":"Warsop,UK","country":"United Kingdom","canonicalUrl":"https://foursquare.com/v/the-commercial/4c87b01147cc224b0e52b39f","categoryId":"4bf58dd8d48988d11b941735","category":"Pub","checkinsCount":495,"usersCount":87,"tipCount":13,"visitsCount":539,"tier":"","message":"","currency":"","rating":7.1},{"name":"Cross Scythes","phone":"+441142360204","address":"145 Derbyshire Lane","lat":53.34838443667792,"lng":-1.476664031096138,"city_fetched":"Warsop,UK","country":"United Kingdom","canonicalUrl":"https://foursquare.com/v/cross-scythes/4b90cfeaf964a520309833e3","categoryId":"4bf58dd8d48988d11b941735","category":"Pub","checkinsCount":495,"usersCount":103,"tipCount":5,"visitsCount":604,"url":"http://www.cross-scythes.com","tier":"","message":"","currency":"","rating":7.1},{"name":"The Johnson Arms","phone":"+441159786355","address":"59 Abbey St","lat":52.942395,"lng":-1.180169,"neighborhood":"Dunkirk and Old Lenton","city_fetched":"Warsop,UK","state":"Nottinghamshire","country":"United Kingdom","canonicalUrl":"https://foursquare.com/v/the-johnson-arms/4bb4c09c86a8d13a04ccde7f","categoryId":"4bf58dd8d48988d11b941735","category":"Pub","checkinsCount":970,"usersCount":245,"tipCount":6,"visitsCount":1259,"tier":"","message":"","currency":"","rating":7},{"name":"Reflex","phone":"+441142536521","address":"18 Holly St.","lat":53.38108316382842,"lng":-1.4731440948117067,"neighborhood":"Central Sheffield","city_fetched":"Warsop,UK","country":"United Kingdom","canonicalUrl":"https://foursquare.com/v/reflex/4c5dd0767735c9b6053d9072","categoryId":"4bf58dd8d48988d11f941735","category":"Nightclub","checkinsCount":254,"usersCount":106,"tipCount":3,"visitsCount":254,"url":"http://www.reflexsheffield.co.uk","tier":"","message":"","currency":"","rating":7},{"name":"The Norfolk Arms, Ringinglow","phone":"+441142302197","twitter":"norfolkarms","address":"2 Ringinglow Village","lat":53.3498459459387,"lng":-1.564162710844004,"neighborhood":"Ecclesall","city_fetched":"Warsop,UK","country":"United Kingdom","canonicalUrl":"https://foursquare.com/v/the-norfolk-arms-ringinglow/4b813d9bf964a520c89b30e3","categoryId":"4bf58dd8d48988d11b941735","category":"Pub","checkinsCount":335,"usersCount":249,"tipCount":4,"visitsCount":438,"url":"http://www.norfolkarms.com","tier":"","message":"","currency":"","rating":7},{"name":"The Harlequin","phone":"+441142494181","twitter":"harlequinpub","address":"108 Nursery Street","lat":53.38847065896469,"lng":-1.46623378229871,"neighborhood":"Central Sheffield","city_fetched":"Warsop,UK","country":"United Kingdom","canonicalUrl":"https://foursquare.com/v/the-harlequin/4b82b7f7f964a5203ce030e3","categoryId":"4bf58dd8d48988d11b941735","category":"Pub","checkinsCount":751,"usersCount":274,"tipCount":18,"visitsCount":864,"tier":"","message":"","currency":"","rating":7},{"name":"Andwhynot? & The Late Lounge","phone":"+441623431460","twitter":"andwhynotbar","address":"62 Leeming St","lat":53.14641917319616,"lng":-1.1943457680012788,"city_fetched":"Warsop,UK","state":"Nottinghamshire","country":"United Kingdom","canonicalUrl":"https://foursquare.com/v/andwhynot--the-late-lounge/4c9d52d38afca09331f8f515","categoryId":"4bf58dd8d48988d116941735","category":"Bar","checkinsCount":261,"usersCount":124,"tipCount":8,"visitsCount":294,"url":"http://www.andwhynotworld.com","tier":"","message":"","currency":"","rating":7},{"name":"Spanish Bar","phone":"+441159308666","address":"South St","lat":52.96789434335459,"lng":-1.3084998364601437,"city_fetched":"Warsop,UK","state":"Derbyshire","country":"United Kingdom","canonicalUrl":"https://foursquare.com/v/spanish-bar/4d682da60a25b60c3d131490","categoryId":"4bf58dd8d48988d116941735","category":"Bar","checkinsCount":399,"usersCount":70,"tipCount":3,"visitsCount":417,"tier":"","message":"","currency":"","rating":7},{"name":"Tree Tops","phone":"+441159558989","address":"Plains Rd.","lat":52.99006810173218,"lng":-1.113612949848175,"city_fetched":"Warsop,UK","state":"Nottinghamshire","country":"United Kingdom","canonicalUrl":"https://foursquare.com/v/tree-tops/4c9b5caf775abfb79ebe5167","categoryId":"4bf58dd8d48988d116941735","category":"Bar","checkinsCount":166,"usersCount":122,"tipCount":3,"visitsCount":287,"tier":"","message":"","currency":"","rating":7},{"name":"Larch Farm","phone":"+441623491987","address":"2 Mansfield Rd.","lat":53.09251643568452,"lng":-1.1771786212921143,"city_fetched":"Warsop,UK","state":"Nottinghamshire","country":"United Kingdom","canonicalUrl":"https://foursquare.com/v/larch-farm/4d98d5d1647d8cfa7b8ef93d","categoryId":"4bf58dd8d48988d11b941735","category":"Pub","checkinsCount":125,"usersCount":80,"tipCount":9,"visitsCount":162,"tier":"","message":"","currency":"","rating":6.9},{"name":"Bad Juju Tiki Bar","phone":"+441159241555","address":"9 Broad St","lat":52.954209,"lng":-1.144182,"neighborhood":"City Centre","city_fetched":"Warsop,UK","state":"Nottinghamshire","country":"United Kingdom","canonicalUrl":"https://foursquare.com/v/bad-juju-tiki-bar/4bb8e652cf2fc9b62800a002","categoryId":"4bf58dd8d48988d11e941735","category":"Cocktail Bar","checkinsCount":463,"usersCount":193,"tipCount":9,"visitsCount":464,"tier":"","message":"","currency":"","rating":6.9},{"name":"Phoenix Inn","phone":"+441142486440","address":"2 High Lane,  Ridgeway","lat":53.33507589008579,"lng":-1.3986968994140625,"city_fetched":"Warsop,UK","country":"United Kingdom","canonicalUrl":"https://foursquare.com/v/phoenix-inn/4bf7b54f8d30d13ac969ff17","categoryId":"4bf58dd8d48988d11b941735","category":"Pub","checkinsCount":242,"usersCount":104,"tipCount":6,"visitsCount":293,"tier":"","message":"","currency":"","rating":6.9},{"name":"Green Dragon","phone":"+441623632459","address":"13-15 Leeming St.","lat":53.145081,"lng":-1.195496,"city_fetched":"Warsop,UK","state":"Nottinghamshire","country":"United Kingdom","canonicalUrl":"https://foursquare.com/v/green-dragon/4bd43a5c41b9ef3ba19801e6","categoryId":"4bf58dd8d48988d116941735","category":"Bar","checkinsCount":420,"usersCount":134,"tipCount":4,"visitsCount":449,"url":"http://www.weareyates.co.uk","tier":"","message":"","currency":"","rating":6.9},{"name":"Revival","address":"Upper Parliament St","lat":52.95494961125396,"lng":-1.1516221299975098,"neighborhood":"City Centre Northwest","city_fetched":"Warsop,UK","state":"Nottinghamshire","country":"United Kingdom","canonicalUrl":"https://foursquare.com/v/revival/4dfbb06bd4c051aafed4d183","categoryId":"4bf58dd8d48988d11e941735","category":"Cocktail Bar","checkinsCount":100,"usersCount":88,"tipCount":4,"visitsCount":100,"tier":"","message":"","currency":"","rating":6.8},{"name":"The Hutt","phone":"+441623792325","address":"Nottingham Rd.","lat":53.083928,"lng":-1.170154,"city_fetched":"Warsop,UK","state":"Nottinghamshire","country":"United Kingdom","canonicalUrl":"https://foursquare.com/v/the-hutt/4b54effdf964a52018d427e3","categoryId":"4bf58dd8d48988d117941735","category":"Beer Garden","checkinsCount":228,"usersCount":198,"tipCount":5,"visitsCount":346,"url":"http://www.chefandbrewer.com/pub/hutt-ravenshead-nottingham/c4141/","tier":"","message":"","currency":"","rating":6.8},{"name":"The Fishpond","phone":"+441629581529","address":"204 South Parade","lat":53.11940482582867,"lng":-1.5632190935566357,"city_fetched":"Warsop,UK","state":"Derbyshire","country":"United Kingdom","canonicalUrl":"https://foursquare.com/v/the-fishpond/4c53305fa724e21e8f6c5bf4","categoryId":"4bf58dd8d48988d116941735","category":"Bar","checkinsCount":199,"usersCount":146,"tipCount":6,"visitsCount":215,"url":"http://www.thefishpondmatlockbath.co.uk","tier":"","message":"","currency":"","rating":6.8},{"name":"Frog and Parrot","phone":"+441142721280","address":"94 Division St","lat":53.379667807811956,"lng":-1.4763629436492918,"neighborhood":"Central Sheffield","city_fetched":"Warsop,UK","country":"United Kingdom","canonicalUrl":"https://foursquare.com/v/frog-and-parrot/4b642e94f964a520dda22ae3","categoryId":"4bf58dd8d48988d11b941735","category":"Pub","checkinsCount":1146,"usersCount":582,"tipCount":19,"visitsCount":1166,"tier":"","message":"","currency":"","rating":6.7},{"name":"The Sheffield Waterworks Company (Wetherspoon)","phone":"+441142765076","address":"2-12 Division St","lat":53.38019036035161,"lng":-1.473158817952455,"neighborhood":"Central Sheffield","city_fetched":"Warsop,UK","country":"United Kingdom","canonicalUrl":"https://foursquare.com/v/the-sheffield-waterworks-company-wetherspoon/4c87abf2821e9eb0cecd8d89","categoryId":"4bf58dd8d48988d11b941735","category":"Pub","checkinsCount":1118,"usersCount":706,"tipCount":16,"visitsCount":1247,"url":"http://www.jdwetherspoon.co.uk","tier":"","message":"","currency":"","rating":6.7},{"name":"Southbank","phone":"+441159455541","twitter":"southbankbar","address":"1 Bridgford House","lat":52.93820946507178,"lng":-1.1351752281188965,"city_fetched":"Warsop,UK","state":"Nottinghamshire","country":"United Kingdom","canonicalUrl":"https://foursquare.com/v/southbank/4bb0d8eef964a520c5623ce3","categoryId":"4bf58dd8d48988d11d941735","category":"Sports Bar","checkinsCount":1177,"usersCount":310,"tipCount":1,"visitsCount":1280,"url":"http://www.southbankbar.co.uk","tier":"","message":"","currency":"","rating":6.6},{"name":"The Navigation","phone":"+441158371930","address":"6 Wilford St","lat":52.94792782061689,"lng":-1.1517543178387066,"neighborhood":"City Centre West","city_fetched":"Warsop,UK","state":"Nottinghamshire","country":"United Kingdom","canonicalUrl":"https://foursquare.com/v/the-navigation/4e42750218a8627fce45e2ff","categoryId":"4bf58dd8d48988d116941735","category":"Bar","checkinsCount":635,"usersCount":440,"tipCount":8,"visitsCount":750,"url":"http://www.the-navigation.com","tier":"","message":"","currency":"","rating":6.6},{"name":"The Badger Box","phone":"+441623752243","address":"Derby Rd","lat":53.07908116159597,"lng":-1.2426223844302218,"city_fetched":"Warsop,UK","state":"Nottinghamshire","country":"United Kingdom","canonicalUrl":"https://foursquare.com/v/the-badger-box/4bacb86ef964a520b3063be3","categoryId":"4bf58dd8d48988d11b941735","category":"Pub","checkinsCount":533,"usersCount":192,"tipCount":4,"visitsCount":711,"tier":"","message":"","currency":"","rating":6.6},{"name":"The Rushley","phone":"+441623643847","address":"Forest Hill","lat":53.12439147568108,"lng":-1.1912366981119544,"city_fetched":"Warsop,UK","state":"Nottinghamshire","country":"United Kingdom","canonicalUrl":"https://foursquare.com/v/the-rushley/4b7876d2f964a5201ed02ee3","categoryId":"4bf58dd8d48988d11b941735","category":"Pub","checkinsCount":223,"usersCount":115,"tipCount":7,"visitsCount":262,"url":"http://www.rushleypub.co.uk","tier":"","message":"","currency":"","rating":6.5},{"name":"Foxglove","phone":"+441623646557","address":"Fulmar Close","lat":53.15641259519707,"lng":-1.1716939273177953,"city_fetched":"Warsop,UK","state":"Nottinghamshire","country":"United Kingdom","canonicalUrl":"https://foursquare.com/v/foxglove/4bcc9a6cfb84c9b649ad203e","categoryId":"4bf58dd8d48988d11b941735","category":"Pub","checkinsCount":293,"usersCount":113,"tipCount":5,"visitsCount":313,"url":"http://www.foxglovepub.co.uk","tier":"","message":"","currency":"","rating":6.5},{"name":"Propaganda","address":"8 Broadway","lat":52.951918470468556,"lng":-1.143578588962555,"neighborhood":"City Centre","city_fetched":"Warsop,UK","state":"Nottinghamshire","country":"United Kingdom","canonicalUrl":"https://foursquare.com/v/propaganda/4b9d514af964a5201da336e3","categoryId":"4bf58dd8d48988d1d8941735","category":"Gay Bar","checkinsCount":1428,"usersCount":230,"tipCount":8,"visitsCount":1473,"tier":"","message":"","currency":"","rating":6.5},{"name":"Pillar Of Rock (Wetherspoon)","phone":"+441246820940","address":"15 Castle Street","lat":53.229986482269446,"lng":-1.2939651099227534,"city_fetched":"Warsop,UK","state":"Derbyshire","country":"United Kingdom","canonicalUrl":"https://foursquare.com/v/pillar-of-rock-wetherspoon/51ebc51e498e1e2aa6430792","categoryId":"4bf58dd8d48988d11b941735","category":"Pub","checkinsCount":133,"usersCount":82,"tipCount":7,"visitsCount":162,"url":"http://www.jdwetherspoon.co.uk/home/pubs/the-pillar-of-rock","tier":"","message":"","currency":"","rating":6.5},{"name":"The Bold Forester","phone":"+441623623970","address":"Botany Ave.","lat":53.14093556046607,"lng":-1.2104137774949708,"city_fetched":"Warsop,UK","state":"Nottinghamshire","country":"United Kingdom","canonicalUrl":"https://foursquare.com/v/the-bold-forester/4c7521a3604a370414ba8149","categoryId":"4bf58dd8d48988d11b941735","category":"Pub","checkinsCount":318,"usersCount":124,"tipCount":6,"visitsCount":366,"url":"http://www.boldforester-mansfield.co.uk","tier":"","message":"","currency":"","rating":6.4},{"name":"The Fox House","phone":"+441433630374","address":"Hathersage Road","lat":53.31886681594478,"lng":-1.601350074585747,"city_fetched":"Warsop,UK","state":"Sheffield","country":"United Kingdom","canonicalUrl":"https://foursquare.com/v/the-fox-house/4b8f76b6f964a5203c5533e3","categoryId":"4bf58dd8d48988d11b941735","category":"Pub","checkinsCount":202,"usersCount":208,"tipCount":6,"visitsCount":261,"url":"http://www.vintageinn.co.uk/thefoxhouselongshaw","tier":"","message":"","currency":"","rating":6.4},{"name":"White Lion","phone":"+441142551500","address":"615 London Road","lat":53.36008,"lng":-1.473935,"city_fetched":"Warsop,UK","state":"Sheffield","country":"United Kingdom","canonicalUrl":"https://foursquare.com/v/white-lion/4c7979c7df08a1cda1e5da5d","categoryId":"4bf58dd8d48988d11b941735","category":"Pub","checkinsCount":430,"usersCount":140,"tipCount":6,"visitsCount":487,"url":"http://www.whitelionsheffield.co.uk","tier":"","message":"","currency":"","rating":6.4},{"name":"The Red Cow","address":"st Edmund close","lat":52.953243255615234,"lng":-1.4838838577270508,"neighborhood":"Allestree","city_fetched":"Warsop,UK","state":"Derby","country":"United Kingdom","canonicalUrl":"https://foursquare.com/v/the-red-cow/4c06a18b8b4520a11cb48597","categoryId":"4bf58dd8d48988d11b941735","category":"Pub","checkinsCount":145,"usersCount":47,"tipCount":4,"visitsCount":152,"tier":"","message":"","currency":"","rating":6.3},{"name":"Lock Keeper","phone":"+441909532565","address":"Sandy Ln","lat":53.31163766464821,"lng":-1.1435573956911464,"city_fetched":"Warsop,UK","state":"Nottinghamshire","country":"United Kingdom","canonicalUrl":"https://foursquare.com/v/lock-keeper/4b968ff9f964a520e9d434e3","categoryId":"4bf58dd8d48988d11b941735","category":"Pub","checkinsCount":425,"usersCount":120,"tipCount":7,"visitsCount":448,"url":"http://www.lockkeeperpub.co.uk","tier":"","message":"","currency":"","rating":6.3},{"name":"The Widow Frost (Wetherspoon)","phone":"+441623666790","address":"Leeming St.","lat":53.14574774641689,"lng":-1.1948950357747663,"city_fetched":"Warsop,UK","state":"Nottinghamshire","country":"United Kingdom","canonicalUrl":"https://foursquare.com/v/the-widow-frost-wetherspoon/4c617be113791b8d200652af","categoryId":"4bf58dd8d48988d11b941735","category":"Pub","checkinsCount":961,"usersCount":221,"tipCount":4,"visitsCount":1070,"url":"http://www.jdwetherspoon.co.uk","tier":"","message":"","currency":"","rating":6.3},{"name":"New Forresters","phone":"+441159580432","address":"18 St. Anns Street","lat":52.95757083664463,"lng":-1.1463546752929688,"neighborhood":"City Centre Northeast","city_fetched":"Warsop,UK","state":"Nottinghamshire","country":"United Kingdom","canonicalUrl":"https://foursquare.com/v/new-forresters/4bbf7dabf8219c741d10b010","categoryId":"4bf58dd8d48988d1d8941735","category":"Gay Bar","checkinsCount":335,"usersCount":118,"tipCount":2,"visitsCount":338,"tier":"","message":"","currency":"","rating":6.3},{"name":"Fellows, Morton & Clayton","phone":"+441159506795","address":"Canal St","lat":52.948595865917056,"lng":-1.1484146118164062,"neighborhood":"City Centre","city_fetched":"Warsop,UK","state":"Nottinghamshire","country":"United Kingdom","canonicalUrl":"https://foursquare.com/v/fellows-morton--clayton/4b66395ef964a520a9192be3","categoryId":"4bf58dd8d48988d11b941735","category":"Pub","checkinsCount":575,"usersCount":342,"tipCount":11,"visitsCount":581,"tier":"","message":"","currency":"","rating":6.3},{"name":"Golden Eagle","phone":"+441623414627","address":"Sherwood Ave.","lat":53.12656877330345,"lng":-1.1494008777008806,"city_fetched":"Warsop,UK","state":"Nottinghamshire","country":"United Kingdom","canonicalUrl":"https://foursquare.com/v/golden-eagle/4da1ba4663b5a35d5c1cee19","categoryId":"4bf58dd8d48988d11b941735","category":"Pub","checkinsCount":238,"usersCount":144,"tipCount":9,"visitsCount":321,"url":"http://www.goldeneaglemansfield.co.uk","tier":"","message":"","currency":"","rating":6.2},{"name":"The Cremorne","phone":"+441142509974","address":"185 London Road","lat":53.368812270215976,"lng":-1.4762449264526367,"neighborhood":"Central Sheffield","city_fetched":"Warsop,UK","country":"United Kingdom","canonicalUrl":"https://foursquare.com/v/the-cremorne/4b85893cf964a520016431e3","categoryId":"4bf58dd8d48988d11b941735","category":"Pub","checkinsCount":500,"usersCount":196,"tipCount":11,"visitsCount":557,"tier":"","message":"","currency":"","rating":6.2},{"name":"The Hemlock Stone Pub","phone":"+441159284463","twitter":"emberinns","address":"Bramcote Lane","lat":52.948485016822815,"lng":-1.2290525436401367,"city_fetched":"Warsop,UK","state":"Nottinghamshire","country":"United Kingdom","canonicalUrl":"https://foursquare.com/v/the-hemlock-stone-pub/4c5859f36418a593b674810e","categoryId":"4bf58dd8d48988d11b941735","category":"Pub","checkinsCount":210,"usersCount":138,"tipCount":10,"visitsCount":270,"tier":"","message":"","currency":"","rating":6.2},{"name":"The Greyhound","phone":"+441773832016","address":"Chesterfield Rd.","lat":53.12989495913213,"lng":-1.4176145195960999,"city_fetched":"Warsop,UK","state":"Derbyshire","country":"United Kingdom","canonicalUrl":"https://foursquare.com/v/the-greyhound/4d9f56b47ec88cfa825c815a","categoryId":"4bf58dd8d48988d11b941735","category":"Pub","checkinsCount":132,"usersCount":97,"tipCount":4,"visitsCount":174,"tier":2,"message":"Moderate","currency":"£","rating":6.2},{"name":"Donkey Derby","phone":"+441246554485","address":"Sheffield Rd.","lat":53.25122155713994,"lng":-1.4280584297041654,"city_fetched":"Warsop,UK","state":"Derbyshire","country":"United Kingdom","canonicalUrl":"https://foursquare.com/v/donkey-derby/4e5a6535a8098920b3cac8c8","categoryId":"4bf58dd8d48988d11b941735","category":"Pub","checkinsCount":322,"usersCount":137,"tipCount":8,"visitsCount":341,"tier":"","message":"","currency":"","rating":6.1},{"name":"Forest Town Welfare","phone":"+441623624678","address":"Clipstone Rd. W","lat":53.151966,"lng":-1.161741,"city_fetched":"Warsop,UK","state":"Nottinghamshire","country":"United Kingdom","canonicalUrl":"https://foursquare.com/v/forest-town-welfare/4d8d0ec3c479a35ddc2c2597","categoryId":"4bf58dd8d48988d116941735","category":"Bar","checkinsCount":66,"usersCount":50,"tipCount":1,"visitsCount":94,"tier":"","message":"","currency":"","rating":6.1},{"name":"The Stag and Pheasant (Wetherspoon)","phone":"+441623412890","address":"Unit 4, Clumber St.","lat":53.145788056606776,"lng":-1.1956725458053994,"city_fetched":"Warsop,UK","state":"Nottinghamshire","country":"United Kingdom","canonicalUrl":"https://foursquare.com/v/the-stag-and-pheasant-wetherspoon/4c87ab7a821e9eb065cd8d89","categoryId":"4bf58dd8d48988d11b941735","category":"Pub","checkinsCount":911,"usersCount":230,"tipCount":7,"visitsCount":1008,"url":"http://www.jdwetherspoon.co.uk","tier":"","message":"","currency":"","rating":6},{"name":"Sports Cafe","address":"Sherwood Forest","lat":53.166958,"lng":-1.052798,"city_fetched":"Warsop,UK","state":"Nottinghamshire","country":"United Kingdom","canonicalUrl":"https://foursquare.com/v/sports-cafe/4c9f6fc02fb1a143d09ff340","categoryId":"4bf58dd8d48988d11d941735","category":"Sports Bar","checkinsCount":618,"usersCount":458,"tipCount":12,"visitsCount":897,"tier":"","message":"","currency":"","rating":6},{"name":"The Prince of Wales","phone":"+441142369176","twitter":"princeprincepub","address":"Ecclesall Rd. S","lat":53.35657691686293,"lng":-1.5106332603941588,"neighborhood":"Ecclesall","city_fetched":"Warsop,UK","country":"United Kingdom","canonicalUrl":"https://foursquare.com/v/the-prince-of-wales/4bb4e1dcc29a95214ee3a735","categoryId":"4bf58dd8d48988d11b941735","category":"Pub","checkinsCount":378,"usersCount":205,"tipCount":9,"visitsCount":506,"url":"http://www.theprinceofwalessheffield.co.uk","tier":3,"message":"Expensive","currency":"£","rating":6},{"name":"hop pole ollerton","address":"Main St","lat":53.19999086520597,"lng":-1.0226444914542918,"city_fetched":"Warsop,UK","state":"Nottinghamshire","country":"United Kingdom","canonicalUrl":"https://foursquare.com/v/hop-pole-ollerton/4fddf9f7e4b05dcaebd06e92","categoryId":"50327c8591d4c4b30a586d5d","category":"Brewery","checkinsCount":33,"usersCount":10,"tipCount":2,"visitsCount":39,"tier":"","message":"","currency":"","rating":6},{"name":"The Fox and Crown","phone":"+441623552436","address":"116 Dalestorth Rd.","lat":53.139199231705575,"lng":-1.2441024413672463,"city_fetched":"Warsop,UK","state":"Nottinghamshire","country":"United Kingdom","canonicalUrl":"https://foursquare.com/v/the-fox-and-crown/4bfc1f22d6f2c9b632c04ec8","categoryId":"4bf58dd8d48988d11b941735","category":"Pub","checkinsCount":238,"usersCount":119,"tipCount":1,"visitsCount":345,"tier":"","message":"","currency":"","rating":6},{"name":"The Court House","phone":"+441623412720","address":"Market Pl","lat":53.14411110658727,"lng":-1.1966594274878444,"city_fetched":"Warsop,UK","state":"Nottinghamshire","country":"United Kingdom","canonicalUrl":"https://foursquare.com/v/the-court-house/4c7c88c0f56a3704475e0846","categoryId":"4bf58dd8d48988d11b941735","category":"Pub","checkinsCount":1161,"usersCount":137,"tipCount":6,"visitsCount":1246,"url":"http://www.hawthornleisure.com","tier":1,"message":"Cheap","currency":"£","rating":6},{"name":"Dempseys","phone":"+441142754616","twitter":"dempseysclub","address":"1 Hereford St.","lat":53.37417637810931,"lng":-1.4748501777648926,"neighborhood":"Central Sheffield","city_fetched":"Warsop,UK","state":"Sheffield","country":"United Kingdom","canonicalUrl":"https://foursquare.com/v/dempseys/4bbfc099461576b026267932","categoryId":"4bf58dd8d48988d1d8941735","category":"Gay Bar","checkinsCount":947,"usersCount":254,"tipCount":7,"visitsCount":1034,"url":"http://dempseys-sheffield.com","tier":"","message":"","currency":"","rating":6},{"name":"Walkabout","phone":"+441142413400","twitter":"walkiesheffield","address":"Carver St","lat":53.38110135121976,"lng":-1.4744853973388672,"neighborhood":"Central Sheffield","city_fetched":"Warsop,UK","country":"United Kingdom","canonicalUrl":"https://foursquare.com/v/walkabout/4bcf4616046076b04bfc6d71","categoryId":"4bf58dd8d48988d11d941735","category":"Sports Bar","checkinsCount":740,"usersCount":588,"tipCount":15,"visitsCount":963,"url":"http://walkaboutbars.com","tier":"","message":"","currency":"","rating":5.9},{"name":"Rileys Nottingham","phone":"+441159470620","twitter":"rileysnottm","address":"17a Saint James' Street","lat":52.952659,"lng":-1.152452,"neighborhood":"City Centre","city_fetched":"Warsop,UK","state":"Nottinghamshire","country":"United Kingdom","canonicalUrl":"https://foursquare.com/v/rileys-nottingham/4dd677e281dcd5bca5990888","categoryId":"4bf58dd8d48988d11d941735","category":"Sports Bar","checkinsCount":220,"usersCount":74,"tipCount":2,"visitsCount":229,"tier":"","message":"","currency":"","rating":5.9},{"name":"The Punchbowl","phone":"+441159507728","address":"214 Porchester Road","lat":52.973923,"lng":-1.120179,"city_fetched":"Warsop,UK","state":"Nottinghamshire","country":"United Kingdom","canonicalUrl":"https://foursquare.com/v/the-punchbowl/4c1beadde9c4ef3bdeba45aa","categoryId":"4bf58dd8d48988d11b941735","category":"Pub","checkinsCount":135,"usersCount":66,"tipCount":1,"visitsCount":154,"tier":"","message":"","currency":"","rating":5.9},{"name":"Champs Sports Bar & Grill","phone":"+441142666333","twitter":"champssheff","address":"255 Ecclesall Rd","lat":53.37200969269781,"lng":-1.486324667930603,"city_fetched":"Warsop,UK","country":"United Kingdom","canonicalUrl":"https://foursquare.com/v/champs-sports-bar--grill/4e9079de4fc6b925c2d9f018","categoryId":"4bf58dd8d48988d11d941735","category":"Sports Bar","checkinsCount":205,"usersCount":147,"tipCount":2,"visitsCount":221,"url":"http://www.champssheffield.com","tier":"","message":"","currency":"","rating":5.9},{"name":"The Joseph Else (Wetherspoon)","phone":"+441159475034","address":"11-12 South Parade","lat":52.953030257799284,"lng":-1.1497557163238525,"neighborhood":"City Centre","city_fetched":"Warsop,UK","state":"Nottinghamshire","country":"United Kingdom","canonicalUrl":"https://foursquare.com/v/the-joseph-else-wetherspoon/4b922b19f964a5206cea33e3","categoryId":"4bf58dd8d48988d11b941735","category":"Pub","checkinsCount":1744,"usersCount":809,"tipCount":16,"visitsCount":1768,"url":"http://www.jdwetherspoon.co.uk","tier":"","message":"","currency":"","rating":5.9},{"name":"The Cavendish","phone":"+441142525781","twitter":"cavendish_sheff","address":"238 West St","lat":53.38034298717032,"lng":-1.4795118570327759,"neighborhood":"Central Sheffield","city_fetched":"Warsop,UK","country":"United Kingdom","canonicalUrl":"https://foursquare.com/v/the-cavendish/4b5a1feff964a520cdae28e3","categoryId":"4bf58dd8d48988d11b941735","category":"Pub","checkinsCount":1204,"usersCount":693,"tipCount":17,"visitsCount":1421,"url":"http://www.screampubs.co.uk/thecavendishsheffield/","tier":"","message":"","currency":"","rating":5.8},{"name":"Butterley Park Table Table","phone":"+441773512334","address":"Nottingham Road","lat":53.055383,"lng":-1.398160457611084,"city_fetched":"Warsop,UK","country":"United Kingdom","canonicalUrl":"https://foursquare.com/v/butterley-park-table-table/4b884e54f964a520fbed31e3","categoryId":"4bf58dd8d48988d11b941735","category":"Pub","checkinsCount":108,"usersCount":59,"tipCount":4,"visitsCount":108,"tier":"","message":"","currency":"","rating":5.8},{"name":"The Rufford","phone":"+441623623286","address":"335 Chesterfield Rd. S.","lat":53.15676484021061,"lng":-1.21729475319596,"city_fetched":"Warsop,UK","state":"Nottinghamshire","country":"United Kingdom","canonicalUrl":"https://foursquare.com/v/the-rufford/4cd1c2631ac7a1cd46f22092","categoryId":"4bf58dd8d48988d11b941735","category":"Pub","checkinsCount":284,"usersCount":106,"tipCount":1,"visitsCount":339,"url":"http://www.ruffordmansfieldpub.co.uk","tier":"","message":"","currency":"","rating":5.8},{"name":"The Last Post (Wetherspoon)","phone":"+441159683100","address":"Chilwell Rd.","lat":52.926360726362454,"lng":-1.21653974309213,"city_fetched":"Warsop,UK","state":"Nottinghamshire","country":"United Kingdom","canonicalUrl":"https://foursquare.com/v/the-last-post-wetherspoon/4c87aa4c821e9eb04ecc8d89","categoryId":"4bf58dd8d48988d11b941735","category":"Pub","checkinsCount":751,"usersCount":289,"tipCount":8,"visitsCount":839,"url":"http://www.jdwetherspoon.co.uk","tier":"","message":"","currency":"","rating":5.7},{"name":"Varsity","phone":"+441142759756","twitter":"partyatthepub","address":"173-179 West Street","lat":53.38008574388874,"lng":-1.4795994343304262,"neighborhood":"Central Sheffield","city_fetched":"Warsop,UK","country":"United Kingdom","canonicalUrl":"https://foursquare.com/v/varsity/4ba12d37f964a520259f37e3","categoryId":"4bf58dd8d48988d11b941735","category":"Pub","checkinsCount":410,"usersCount":246,"tipCount":5,"visitsCount":411,"url":"http://www.varsitybars.com","tier":"","message":"","currency":"","rating":5.7},{"name":"Fire & Ice","phone":"+441159819000","twitter":"fireandicewb","address":"40 Bridgford Rd.","lat":52.934033740215426,"lng":-1.1296885958810918,"city_fetched":"Warsop,UK","state":"Nottinghamshire","country":"United Kingdom","canonicalUrl":"https://foursquare.com/v/fire--ice/4bb09d5bf964a520954f3ce3","categoryId":"4bf58dd8d48988d116941735","category":"Bar","checkinsCount":288,"usersCount":150,"tipCount":1,"visitsCount":288,"url":"http://www.fireandicewb.co.uk","tier":"","message":"","currency":"","rating":5.7},{"name":"Walkabout","phone":"+441159410990","twitter":"walkaboutnotts","address":"11-15 Friar Ln.","lat":52.952393569133044,"lng":-1.1514294147491455,"neighborhood":"City Centre","city_fetched":"Warsop,UK","state":"Nottinghamshire","country":"United Kingdom","canonicalUrl":"https://foursquare.com/v/walkabout/4b6dda39f964a520cf952ce3","categoryId":"4bf58dd8d48988d11d941735","category":"Sports Bar","checkinsCount":672,"usersCount":447,"tipCount":2,"visitsCount":678,"url":"http://walkaboutbars.com","tier":"","message":"","currency":"","rating":5.7},{"name":"The Swan","phone":"+441623624131","address":"Church St.","lat":53.14389186730574,"lng":-1.1958810791287755,"city_fetched":"Warsop,UK","state":"Nottinghamshire","country":"United Kingdom","canonicalUrl":"https://foursquare.com/v/the-swan/4bb507c91344b71347bc9b04","categoryId":"4bf58dd8d48988d11b941735","category":"Pub","checkinsCount":319,"usersCount":135,"tipCount":4,"visitsCount":324,"url":"http://www.swanpubmansfield.co.uk","tier":"","message":"","currency":"","rating":5.7},{"name":"The Bank","phone":"+448721077077","address":"8-9 Beastmarket Hill","lat":52.95303672159555,"lng":-1.1511021852493286,"neighborhood":"City Centre","city_fetched":"Warsop,UK","state":"Nottinghamshire","country":"United Kingdom","canonicalUrl":"https://foursquare.com/v/the-bank/4ba1278ef964a520019d37e3","categoryId":"4bf58dd8d48988d116941735","category":"Bar","checkinsCount":337,"usersCount":221,"tipCount":5,"visitsCount":337,"url":"http://www.thebanknottingham.co.uk","tier":"","message":"","currency":"","rating":5.7},{"name":"Royal Standard","phone":"+441142722883","twitter":"thersbar","address":"156 St Marys Rd","lat":53.37395875442097,"lng":-1.4650440216064453,"neighborhood":"Central Sheffield","city_fetched":"Warsop,UK","state":"Sheffield","country":"United Kingdom","canonicalUrl":"https://foursquare.com/v/royal-standard/4bf190dc70779521c6933e7c","categoryId":"4bf58dd8d48988d11b941735","category":"Pub","checkinsCount":954,"usersCount":157,"tipCount":10,"visitsCount":968,"tier":"","message":"","currency":"","rating":5.7},{"name":"Dakota Bar & Grill","lat":53.06875614989313,"lng":-1.252276964011029,"city_fetched":"Warsop,UK","country":"United Kingdom","canonicalUrl":"https://foursquare.com/v/dakota-bar--grill/4f19a6e6e4b0a339fb46a9cd","categoryId":"4bf58dd8d48988d1d5941735","category":"Hotel Bar","checkinsCount":236,"usersCount":98,"tipCount":1,"visitsCount":264,"tier":"","message":"","currency":"","rating":5.6},{"name":"Players","phone":"+441142767665","twitter":"sheffplayers","address":"125-127 West St.","lat":53.38066580831648,"lng":-1.4765001879384552,"neighborhood":"Central Sheffield","city_fetched":"Warsop,UK","country":"United Kingdom","canonicalUrl":"https://foursquare.com/v/players/4b957451f964a5206fa334e3","categoryId":"4bf58dd8d48988d11d941735","category":"Sports Bar","checkinsCount":299,"usersCount":187,"tipCount":6,"visitsCount":300,"url":"http://www.playersbars.com/Sheffield","tier":"","message":"","currency":"","rating":5.6},{"name":"The Ashley","phone":"+441909530915","address":"Carlton Road","lat":53.31710812696248,"lng":-1.1217212677001953,"city_fetched":"Warsop,UK","state":"Nottinghamshire","country":"United Kingdom","canonicalUrl":"https://foursquare.com/v/the-ashley/4c52995b2d519521e91f4390","categoryId":"4bf58dd8d48988d11b941735","category":"Pub","checkinsCount":645,"usersCount":97,"tipCount":6,"visitsCount":693,"tier":"","message":"","currency":"","rating":5.6},{"name":"Unicorn Hotel Nottingham","phone":"+441159663612","address":"Trentside Gunthorpe","lat":52.98684203846433,"lng":-0.98482834905692,"city_fetched":"Warsop,UK","state":"Nottinghamshire","country":"United Kingdom","canonicalUrl":"https://foursquare.com/v/unicorn-hotel-nottingham/4bd74f3e304fce722b5b33ab","categoryId":"4bf58dd8d48988d11b941735","category":"Pub","checkinsCount":249,"usersCount":131,"tipCount":7,"visitsCount":257,"tier":"","message":"","currency":"","rating":5.5},{"name":"The Old Spot","phone":"+441159264012","address":"101 Mansfield Rd","lat":52.99977965263677,"lng":-1.1384299226387107,"city_fetched":"Warsop,UK","state":"Nottinghamshire","country":"United Kingdom","canonicalUrl":"https://foursquare.com/v/the-old-spot/4b9babf9f964a520b51836e3","categoryId":"4bf58dd8d48988d11b941735","category":"Pub","checkinsCount":174,"usersCount":92,"tipCount":4,"visitsCount":174,"tier":"","message":"","currency":"","rating":5.5},{"name":"The Broad Oak","phone":"+441159293340","address":"Main St.","lat":52.97191967106602,"lng":-1.238859033178111,"city_fetched":"Warsop,UK","state":"Nottinghamshire","country":"United Kingdom","canonicalUrl":"https://foursquare.com/v/the-broad-oak/4d331ee98250f04dcfeff9e0","categoryId":"4bf58dd8d48988d11b941735","category":"Pub","checkinsCount":188,"usersCount":97,"tipCount":4,"visitsCount":220,"tier":"","message":"","currency":"","rating":5.5},{"name":"Eaton Farm","phone":"+441159462613","address":"Wilsthorpe Road","lat":52.89935108,"lng":-1.294627,"city_fetched":"Warsop,UK","state":"Derbyshire","country":"United Kingdom","canonicalUrl":"https://foursquare.com/v/eaton-farm/4c0ba39e009a0f47bd56ebbf","categoryId":"4bf58dd8d48988d11b941735","category":"Pub","checkinsCount":265,"usersCount":157,"tipCount":5,"visitsCount":289,"tier":"","message":"","currency":"","rating":5.4},{"name":"Cucamara Cocktail Bar","phone":"+447947689925","twitter":"cucamara","address":"1 Hurts Yard","lat":52.95416478088237,"lng":-1.1524255908260856,"neighborhood":"City Centre","city_fetched":"Warsop,UK","state":"Nottinghamshire","country":"United Kingdom","canonicalUrl":"https://foursquare.com/v/cucamara-cocktail-bar/4c1c08acc09ed13af497828e","categoryId":"4bf58dd8d48988d11e941735","category":"Cocktail Bar","checkinsCount":216,"usersCount":158,"tipCount":5,"visitsCount":216,"url":"http://www.cucamara.com","tier":"","message":"","currency":"","rating":5.4},{"name":"Soyo","phone":"+441142767552","twitter":"soyosheffield","address":"115 Rockingham St.","lat":53.38062777525356,"lng":-1.4755743741989136,"neighborhood":"Central Sheffield","city_fetched":"Warsop,UK","country":"United Kingdom","canonicalUrl":"https://foursquare.com/v/soyo/4b040a8cf964a520145122e3","categoryId":"4bf58dd8d48988d116941735","category":"Bar","checkinsCount":682,"usersCount":349,"tipCount":6,"visitsCount":745,"url":"http://www.soyo.me","tier":"","message":"","currency":"","rating":5.2},{"name":"The Newmarket Inn","phone":"+441159414629","address":"Lower Parliament St.","lat":52.95513561415624,"lng":-1.1446034520360604,"neighborhood":"City Centre","city_fetched":"Warsop,UK","state":"Nottinghamshire","country":"United Kingdom","canonicalUrl":"https://foursquare.com/v/the-newmarket-inn/4bbf61e585fbb7134b157267","categoryId":"4bf58dd8d48988d11b941735","category":"Pub","checkinsCount":220,"usersCount":62,"tipCount":2,"visitsCount":225,"tier":"","message":"","currency":"","rating":5}]