[{"name":"Queen and Castle","phone":"+441926852661","address":"Castle Green","lat":52.34898208022439,"lng":-1.5905601030843568,"city_fetched":"Warwick,UK","state":"West Midlands","country":"United Kingdom","canonicalUrl":"https://foursquare.com/v/queen-and-castle/4b9d1846f964a520208f36e3","categoryId":"4bf58dd8d48988d11b941735","category":"Pub","checkinsCount":461,"usersCount":346,"tipCount":9,"visitsCount":590,"url":"http://www.queenandcastlekenilworth.co.uk/home/","tier":"","message":"","currency":"","rating":8.8},{"name":"The Saxon Mill","phone":"+441926492255","address":"Coventry Rd.","lat":52.300959534998334,"lng":-1.5740198842114967,"city_fetched":"Warwick,UK","state":"Warwickshire","country":"United Kingdom","canonicalUrl":"https://foursquare.com/v/the-saxon-mill/4b489fdcf964a520cf5026e3","categoryId":"4bf58dd8d48988d11b941735","category":"Pub","checkinsCount":967,"usersCount":874,"tipCount":35,"visitsCount":1387,"tier":"","message":"","currency":"","rating":8.6},{"name":"The Kenilworth","phone":"+441926779473","address":"61 Warwick Road","lat":52.34081932786115,"lng":-1.5771174430847168,"city_fetched":"Warwick,UK","state":"Warwickshire","country":"United Kingdom","canonicalUrl":"https://foursquare.com/v/the-kenilworth/4b919378f964a520e9c633e3","categoryId":"4bf58dd8d48988d11e941735","category":"Cocktail Bar","checkinsCount":234,"usersCount":127,"tipCount":10,"visitsCount":242,"tier":"","message":"","currency":"","rating":8.3},{"name":"The Cape of Good Hope","phone":"+441926498138","twitter":"capewarwick","address":"66 Lower Cape","lat":52.2921025418582,"lng":-1.595442295074463,"city_fetched":"Warwick,UK","state":"Warwickshire","country":"United Kingdom","canonicalUrl":"https://foursquare.com/v/the-cape-of-good-hope/4b5c41cff964a520cc2829e3","categoryId":"4bf58dd8d48988d11b941735","category":"Pub","checkinsCount":226,"usersCount":149,"tipCount":9,"visitsCount":337,"url":"http://thecapeofgoodhopepub.com","tier":"","message":"","currency":"","rating":8.3},{"name":"The Bear Free House","phone":"+441789265540","twitter":"thebearpub","address":"Bridgefoot","lat":52.19087760532326,"lng":-1.6997051239013672,"city_fetched":"Warwick,UK","state":"Warwickshire","country":"United Kingdom","canonicalUrl":"https://foursquare.com/thebearpub","categoryId":"4bf58dd8d48988d11b941735","category":"Pub","checkinsCount":652,"usersCount":200,"tipCount":12,"visitsCount":671,"url":"http://www.thebearfreehouse.co.uk","tier":"","message":"","currency":"","rating":8.1},{"name":"The Cricketers Arms","phone":"+441926881293","address":"19 Archery Rd","lat":52.287363,"lng":-1.541301,"city_fetched":"Warwick,UK","state":"Warwickshire","country":"United Kingdom","canonicalUrl":"https://foursquare.com/v/the-cricketers-arms/4bb0ee1cf964a520476b3ce3","categoryId":"4bf58dd8d48988d11b941735","category":"Pub","checkinsCount":439,"usersCount":243,"tipCount":16,"visitsCount":593,"url":"http://www.crickspubs.co.uk","tier":"","message":"","currency":"","rating":8},{"name":"The Wild Boar","phone":"+441926499968","twitter":"wildboarwarwick","address":"27 Lakin Rd","lat":52.2874956776647,"lng":-1.5808296203613281,"city_fetched":"Warwick,UK","state":"Warwickshire","country":"United Kingdom","canonicalUrl":"https://foursquare.com/v/the-wild-boar/4caabcd0f47ea143fac08521","categoryId":"4bf58dd8d48988d11b941735","category":"Pub","checkinsCount":301,"usersCount":137,"tipCount":5,"visitsCount":390,"url":"http://thewildboarwarwick.co.uk","tier":"","message":"","currency":"","rating":8},{"name":"The Unicorn","phone":"+441926402860","address":"64 Hardwick Field Ln.","lat":52.26877085779886,"lng":-1.6078328902094512,"city_fetched":"Warwick,UK","state":"Warwickshire","country":"United Kingdom","canonicalUrl":"https://foursquare.com/v/the-unicorn/4b4cc754f964a5207bbe26e3","categoryId":"4bf58dd8d48988d11b941735","category":"Pub","checkinsCount":278,"usersCount":112,"tipCount":5,"visitsCount":339,"tier":"","message":"","currency":"","rating":7.8},{"name":"The White Horse","phone":"+441926426892","address":"4-6 Clarendon Ave","lat":52.29345300188708,"lng":-1.5379085922687359,"city_fetched":"Warwick,UK","country":"United Kingdom","canonicalUrl":"https://foursquare.com/v/the-white-horse/4b6d9f46f964a5200f812ce3","categoryId":"4bf58dd8d48988d116941735","category":"Bar","checkinsCount":1740,"usersCount":832,"tipCount":18,"visitsCount":2206,"tier":2,"message":"Moderate","currency":"£","rating":7.8},{"name":"The Famous Virgins and Castle","phone":"+441926853737","address":"7 High Street","lat":52.349864197648344,"lng":-1.5814518928527832,"city_fetched":"Warwick,UK","state":"Warwickshire","country":"United Kingdom","canonicalUrl":"https://foursquare.com/v/the-famous-virgins-and-castle/4c3e10c0db3b1b8d22e56495","categoryId":"4bf58dd8d48988d11b941735","category":"Pub","checkinsCount":489,"usersCount":201,"tipCount":9,"visitsCount":555,"tier":"","message":"","currency":"","rating":7.7},{"name":"Rose & Crown","phone":"+441926411117","twitter":"therosewarwick","address":"30 Market Pl","lat":52.28204083,"lng":-1.591118574142456,"city_fetched":"Warwick,UK","country":"United Kingdom","canonicalUrl":"https://foursquare.com/v/rose--crown/4b0d9e5bf964a520604c23e3","categoryId":"4bf58dd8d48988d11b941735","category":"Pub","checkinsCount":1336,"usersCount":484,"tipCount":15,"visitsCount":1460,"url":"http://www.roseandcrownwarwick.co.uk","tier":"","message":"","currency":"","rating":7.4},{"name":"The Roebuck","phone":"+441926494900","address":"57 Smith St","lat":52.283221347101595,"lng":-1.5822599852823975,"city_fetched":"Warwick,UK","state":"Warwickshire","country":"United Kingdom","canonicalUrl":"https://foursquare.com/v/the-roebuck/4bb6421446d4a59398f1c5c0","categoryId":"4bf58dd8d48988d11b941735","category":"Pub","checkinsCount":240,"usersCount":156,"tipCount":4,"visitsCount":245,"url":"http://www.theroebuckwarwick.co.uk","tier":"","message":"","currency":"","rating":7.2},{"name":"The Duke","phone":"+441926886636","address":"44-46 Warwick St","lat":52.29174275736581,"lng":-1.537378176660603,"city_fetched":"Warwick,UK","state":"Warwickshire","country":"United Kingdom","canonicalUrl":"https://foursquare.com/v/the-duke/4b59fb2df964a52082a528e3","categoryId":"4bf58dd8d48988d11b941735","category":"Pub","checkinsCount":1382,"usersCount":540,"tipCount":12,"visitsCount":1513,"tier":"","message":"","currency":"","rating":7},{"name":"Merchants Bar & Brasserie","phone":"+441926403833","twitter":"merchantsofwar","address":"Swan Street","lat":52.28102097691337,"lng":-1.5889835357666016,"city_fetched":"Warwick,UK","state":"Warwickshire","country":"United Kingdom","canonicalUrl":"https://foursquare.com/v/merchants-bar--brasserie/4b76fc3df964a52080712ee3","categoryId":"4bf58dd8d48988d123941735","category":"Wine Bar","checkinsCount":112,"usersCount":72,"tipCount":4,"visitsCount":113,"url":"http://www.merchantswarwick.co.uk","tier":"","message":"","currency":"","rating":7},{"name":"The New Bowling Green","phone":"+441926411470","address":"13 St Nicholas St","lat":52.282563,"lng":-1.581448,"city_fetched":"Warwick,UK","state":"Warwickshire","country":"United Kingdom","canonicalUrl":"https://foursquare.com/v/the-new-bowling-green/4b992799f964a520466535e3","categoryId":"4bf58dd8d48988d11b941735","category":"Pub","checkinsCount":161,"usersCount":92,"tipCount":2,"visitsCount":164,"url":"http://www.thenewbowlinggreenwarwick.co.uk","tier":"","message":"","currency":"","rating":6.6},{"name":"The Tilted Wig","phone":"+441926400110","twitter":"wigwarwick","address":"11 Market Pl","lat":52.28210070637833,"lng":-1.590571403503418,"city_fetched":"Warwick,UK","state":"Warwickshire","country":"United Kingdom","canonicalUrl":"https://foursquare.com/v/the-tilted-wig/4b6da0abf964a52085812ce3","categoryId":"4bf58dd8d48988d11b941735","category":"Pub","checkinsCount":428,"usersCount":215,"tipCount":8,"visitsCount":441,"url":"http://www.tiltedwigwarwick.co.uk","tier":"","message":"","currency":"","rating":6.6},{"name":"The Clarendon Arms","phone":"+441926852017","address":"44 Castle Hill","lat":52.34878612009404,"lng":-1.5897506475448608,"city_fetched":"Warwick,UK","state":"Warwickshire","country":"United Kingdom","canonicalUrl":"https://foursquare.com/v/the-clarendon-arms/4c2b2a4bd1a10f47ff72f764","categoryId":"4bf58dd8d48988d11b941735","category":"Pub","checkinsCount":160,"usersCount":110,"tipCount":4,"visitsCount":162,"tier":"","message":"","currency":"","rating":6.5},{"name":"The Thomas Lloyd (Wetherspoon)","phone":"+441926475690","address":"3-7 Market Place","lat":52.2822617183325,"lng":-1.590257837168313,"city_fetched":"Warwick,UK","state":"Warwickshire","country":"United Kingdom","canonicalUrl":"https://foursquare.com/v/the-thomas-lloyd-wetherspoon/4c092b166071a5936c67dd32","categoryId":"4bf58dd8d48988d11b941735","category":"Pub","checkinsCount":607,"usersCount":341,"tipCount":5,"visitsCount":661,"url":"http://www.jdwetherspoon.co.uk","tier":"","message":"","currency":"","rating":6.5},{"name":"The Golden Bee (Wetherspoon)","phone":"+441789203860","address":"41-42 Sheep St.","lat":52.191838,"lng":-1.705537,"city_fetched":"Warwick,UK","state":"Warwickshire","country":"United Kingdom","canonicalUrl":"https://foursquare.com/v/the-golden-bee-wetherspoon/4b816290f964a520d9a230e3","categoryId":"4bf58dd8d48988d11b941735","category":"Pub","checkinsCount":1012,"usersCount":542,"tipCount":6,"visitsCount":1136,"url":"http://www.jdwetherspoon.co.uk","tier":"","message":"","currency":"","rating":6.4},{"name":"Fleur de Lys","phone":"+441564782431","twitter":"fdll","address":"Lapworth St","lat":52.30860981781096,"lng":-1.725904941558838,"city_fetched":"Warwick,UK","state":"West Midlands","country":"United Kingdom","canonicalUrl":"https://foursquare.com/v/fleur-de-lys/4bc065e0920eb71316db182c","categoryId":"4bf58dd8d48988d11b941735","category":"Pub","checkinsCount":99,"usersCount":101,"tipCount":6,"visitsCount":135,"tier":"","message":"","currency":"","rating":6.3},{"name":"The Encore","phone":"+441789269462","twitter":"theencorepub","address":"1 Bridge St.","lat":52.192552,"lng":-1.703959,"city_fetched":"Warwick,UK","state":"Warwickshire","country":"United Kingdom","canonicalUrl":"https://foursquare.com/v/the-encore/4bdc5736fed22d7f4fb657c9","categoryId":"4bf58dd8d48988d11b941735","category":"Pub","checkinsCount":768,"usersCount":698,"tipCount":22,"visitsCount":1014,"url":"http://www.theencorestratford.co.uk","tier":"","message":"","currency":"","rating":6.3},{"name":"The Lounge","address":"The Parade","lat":52.289176117424105,"lng":-1.5354591281811054,"city_fetched":"Warwick,UK","state":"Warwickshire","country":"United Kingdom","canonicalUrl":"https://foursquare.com/v/the-lounge/4b450f72f964a520ef0226e3","categoryId":"4bf58dd8d48988d116941735","category":"Bar","checkinsCount":478,"usersCount":207,"tipCount":4,"visitsCount":493,"tier":"","message":"","currency":"","rating":6.2},{"name":"The Zetland Arms","phone":"+441926491974","address":"11 Church St","lat":52.281689,"lng":-1.588005,"city_fetched":"Warwick,UK","state":"Warwickshire","country":"United Kingdom","canonicalUrl":"https://foursquare.com/v/the-zetland-arms/4c079cd50e0a2d7f348aed0c","categoryId":"4bf58dd8d48988d11b941735","category":"Pub","checkinsCount":177,"usersCount":110,"tipCount":2,"visitsCount":181,"tier":"","message":"","currency":"","rating":6.1},{"name":"The Copper Rooms","phone":"+442476572777","twitter":"warwicksu","address":"Warwick SU, Gibbet Hill Rd","lat":52.378814995127385,"lng":-1.560332179069519,"neighborhood":"South Coventry","city_fetched":"Warwick,UK","state":"West Midlands","country":"United Kingdom","canonicalUrl":"https://foursquare.com/v/the-copper-rooms/4b05882bf964a5200db622e3","categoryId":"4bf58dd8d48988d11f941735","category":"Nightclub","checkinsCount":571,"usersCount":192,"tipCount":1,"visitsCount":580,"url":"https://www.facebook.com/warwicksu","tier":"","message":"","currency":"","rating":5.9},{"name":"Voodoo Bar","address":"35 Regent Street","lat":52.290289,"lng":-1.537965,"city_fetched":"Warwick,UK","state":"Warwickshire","country":"United Kingdom","canonicalUrl":"https://foursquare.com/v/voodoo-bar/4b58c8f3f964a520176b28e3","categoryId":"4bf58dd8d48988d116941735","category":"Bar","checkinsCount":356,"usersCount":185,"tipCount":4,"visitsCount":372,"tier":"","message":"","currency":"","rating":5.6},{"name":"The Old Tramway Inn","phone":"+441789297593","address":"91 Shipston Rd.","lat":52.18733950128757,"lng":-1.6992964264861685,"city_fetched":"Warwick,UK","state":"Warwickshire","country":"United Kingdom","canonicalUrl":"https://foursquare.com/v/the-old-tramway-inn/4d559d1c143ca0936b62b1fc","categoryId":"4bf58dd8d48988d11b941735","category":"Pub","checkinsCount":65,"usersCount":48,"tipCount":4,"visitsCount":78,"tier":"","message":"","currency":"","rating":5.6},{"name":"The Bear and Ragged Staff","phone":"+441926857980","address":"68 Warwick Road","lat":52.34059645988594,"lng":-1.5772461891174316,"city_fetched":"Warwick,UK","state":"Warwickshire","country":"United Kingdom","canonicalUrl":"https://foursquare.com/v/the-bear-and-ragged-staff/4b917953f964a52044bf33e3","categoryId":"4bf58dd8d48988d11b941735","category":"Pub","checkinsCount":199,"usersCount":104,"tipCount":6,"visitsCount":205,"tier":"","message":"","currency":"","rating":5.5},{"name":"Altoria","lat":52.291953663121426,"lng":-1.5367625983254278,"city_fetched":"Warwick,UK","country":"United Kingdom","canonicalUrl":"https://foursquare.com/v/altoria/50899c76e4b07f1e61eb2603","categoryId":"4bf58dd8d48988d116941735","category":"Bar","checkinsCount":221,"usersCount":132,"tipCount":3,"visitsCount":221,"tier":"","message":"","currency":"","rating":5.4},{"name":"Pen And Parchment","lat":52.19284882192399,"lng":-1.7028942314312066,"city_fetched":"Warwick,UK","country":"United Kingdom","canonicalUrl":"https://foursquare.com/v/pen-and-parchment/503cd99fe4b01d1549f3a049","categoryId":"4bf58dd8d48988d117941735","category":"Beer Garden","checkinsCount":139,"usersCount":131,"tipCount":5,"visitsCount":143,"tier":"","message":"","currency":"","rating":5.4},{"name":"The Dirty Duck","phone":"+442476572754","twitter":"warwicksu","address":"Warwick SU, Gibbet Hill Road","lat":52.37889358653713,"lng":-1.5601176023483276,"neighborhood":"South Coventry","city_fetched":"Warwick,UK","state":"West Midlands","country":"United Kingdom","canonicalUrl":"https://foursquare.com/v/the-dirty-duck/4bad3f50f964a520bb3d3be3","categoryId":"4bf58dd8d48988d11b941735","category":"Pub","checkinsCount":1696,"usersCount":622,"tipCount":12,"visitsCount":1863,"url":"https://www.facebook.com/warwicksu","tier":2,"message":"Moderate","currency":"£","rating":5.3},{"name":"The Porridge Pot","phone":"+441926401697","twitter":"orchid_group","address":"Longbridge Manor","lat":52.260029220935884,"lng":-1.6101534028040014,"city_fetched":"Warwick,UK","state":"West Midlands","country":"United Kingdom","canonicalUrl":"https://foursquare.com/v/the-porridge-pot/4ccd711b54f0b1f73dae1cca","categoryId":"4bf58dd8d48988d11b941735","category":"Pub","checkinsCount":271,"usersCount":197,"tipCount":6,"visitsCount":310,"tier":"","message":"","currency":"","rating":5.1},{"name":"Robbins' Well","phone":"+441926453881","address":"2 Victoria Terrace","lat":52.28640199,"lng":-1.533695,"city_fetched":"Warwick,UK","state":"Warwickshire","country":"United Kingdom","canonicalUrl":"https://foursquare.com/v/robbins-well/4b6314a7f964a52091612ae3","categoryId":"4bf58dd8d48988d11b941735","category":"Pub","checkinsCount":469,"usersCount":177,"tipCount":8,"visitsCount":487,"tier":"","message":"","currency":"","rating":5}]