[{"name":"The Ship Inn","phone":"+442392471719","address":"Langstone Rd","lat":50.837692,"lng":-0.980442,"neighborhood":"Langstone","city_fetched":"Waterlooville,UK","state":"Hampshire","country":"United Kingdom","canonicalUrl":"https://foursquare.com/v/the-ship-inn/4b8bc0aff964a520a5a932e3","categoryId":"4bf58dd8d48988d11b941735","category":"Pub","checkinsCount":543,"usersCount":333,"tipCount":14,"visitsCount":706,"url":"http://shiplangstone.co.uk","tier":"","message":"","currency":"","rating":7.8},{"name":"The Sussex Brewery","phone":"+441243371533","address":"36 Main Road","lat":50.846319,"lng":-0.929319,"neighborhood":"hemitage","city_fetched":"Waterlooville,UK","state":"West Sussex","country":"United Kingdom","canonicalUrl":"https://foursquare.com/v/the-sussex-brewery/4c76b756d06b224b7b29fcd6","categoryId":"4bf58dd8d48988d11b941735","category":"Pub","checkinsCount":88,"usersCount":82,"tipCount":3,"visitsCount":122,"url":"http://www.sussexbrewery.co.uk","tier":"","message":"","currency":"","rating":7.5},{"name":"The Rose in June","phone":"+442392824191","twitter":"theroseinjune","address":"102 Milton Rd","lat":50.805011860730545,"lng":-1.064577619103485,"neighborhood":"Copnor","city_fetched":"Waterlooville,UK","state":"Hampshire","country":"United Kingdom","canonicalUrl":"https://foursquare.com/v/the-rose-in-june/4dce79377d8b975f18cea917","categoryId":"4bf58dd8d48988d11b941735","category":"Pub","checkinsCount":140,"usersCount":55,"tipCount":2,"visitsCount":186,"url":"http://www.theroseinjune.co.uk","tier":"","message":"","currency":"","rating":7.4},{"name":"The Denmead Queen (Wetherspoon)","phone":"+442392247430","twitter":"jdwtweet","address":"8-9 Queens Parade","lat":50.88078096208968,"lng":-1.0307632592391938,"city_fetched":"Waterlooville,UK","state":"Hampshire","country":"United Kingdom","canonicalUrl":"https://foursquare.com/v/the-denmead-queen-wetherspoon/4ebad9e56c25faf0a5088108","categoryId":"4bf58dd8d48988d11b941735","category":"Pub","checkinsCount":497,"usersCount":135,"tipCount":4,"visitsCount":558,"url":"http://www.jdwetherspoon.co.uk","tier":"","message":"","currency":"","rating":7.2},{"name":"The Wheelwright's Arms","phone":"+442392476502","twitter":"wheelshavant","address":"27 Emsworth Road","lat":50.85064033905628,"lng":-0.9751920913309762,"city_fetched":"Waterlooville,UK","state":"Hampshire","country":"United Kingdom","canonicalUrl":"https://foursquare.com/v/the-wheelwrights-arms/4f17240be4b03802085eb0e2","categoryId":"4bf58dd8d48988d11b941735","category":"Pub","checkinsCount":77,"usersCount":62,"tipCount":2,"visitsCount":177,"url":"http://www.wheelwrightshavant.co.uk","tier":"","message":"","currency":"","rating":7.2},{"name":"The Sir John Baker (Wetherspoon)","phone":"+442392627960","address":"80 London Rd","lat":50.815455,"lng":-1.079368,"city_fetched":"Waterlooville,UK","state":"Hampshire","country":"United Kingdom","canonicalUrl":"https://foursquare.com/v/the-sir-john-baker-wetherspoon/4c87abcb821e9eb0accd8d89","categoryId":"4bf58dd8d48988d11b941735","category":"Pub","checkinsCount":2186,"usersCount":252,"tipCount":9,"visitsCount":2450,"url":"http://www.jdwetherspoon.co.uk","tier":"","message":"","currency":"","rating":6.9},{"name":"The Royal Oak","lat":50.839157538790566,"lng":-0.9797802856151328,"city_fetched":"Waterlooville,UK","country":"United Kingdom","canonicalUrl":"https://foursquare.com/v/the-royal-oak/4bdc01f363c5c9b6992e2a68","categoryId":"4bf58dd8d48988d11b941735","category":"Pub","checkinsCount":230,"usersCount":119,"tipCount":5,"visitsCount":276,"tier":"","message":"","currency":"","rating":6.9},{"name":"The Pelham Arms","phone":"+442392691084","address":"78 Chichester Road","lat":50.81367611441746,"lng":-1.0763846096218597,"neighborhood":"Copnor","city_fetched":"Waterlooville,UK","state":"Hampshire","country":"United Kingdom","canonicalUrl":"https://foursquare.com/v/the-pelham-arms/4cdaca5c930af04d89f98697","categoryId":"4bf58dd8d48988d11b941735","category":"Pub","checkinsCount":149,"usersCount":52,"tipCount":5,"visitsCount":180,"tier":"","message":"","currency":"","rating":6.8},{"name":"The Crown Hotel","phone":"+441243372806","address":"8 High St.","lat":50.847021207171274,"lng":-0.9369083269164826,"city_fetched":"Waterlooville,UK","state":"Hampshire","country":"United Kingdom","canonicalUrl":"https://foursquare.com/v/the-crown-hotel/4bcf69070ffdce72f071b2c0","categoryId":"4bf58dd8d48988d11b941735","category":"Pub","checkinsCount":473,"usersCount":74,"tipCount":2,"visitsCount":483,"url":"http://www.thecrownemsworth.com","tier":"","message":"","currency":"","rating":6.8},{"name":"The First Post (Wetherspoon)","phone":"+442392210331","address":"42 High St.","lat":50.84476166376624,"lng":-1.067364284470193,"neighborhood":"Cosham","city_fetched":"Waterlooville,UK","state":"Hampshire","country":"United Kingdom","canonicalUrl":"https://foursquare.com/v/the-first-post-wetherspoon/4c87aab9821e9eb0b3cc8d89","categoryId":"4bf58dd8d48988d11b941735","category":"Pub","checkinsCount":564,"usersCount":145,"tipCount":3,"visitsCount":595,"url":"http://www.jdwetherspoon.co.uk","tier":"","message":"","currency":"","rating":6.6},{"name":"The Churchillian","phone":"+442392371803","address":"Widley walk","lat":50.853993282337754,"lng":-1.0627725817039322,"neighborhood":"Cosham","city_fetched":"Waterlooville,UK","state":"Hampshire","country":"United Kingdom","canonicalUrl":"https://foursquare.com/v/the-churchillian/4b644b5ef964a520eea82ae3","categoryId":"4bf58dd8d48988d11b941735","category":"Pub","checkinsCount":217,"usersCount":130,"tipCount":5,"visitsCount":221,"url":"http://churchillian.co.uk","tier":"","message":"","currency":"","rating":6.6},{"name":"The Sir Alec Rose (Wetherspoon)","phone":"+442392314800","address":"32-33 The Boardwalk","lat":50.84093392888396,"lng":-1.0976672172546387,"city_fetched":"Waterlooville,UK","state":"Hampshire","country":"United Kingdom","canonicalUrl":"https://foursquare.com/v/the-sir-alec-rose-wetherspoon/4c4879db786b76b0221040f8","categoryId":"4bf58dd8d48988d11b941735","category":"Pub","checkinsCount":676,"usersCount":352,"tipCount":7,"visitsCount":698,"url":"http://www.jdwetherspoon.co.uk","tier":"","message":"","currency":"","rating":6.5},{"name":"Eastney Tavern","lat":50.78401,"lng":-1.058336,"city_fetched":"Waterlooville,UK","country":"United Kingdom","canonicalUrl":"https://foursquare.com/v/eastney-tavern/4d7132d0cea9236a7a42431b","categoryId":"4bf58dd8d48988d116941735","category":"Bar","checkinsCount":93,"usersCount":56,"tipCount":1,"visitsCount":95,"tier":"","message":"","currency":"","rating":6.2},{"name":"The Red Lion (Table Table)","phone":"+442392593202","twitter":"yourtabletable","address":"2 Havant Road","lat":50.91328282927344,"lng":-0.9965374150126619,"city_fetched":"Waterlooville,UK","state":"Hampshire","country":"United Kingdom","canonicalUrl":"https://foursquare.com/v/the-red-lion-table-table/4bf0498fc8d920a170af9430","categoryId":"4bf58dd8d48988d11b941735","category":"Pub","checkinsCount":314,"usersCount":86,"tipCount":0,"visitsCount":321,"url":"http://www.tabletable.co.uk/pub-restaurants/Hampshire/Red-Lion-Horndean.html","tier":"","message":"","currency":"","rating":6.2},{"name":"The Farmhouse & Innlodge","phone":"+442392650510","address":"Burrfields Rd.","lat":50.81478789363712,"lng":-1.045984173406892,"neighborhood":"Baffins","city_fetched":"Waterlooville,UK","state":"Hampshire","country":"United Kingdom","canonicalUrl":"https://foursquare.com/v/the-farmhouse--innlodge/4bded0b2fe0e62b582f80506","categoryId":"4bf58dd8d48988d11b941735","category":"Pub","checkinsCount":416,"usersCount":198,"tipCount":3,"visitsCount":530,"url":"http://www.hungryhorse.co.uk/pubs/farmhouse-portsmouth","tier":"","message":"","currency":"","rating":6.2},{"name":"The Parchment Makers (Wetherspoon)","phone":"+442392474023","address":"1 Park Rd N","lat":50.85204360124545,"lng":-0.9844779968261719,"city_fetched":"Waterlooville,UK","state":"Hampshire","country":"United Kingdom","canonicalUrl":"https://foursquare.com/v/the-parchment-makers-wetherspoon/4c87ab23821e9eb014cd8d89","categoryId":"4bf58dd8d48988d11b941735","category":"Pub","checkinsCount":830,"usersCount":201,"tipCount":3,"visitsCount":878,"url":"http://www.jdwetherspoon.co.uk","tier":"","message":"","currency":"","rating":6.2},{"name":"Coach and Horses","phone":"+442392660533","address":"London Road","lat":50.8317590073861,"lng":-1.0700566813124772,"neighborhood":"Hilsea","city_fetched":"Waterlooville,UK","state":"Hampshire","country":"United Kingdom","canonicalUrl":"https://foursquare.com/v/coach-and-horses/4b72fb2bf964a520b4932de3","categoryId":"4bf58dd8d48988d11b941735","category":"Pub","checkinsCount":250,"usersCount":117,"tipCount":5,"visitsCount":300,"url":"http://www.flaminggrillpubs.com/pub/coach-and-horses-hilsea-portsmouth/m8483/","tier":"","message":"","currency":"","rating":6.1},{"name":"The Coal Exchange","phone":"+441243375866","address":"21 South Street","lat":50.84554,"lng":-0.937341,"city_fetched":"Waterlooville,UK","state":"Hampshire","country":"United Kingdom","canonicalUrl":"https://foursquare.com/v/the-coal-exchange/4bdb374863c5c9b6fae22668","categoryId":"4bf58dd8d48988d11b941735","category":"Pub","checkinsCount":100,"usersCount":50,"tipCount":2,"visitsCount":101,"url":"http://www.thecoalexchange.co.uk","tier":"","message":"","currency":"","rating":5.9},{"name":"The Seagull","address":"Cornaway Lane","lat":50.847295,"lng":-1.138413,"city_fetched":"Waterlooville,UK","country":"United Kingdom","canonicalUrl":"https://foursquare.com/v/the-seagull/4b75a4c0f964a5208b192ee3","categoryId":"4bf58dd8d48988d11b941735","category":"Pub","checkinsCount":348,"usersCount":166,"tipCount":4,"visitsCount":411,"tier":"","message":"","currency":"","rating":5.8},{"name":"The Lord Raglan","phone":"+441243372587","twitter":"lordraglanems","address":"35 Queen St","lat":50.846536,"lng":-0.93284,"city_fetched":"Waterlooville,UK","state":"Hampshire","country":"United Kingdom","canonicalUrl":"https://foursquare.com/v/the-lord-raglan/4bf7c8748d30d13aab7fff17","categoryId":"4bf58dd8d48988d11b941735","category":"Pub","checkinsCount":60,"usersCount":57,"tipCount":4,"visitsCount":83,"url":"http://lord-raglan-emsworth.co.uk","tier":"","message":"","currency":"","rating":5.7},{"name":"Admiral Drake","phone":"+442392651599","twitter":"theadmiraldrake","address":"8 Kingston Crescent","lat":50.813316,"lng":-1.085173487663269,"neighborhood":"Kingston","city_fetched":"Waterlooville,UK","state":"Hampshire","country":"United Kingdom","canonicalUrl":"https://foursquare.com/theadmiraldrake","categoryId":"4bf58dd8d48988d11b941735","category":"Pub","checkinsCount":500,"usersCount":67,"tipCount":3,"visitsCount":508,"url":"http://theadmiraldrake.co.uk","tier":"","message":"","currency":"","rating":5.7},{"name":"The Thatched House","phone":"+442392821527","address":"Milton Locks","lat":50.79397308396106,"lng":-1.0401577351464901,"city_fetched":"Waterlooville,UK","state":"Hampshire","country":"United Kingdom","canonicalUrl":"https://foursquare.com/v/the-thatched-house/4c25f0d9c11dc9b6ae002824","categoryId":"4bf58dd8d48988d11b941735","category":"Pub","checkinsCount":132,"usersCount":80,"tipCount":4,"visitsCount":144,"url":"http://www.fayre-square.com/pub/thatched-house-southsea/m2507","tier":"","message":"","currency":"","rating":5.6},{"name":"The Barley Mow","phone":"+442392465611","address":"Manor Road","lat":50.7907449792272,"lng":-0.9881819016473976,"city_fetched":"Waterlooville,UK","state":"Hampshire","country":"United Kingdom","canonicalUrl":"https://foursquare.com/v/the-barley-mow/4b929207f964a5205e0534e3","categoryId":"4bf58dd8d48988d11b941735","category":"Pub","checkinsCount":141,"usersCount":125,"tipCount":5,"visitsCount":179,"url":"http://www.crowncarveries.co.uk/nationalsearch/southeast/thebarleymowhaylingisland","tier":"","message":"","currency":"","rating":5.4},{"name":"The Good Companion","phone":"+442392825206","address":"2 Eastern Rd","lat":50.79945252299931,"lng":-1.054987907409668,"neighborhood":"Baffins","city_fetched":"Waterlooville,UK","state":"Hampshire","country":"United Kingdom","canonicalUrl":"https://foursquare.com/v/the-good-companion/4c8aac86a92fa093287d93bf","categoryId":"4bf58dd8d48988d11b941735","category":"Pub","checkinsCount":195,"usersCount":108,"tipCount":3,"visitsCount":251,"tier":"","message":"","currency":"","rating":5.3},{"name":"Sovereigns","phone":"+442392639673","address":"Kingston Crescent","lat":50.81323,"lng":-1.083803,"neighborhood":"Kingston","city_fetched":"Waterlooville,UK","state":"Hampshire","country":"United Kingdom","canonicalUrl":"https://foursquare.com/v/sovereigns/4bdc281ec712b71369b763b4","categoryId":"4bf58dd8d48988d11b941735","category":"Pub","checkinsCount":137,"usersCount":96,"tipCount":3,"visitsCount":138,"tier":"","message":"","currency":"","rating":5.3},{"name":"Liquid","phone":"+442392862312","twitter":"liquidports","address":"Stanhope Rd.","lat":50.79943987013239,"lng":-1.09203046877003,"neighborhood":"City Centre","city_fetched":"Waterlooville,UK","state":"Hampshire","country":"United Kingdom","canonicalUrl":"https://foursquare.com/v/liquid/4b6a0b5ef964a520dbc32be3","categoryId":"4bf58dd8d48988d11f941735","category":"Nightclub","checkinsCount":672,"usersCount":357,"tipCount":5,"visitsCount":767,"tier":"","message":"","currency":"","rating":5.2}]