[{"name":"Hart Family Brewers","phone":"+441933228324","twitter":"hartfamilybeer","address":"1833 Brewery - 21 Nene Court","lat":52.29680426152707,"lng":-0.6748339678104016,"city_fetched":"Wellingborough,UK","state":"Northamptonshire","country":"United Kingdom","canonicalUrl":"https://foursquare.com/hartfamilybeer","categoryId":"50327c8591d4c4b30a586d5d","category":"Brewery","checkinsCount":31,"usersCount":16,"tipCount":0,"visitsCount":32,"url":"http://www.hartfamilybrewers.com","tier":"","message":"","currency":"","rating":8.1},{"name":"The Horseshoe Inn","phone":"+441933278499","address":"36 Sheep St","lat":52.30072372595766,"lng":-0.693064901206744,"city_fetched":"Wellingborough,UK","state":"Northamptonshire","country":"United Kingdom","canonicalUrl":"https://foursquare.com/v/the-horseshoe-inn/4bbcee84a0a0c9b6d2ff1a0f","categoryId":"4bf58dd8d48988d11b941735","category":"Pub","checkinsCount":885,"usersCount":83,"tipCount":3,"visitsCount":931,"tier":"","message":"","currency":"","rating":7.1},{"name":"Dog & Duck Beefeater Grill","phone":"+441933278606","twitter":"beefeatergrill","address":"London Rd","lat":52.293106572132885,"lng":-0.6836794558060519,"city_fetched":"Wellingborough,UK","state":"Northamptonshire","country":"United Kingdom","canonicalUrl":"https://foursquare.com/v/dog--duck-beefeater-grill/4bcc572cfb84c9b69b29203e","categoryId":"4bf58dd8d48988d11b941735","category":"Pub","checkinsCount":250,"usersCount":165,"tipCount":1,"visitsCount":315,"url":"http://www.beefeater.co.uk","tier":"","message":"","currency":"","rating":5.8},{"name":"The Red Well (Wetherspoon)","phone":"+441933440845","address":"16 Silver St.","lat":52.30182462152955,"lng":-0.6957298065000149,"city_fetched":"Wellingborough,UK","state":"Northamptonshire","country":"United Kingdom","canonicalUrl":"https://foursquare.com/v/the-red-well-wetherspoon/4b7e88d1f964a5206df12fe3","categoryId":"4bf58dd8d48988d11b941735","category":"Pub","checkinsCount":581,"usersCount":157,"tipCount":4,"visitsCount":639,"url":"http://www.jdwetherspoon.co.uk","tier":"","message":"","currency":"","rating":5.6}]