[{"name":"Harpsfield Hall (Wetherspoon)","phone":"+441707265840","address":"13a Parkhouse Court","lat":51.76248447430968,"lng":-0.24026408465504934,"city_fetched":"Welwyn Garden City,UK","state":"Hertfordshire","country":"United Kingdom","canonicalUrl":"https://foursquare.com/v/harpsfield-hall-wetherspoon/565829d2498e36a60a999055","categoryId":"4bf58dd8d48988d11b941735","category":"Pub","checkinsCount":279,"usersCount":135,"tipCount":3,"visitsCount":511,"tier":"","message":"","currency":"","rating":8.7},{"name":"Red Lion","phone":"+441707299342","address":"Digswell Hill","lat":51.812693,"lng":-0.22580593,"city_fetched":"Welwyn Garden City,UK","state":"Hertfordshire","country":"United Kingdom","canonicalUrl":"https://foursquare.com/v/red-lion/4c011d3ccf3aa5931e74ccb0","categoryId":"4bf58dd8d48988d11b941735","category":"Pub","checkinsCount":192,"usersCount":215,"tipCount":7,"visitsCount":308,"url":"http://www.theredlionwelwyn.co.uk","tier":"","message":"","currency":"","rating":8.4},{"name":"Attimore","phone":"+441707299332","address":"Ridgeway","lat":51.79983690270258,"lng":-0.18105443989181996,"city_fetched":"Welwyn Garden City,UK","state":"Hertfordshire","country":"United Kingdom","canonicalUrl":"https://foursquare.com/v/attimore/4b99188bf964a520fe6035e3","categoryId":"4bf58dd8d48988d11b941735","category":"Pub","checkinsCount":231,"usersCount":81,"tipCount":3,"visitsCount":247,"tier":"","message":"","currency":"","rating":7.7},{"name":"Cowper Arms","address":"Station rd","lat":51.784098,"lng":-0.13950011,"city_fetched":"Welwyn Garden City,UK","state":"Hertfordshire","country":"United Kingdom","canonicalUrl":"https://foursquare.com/v/cowper-arms/4c0a4c86ffb8c9b6ab436b61","categoryId":"4bf58dd8d48988d117941735","category":"Beer Garden","checkinsCount":119,"usersCount":105,"tipCount":0,"visitsCount":171,"tier":"","message":"","currency":"","rating":7.5},{"name":"The Plough","address":"Sleapshyde Ln","lat":51.748589809145365,"lng":-0.25990681412170835,"city_fetched":"Welwyn Garden City,UK","state":"Hertfordshire","country":"United Kingdom","canonicalUrl":"https://foursquare.com/v/the-plough/4c4c23ac46240f473b485af4","categoryId":"4bf58dd8d48988d11b941735","category":"Pub","checkinsCount":152,"usersCount":76,"tipCount":3,"visitsCount":164,"tier":"","message":"","currency":"","rating":7.5},{"name":"Style Bar","address":"The Forum, College Lane","lat":51.750033981532404,"lng":-0.24205625618344787,"city_fetched":"Welwyn Garden City,UK","state":"Hertfordshire","country":"United Kingdom","canonicalUrl":"https://foursquare.com/v/style-bar/4b478342f964a520723426e3","categoryId":"4bf58dd8d48988d116941735","category":"Bar","checkinsCount":308,"usersCount":95,"tipCount":5,"visitsCount":309,"url":"http://www.forumhertfordshire.co.uk/venue/stylebar/","tier":"","message":"","currency":"","rating":7.3},{"name":"The Red Lion","address":"Great N Road","lat":51.76665544509888,"lng":-0.2148,"city_fetched":"Welwyn Garden City,UK","state":"Hertfordshire","country":"United Kingdom","canonicalUrl":"https://foursquare.com/v/the-red-lion/4beadf3061aca59329488400","categoryId":"4bf58dd8d48988d11b941735","category":"Pub","checkinsCount":407,"usersCount":201,"tipCount":8,"visitsCount":474,"tier":"","message":"","currency":"","rating":7.2},{"name":"Club De Havilland","phone":"+441707281144","address":"Mosquito Way, de Havilland Campus","lat":51.760130496774806,"lng":-0.2505925759983647,"city_fetched":"Welwyn Garden City,UK","state":"Hertfordshire","country":"United Kingdom","canonicalUrl":"https://foursquare.com/v/club-de-havilland/4bebf767415e20a1d7e1e6bb","categoryId":"4bf58dd8d48988d116941735","category":"Bar","checkinsCount":464,"usersCount":219,"tipCount":2,"visitsCount":532,"url":"http://www.clubdehavilland.co.uk","tier":"","message":"","currency":"","rating":7},{"name":"Cowper Arms","phone":"+441438714080","address":"31 Station Road","lat":51.823205737592545,"lng":-0.19340914896500458,"city_fetched":"Welwyn Garden City,UK","state":"Hertfordshire","country":"United Kingdom","canonicalUrl":"https://foursquare.com/v/cowper-arms/4d4ed972deabf04d8e9ac624","categoryId":"4bf58dd8d48988d11b941735","category":"Pub","checkinsCount":222,"usersCount":94,"tipCount":2,"visitsCount":301,"tier":"","message":"","currency":"","rating":6.8},{"name":"The Doctors Tonic","phone":"+441707338174","address":"Church Road","lat":51.80011846941109,"lng":-0.20750140503816056,"city_fetched":"Welwyn Garden City,UK","state":"Hertfordshire","country":"United Kingdom","canonicalUrl":"https://foursquare.com/v/the-doctors-tonic/4b497b8ff964a5206b7026e3","categoryId":"4bf58dd8d48988d11b941735","category":"Pub","checkinsCount":625,"usersCount":309,"tipCount":6,"visitsCount":785,"tier":"","message":"","currency":"","rating":6.4},{"name":"The Forum","phone":"+441707285000","twitter":"theforumherts","address":"College Lane","lat":51.750492999909795,"lng":-0.2420746106598759,"city_fetched":"Welwyn Garden City,UK","state":"Hertfordshire","country":"United Kingdom","canonicalUrl":"https://foursquare.com/v/the-forum/4b981d6ff964a520742d35e3","categoryId":"4bf58dd8d48988d11f941735","category":"Nightclub","checkinsCount":3349,"usersCount":866,"tipCount":11,"visitsCount":3868,"url":"http://www.forumhertfordshire.co.uk","tier":"","message":"","currency":"","rating":6.4},{"name":"The White Horse","phone":"+441438714366","address":"30 Mill Lane","lat":51.8306031991047,"lng":-0.2133828362687328,"city_fetched":"Welwyn Garden City,UK","state":"Hertfordshire","country":"United Kingdom","canonicalUrl":"https://foursquare.com/v/the-white-horse/4b33e947f964a520c42125e3","categoryId":"4bf58dd8d48988d11b941735","category":"Pub","checkinsCount":229,"usersCount":88,"tipCount":3,"visitsCount":266,"url":"http://www.thewhitehorse-welwyn.co.uk","tier":"","message":"","currency":"","rating":6.1},{"name":"The Two Willows","phone":"+441707332401","twitter":"thetwowillows","address":"9 Howards Gate","lat":51.80217487869644,"lng":-0.20763019713829828,"city_fetched":"Welwyn Garden City,UK","state":"Hertfordshire","country":"United Kingdom","canonicalUrl":"https://foursquare.com/v/the-two-willows/4d824acb2fb73704e5c18911","categoryId":"4bf58dd8d48988d11b941735","category":"Pub","checkinsCount":251,"usersCount":156,"tipCount":5,"visitsCount":269,"url":"http://www.thetwowillows.co.uk","tier":"","message":"","currency":"","rating":6.1},{"name":"The Chieftain","address":"Cole Green Lane","lat":51.791168,"lng":-0.189465,"city_fetched":"Welwyn Garden City,UK","state":"Hertfordshire","country":"United Kingdom","canonicalUrl":"https://foursquare.com/v/the-chieftain/4d4144814677548162325ff4","categoryId":"4bf58dd8d48988d11b941735","category":"Pub","checkinsCount":665,"usersCount":99,"tipCount":9,"visitsCount":698,"tier":"","message":"","currency":"","rating":5.9},{"name":"The Stanborough (Beefeater)","phone":"+441707391345","twitter":"beefeater","address":"Stanborough Rd","lat":51.79283531636881,"lng":-0.20978298604675746,"city_fetched":"Welwyn Garden City,UK","state":"Hertfordshire","country":"United Kingdom","canonicalUrl":"https://foursquare.com/v/the-stanborough-beefeater/4c28ae869fb5d13ae2e69957","categoryId":"4bf58dd8d48988d11b941735","category":"Pub","checkinsCount":656,"usersCount":181,"tipCount":6,"visitsCount":699,"url":"http://www.beefeater.co.uk/steak-restaurant/Hertfordshire/Stanborough-Welwyn-Garden-City.html","tier":"","message":"","currency":"","rating":5.9},{"name":"EleHouse","phone":"+441707285010","address":"Elehouse, College Lane","lat":51.75068007153027,"lng":-0.2419567108154297,"city_fetched":"Welwyn Garden City,UK","state":"Hertfordshire","country":"United Kingdom","canonicalUrl":"https://foursquare.com/v/elehouse/4be48f768a8cb713954bc4a0","categoryId":"4bf58dd8d48988d11b941735","category":"Pub","checkinsCount":1001,"usersCount":264,"tipCount":13,"visitsCount":1084,"url":"http://www.forumhertfordshire.co.uk/venue/elehouse/","tier":"","message":"","currency":"","rating":5.8}]