[{"name":"Hilton Skybar","address":"Lakeside Way","lat":51.557542721828135,"lng":-0.2821006593569921,"neighborhood":"Tokyngton","city_fetched":"Wem","state":"Greater London","country":"United Kingdom","canonicalUrl":"https://foursquare.com/v/hilton-skybar/4fe88ef9e4b0dceaf9b1b380","category":"Beer Garden","checkinsCount":191,"usersCount":137,"tipCount":3,"visitsCount":193,"tier":"","message":"","currency":"","rating":7.9},{"name":"Hilton Icons Bar","lat":51.55760024695034,"lng":-0.28230342855242513,"neighborhood":"Tokyngton","city_fetched":"Wem","country":"United Kingdom","canonicalUrl":"https://foursquare.com/v/hilton-icons-bar/508850e8498ef4b8c023f59d","category":"Hotel Bar","checkinsCount":163,"usersCount":89,"tipCount":2,"visitsCount":163,"tier":"","message":"","currency":"","rating":7},{"name":"Sports Bar Wembley","lat":51.5620900714271,"lng":-0.28190857060526886,"neighborhood":"Tokyngton","city_fetched":"Wem","country":"United Kingdom","canonicalUrl":"https://foursquare.com/v/sports-bar-wembley/4c8bab0052a98cfa0d0e38e9","category":"Bar","checkinsCount":221,"usersCount":127,"tipCount":0,"visitsCount":226,"tier":"","message":"","currency":"","rating":6.8},{"name":"The Fusilier","phone":"+442089037863","address":"652 Harrow Rd. Sudbury","lat":51.551753661957854,"lng":-0.3108992252649489,"neighborhood":"Sudbury","city_fetched":"Wem","state":"Greater London","country":"United Kingdom","canonicalUrl":"https://foursquare.com/v/the-fusilier/4bd7c86a304fce72600534ab","category":"Pub","checkinsCount":126,"usersCount":63,"tipCount":3,"visitsCount":138,"url":"http://www.fusilierinn.co.uk","tier":"","message":"","currency":"","rating":6.8},{"name":"Club Wembley","lat":51.55637736062624,"lng":-0.2795816564347904,"neighborhood":"Tokyngton","city_fetched":"Wem","country":"United Kingdom","canonicalUrl":"https://foursquare.com/v/club-wembley/51bc9d4a498e18a02e812029","category":"Bar","checkinsCount":109,"usersCount":82,"tipCount":1,"visitsCount":109,"tier":"","message":"","currency":"","rating":6.5},{"name":"The Preston Pub","address":"161 Preston Road","lat":51.5695682609951,"lng":-0.29523397903615556,"neighborhood":"Preston","city_fetched":"Wem","state":"Greater London","country":"United Kingdom","canonicalUrl":"https://foursquare.com/v/the-preston-pub/4c8a92423dc2a1cdef23ae32","category":"Pub","checkinsCount":331,"usersCount":197,"tipCount":3,"visitsCount":419,"tier":"","message":"","currency":"","rating":6.1},{"name":"The Torch","address":"1-5 Bridge Rd","lat":51.56504916183566,"lng":-0.2774954047858992,"neighborhood":"Brent","city_fetched":"Wem","state":"Greater London","country":"United Kingdom","canonicalUrl":"https://foursquare.com/v/the-torch/4bcf581dcaff9521a7fdccf0","category":"Pub","checkinsCount":734,"usersCount":575,"tipCount":7,"visitsCount":1068,"tier":"","message":"","currency":"","rating":5.9},{"name":"Watkin's Folly Bar & Restaurant","phone":"+442089029944","address":"1 Empire Way","lat":51.56158614007335,"lng":-0.28207140171075007,"neighborhood":"Wembley Central","city_fetched":"Wem","state":"Greater London","country":"United Kingdom","canonicalUrl":"https://foursquare.com/v/watkins-folly-bar--restaurant/5096a76be4b0e52fa485aae0","category":"Sports Bar","checkinsCount":122,"usersCount":93,"tipCount":0,"visitsCount":129,"url":"http://www.watkinsfolly.co.uk","tier":"","message":"","currency":"","rating":5.8},{"name":"The Liquor Station","address":"367A High Rd","lat":51.553700354503036,"lng":-0.29292703367910666,"neighborhood":"Wembley Central","city_fetched":"Wem","state":"Greater London","country":"United Kingdom","canonicalUrl":"https://foursquare.com/v/the-liquor-station/519222eb498e223a22e57dc2","category":"Bar","checkinsCount":138,"usersCount":101,"tipCount":1,"visitsCount":143,"tier":"","message":"","currency":"","rating":5.7},{"name":"Green Man Hotel","phone":"+448448367389","address":"Dagmar Ave","lat":51.557561768629704,"lng":-0.2894507292219244,"neighborhood":"Tokyngton","city_fetched":"Wem","state":"Greater London","country":"United Kingdom","canonicalUrl":"https://foursquare.com/v/green-man-hotel/4bc1ca3e920eb71393211b2c","category":"Pub","checkinsCount":701,"usersCount":577,"tipCount":11,"visitsCount":910,"url":"http://www.thegreenmanhotelatwembley.co.uk","tier":"","message":"","currency":"","rating":5.6},{"name":"J.J. Moon's (Wetherspoon)","phone":"+442089034923","address":"397 High Rd.","lat":51.553525940925326,"lng":-0.29279771610718297,"neighborhood":"Wembley Central","city_fetched":"Wem","state":"Greater London","country":"United Kingdom","canonicalUrl":"https://foursquare.com/v/jj-moons-wetherspoon/4ae44c36f964a520e89921e3","category":"Pub","checkinsCount":813,"usersCount":547,"tipCount":16,"visitsCount":867,"url":"http://www.jdwetherspoon.co.uk","tier":"","message":"","currency":"","rating":5.6},{"name":"Ibis Hotel Wembley London","phone":"+442084535100","twitter":"accorhotels","address":"South Way","lat":51.5551436265863,"lng":-0.28489079143728946,"neighborhood":"Tokyngton","city_fetched":"Wem","state":"Greater London","country":"United Kingdom","canonicalUrl":"https://foursquare.com/v/ibis-hotel-wembley-london/4bcf61d40ffdce728c6ab2c0","category":"Hotel","checkinsCount":1809,"usersCount":1248,"tipCount":25,"visitsCount":2366,"url":"http://www.ibishotel.com","tier":"","message":"","currency":"","rating":5.6}]