[{"name":"The Farmers Boy Inn","phone":"+441452831300","twitter":"philkiernan","address":"Ross Rd","lat":51.883814927964096,"lng":-2.4662770532024725,"city_fetched":"Westbury,UK","state":"Gloucestershire","country":"United Kingdom","canonicalUrl":"https://foursquare.com/v/the-farmers-boy-inn/4bded884fe0e62b569fe0506","categoryId":"4bf58dd8d48988d11b941735","category":"Pub","checkinsCount":128,"usersCount":62,"tipCount":5,"visitsCount":145,"url":"http://www.farmersboyinn.co.uk","tier":"","message":"","currency":"","rating":8.1},{"name":"The Old Badger","phone":"+441453822892","address":"Alkerton Rd","lat":51.74639253808606,"lng":-2.324219564678938,"city_fetched":"Westbury,UK","state":"Gloucestershire","country":"United Kingdom","canonicalUrl":"https://foursquare.com/v/the-old-badger/4f1b12fae4b0e6badb3b515c","categoryId":"4bf58dd8d48988d11b941735","category":"Pub","checkinsCount":87,"usersCount":49,"tipCount":4,"visitsCount":101,"url":"http://www.oldbadgerinn.co.uk","tier":"","message":"","currency":"","rating":7.9},{"name":"The Tudor Arms","phone":"+441453890306","address":"Shepherds Patch","lat":51.73562666149827,"lng":-2.395116090774536,"city_fetched":"Westbury,UK","state":"Gloucestershire","country":"United Kingdom","canonicalUrl":"https://foursquare.com/v/the-tudor-arms/4c4aeaf846240f47e57f91f2","categoryId":"4bf58dd8d48988d11b941735","category":"Pub","checkinsCount":135,"usersCount":93,"tipCount":3,"visitsCount":182,"tier":"","message":"","currency":"","rating":7.4},{"name":"Fromebridge Mill","address":"Fromebridge Lane","lat":51.763646,"lng":-2.3355131,"city_fetched":"Westbury,UK","state":"South Gloucestershire","country":"United Kingdom","canonicalUrl":"https://foursquare.com/v/fromebridge-mill/4c73b510ad69b60ce5b286b9","categoryId":"4bf58dd8d48988d11b941735","category":"Pub","checkinsCount":308,"usersCount":171,"tipCount":8,"visitsCount":350,"tier":"","message":"","currency":"","rating":6.8},{"name":"The Bell Inn","phone":"+441452740346","address":"The Green","lat":51.77177157475549,"lng":-2.3635407775008597,"city_fetched":"Westbury,UK","state":"Gloucestershire","country":"United Kingdom","canonicalUrl":"https://foursquare.com/v/the-bell-inn/4bc9d47fb6c49c7404078f91","categoryId":"4bf58dd8d48988d11b941735","category":"Pub","checkinsCount":116,"usersCount":64,"tipCount":2,"visitsCount":127,"url":"http://www.quality-inns.co.uk/the_bell_inn.html","tier":"","message":"","currency":"","rating":6.5},{"name":"The Bumble Bee","phone":"+441452727041","address":"18 Brunel Ct","lat":51.815403046112664,"lng":-2.2788318987583267,"city_fetched":"Westbury,UK","country":"United Kingdom","canonicalUrl":"https://foursquare.com/v/the-bumble-bee/4c6af0899c76d13a595c4d0f","categoryId":"4bf58dd8d48988d117941735","category":"Beer Garden","checkinsCount":310,"usersCount":161,"tipCount":8,"visitsCount":316,"url":"http://www.vintageinn.co.uk/thebumblebeegloucester/","tier":"","message":"","currency":"","rating":6},{"name":"The Barn Owl (Marston's)","address":"Thatcham Ave","lat":51.82078793311891,"lng":-2.2684970259452926,"city_fetched":"Westbury,UK","country":"United Kingdom","canonicalUrl":"https://foursquare.com/v/the-barn-owl-marstons/4f218862e4b028522e6b624e","categoryId":"4bf58dd8d48988d11b941735","category":"Pub","checkinsCount":181,"usersCount":95,"tipCount":4,"visitsCount":209,"tier":"","message":"","currency":"","rating":5.8}]