[{"name":"Woolpack Inn","address":"Shepherds Way","lat":51.35988771915436,"lng":-2.9006212949752808,"city_fetched":"Weston-super-Mare,UK","state":"North Somerset","country":"United Kingdom","canonicalUrl":"https://foursquare.com/v/woolpack-inn/4c0bc6a86071a5930db2e132","categoryId":"4bf58dd8d48988d11b941735","category":"Pub","checkinsCount":204,"usersCount":111,"tipCount":5,"visitsCount":282,"tier":"","message":"","currency":"","rating":7.6},{"name":"The Beachcomber Inn","phone":"+448719511000","address":"Warren Rd","lat":51.30169107734087,"lng":-3.0094722417070954,"city_fetched":"Weston-super-Mare,UK","state":"Somerset","country":"United Kingdom","canonicalUrl":"https://foursquare.com/v/the-beachcomber-inn/4db17cb4a86e63d2116bcd2b","categoryId":"4bf58dd8d48988d11b941735","category":"Pub","checkinsCount":77,"usersCount":49,"tipCount":2,"visitsCount":109,"tier":"","message":"","currency":"","rating":7},{"name":"Krackers Bar","phone":"+441278751023","address":"South Rd., Brean","lat":51.287165124124,"lng":-3.011007788850533,"city_fetched":"Weston-super-Mare,UK","state":"Somerset","country":"United Kingdom","canonicalUrl":"https://foursquare.com/v/krackers-bar/4cf4132e1d18a143edcc63ec","categoryId":"4bf58dd8d48988d120941735","category":"Karaoke Bar","checkinsCount":107,"usersCount":69,"tipCount":2,"visitsCount":136,"tier":"","message":"","currency":"","rating":6.7},{"name":"Bonds Wine Bar","phone":"+441934635747","address":"18 Walliscote Rd","lat":51.346260673585455,"lng":-2.976111603457223,"city_fetched":"Weston-super-Mare,UK","state":"North Somerset","country":"United Kingdom","canonicalUrl":"https://foursquare.com/v/bonds-wine-bar/4bae4865f964a520f89c3be3","categoryId":"4bf58dd8d48988d123941735","category":"Wine Bar","checkinsCount":166,"usersCount":46,"tipCount":6,"visitsCount":169,"url":"http://www.bondswinebar.com","tier":"","message":"","currency":"","rating":6.6},{"name":"Cabot Court Hotel (Wetherspoon)","phone":"+441934427930","twitter":"jdwtweet","address":"Knightstone Rd","lat":51.35040093628007,"lng":-2.9824093625121386,"city_fetched":"Weston-super-Mare,UK","state":"North Somerset","country":"United Kingdom","canonicalUrl":"https://foursquare.com/v/cabot-court-hotel-wetherspoon/4e07585aaeb74c39910f90e0","categoryId":"4bf58dd8d48988d11b941735","category":"Pub","checkinsCount":782,"usersCount":425,"tipCount":15,"visitsCount":959,"url":"http://www.jdwetherspoon.co.uk","tier":"","message":"","currency":"","rating":6.3},{"name":"Catherines Inn","phone":"+441934812275","address":"Bleadon Rd","lat":51.30848506643978,"lng":-2.957823651091722,"city_fetched":"Weston-super-Mare,UK","state":"North Somerset","country":"United Kingdom","canonicalUrl":"https://foursquare.com/v/catherines-inn/4c9f2c6a542b224b1efefa9f","categoryId":"4bf58dd8d48988d11b941735","category":"Pub","checkinsCount":103,"usersCount":68,"tipCount":3,"visitsCount":122,"url":"http://www.catherinesinn-somerset.co.uk","tier":"","message":"","currency":"","rating":5.6},{"name":"DB's","address":"49 Oxford St","lat":51.34635583030212,"lng":-2.9771971909301924,"city_fetched":"Weston-super-Mare,UK","state":"North Somerset","country":"United Kingdom","canonicalUrl":"https://foursquare.com/v/dbs/4bec815c976ac928881e610b","categoryId":"4bf58dd8d48988d116941735","category":"Bar","checkinsCount":229,"usersCount":51,"tipCount":5,"visitsCount":231,"tier":"","message":"","currency":"","rating":5.6},{"name":"The Dragon Inn (Wetherspoon)","phone":"+441934621304","address":"15 Meadow St","lat":51.347939,"lng":-2.977913,"city_fetched":"Weston-super-Mare,UK","state":"North Somerset","country":"United Kingdom","canonicalUrl":"https://foursquare.com/v/the-dragon-inn-wetherspoon/4beec0d43686c9b6fee2246e","categoryId":"4bf58dd8d48988d11b941735","category":"Pub","checkinsCount":964,"usersCount":237,"tipCount":12,"visitsCount":1025,"url":"http://www.jdwetherspoon.co.uk","tier":"","message":"","currency":"","rating":5.5},{"name":"The Harvester","phone":"+441934521235","twitter":"harvesteruk","address":"Yew Tree Dr","lat":51.35315047566915,"lng":-2.9087483882904053,"city_fetched":"Weston-super-Mare,UK","state":"North Somerset","country":"United Kingdom","canonicalUrl":"https://foursquare.com/v/the-harvester/4c2651aa905a0f47eb126360","categoryId":"4bf58dd8d48988d11b941735","category":"Pub","checkinsCount":113,"usersCount":102,"tipCount":9,"visitsCount":157,"url":"http://www.harvester.co.uk","tier":"","message":"","currency":"","rating":5.4},{"name":"Yates's","phone":"+441934413206","address":"12 - 20 Regent's St","lat":51.347643,"lng":-2.979869842529297,"city_fetched":"Weston-super-Mare,UK","state":"North Somerset","country":"United Kingdom","canonicalUrl":"https://foursquare.com/v/yatess/4c78109cdbaa76b0698e124b","categoryId":"4bf58dd8d48988d116941735","category":"Bar","checkinsCount":228,"usersCount":117,"tipCount":9,"visitsCount":228,"url":"http://www.weareyates.co.uk/weston","tier":"","message":"","currency":"","rating":5.3},{"name":"The Pavilion (Beefeater)","phone":"+441934622625","twitter":"beefeater","address":"Hutton Moor Rd","lat":51.34393562115549,"lng":-2.9496948191544647,"city_fetched":"Weston-super-Mare,UK","state":"North Somerset","country":"United Kingdom","canonicalUrl":"https://foursquare.com/v/the-pavilion-beefeater/4c04ac0e0d0e0f479649049a","categoryId":"4bf58dd8d48988d11b941735","category":"Pub","checkinsCount":333,"usersCount":155,"tipCount":14,"visitsCount":371,"url":"http://www.beefeater.co.uk/steak-restaurant/Somerset/Pavilion-Weston-Super-Mare.html","tier":"","message":"","currency":"","rating":5}]