[{"name":"The Handmade Pie & Ale House","phone":"+441305459342","twitter":"pieandalehouse","address":"2 Queen St","lat":50.6148897496499,"lng":-2.453920841217041,"city_fetched":"Weymouth","state":"Dorset","country":"United Kingdom","canonicalUrl":"https://foursquare.com/v/the-handmade-pie--ale-house/4f53248ec2eea398c93102fa","category":"Pie Shop","checkinsCount":91,"usersCount":54,"tipCount":6,"visitsCount":94,"url":"http://www.thehandmadepieandalehouse.com","tier":"","message":"","currency":"","rating":8.4},{"name":"The Royal Oak","address":"1a custom house quay","lat":50.607377,"lng":-2.455085,"city_fetched":"Weymouth","state":"Dorset","country":"United Kingdom","canonicalUrl":"https://foursquare.com/v/the-royal-oak/4c45677a74ffc92873df76cc","category":"Pub","checkinsCount":421,"usersCount":82,"tipCount":3,"visitsCount":425,"tier":"","message":"","currency":"","rating":8.1},{"name":"The Nothe Tavern","phone":"+441305839255","address":"Barrack Road","lat":50.606578,"lng":-2.450294,"city_fetched":"Weymouth","state":"Dorset","country":"United Kingdom","canonicalUrl":"https://foursquare.com/v/the-nothe-tavern/4cb89a91dd41a35dad3edca0","category":"Pub","checkinsCount":99,"usersCount":60,"tipCount":6,"visitsCount":102,"tier":"","message":"","currency":"","rating":7.4},{"name":"The Springhead","phone":"+441305832117","twitter":"thespringhead","address":"Sutton Road","lat":50.65352841205438,"lng":-2.416079632159157,"neighborhood":"Sutton Poyntz","city_fetched":"Weymouth","state":"Dorset","country":"United Kingdom","canonicalUrl":"https://foursquare.com/v/the-springhead/4e401f51d22d102e8563faac","category":"Pub","checkinsCount":115,"usersCount":80,"tipCount":7,"visitsCount":145,"url":"http://www.thespringhead.co.uk","tier":"","message":"","currency":"","rating":7.3},{"name":"The Duke Of Cornwall","phone":"+441305776594","address":"St edmund street","lat":50.607712,"lng":-2.454451,"city_fetched":"Weymouth","state":"Dorset","country":"United Kingdom","canonicalUrl":"https://foursquare.com/v/the-duke-of-cornwall/4c3e3578ca012d7f3a2b2fbe","category":"Pub","checkinsCount":54,"usersCount":36,"tipCount":3,"visitsCount":54,"tier":"","message":"","currency":"","rating":7.1},{"name":"The Famous Old Spa","address":"Dorchester Road","lat":50.629282,"lng":-2.461452,"city_fetched":"Weymouth","state":"Dorset","country":"United Kingdom","canonicalUrl":"https://foursquare.com/v/the-famous-old-spa/4c48afe86f1420a1b6d49e54","category":"Bar","checkinsCount":249,"usersCount":122,"tipCount":6,"visitsCount":376,"tier":"","message":"","currency":"","rating":7.1},{"name":"Spyglass Inn","phone":"+441305833141","address":"Bowleaze Coveway","lat":50.634546465964206,"lng":-2.429523468017578,"city_fetched":"Weymouth","state":"Dorset","country":"United Kingdom","canonicalUrl":"https://foursquare.com/v/spyglass-inn/4c34ca9466e40f471525ca8b","category":"Pub","checkinsCount":152,"usersCount":113,"tipCount":6,"visitsCount":163,"tier":"","message":"","currency":"","rating":7.1},{"name":"The Nook","phone":"+441305760868","address":"54 The Esplanade","lat":50.610481,"lng":-2.4528640508651733,"city_fetched":"Weymouth","state":"Dorset","country":"United Kingdom","canonicalUrl":"https://foursquare.com/v/the-nook/4bdae5eb3c4fef3b5cb3f4bf","category":"Bar","checkinsCount":128,"usersCount":71,"tipCount":6,"visitsCount":130,"tier":"","message":"","currency":"","rating":7},{"name":"The William Henry (Wetherspoon)","phone":"+441305763730","twitter":"jdwtweet","address":"1 Frederick Place","lat":50.611641399999996,"lng":-2.45445885,"city_fetched":"Weymouth","state":"Dorset","country":"United Kingdom","canonicalUrl":"https://foursquare.com/v/the-william-henry-wetherspoon/4c89366894f5a0938c40d61e","category":"Pub","checkinsCount":823,"usersCount":340,"tipCount":14,"visitsCount":1004,"tier":"","message":"","currency":"","rating":6.8},{"name":"The Lodmore (Brewers Fayre)","phone":"+441305767964","twitter":"brewersfayre","address":"Preston Beach Road","lat":50.62435912994957,"lng":-2.445677444754476,"city_fetched":"Weymouth","state":"Dorset","country":"United Kingdom","canonicalUrl":"https://foursquare.com/v/the-lodmore-brewers-fayre/4b5f444df964a520f7b029e3","category":"Pub","checkinsCount":256,"usersCount":189,"tipCount":7,"visitsCount":314,"url":"http://www.brewersfayre.co.uk/pub-restaurant/Dorset/Lodmoor-Melcombe-Regis.html","tier":"","message":"","currency":"","rating":6.5},{"name":"The Boot","address":"High West Street","lat":50.60669489196425,"lng":-2.458826618363579,"city_fetched":"Weymouth","state":"Dorset","country":"United Kingdom","canonicalUrl":"https://foursquare.com/v/the-boot/4baa5b64f964a52090623ae3","category":"Pub","checkinsCount":152,"usersCount":93,"tipCount":5,"visitsCount":213,"url":"http://www.bootweymouth.co.uk","tier":"","message":"","currency":"","rating":6.4},{"name":"Red Lion","phone":"+441305786940","twitter":"redlionweymouth","address":"Hope Sq.","lat":50.605796507057306,"lng":-2.4522743792933297,"city_fetched":"Weymouth","state":"Dorset","country":"United Kingdom","canonicalUrl":"https://foursquare.com/v/red-lion/4bdc382d2a3a0f47a3e0b1b6","category":"Pub","checkinsCount":272,"usersCount":142,"tipCount":5,"visitsCount":292,"url":"http://theredlionweymouth.co.uk","tier":"","message":"","currency":"","rating":6.4},{"name":"The Swan (Wetherspoon)","phone":"+441305750231","address":"41-43 St Thomas St","lat":50.60808149212023,"lng":-2.455272674560547,"city_fetched":"Weymouth","state":"Dorset","country":"United Kingdom","canonicalUrl":"https://foursquare.com/v/the-swan-wetherspoon/4b98e6d4f964a520355535e3","category":"Pub","checkinsCount":1102,"usersCount":264,"tipCount":12,"visitsCount":1144,"url":"http://www.jdwetherspoon.co.uk","tier":1,"message":"Cheap","currency":"Â£","rating":6.3},{"name":"Rendezvous","twitter":"thevous","address":"49 St Thomas St","lat":50.607454376204345,"lng":-2.455111748926112,"city_fetched":"Weymouth","state":"Dorset","country":"United Kingdom","canonicalUrl":"https://foursquare.com/v/rendezvous/4c2e24dde116e21e9fc78f60","category":"Nightclub","checkinsCount":905,"usersCount":212,"tipCount":10,"visitsCount":940,"url":"http://www.rendezvousweymouth.co.uk","tier":"","message":"","currency":"","rating":6.2},{"name":"The Ship Inn","phone":"+441305773879","address":"Custom House Quay","lat":50.6073704565504,"lng":-2.454378348680262,"city_fetched":"Weymouth","state":"Dorset","country":"United Kingdom","canonicalUrl":"https://foursquare.com/v/the-ship-inn/4c1b56b93b2ab713771f3325","category":"Pub","checkinsCount":331,"usersCount":241,"tipCount":7,"visitsCount":332,"url":"http://shipweymouth.co.uk","tier":"","message":"","currency":"","rating":6.1},{"name":"Beefeater","phone":"+441305831241","twitter":"beefeatergrill","address":"Gateway Business Park","lat":50.634249,"lng":-2.460592,"city_fetched":"Weymouth","state":"Dorset","country":"United Kingdom","canonicalUrl":"https://foursquare.com/v/beefeater/51781adae4b0a28d4a2323c8","category":"Steakhouse","checkinsCount":149,"usersCount":81,"tipCount":8,"visitsCount":177,"url":"http://www.beefeater.co.uk","tier":"","message":"","currency":"","rating":6.1},{"name":"Old Rooms Inn","phone":"+441305771130","address":"Cove Row","lat":50.60639293178986,"lng":-2.4529335077551493,"city_fetched":"Weymouth","state":"Dorset","country":"United Kingdom","canonicalUrl":"https://foursquare.com/v/old-rooms-inn/4c307b0d16adc9284b32bf9c","category":"Gastropub","checkinsCount":274,"usersCount":162,"tipCount":3,"visitsCount":278,"url":"http://www.oldroomsinnweymouth.co.uk","tier":"","message":"","currency":"","rating":5.9},{"name":"The George Bar and Grill","phone":"+441305789635","twitter":"thegeorgegrill","address":"2-4 Custom House Quay","lat":50.60719603497147,"lng":-2.4537395636718555,"city_fetched":"Weymouth","state":"Dorset","country":"United Kingdom","canonicalUrl":"https://foursquare.com/v/the-george-bar-and-grill/4d1f31a590662d4384ebf105","category":"Gastropub","checkinsCount":100,"usersCount":78,"tipCount":4,"visitsCount":100,"url":"http://thegeorgebarandgrill.co.uk","tier":"","message":"","currency":"","rating":5.7},{"name":"Yates's","phone":"+441305772913","address":"55-57 St Thomas St","lat":50.608031041678885,"lng":-2.4552355623249142,"city_fetched":"Weymouth","state":"Dorset","country":"United Kingdom","canonicalUrl":"https://foursquare.com/v/yatess/4c9b492f9c663704f3a95ffd","category":"Bar","checkinsCount":170,"usersCount":72,"tipCount":6,"visitsCount":170,"tier":"","message":"","currency":"","rating":5.5},{"name":"The Clipper","phone":"+441305777040","address":"81 - 82 St.Thomas Street","lat":50.61036747445752,"lng":-2.454816699028015,"city_fetched":"Weymouth","state":"Dorset","country":"United Kingdom","canonicalUrl":"https://foursquare.com/v/the-clipper/4bce45fbef10952167e58386","category":"Pub","checkinsCount":208,"usersCount":92,"tipCount":10,"visitsCount":208,"tier":"","message":"","currency":"","rating":5.4}]