[{"name":"Ring O' Bells","phone":"+441925740256","address":"Chester Rd","lat":53.34086702252108,"lng":-2.6331889629364014,"city_fetched":"Widnes,UK","state":"Halton","country":"United Kingdom","canonicalUrl":"https://foursquare.com/v/ring-o-bells/4b7fe590f964a5201e4330e3","categoryId":"4bf58dd8d48988d11b941735","category":"Pub","checkinsCount":263,"usersCount":159,"tipCount":4,"visitsCount":354,"tier":"","message":"","currency":"","rating":7.7},{"name":"Chapelford Farm","phone":"+441925717732","address":"Santa Rosa Boulevard","lat":53.39653448433746,"lng":-2.6392078399658203,"city_fetched":"Widnes,UK","state":"Warrington","country":"United Kingdom","canonicalUrl":"https://foursquare.com/v/chapelford-farm/4fcf9ce5e4b065df8f527bb2","categoryId":"4bf58dd8d48988d11b941735","category":"Pub","checkinsCount":648,"usersCount":184,"tipCount":8,"visitsCount":1037,"url":"http://www.chapelfordfarmpub.co.uk","tier":"","message":"","currency":"","rating":7.6},{"name":"Church View","address":"Lunts Heath Road","lat":53.38910830829758,"lng":-2.7245053233105376,"city_fetched":"Widnes,UK","state":"Halton","country":"United Kingdom","canonicalUrl":"https://foursquare.com/v/church-view/4bb3981b2397b713c85738b3","categoryId":"4bf58dd8d48988d11b941735","category":"Pub","checkinsCount":256,"usersCount":93,"tipCount":5,"visitsCount":340,"tier":"","message":"","currency":"","rating":7.4},{"name":"The Ferry Tavern","phone":"+441925791117","address":"Station Rd.","lat":53.375283681418,"lng":-2.6574254035949707,"city_fetched":"Widnes,UK","state":"Warrington","country":"United Kingdom","canonicalUrl":"https://foursquare.com/v/the-ferry-tavern/4bf6bb3113aed13a091ceaf7","categoryId":"4bf58dd8d48988d11b941735","category":"Pub","checkinsCount":127,"usersCount":101,"tipCount":6,"visitsCount":174,"tier":"","message":"","currency":"","rating":7.2},{"name":"Ring O' Bells","address":"Pit Ln","lat":53.38417911905352,"lng":-2.728114568091024,"city_fetched":"Widnes,UK","state":"Halton","country":"United Kingdom","canonicalUrl":"https://foursquare.com/v/ring-o-bells/4d2c70ed915fa093a5791f0a","categoryId":"4bf58dd8d48988d11b941735","category":"Pub","checkinsCount":517,"usersCount":71,"tipCount":2,"visitsCount":590,"tier":"","message":"","currency":"","rating":6.9},{"name":"The Bears Paw","address":"Main Street","lat":53.295885633338465,"lng":-2.725857367496867,"city_fetched":"Widnes,UK","state":"Cheshire","country":"United Kingdom","canonicalUrl":"https://foursquare.com/v/the-bears-paw/4bf2c8eb354e9c74c07e2602","categoryId":"4bf58dd8d48988d11b941735","category":"Pub","checkinsCount":208,"usersCount":120,"tipCount":5,"visitsCount":210,"tier":"","message":"","currency":"","rating":6.4},{"name":"Queen's Head","phone":"+441928730064","twitter":"queensheadfrods","address":"92 Main St","lat":53.2953708,"lng":-2.726806,"city_fetched":"Widnes,UK","state":"Cheshire","country":"United Kingdom","canonicalUrl":"https://foursquare.com/v/queens-head/4b7c2d53f964a52042822fe3","categoryId":"4bf58dd8d48988d11b941735","category":"Pub","checkinsCount":299,"usersCount":127,"tipCount":5,"visitsCount":301,"url":"http://www.queensheadfrodsham.co.uk","tier":"","message":"","currency":"","rating":6.3},{"name":"The Ferry Boat (Wetherspoon)","phone":"+441928583380","address":"10 Church St.","lat":53.341901057656656,"lng":-2.7318196535384787,"city_fetched":"Widnes,UK","state":"Halton","country":"United Kingdom","canonicalUrl":"https://foursquare.com/v/the-ferry-boat-wetherspoon/4bb317e714cfd13a12a315ab","categoryId":"4bf58dd8d48988d11b941735","category":"Pub","checkinsCount":761,"usersCount":162,"tipCount":9,"visitsCount":802,"url":"http://www.jdwetherspoon.co.uk","tier":"","message":"","currency":"","rating":6.2},{"name":"Brewers Fayre","phone":"+448701977159","address":"Wilson Road","lat":53.39947822917537,"lng":-2.8148448509845188,"city_fetched":"Widnes,UK","state":"Knowsley","country":"United Kingdom","canonicalUrl":"https://foursquare.com/v/brewers-fayre/4bbf0fc798f49521ac04d263","categoryId":"4bf58dd8d48988d11b941735","category":"Pub","checkinsCount":76,"usersCount":54,"tipCount":1,"visitsCount":81,"tier":"","message":"","currency":"","rating":5.9},{"name":"Beefeater","phone":"+441744818971","twitter":"beefeatergrill","address":"Eurolink","lat":53.417636307943745,"lng":-2.7449562584949727,"city_fetched":"Widnes,UK","state":"St. Helens","country":"United Kingdom","canonicalUrl":"https://foursquare.com/v/beefeater/4c4d895714b7b713b6f35f78","categoryId":"4bf58dd8d48988d11b941735","category":"Pub","checkinsCount":134,"usersCount":88,"tipCount":1,"visitsCount":162,"url":"http://www.beefeater.co.uk","tier":"","message":"","currency":"","rating":5.8},{"name":"Childe Of Hale","phone":"+441514252954","address":"6 Church End","lat":53.3353386794389,"lng":-2.7982157737252513,"city_fetched":"Widnes,UK","country":"United Kingdom","canonicalUrl":"https://foursquare.com/v/childe-of-hale/4be69b562457a5938efbac15","categoryId":"4bf58dd8d48988d11b941735","category":"Pub","checkinsCount":156,"usersCount":60,"tipCount":5,"visitsCount":170,"tier":"","message":"","currency":"","rating":5.7},{"name":"The Trigger Pond","phone":"+441925791165","address":"Lingley Green Avenue","lat":53.394231,"lng":-2.671502,"city_fetched":"Widnes,UK","state":"Warrington","country":"United Kingdom","canonicalUrl":"https://foursquare.com/v/the-trigger-pond/4c76555dd8948cfa69086ada","categoryId":"4bf58dd8d48988d11b941735","category":"Pub","checkinsCount":224,"usersCount":119,"tipCount":8,"visitsCount":267,"url":"http://www.triggerpondpub.co.uk","tier":"","message":"","currency":"","rating":5.4},{"name":"The Premier (Wetherspoon)","phone":"+441514224920","address":"93-99 Albert Rd.","lat":53.370361239908874,"lng":-2.7242260818732587,"city_fetched":"Widnes,UK","state":"Halton","country":"United Kingdom","canonicalUrl":"https://foursquare.com/v/the-premier-wetherspoon/4c87ac56821e9eb01bce8d89","categoryId":"4bf58dd8d48988d11b941735","category":"Pub","checkinsCount":511,"usersCount":147,"tipCount":9,"visitsCount":637,"url":"http://www.jdwetherspoon.co.uk","tier":"","message":"","currency":"","rating":5.3}]