[{"name":"Phoenix Inn","phone":"+441744751890","twitter":"innphoenix","address":"34 Canal St","lat":53.44998950962225,"lng":-2.7412521983807214,"city_fetched":"Wigan,UK","country":"United Kingdom","canonicalUrl":"https://foursquare.com/v/phoenix-inn/4d77ee83926a6dcb934f5100","categoryId":"4bf58dd8d48988d11b941735","category":"Pub","checkinsCount":781,"usersCount":32,"tipCount":10,"visitsCount":795,"tier":"","message":"","currency":"","rating":8.6},{"name":"Wigan Central","twitter":"wigancentral","address":"1 Queen St","lat":53.543037446755065,"lng":-2.6337157088373746,"city_fetched":"Wigan,UK","state":"Wigan","country":"United Kingdom","canonicalUrl":"https://foursquare.com/v/wigan-central/547f6d66498ee3528e042e82","categoryId":"4bf58dd8d48988d11b941735","category":"Pub","checkinsCount":438,"usersCount":74,"tipCount":14,"visitsCount":481,"tier":2,"message":"Moderate","currency":"£","rating":8.5},{"name":"Revolution","phone":"+441942239054","twitter":"revolutionbars","address":"49 King St","lat":53.54382784706756,"lng":-2.6300998779729294,"city_fetched":"Wigan,UK","state":"Wigan","country":"United Kingdom","canonicalUrl":"https://foursquare.com/v/revolution/4c0035fa92a6c92808d843e2","categoryId":"4bf58dd8d48988d116941735","category":"Bar","checkinsCount":562,"usersCount":192,"tipCount":8,"visitsCount":622,"url":"http://www.revolution-bars.co.uk/bar/wigan/","tier":"","message":"","currency":"","rating":8.4},{"name":"Fannys Pub","address":"26 Markland Hill","lat":53.582829,"lng":-2.477048,"city_fetched":"Wigan,UK","state":"Lancashire","country":"United Kingdom","canonicalUrl":"https://foursquare.com/v/fannys-pub/4cf14a4a6c29236a02b764a2","categoryId":"4bf58dd8d48988d11b941735","category":"Pub","checkinsCount":180,"usersCount":76,"tipCount":3,"visitsCount":181,"url":"http://www.victoriainn.co","tier":"","message":"","currency":"","rating":7.8},{"name":"The Anvil","address":"60 Hallgate","lat":53.54624976083769,"lng":-2.633899740651791,"city_fetched":"Wigan,UK","state":"Wigan","country":"United Kingdom","canonicalUrl":"https://foursquare.com/v/the-anvil/4c670f079cb82d7fc39492d2","categoryId":"4bf58dd8d48988d11b941735","category":"Pub","checkinsCount":377,"usersCount":121,"tipCount":7,"visitsCount":414,"tier":"","message":"","currency":"","rating":7.8},{"name":"Worsley Old Hall","phone":"+441617992960","twitter":"brewers_fayre","address":"Old Hall Ln","lat":53.505660490131106,"lng":-2.390899658203125,"neighborhood":"Worsley","city_fetched":"Wigan,UK","state":"Greater Manchester","country":"United Kingdom","canonicalUrl":"https://foursquare.com/v/worsley-old-hall/4bcafb69cc8cd13aa782becf","categoryId":"4bf58dd8d48988d11b941735","category":"Pub","checkinsCount":190,"usersCount":148,"tipCount":8,"visitsCount":272,"url":"http://www.brunningandprice.co.uk/worsleyoldhall/home/","tier":"","message":"","currency":"","rating":7.7},{"name":"Tank","address":"Westfield Street","lat":53.4533492,"lng":-2.7407982,"city_fetched":"Wigan,UK","state":"St. Helens","country":"United Kingdom","canonicalUrl":"https://foursquare.com/v/tank/4e6166e618a8ce02fc65ed4a","categoryId":"4bf58dd8d48988d1d4941735","category":"Speakeasy","checkinsCount":99,"usersCount":29,"tipCount":2,"visitsCount":100,"tier":"","message":"","currency":"","rating":7.6},{"name":"Grill On The Square","address":"7 Palmyra Sq N","lat":53.38812,"lng":-2.598149,"city_fetched":"Wigan,UK","state":"Warrington","country":"United Kingdom","canonicalUrl":"https://foursquare.com/v/grill-on-the-square/4be47a102468c928dcd4fe42","categoryId":"4bf58dd8d48988d116941735","category":"Bar","checkinsCount":186,"usersCount":109,"tipCount":9,"visitsCount":189,"tier":"","message":"","currency":"","rating":7.5},{"name":"The Bulls Head","address":"504 Manchester Road, Astley, Tyldesley","lat":53.501815909941186,"lng":-2.453074379527694,"city_fetched":"Wigan,UK","state":"Lancashire","country":"United Kingdom","canonicalUrl":"https://foursquare.com/v/the-bulls-head/4bb8edfe53649c74c28247fb","categoryId":"4bf58dd8d48988d11b941735","category":"Pub","checkinsCount":239,"usersCount":127,"tipCount":3,"visitsCount":367,"tier":"","message":"","currency":"","rating":7.4},{"name":"The Tap n Barrel","phone":"+447971664271","address":"Jaxons Court, Hallgate","lat":53.54675191600599,"lng":-2.6332518129560416,"city_fetched":"Wigan,UK","state":"Lancashire","country":"United Kingdom","canonicalUrl":"https://foursquare.com/v/the-tap-n-barrel/55b9d787498e048339ea07b8","categoryId":"4bf58dd8d48988d11b941735","category":"Pub","checkinsCount":60,"usersCount":21,"tipCount":7,"visitsCount":66,"tier":"","message":"","currency":"","rating":7.3},{"name":"The Ferry Tavern","phone":"+441925791117","address":"Station Rd.","lat":53.375283681418,"lng":-2.6574254035949707,"city_fetched":"Wigan,UK","state":"Warrington","country":"United Kingdom","canonicalUrl":"https://foursquare.com/v/the-ferry-tavern/4bf6bb3113aed13a091ceaf7","categoryId":"4bf58dd8d48988d11b941735","category":"Pub","checkinsCount":127,"usersCount":101,"tipCount":6,"visitsCount":174,"tier":"","message":"","currency":"","rating":7.2},{"name":"Porters Ale House","address":"78 Buttermarket St.","lat":53.38970799656788,"lng":-2.589823007583618,"city_fetched":"Wigan,UK","state":"Warrington","country":"United Kingdom","canonicalUrl":"https://foursquare.com/v/porters-ale-house/4b9110b4f964a520e8a133e3","categoryId":"4bf58dd8d48988d11b941735","category":"Pub","checkinsCount":249,"usersCount":66,"tipCount":6,"visitsCount":252,"tier":"","message":"","currency":"","rating":7.1},{"name":"John Bull Chophouse","phone":"+441942242862","twitter":"daniel_thwaites","address":"2 Cooper's Row","lat":53.546065384051225,"lng":-2.630760903004003,"city_fetched":"Wigan,UK","state":"Wigan","country":"United Kingdom","canonicalUrl":"https://foursquare.com/v/john-bull-chophouse/4c656ce87abde21e6d8e6068","categoryId":"4bf58dd8d48988d11b941735","category":"Pub","checkinsCount":320,"usersCount":95,"tipCount":4,"visitsCount":330,"url":"http://www.thwaitespubs.co.uk/john-bull-chop-house-wigan/","tier":"","message":"","currency":"","rating":6.9},{"name":"The John Gilbert","phone":"+441617037733","address":"Worlsey Brow","lat":53.50159183845675,"lng":-2.3858420571814465,"neighborhood":"Worsley","city_fetched":"Wigan,UK","country":"United Kingdom","canonicalUrl":"https://foursquare.com/v/the-john-gilbert/4c0aae2fffb8c9b68f046c61","categoryId":"4bf58dd8d48988d11b941735","category":"Pub","checkinsCount":357,"usersCount":197,"tipCount":11,"visitsCount":388,"tier":"","message":"","currency":"","rating":6.9},{"name":"Great Ale @ the market","phone":"+447592083806","twitter":"greataleyear","address":"Lifestyle Hall Bolton Market","lat":53.576402,"lng":-2.432646,"city_fetched":"Wigan,UK","state":"Lancashire","country":"United Kingdom","canonicalUrl":"https://foursquare.com/v/great-ale--the-market/52de9ea3498e0bea838c9da1","categoryId":"4bf58dd8d48988d11b941735","category":"Pub","checkinsCount":100,"usersCount":20,"tipCount":6,"visitsCount":104,"url":"http://www.greataleonline.co.uk","tier":"","message":"","currency":"","rating":6.9},{"name":"The Plough","phone":"+441925815409","address":"Mill Ln, Houghton Green","lat":53.4223072,"lng":-2.569654,"city_fetched":"Wigan,UK","state":"Warrington","country":"United Kingdom","canonicalUrl":"https://foursquare.com/v/the-plough/4c485a3231e41b8d02c24f35","categoryId":"4bf58dd8d48988d11b941735","category":"Pub","checkinsCount":138,"usersCount":77,"tipCount":8,"visitsCount":166,"tier":"","message":"","currency":"","rating":6.7},{"name":"Tom at 101","phone":"+441925212660","twitter":"tomat101","address":"101 London Rd., Stockton Heath","lat":53.36987294224089,"lng":-2.5805561491830056,"city_fetched":"Wigan,UK","state":"Warrington","country":"United Kingdom","canonicalUrl":"https://foursquare.com/v/tom-at-101/4bd960235f50b7136711e0d1","categoryId":"4bf58dd8d48988d116941735","category":"Bar","checkinsCount":248,"usersCount":161,"tipCount":3,"visitsCount":252,"tier":"","message":"","currency":"","rating":6.6},{"name":"Eccles Rugby Club","lat":53.48245035024902,"lng":-2.372683363178813,"neighborhood":"Winton","city_fetched":"Wigan,UK","state":"Salford","country":"United Kingdom","canonicalUrl":"https://foursquare.com/v/eccles-rugby-club/4ca6383cf47ea143f2785e21","categoryId":"4bf58dd8d48988d11d941735","category":"Sports Bar","checkinsCount":175,"usersCount":70,"tipCount":0,"visitsCount":234,"tier":"","message":"","currency":"","rating":6.4},{"name":"The Stag","address":"226 Orrell Rd","lat":53.539993,"lng":-2.704435,"city_fetched":"Wigan,UK","state":"Wigan","country":"United Kingdom","canonicalUrl":"https://foursquare.com/v/the-stag/4c41fc26ff711b8d82cb1205","categoryId":"4bf58dd8d48988d11b941735","category":"Pub","checkinsCount":205,"usersCount":80,"tipCount":2,"visitsCount":243,"tier":"","message":"","currency":"","rating":6.4},{"name":"The Fieldfare","phone":"+441257267846","address":"Foxhole Rd","lat":53.655545024756485,"lng":-2.65718936920166,"city_fetched":"Wigan,UK","state":"Lancashire","country":"United Kingdom","canonicalUrl":"https://foursquare.com/v/the-fieldfare/4c8bb5893dc2a1cd61c2b832","categoryId":"4bf58dd8d48988d11b941735","category":"Pub","checkinsCount":281,"usersCount":119,"tipCount":2,"visitsCount":320,"tier":"","message":"","currency":"","rating":6.4},{"name":"The Bull's Head (Wetherspoon)","phone":"+441617025350","twitter":"jdwtweet","address":"12 High St.","lat":53.52407704129453,"lng":-2.3996463418006897,"neighborhood":"Walkden North","city_fetched":"Wigan,UK","country":"United Kingdom","canonicalUrl":"https://foursquare.com/v/the-bulls-head-wetherspoon/4f2851afe4b0dfdabd290603","categoryId":"4bf58dd8d48988d11b941735","category":"Pub","checkinsCount":447,"usersCount":107,"tipCount":5,"visitsCount":619,"url":"http://www.jdwetherspoon.co.uk","tier":"","message":"","currency":"","rating":6.4},{"name":"Victoria Inn","phone":"+441204849944","address":"26 Markland Hill, Heaton","lat":53.582920202210786,"lng":-2.477103101276771,"city_fetched":"Wigan,UK","state":"Lancashire","country":"United Kingdom","canonicalUrl":"https://foursquare.com/v/victoria-inn/4fd11b11e4b0321c11f94841","categoryId":"4bf58dd8d48988d116941735","category":"Bar","checkinsCount":88,"usersCount":88,"tipCount":1,"visitsCount":204,"url":"http://www.victoriainn.co","tier":"","message":"","currency":"","rating":6.2},{"name":"The Berkeley","phone":"+441942242041","address":"27-29 Wallgate","lat":53.545004055555644,"lng":-2.63230820967813,"city_fetched":"Wigan,UK","state":"Wigan","country":"United Kingdom","canonicalUrl":"https://foursquare.com/v/the-berkeley/4c727f2457b6a1439c92c5cc","categoryId":"4bf58dd8d48988d11b941735","category":"Pub","checkinsCount":323,"usersCount":125,"tipCount":6,"visitsCount":329,"tier":"","message":"","currency":"","rating":6.2},{"name":"Fifteens Of Swinley","phone":"+441942820912","address":"15 Upper Dicconson St","lat":53.5506004170837,"lng":-2.6306238968300018,"city_fetched":"Wigan,UK","state":"Wigan","country":"United Kingdom","canonicalUrl":"https://foursquare.com/v/fifteens-of-swinley/4cc88be4e7926dcb6cb65677","categoryId":"4bf58dd8d48988d11b941735","category":"Pub","checkinsCount":271,"usersCount":50,"tipCount":1,"visitsCount":287,"url":"http://www.fifteensswinley.com","tier":"","message":"","currency":"","rating":6.2},{"name":"The Moon Under Water (Wetherspoon)","phone":"+441942323437","address":"5-7a Market Place","lat":53.54566263009185,"lng":-2.6317834854125977,"city_fetched":"Wigan,UK","country":"United Kingdom","canonicalUrl":"https://foursquare.com/v/the-moon-under-water-wetherspoon/4be4210cbcef2d7ff81702e5","categoryId":"4bf58dd8d48988d11b941735","category":"Pub","checkinsCount":1255,"usersCount":400,"tipCount":10,"visitsCount":1415,"url":"http://www.jdwetherspoon.co.uk","tier":1,"message":"Cheap","currency":"£","rating":6.1},{"name":"Boulevard","phone":"+441942497165","address":"17 Wallgate","lat":53.54533125595714,"lng":-2.6320738064123526,"city_fetched":"Wigan,UK","country":"United Kingdom","canonicalUrl":"https://foursquare.com/v/boulevard/4cb8a78fc7228cfaed420ace","categoryId":"4bf58dd8d48988d116941735","category":"Bar","checkinsCount":187,"usersCount":52,"tipCount":4,"visitsCount":188,"url":"http://www.boulevard-wigan.co.uk","tier":"","message":"","currency":"","rating":6.1},{"name":"Bob's Smithy Inn","address":"Walker Fold Rd.","lat":53.59513878822327,"lng":-2.4933922290802,"city_fetched":"Wigan,UK","state":"Lancashire","country":"United Kingdom","canonicalUrl":"https://foursquare.com/v/bobs-smithy-inn/4da1bde8bf22a143a120a2f8","categoryId":"4bf58dd8d48988d117941735","category":"Beer Garden","checkinsCount":67,"usersCount":51,"tipCount":3,"visitsCount":78,"tier":"","message":"","currency":"","rating":5.9},{"name":"The Elephant & Castle","phone":"+441204384544","address":"4-10 Deansgate","lat":53.57973857864949,"lng":-2.4270451068878174,"city_fetched":"Wigan,UK","state":"Lancashire","country":"United Kingdom","canonicalUrl":"https://foursquare.com/v/the-elephant--castle/4c31cd4d213c2d7fbd69345d","categoryId":"4bf58dd8d48988d11b941735","category":"Pub","checkinsCount":221,"usersCount":91,"tipCount":3,"visitsCount":226,"url":"http://www.theelephantandcastlebolton.co.uk","tier":"","message":"","currency":"","rating":5.6},{"name":"The Brocket Arms  (Wetherspoon)","phone":"+441942403500","address":"38 Mesnes Rd","lat":53.556960267129305,"lng":-2.6345461511142734,"city_fetched":"Wigan,UK","country":"United Kingdom","canonicalUrl":"https://foursquare.com/v/the-brocket-arms--wetherspoon/4c87ac56821e9eb01cce8d89","categoryId":"4bf58dd8d48988d11b941735","category":"Pub","checkinsCount":1887,"usersCount":248,"tipCount":9,"visitsCount":2047,"url":"http://www.jdwetherspoon.co.uk","tier":"","message":"","currency":"","rating":5.6},{"name":"The Pied Bull","phone":"+441925224549","address":"54 High Street","lat":53.45717488707073,"lng":-2.618595786622666,"city_fetched":"Wigan,UK","country":"United Kingdom","canonicalUrl":"https://foursquare.com/v/the-pied-bull/4c604c0112e5c928e6d81e4c","categoryId":"4bf58dd8d48988d11b941735","category":"Pub","checkinsCount":309,"usersCount":63,"tipCount":7,"visitsCount":313,"tier":"","message":"","currency":"","rating":5.5},{"name":"The Trigger Pond","phone":"+441925791165","address":"Lingley Green Avenue","lat":53.394231,"lng":-2.671502,"city_fetched":"Wigan,UK","state":"Warrington","country":"United Kingdom","canonicalUrl":"https://foursquare.com/v/the-trigger-pond/4c76555dd8948cfa69086ada","categoryId":"4bf58dd8d48988d11b941735","category":"Pub","checkinsCount":224,"usersCount":119,"tipCount":8,"visitsCount":267,"url":"http://www.triggerpondpub.co.uk","tier":"","message":"","currency":"","rating":5.4},{"name":"Scotts","phone":"+441204469510","address":"2 Arena App., Horwich","lat":53.57882863283982,"lng":-2.5371493566811987,"city_fetched":"Wigan,UK","state":"Lancashire","country":"United Kingdom","canonicalUrl":"https://foursquare.com/v/scotts/4c44aa892d3ec9b64b332fae","categoryId":"4bf58dd8d48988d116941735","category":"Bar","checkinsCount":407,"usersCount":144,"tipCount":2,"visitsCount":426,"tier":"","message":"","currency":"","rating":5.4},{"name":"The Oak Tree","phone":"+441925228668","address":"2-4 Crow Lane East","lat":53.45844104749782,"lng":-2.6233720779418945,"city_fetched":"Wigan,UK","country":"United Kingdom","canonicalUrl":"https://foursquare.com/v/the-oak-tree/4c38af05ae2da593aa1801c6","categoryId":"4bf58dd8d48988d11b941735","category":"Pub","checkinsCount":179,"usersCount":77,"tipCount":6,"visitsCount":228,"tier":"","message":"","currency":"","rating":5.3},{"name":"The Counting House","phone":"+441744739562","address":"16 Hardshaw St.","lat":53.45308528686872,"lng":-2.735622333463212,"city_fetched":"Wigan,UK","country":"United Kingdom","canonicalUrl":"https://foursquare.com/v/the-counting-house/4b60ba28f964a5201df629e3","categoryId":"4bf58dd8d48988d11b941735","category":"Pub","checkinsCount":222,"usersCount":78,"tipCount":8,"visitsCount":232,"tier":"","message":"","currency":"","rating":5.3},{"name":"The Swan & Railway","address":"Wallgate","lat":53.54391587362669,"lng":-2.633707620378479,"city_fetched":"Wigan,UK","state":"Wigan","country":"United Kingdom","canonicalUrl":"https://foursquare.com/v/the-swan--railway/4c87dc58a8c2a143382fc369","categoryId":"4bf58dd8d48988d11b941735","category":"Pub","checkinsCount":108,"usersCount":56,"tipCount":2,"visitsCount":110,"tier":"","message":"","currency":"","rating":4.9}]