[{"name":"The Old Thatch","phone":"+441202877192","address":"285 Wimborne Road","lat":50.80483052,"lng":-1.92525,"city_fetched":"Wimborne Minster,UK","state":"Dorset","country":"United Kingdom","canonicalUrl":"https://foursquare.com/v/the-old-thatch/4bf7cd718d30d13a4f86ff17","categoryId":"4bf58dd8d48988d11b941735","category":"Pub","checkinsCount":83,"usersCount":61,"tipCount":3,"visitsCount":91,"tier":"","message":"","currency":"","rating":7.3},{"name":"Lambs Green Inn","lat":50.787789,"lng":-2.00707,"city_fetched":"Wimborne Minster,UK","country":"United Kingdom","canonicalUrl":"https://foursquare.com/v/lambs-green-inn/4b9bcfaff964a5200b2836e3","categoryId":"4bf58dd8d48988d11b941735","category":"Pub","checkinsCount":133,"usersCount":87,"tipCount":2,"visitsCount":168,"tier":"","message":"","currency":"","rating":7.1},{"name":"The Olive Branch","address":"East Borough","lat":50.800699,"lng":-1.986874,"city_fetched":"Wimborne Minster,UK","state":"Dorset","country":"United Kingdom","canonicalUrl":"https://foursquare.com/v/the-olive-branch/4c1379d6a1010f4714a34a18","categoryId":"4bf58dd8d48988d116941735","category":"Bar","checkinsCount":562,"usersCount":211,"tipCount":9,"visitsCount":641,"url":"http://theolivebranchwimborne.co.uk","tier":"","message":"","currency":"","rating":6.6},{"name":"The Blackwater Stream (Wetherspoon)","phone":"+441202642580","twitter":"jdwtweet","address":"180 Lower Blandford Rd.","lat":50.75930522447624,"lng":-1.9935035705566406,"city_fetched":"Wimborne Minster,UK","state":"Dorset","country":"United Kingdom","canonicalUrl":"https://foursquare.com/v/the-blackwater-stream-wetherspoon/4d642fd34e1ea1cd34b541b9","categoryId":"4bf58dd8d48988d11b941735","category":"Pub","checkinsCount":532,"usersCount":137,"tipCount":4,"visitsCount":601,"url":"http://www.jdwetherspoon.co.uk","tier":"","message":"","currency":"","rating":6.5},{"name":"Willett Arms","address":"1 Oakley Ln","lat":50.7871,"lng":-1.9765242654830217,"city_fetched":"Wimborne Minster,UK","state":"Dorset","country":"United Kingdom","canonicalUrl":"https://foursquare.com/v/willett-arms/4d1b866770d76ea8fdd44e73","categoryId":"4bf58dd8d48988d11b941735","category":"Pub","checkinsCount":181,"usersCount":111,"tipCount":5,"visitsCount":237,"tier":"","message":"","currency":"","rating":6.4},{"name":"The Man In The Wall (Wetherspoon)","phone":"+441202639800","twitter":"jdwtweet","address":"10 West Borough","lat":50.800728,"lng":-1.988263,"city_fetched":"Wimborne Minster,UK","state":"Dorset","country":"United Kingdom","canonicalUrl":"https://foursquare.com/v/the-man-in-the-wall-wetherspoon/4f143e35e4b03856f31e7667","categoryId":"4bf58dd8d48988d11b941735","category":"Pub","checkinsCount":362,"usersCount":163,"tipCount":3,"visitsCount":410,"url":"http://www.jdwetherspoon.co.uk","tier":"","message":"","currency":"","rating":6.2},{"name":"Bear Cross","phone":"+441202574413","address":"High Howe Lane","lat":50.769538948644815,"lng":-1.9195293886679086,"city_fetched":"Wimborne Minster,UK","state":"Dorset","country":"United Kingdom","canonicalUrl":"https://foursquare.com/v/bear-cross/4bac10c9f964a520d7e13ae3","categoryId":"4bf58dd8d48988d11b941735","category":"Pub","checkinsCount":369,"usersCount":151,"tipCount":3,"visitsCount":416,"tier":"","message":"","currency":"","rating":6},{"name":"The White Hart","phone":"+441202848478","address":"6 Corn Mkt","lat":50.79926909578965,"lng":-1.9889817995700398,"city_fetched":"Wimborne Minster,UK","state":"Dorset","country":"United Kingdom","canonicalUrl":"https://foursquare.com/v/the-white-hart/4bfd72254cf820a1a67becf4","categoryId":"4bf58dd8d48988d11b941735","category":"Pub","checkinsCount":193,"usersCount":87,"tipCount":5,"visitsCount":196,"url":"http://www.thewhitehartwimborne.co.uk","tier":"","message":"","currency":"","rating":5.9},{"name":"The Coventry Arms","phone":"+441258857284","address":"Mill Street","lat":50.786156,"lng":-2.0386719703674316,"city_fetched":"Wimborne Minster,UK","state":"Dorset","country":"United Kingdom","canonicalUrl":"https://foursquare.com/v/the-coventry-arms/4c471d7534999c74f47202fd","categoryId":"4bf58dd8d48988d11b941735","category":"Pub","checkinsCount":87,"usersCount":43,"tipCount":2,"visitsCount":97,"tier":"","message":"","currency":"","rating":5.8}]