[{"name":"The Horse and Groom","phone":"+441753830172","twitter":"horsengroom","address":"4 Castle Hill","lat":51.48265060822411,"lng":-0.6072895622201951,"city_fetched":"Windsor,UK","country":"United Kingdom","canonicalUrl":"https://foursquare.com/v/the-horse-and-groom/4bad13aaf964a520252b3be3","categoryId":"4bf58dd8d48988d11b941735","category":"Pub","checkinsCount":708,"usersCount":548,"tipCount":19,"visitsCount":734,"tier":"","message":"","currency":"","rating":8.1},{"name":"The Alma","phone":"+441753840515","twitter":"innthealma","address":"61 Springfield Rd.","lat":51.47494748953222,"lng":-0.6194865657597126,"city_fetched":"Windsor,UK","country":"United Kingdom","canonicalUrl":"https://foursquare.com/v/the-alma/4b5c652ff964a520e52d29e3","categoryId":"4bf58dd8d48988d11b941735","category":"Pub","checkinsCount":293,"usersCount":147,"tipCount":12,"visitsCount":382,"url":"http://www.innthealma.co.uk","tier":"","message":"","currency":"","rating":7.6},{"name":"The George Inn","phone":"+441753850478","twitter":"georgeinn_eton","address":"77 High St","lat":51.486354681945926,"lng":-0.6090371145783838,"city_fetched":"Windsor,UK","state":"West Berkshire","country":"United Kingdom","canonicalUrl":"https://foursquare.com/v/the-george-inn/4b2d2160f964a5200bcf24e3","categoryId":"4bf58dd8d48988d11b941735","category":"Pub","checkinsCount":374,"usersCount":286,"tipCount":9,"visitsCount":396,"url":"http://www.georgeinn-eton.co.uk","tier":"","message":"","currency":"","rating":7.6},{"name":"The Pineapple","phone":"+441628662353","twitter":"pineappledorney","address":"Lake End Rd","lat":51.50885597745781,"lng":-0.6634551286697388,"city_fetched":"Windsor,UK","state":"Buckinghamshire","country":"United Kingdom","canonicalUrl":"https://foursquare.com/v/the-pineapple/4b4dd46ff964a520c8d826e3","categoryId":"4bf58dd8d48988d11b941735","category":"Pub","checkinsCount":382,"usersCount":292,"tipCount":19,"visitsCount":449,"url":"http://www.pineappledorney.co.uk","tier":"","message":"","currency":"","rating":7.6},{"name":"Windsor and Eton Brewery","phone":"+441753854075","twitter":"windsoretonbrew","address":"Duke St","lat":51.48432145463153,"lng":-0.6179438131045896,"city_fetched":"Windsor,UK","country":"United Kingdom","canonicalUrl":"https://foursquare.com/v/windsor-and-eton-brewery/4d51b4a7bd6ff04d2967f40c","categoryId":"50327c8591d4c4b30a586d5d","category":"Brewery","checkinsCount":791,"usersCount":222,"tipCount":8,"visitsCount":897,"url":"http://www.webrew.co.uk","tier":"","message":"","currency":"","rating":7.6},{"name":"The Duchess of Cambridge","phone":"+441753864405","twitter":"theduchesspub","address":"3-4 Thames St.","lat":51.483049,"lng":-0.608575,"city_fetched":"Windsor,UK","country":"United Kingdom","canonicalUrl":"https://foursquare.com/v/the-duchess-of-cambridge/4e18a0481f6eb955987c0ff0","categoryId":"4bf58dd8d48988d11b941735","category":"Pub","checkinsCount":896,"usersCount":711,"tipCount":23,"visitsCount":947,"url":"http://www.theduchessofcambridgepub.co.uk","tier":"","message":"","currency":"","rating":7.3},{"name":"The Carpenters Arms","phone":"+441753863739","twitter":"carpenters1518","address":"4 Market Street","lat":51.482349,"lng":-0.6071019172668457,"city_fetched":"Windsor,UK","country":"United Kingdom","canonicalUrl":"https://foursquare.com/v/the-carpenters-arms/4bf58408004ed13a80b640a0","categoryId":"4bf58dd8d48988d11b941735","category":"Pub","checkinsCount":681,"usersCount":464,"tipCount":14,"visitsCount":709,"url":"http://www.nicholsonspubs.co.uk/thecarpentersarmswindsor/","tier":"","message":"","currency":"","rating":7.2},{"name":"The Red Lion","phone":"+441753535115","twitter":"redlionsp","address":"Stoke Green","lat":51.53134559400008,"lng":-0.5806072065133601,"city_fetched":"Windsor,UK","state":"Berkshire","country":"United Kingdom","canonicalUrl":"https://foursquare.com/v/the-red-lion/4b6422d3f964a520bfa02ae3","categoryId":"4bf58dd8d48988d116941735","category":"Bar","checkinsCount":383,"usersCount":374,"tipCount":6,"visitsCount":601,"tier":"","message":"","currency":"","rating":7},{"name":"Firestation Centre for Arts & Culture","phone":"+441753866865","twitter":"tweetsfrombeat","address":"The Old Court - St Leonards Road","lat":51.477368,"lng":-0.613104,"city_fetched":"Windsor,UK","country":"United Kingdom","canonicalUrl":"https://foursquare.com/v/firestation-centre-for-arts--culture/4b670719f964a520c0352be3","categoryId":"4bf58dd8d48988d116941735","category":"Bar","checkinsCount":684,"usersCount":321,"tipCount":13,"visitsCount":879,"tier":"","message":"","currency":"","rating":7},{"name":"The Vansittart Arms","phone":"+441753865988","address":"105 Vansittart Rd","lat":51.481538968114776,"lng":-0.6196386163673561,"city_fetched":"Windsor,UK","state":"Berkshire","country":"United Kingdom","canonicalUrl":"https://foursquare.com/v/the-vansittart-arms/4bd9c7fbe914a59353e157fa","categoryId":"4bf58dd8d48988d11b941735","category":"Pub","checkinsCount":534,"usersCount":185,"tipCount":9,"visitsCount":691,"url":"http://vansittartarmswindsor.co.uk","tier":"","message":"","currency":"","rating":7},{"name":"The Royal Stag","phone":"+441753584231","twitter":"windsorpubco","address":"The Green","lat":51.484095539091534,"lng":-0.5786705017089844,"city_fetched":"Windsor,UK","country":"United Kingdom","canonicalUrl":"https://foursquare.com/v/the-royal-stag/4bb1bb3ff964a520c0a03ce3","categoryId":"4bf58dd8d48988d11b941735","category":"Pub","checkinsCount":485,"usersCount":248,"tipCount":8,"visitsCount":595,"url":"http://www.royalstagdatchet.co.uk","tier":"","message":"","currency":"","rating":7},{"name":"Chats Bar","phone":"+441753544244","address":"Ditton Rd","lat":51.492499698989036,"lng":-0.5466985702514648,"city_fetched":"Windsor,UK","country":"United Kingdom","canonicalUrl":"https://foursquare.com/v/chats-bar/4bf45f4313a6b71330325d33","categoryId":"4bf58dd8d48988d1d5941735","category":"Hotel Bar","checkinsCount":605,"usersCount":224,"tipCount":6,"visitsCount":628,"tier":"","message":"","currency":"","rating":6.9},{"name":"The King and Castle (Wetherspoon)","phone":"+441753625120","address":"15-16 Thames St","lat":51.48371194976347,"lng":-0.6087739591186546,"city_fetched":"Windsor,UK","state":"Berkshire","country":"United Kingdom","canonicalUrl":"https://foursquare.com/v/the-king-and-castle-wetherspoon/4baf44b0f964a5208bf43be3","categoryId":"4bf58dd8d48988d11b941735","category":"Pub","checkinsCount":2014,"usersCount":1313,"tipCount":25,"visitsCount":2095,"url":"http://www.jdwetherspoon.co.uk","tier":"","message":"","currency":"","rating":6.7},{"name":"The Royal Oak","phone":"+441753865179","twitter":"windsorpubco","address":"Datchet Rd.","lat":51.48535248199964,"lng":-0.6064711995673754,"city_fetched":"Windsor,UK","country":"United Kingdom","canonicalUrl":"https://foursquare.com/v/the-royal-oak/4ba299eff964a520220838e3","categoryId":"4bf58dd8d48988d11b941735","category":"Pub","checkinsCount":773,"usersCount":603,"tipCount":12,"visitsCount":792,"url":"http://www.windsorpubco.co.uk/royal-oak.html","tier":"","message":"","currency":"","rating":6.6},{"name":"The Corner House","address":"22 Sheet St","lat":51.48002282981523,"lng":-0.6062327742979587,"city_fetched":"Windsor,UK","country":"United Kingdom","canonicalUrl":"https://foursquare.com/v/the-corner-house/4bc60072db8fa59307949b37","categoryId":"4bf58dd8d48988d11b941735","category":"Pub","checkinsCount":300,"usersCount":130,"tipCount":14,"visitsCount":314,"tier":"","message":"","currency":"","rating":6.5},{"name":"The Windsor Trooper","phone":"+441753670123","address":"97 St Leonard's Rd","lat":51.476665452849105,"lng":-0.6128954887390137,"city_fetched":"Windsor,UK","country":"United Kingdom","canonicalUrl":"https://foursquare.com/v/the-windsor-trooper/4bec44c6c43f2d7f41a5dbd9","categoryId":"4bf58dd8d48988d116941735","category":"Bar","checkinsCount":186,"usersCount":89,"tipCount":6,"visitsCount":196,"tier":"","message":"","currency":"","rating":6.5},{"name":"The Ostrich","phone":"+441753682628","address":"High St","lat":51.483622,"lng":-0.52301,"city_fetched":"Windsor,UK","state":"West Berkshire","country":"United Kingdom","canonicalUrl":"https://foursquare.com/v/the-ostrich/4bc1c2f0461576b00d4c7c32","categoryId":"4bf58dd8d48988d11b941735","category":"Pub","checkinsCount":282,"usersCount":266,"tipCount":17,"visitsCount":343,"url":"http://www.theostrichcolnbrook.co.uk","tier":"","message":"","currency":"","rating":6.5},{"name":"The Prince Albert Pub","phone":"+441753864788","address":"2 Clewer Hill Rd.","lat":51.470987,"lng":-0.62979182,"city_fetched":"Windsor,UK","country":"United Kingdom","canonicalUrl":"https://foursquare.com/v/the-prince-albert-pub/4bdecd29fe0e62b5ddf50506","categoryId":"4bf58dd8d48988d11b941735","category":"Pub","checkinsCount":125,"usersCount":68,"tipCount":2,"visitsCount":144,"url":"http://www.theprincealbertpub.com","tier":"","message":"","currency":"","rating":6.3},{"name":"Duke Of Connaught","phone":"+441753840748","address":"165 Arthur Rd","lat":51.483073,"lng":-0.618181,"city_fetched":"Windsor,UK","state":"Berkshire","country":"United Kingdom","canonicalUrl":"https://foursquare.com/v/duke-of-connaught/4bc857f715a7ef3b09da7ada","categoryId":"4bf58dd8d48988d11b941735","category":"Pub","checkinsCount":353,"usersCount":111,"tipCount":9,"visitsCount":384,"url":"http://www.thedukeofconnaught.com","tier":"","message":"","currency":"","rating":6.3},{"name":"The Watermans Arms","phone":"+441753861001","twitter":"watermanseton","address":"Brocas St","lat":51.48640717153224,"lng":-0.6096768379211426,"city_fetched":"Windsor,UK","state":"West Berkshire","country":"United Kingdom","canonicalUrl":"https://foursquare.com/v/the-watermans-arms/4bf6e540b182c9b65bb6745a","categoryId":"4bf58dd8d48988d11b941735","category":"Pub","checkinsCount":171,"usersCount":134,"tipCount":4,"visitsCount":187,"url":"http://www.watermans-eton.com","tier":"","message":"","currency":"","rating":6.3},{"name":"Palmer Arms","address":"Village Rd","lat":51.503533651621794,"lng":-0.6613683700561523,"city_fetched":"Windsor,UK","state":"Buckinghamshire","country":"United Kingdom","canonicalUrl":"https://foursquare.com/v/palmer-arms/4aeb6322f964a5209fc121e3","categoryId":"4bf58dd8d48988d11b941735","category":"Pub","checkinsCount":210,"usersCount":204,"tipCount":15,"visitsCount":284,"tier":"","message":"","currency":"","rating":6.1},{"name":"All Bar One","phone":"+441753857570","twitter":"yourallbarone","address":"40 Windsor Royal Shopping","lat":51.482954,"lng":-0.610318,"city_fetched":"Windsor,UK","state":"Berkshire","country":"United Kingdom","canonicalUrl":"https://foursquare.com/v/all-bar-one/4d80b4f4208a548120437967","categoryId":"4bf58dd8d48988d116941735","category":"Bar","checkinsCount":1079,"usersCount":670,"tipCount":20,"visitsCount":1098,"url":"http://www.allbarone.co.uk","tier":"","message":"","currency":"","rating":6.1},{"name":"The Crown And Cushion","phone":"+441753861531","address":"84 High St","lat":51.486808,"lng":-0.6089619,"city_fetched":"Windsor,UK","state":"West Berkshire","country":"United Kingdom","canonicalUrl":"https://foursquare.com/v/the-crown-and-cushion/4bf0f302b315c9b69d8493ff","categoryId":"4bf58dd8d48988d11b941735","category":"Pub","checkinsCount":88,"usersCount":65,"tipCount":1,"visitsCount":97,"url":"http://www.thecrownandcushioneton.co.uk","tier":"","message":"","currency":"","rating":6.1},{"name":"Three Tuns","phone":"+441753861615","address":"8 Market Street","lat":51.48204514096305,"lng":-0.6069271886612512,"city_fetched":"Windsor,UK","country":"United Kingdom","canonicalUrl":"https://foursquare.com/v/three-tuns/4bb502d10ef1c9b626c0f412","categoryId":"4bf58dd8d48988d11b941735","category":"Pub","checkinsCount":337,"usersCount":313,"tipCount":9,"visitsCount":339,"tier":"","message":"","currency":"","rating":5.5},{"name":"The Henry VI","phone":"+441753866051","twitter":"henryvieton","address":"37 High St","lat":51.48818850517273,"lng":-0.609125,"city_fetched":"Windsor,UK","state":"West Berkshire","country":"United Kingdom","canonicalUrl":"https://foursquare.com/v/the-henry-vi/4b59ff99f964a520b9a628e3","categoryId":"4bf58dd8d48988d11b941735","category":"Pub","checkinsCount":226,"usersCount":193,"tipCount":8,"visitsCount":238,"url":"http://www.thehenryvi.com","tier":"","message":"","currency":"","rating":5.5},{"name":"The Windlesora (Wetherspoon)","phone":"+441753754050","twitter":"windlesora1","address":"17 William St.","lat":51.480443,"lng":-0.610415,"city_fetched":"Windsor,UK","country":"United Kingdom","canonicalUrl":"https://foursquare.com/v/the-windlesora-wetherspoon/4ae37abaf964a520a29521e3","categoryId":"4bf58dd8d48988d11b941735","category":"Pub","checkinsCount":538,"usersCount":159,"tipCount":6,"visitsCount":543,"url":"http://www.jdwetherspoon.co.uk/home/pubs/the-windlesora","tier":"","message":"","currency":"","rating":5.5},{"name":"The Prince Arthur","phone":"+441753832491","twitter":"theprincearthur","address":"29 Grove Road","lat":51.4771332098067,"lng":-0.6093120574951172,"city_fetched":"Windsor,UK","state":"Berkshire","country":"United Kingdom","canonicalUrl":"https://foursquare.com/v/the-prince-arthur/4b5c7058f964a520e12f29e3","categoryId":"4bf58dd8d48988d11b941735","category":"Pub","checkinsCount":1078,"usersCount":151,"tipCount":3,"visitsCount":1148,"url":"http://www.prince-arthur-windsor.co.uk","tier":"","message":"","currency":"","rating":5.2},{"name":"Crosses Corner","phone":"+441753862867","twitter":"crossescorner","address":"73 Peascod St","lat":51.4800389014108,"lng":-0.6120495091452447,"city_fetched":"Windsor,UK","state":"Berkshire","country":"United Kingdom","canonicalUrl":"https://foursquare.com/v/crosses-corner/4d29b83a8292236a577625bb","categoryId":"4bf58dd8d48988d11b941735","category":"Pub","checkinsCount":149,"usersCount":97,"tipCount":3,"visitsCount":149,"url":"http://ccwindsor.co.uk","tier":"","message":"","currency":"","rating":5.1}]