[{"name":"The Fleece","phone":"+441993892270","twitter":"fleecewitney","address":"11 Church Green","lat":51.78268501818032,"lng":-1.4847755671296108,"city_fetched":"Witney,UK","state":"Oxfordshire","country":"United Kingdom","canonicalUrl":"https://foursquare.com/v/the-fleece/4ba0adbff964a5203a7737e3","categoryId":"4bf58dd8d48988d11b941735","category":"Pub","checkinsCount":242,"usersCount":169,"tipCount":6,"visitsCount":267,"url":"http://www.fleecewitney.co.uk","tier":"","message":"","currency":"","rating":8.7},{"name":"Wychwood Brewery","phone":"+441993890800","address":"Unit 10-12, Eagle Industrial Est.","lat":51.783006532466366,"lng":-1.4884089535220906,"city_fetched":"Witney,UK","state":"Oxfordshire","country":"United Kingdom","canonicalUrl":"https://foursquare.com/v/wychwood-brewery/4be5870d2457a593da8fab15","categoryId":"50327c8591d4c4b30a586d5d","category":"Brewery","checkinsCount":117,"usersCount":98,"tipCount":3,"visitsCount":118,"url":"http://www.wychwood.co.uk","tier":"","message":"","currency":"","rating":7.8},{"name":"Three Horseshoes","address":"2-22 Holloway Rd","lat":51.78410589694977,"lng":-1.48949,"city_fetched":"Witney,UK","state":"Oxfordshire","country":"United Kingdom","canonicalUrl":"https://foursquare.com/v/three-horseshoes/4d84f20a7e8ef04d464516be","categoryId":"4bf58dd8d48988d11b941735","category":"Pub","checkinsCount":74,"usersCount":59,"tipCount":4,"visitsCount":80,"tier":"","message":"","currency":"","rating":7.7},{"name":"The Company of Weavers (Wetherspoon)","phone":"+441993777930","twitter":"jdwtweet","address":"31 Market Sq.","lat":51.78360560339822,"lng":-1.4848643220124953,"city_fetched":"Witney,UK","state":"Oxfordshire","country":"United Kingdom","canonicalUrl":"https://foursquare.com/v/the-company-of-weavers-wetherspoon/4f461362e4b05bff1bf8b990","categoryId":"4bf58dd8d48988d11b941735","category":"Pub","checkinsCount":236,"usersCount":87,"tipCount":3,"visitsCount":242,"url":"http://www.jdwetherspoon.co.uk","tier":"","message":"","currency":"","rating":5.9},{"name":"The Hollybush Inn","phone":"+441993708073","twitter":"thehollybush1","address":"35 Corn St","lat":51.7835,"lng":-1.487832,"city_fetched":"Witney,UK","state":"Oxfordshire","country":"United Kingdom","canonicalUrl":"https://foursquare.com/v/the-hollybush-inn/4bb8e4dcb35776b0675dc901","categoryId":"4bf58dd8d48988d11b941735","category":"Pub","checkinsCount":102,"usersCount":62,"tipCount":4,"visitsCount":104,"url":"http://www.hollybushwitney.com","tier":"","message":"","currency":"","rating":5.5}]