[{"name":"The Drummond","phone":"+441483579395","twitter":"drummondbulldog","address":"55-56 Woodbridge Rd","lat":51.24133950313797,"lng":-0.5758380889892578,"city_fetched":"Woking,UK","state":"Surrey","country":"United Kingdom","canonicalUrl":"https://foursquare.com/v/the-drummond/4b40ce65f964a5205ebb25e3","categoryId":"4bf58dd8d48988d11b941735","category":"Pub","checkinsCount":1780,"usersCount":601,"tipCount":29,"visitsCount":2101,"url":"http://www.thedrummondguildford.co.uk","tier":"","message":"","currency":"","rating":8.8},{"name":"The Cricketers","phone":"+441483762363","twitter":"crickshorsell","address":"Horsell Birch","lat":51.326321100037546,"lng":-0.5827957391738892,"city_fetched":"Woking,UK","state":"Surrey","country":"United Kingdom","canonicalUrl":"https://foursquare.com/v/the-cricketers/4b511989f964a5205a4227e3","categoryId":"4bf58dd8d48988d11b941735","category":"Pub","checkinsCount":465,"usersCount":285,"tipCount":14,"visitsCount":654,"url":"http://www.baronspubs.com/cricketers","tier":"","message":"","currency":"","rating":8.7},{"name":"The Red Lion","phone":"+441483768497","address":"123 High St","lat":51.323533595038704,"lng":-0.5714823278330757,"city_fetched":"Woking,UK","state":"Surrey","country":"United Kingdom","canonicalUrl":"https://foursquare.com/v/the-red-lion/4b2c3421f964a520b4c324e3","categoryId":"4bf58dd8d48988d11b941735","category":"Pub","checkinsCount":1241,"usersCount":429,"tipCount":14,"visitsCount":1580,"url":"http://www.redlionhorsell.co.uk","tier":2,"message":"Moderate","currency":"£","rating":8.7},{"name":"The Old Plough","phone":"+441932862244","address":"2 Station Rd","lat":51.320906,"lng":-0.386565,"city_fetched":"Woking,UK","state":"Surrey","country":"United Kingdom","canonicalUrl":"https://foursquare.com/v/the-old-plough/4bcd5306fb84c9b65bed213e","categoryId":"4bf58dd8d48988d11b941735","category":"Pub","checkinsCount":681,"usersCount":304,"tipCount":15,"visitsCount":970,"url":"http://www.oldploughcobham.co.uk","tier":"","message":"","currency":"","rating":8.6},{"name":"The Weyside","phone":"+441483568024","twitter":"weyside","address":"Millbrook","lat":51.23155028087051,"lng":-0.572927,"city_fetched":"Woking,UK","state":"Surrey","country":"United Kingdom","canonicalUrl":"https://foursquare.com/v/the-weyside/4b894378f964a520e72632e3","categoryId":"4bf58dd8d48988d11b941735","category":"Pub","checkinsCount":697,"usersCount":738,"tipCount":16,"visitsCount":1120,"url":"http://www.theweyside.co.uk","tier":"","message":"","currency":"","rating":8.3},{"name":"The Rose and Crown","phone":"+441344845154","twitter":"rosepubthorpe","address":"Green Rd","lat":51.401503266320326,"lng":-0.5490361809107687,"city_fetched":"Woking,UK","state":"Surrey","country":"United Kingdom","canonicalUrl":"https://foursquare.com/v/the-rose-and-crown/4b5c4540f964a520372929e3","categoryId":"4bf58dd8d48988d11b941735","category":"Pub","checkinsCount":354,"usersCount":292,"tipCount":9,"visitsCount":488,"url":"http://www.baronspubs.com/roseandcrown/","tier":"","message":"","currency":"","rating":8.3},{"name":"The Brickmakers","phone":"+441276472267","address":"Chertsey Rd","lat":51.371999,"lng":-0.6380116939544678,"city_fetched":"Woking,UK","state":"Surrey","country":"United Kingdom","canonicalUrl":"https://foursquare.com/v/the-brickmakers/4b7fd7c2f964a5205b4030e3","categoryId":"4bf58dd8d48988d11b941735","category":"Pub","checkinsCount":220,"usersCount":208,"tipCount":7,"visitsCount":376,"url":"http://www.thebrickmakerswindlesham.co.uk","tier":"","message":"","currency":"","rating":8.1},{"name":"The King's Head","phone":"+441483568957","address":"27 King Rd","lat":51.234176,"lng":-0.573656,"city_fetched":"Woking,UK","state":"Surrey","country":"United Kingdom","canonicalUrl":"https://foursquare.com/v/the-kings-head/4b426047f964a520a4d225e3","categoryId":"4bf58dd8d48988d11b941735","category":"Pub","checkinsCount":990,"usersCount":550,"tipCount":13,"visitsCount":1134,"url":"http://www.thekingsheadpub.co.uk","tier":"","message":"","currency":"","rating":7.9},{"name":"Hand & Spear","phone":"+441932828063","twitter":"handandspearpub","address":"Old Heath Rd","lat":51.362513201962834,"lng":-0.4590405472904436,"city_fetched":"Woking,UK","state":"Surrey","country":"United Kingdom","canonicalUrl":"https://foursquare.com/v/hand--spear/4b688d3ef964a5206a7f2be3","categoryId":"4bf58dd8d48988d11b941735","category":"Pub","checkinsCount":1050,"usersCount":730,"tipCount":13,"visitsCount":1651,"url":"http://www.handandspear.co.uk","tier":"","message":"","currency":"","rating":7.9},{"name":"The Queens Head","phone":"+441932839820","twitter":"weybridgeqh","address":"1 Bridge Rd","lat":51.371069739897756,"lng":-0.4632905058323844,"city_fetched":"Woking,UK","state":"Surrey","country":"United Kingdom","canonicalUrl":"https://foursquare.com/v/the-queens-head/4bd0adf9caff9521ea52cff0","categoryId":"4bf58dd8d48988d11b941735","category":"Pub","checkinsCount":598,"usersCount":398,"tipCount":14,"visitsCount":921,"url":"http://www.queensheadweybridge.com","tier":"","message":"","currency":"","rating":7.9},{"name":"The Albany","phone":"+441483572401","twitter":"guildfordalbany","address":"80 Sydenham Rd","lat":51.23687122552597,"lng":-0.5666781994529876,"city_fetched":"Woking,UK","state":"Surrey","country":"United Kingdom","canonicalUrl":"https://foursquare.com/v/the-albany/4b56243af964a5204f0228e3","categoryId":"4bf58dd8d48988d11b941735","category":"Pub","checkinsCount":717,"usersCount":251,"tipCount":12,"visitsCount":794,"url":"http://www.thealbanypubguildford.co.uk","tier":"","message":"","currency":"","rating":7.8},{"name":"The Thatched Tavern","phone":"+441344620874","address":"Cheapside Rd","lat":51.41684483730013,"lng":-0.6437448181394232,"city_fetched":"Woking,UK","state":"Berkshire","country":"United Kingdom","canonicalUrl":"https://foursquare.com/v/the-thatched-tavern/4bc75a4114d79521793767e9","categoryId":"4bf58dd8d48988d11b941735","category":"Pub","checkinsCount":361,"usersCount":171,"tipCount":12,"visitsCount":457,"url":"http://www.thethatchedtavern.co.uk","tier":"","message":"","currency":"","rating":7.7},{"name":"White Hart","phone":"+441483235939","address":"White Hart Ln","lat":51.25011,"lng":-0.636736,"city_fetched":"Woking,UK","state":"Surrey","country":"United Kingdom","canonicalUrl":"https://foursquare.com/v/white-hart/4d987f7961a3a1cd32aace42","categoryId":"4bf58dd8d48988d11b941735","category":"Pub","checkinsCount":137,"usersCount":125,"tipCount":7,"visitsCount":213,"url":"http://www.thewhitehartpub.com","tier":"","message":"","currency":"","rating":7.7},{"name":"Cellar Magneval","phone":"+441483730407","twitter":"cellarmagneval","address":"3 Church Path","lat":51.319031,"lng":-0.55745,"city_fetched":"Woking,UK","state":"Surrey","country":"United Kingdom","canonicalUrl":"https://foursquare.com/v/cellar-magneval/52866a7211d26a0aba5afab1","categoryId":"4bf58dd8d48988d123941735","category":"Wine Bar","checkinsCount":71,"usersCount":47,"tipCount":2,"visitsCount":72,"url":"http://www.cellarmagneval.com","tier":"","message":"","currency":"","rating":7.6},{"name":"The King's Head","phone":"+441483568957","twitter":"kingsheadgford","address":"25-27 Kings Rd","lat":51.242570307432885,"lng":-0.5709833490748393,"city_fetched":"Woking,UK","state":"Surrey","country":"United Kingdom","canonicalUrl":"https://foursquare.com/v/the-kings-head/4b48a60ff964a5208c5126e3","categoryId":"4bf58dd8d48988d11b941735","category":"Pub","checkinsCount":1783,"usersCount":260,"tipCount":8,"visitsCount":1869,"url":"http://kingsheadguildford.co.uk","tier":"","message":"","currency":"","rating":7.6},{"name":"The Swan","phone":"+441252757919","twitter":"chefandbrewer","address":"2 Hutton Rd","lat":51.26686593291339,"lng":-0.7190948724746704,"city_fetched":"Woking,UK","state":"Surrey","country":"United Kingdom","canonicalUrl":"https://foursquare.com/v/the-swan/4b47818af964a520463426e3","categoryId":"4bf58dd8d48988d11b941735","category":"Pub","checkinsCount":624,"usersCount":303,"tipCount":12,"visitsCount":749,"url":"http://www.chefandbrewer.com","tier":"","message":"","currency":"","rating":7.6},{"name":"Withies Inn","phone":"+441483421158","address":"Withies Ln","lat":51.21199,"lng":-0.621551,"city_fetched":"Woking,UK","state":"Surrey","country":"United Kingdom","canonicalUrl":"https://foursquare.com/v/withies-inn/4c1a1c70838020a137aae661","categoryId":"4bf58dd8d48988d11b941735","category":"Pub","checkinsCount":118,"usersCount":151,"tipCount":6,"visitsCount":184,"url":"http://thewithiesinn.com","tier":"","message":"","currency":"","rating":7.6},{"name":"Cliche Shisha Cafe","phone":"+447583254243","twitter":"cliche_shisha","address":"9 Madrid Rd","lat":51.23759997483259,"lng":-0.5868869789435164,"city_fetched":"Woking,UK","state":"Surrey","country":"United Kingdom","canonicalUrl":"https://foursquare.com/v/cliche-shisha-cafe/4e7627862271ffa4e74060da","categoryId":"4bf58dd8d48988d119941735","category":"Hookah Bar","checkinsCount":195,"usersCount":140,"tipCount":10,"visitsCount":297,"url":"http://www.clicheshishalounge.co.uk","tier":"","message":"","currency":"","rating":7.5},{"name":"The White Hart","phone":"+441483799715","address":"The Green","lat":51.29348520333045,"lng":-0.6453609466552734,"city_fetched":"Woking,UK","state":"Surrey","country":"United Kingdom","canonicalUrl":"https://foursquare.com/v/the-white-hart/4b8a92fcf964a520ff7232e3","categoryId":"4bf58dd8d48988d11b941735","category":"Pub","checkinsCount":368,"usersCount":248,"tipCount":8,"visitsCount":497,"url":"http://www.thewhitehartpirbright.co.uk","tier":"","message":"","currency":"","rating":7.5},{"name":"The Seahorse","phone":"+441483514351","address":"The St","lat":51.21880354411032,"lng":-0.5689385918870818,"city_fetched":"Woking,UK","state":"Surrey","country":"United Kingdom","canonicalUrl":"https://foursquare.com/v/the-seahorse/4bd8b0442e6f0f4754240808","categoryId":"4bf58dd8d48988d11b941735","category":"Pub","checkinsCount":284,"usersCount":245,"tipCount":16,"visitsCount":379,"url":"http://www.theseahorseguildford.co.uk","tier":"","message":"","currency":"","rating":7.4},{"name":"The Stoke","phone":"+441483504296","twitter":"thestoketweets","address":"103 Stoke Rd","lat":51.24255678685676,"lng":-0.5714819462412327,"city_fetched":"Woking,UK","state":"Surrey","country":"United Kingdom","canonicalUrl":"https://foursquare.com/v/the-stoke/4b48c8a8f964a520cb5626e3","categoryId":"4bf58dd8d48988d11b941735","category":"Pub","checkinsCount":1097,"usersCount":411,"tipCount":28,"visitsCount":1246,"url":"http://www.thestoke.co.uk","tier":"","message":"","currency":"","rating":7.4},{"name":"The Anglers","address":"Manor Road","lat":51.39024496078342,"lng":-0.422603,"city_fetched":"Woking,UK","state":"Surrey","country":"United Kingdom","canonicalUrl":"https://foursquare.com/v/the-anglers/4bd496226f649521cdab6dec","categoryId":"4bf58dd8d48988d11b941735","category":"Pub","checkinsCount":415,"usersCount":312,"tipCount":7,"visitsCount":559,"tier":"","message":"","currency":"","rating":7.3},{"name":"Rogues Bar","phone":"+441483579455","twitter":"roguesbar","address":"58 Epsom Rd","lat":51.23763173808256,"lng":-0.5610001087188721,"city_fetched":"Woking,UK","state":"Surrey","country":"United Kingdom","canonicalUrl":"https://foursquare.com/v/rogues-bar/4ba55291f964a5209afa38e3","categoryId":"4bf58dd8d48988d11b941735","category":"Pub","checkinsCount":495,"usersCount":241,"tipCount":9,"visitsCount":779,"tier":"","message":"","currency":"","rating":7.3},{"name":"The Britannia - Shepherd Neame","phone":"+441483572160","address":"9 Millmead","lat":51.233135936401446,"lng":-0.5761026625333201,"city_fetched":"Woking,UK","state":"Surrey","country":"United Kingdom","canonicalUrl":"https://foursquare.com/v/the-britannia--shepherd-neame/4bb504a30ef1c9b6dbc2f412","categoryId":"4bf58dd8d48988d11b941735","category":"Pub","checkinsCount":656,"usersCount":478,"tipCount":12,"visitsCount":881,"url":"http://www.shepherdneame.co.uk","tier":"","message":"","currency":"","rating":7.3},{"name":"The White Hart","phone":"+441932842927","address":"New Haw Rd","lat":51.35765987914839,"lng":-0.4866713606980097,"city_fetched":"Woking,UK","state":"Surrey","country":"United Kingdom","canonicalUrl":"https://foursquare.com/v/the-white-hart/4be0504398f2a5933abfc15a","categoryId":"4bf58dd8d48988d11b941735","category":"Pub","checkinsCount":227,"usersCount":109,"tipCount":2,"visitsCount":266,"url":"http://www.the-white-hart.com","tier":"","message":"","currency":"","rating":7.2},{"name":"The Belvedere Arms","phone":"+441344870931","address":"London Rd","lat":51.409307581137966,"lng":-0.6241947177541585,"city_fetched":"Woking,UK","country":"United Kingdom","canonicalUrl":"https://foursquare.com/v/the-belvedere-arms/4c72b686376da093fe1fa7c6","categoryId":"4bf58dd8d48988d11b941735","category":"Pub","checkinsCount":453,"usersCount":404,"tipCount":13,"visitsCount":632,"url":"http://www.thebelvederearms.co.uk","tier":"","message":"","currency":"","rating":7.2},{"name":"Dog & Partridge","phone":"+441344623204","address":"92 Upper Village Rd.","lat":51.40217608992935,"lng":-0.6599534473812118,"city_fetched":"Woking,UK","country":"United Kingdom","canonicalUrl":"https://foursquare.com/v/dog--partridge/4d0cb2f17d28721e7e41f420","categoryId":"4bf58dd8d48988d11b941735","category":"Pub","checkinsCount":108,"usersCount":82,"tipCount":6,"visitsCount":143,"url":"http://www.oxandfire.co.uk","tier":"","message":"","currency":"","rating":7.2},{"name":"Four Horseshoes","phone":"+441276856257","twitter":"the4horseshoes","address":"13-15 Burrow Hill Green","lat":51.357237,"lng":-0.608102,"city_fetched":"Woking,UK","state":"Surrey","country":"United Kingdom","canonicalUrl":"https://foursquare.com/v/four-horseshoes/4e062b4ed1640223a494b9db","categoryId":"4bf58dd8d48988d11b941735","category":"Pub","checkinsCount":93,"usersCount":138,"tipCount":3,"visitsCount":195,"url":"http://www.fourhorseshoeschobham.co.uk","tier":"","message":"","currency":"","rating":7.2},{"name":"Rubix","twitter":"surrey_union","address":"Union House, Stag Hill","lat":51.24236042944634,"lng":-0.5869960784912109,"city_fetched":"Woking,UK","state":"Surrey","country":"United Kingdom","canonicalUrl":"https://foursquare.com/v/rubix/4bdca490c79cc9284a7d87e9","categoryId":"4bf58dd8d48988d11f941735","category":"Nightclub","checkinsCount":706,"usersCount":239,"tipCount":5,"visitsCount":764,"url":"http://www.ussu.co.uk","tier":"","message":"","currency":"","rating":7.2},{"name":"The Old Crown","phone":"+441932842844","address":"Thames St","lat":51.378852,"lng":-0.455746,"city_fetched":"Woking,UK","state":"Surrey","country":"United Kingdom","canonicalUrl":"https://foursquare.com/v/the-old-crown/4bc777890050b713fdc0b83b","categoryId":"4bf58dd8d48988d11b941735","category":"Pub","checkinsCount":113,"usersCount":120,"tipCount":6,"visitsCount":210,"url":"http://www.theoldcrownweybridge.co.uk","tier":"","message":"","currency":"","rating":7.2},{"name":"The Pelican","phone":"+441932847956","address":"9 Hamm Moor Ln","lat":51.369251106696446,"lng":-0.4751324918137134,"city_fetched":"Woking,UK","state":"Surrey","country":"United Kingdom","canonicalUrl":"https://foursquare.com/v/the-pelican/4c07b90cc69aa593feaa9ba2","categoryId":"4bf58dd8d48988d11b941735","category":"Pub","checkinsCount":138,"usersCount":68,"tipCount":6,"visitsCount":160,"url":"http://www.thepelicanaddlestone.co.uk","tier":"","message":"","currency":"","rating":7.1},{"name":"Bar des Arts","phone":"+441483453227","twitter":"bardesarts_gu1","address":"Millbrook","lat":51.233977,"lng":-0.5746227500000001,"city_fetched":"Woking,UK","state":"Surrey","country":"United Kingdom","canonicalUrl":"https://foursquare.com/v/bar-des-arts/4c38d18618e72d7fd21619f5","categoryId":"4bf58dd8d48988d11e941735","category":"Cocktail Bar","checkinsCount":152,"usersCount":90,"tipCount":7,"visitsCount":152,"url":"http://www.bardesarts.co.uk","tier":"","message":"","currency":"","rating":7.1},{"name":"Sullivans Wine Bar","phone":"+441932850545","address":"39-41 Church St.","lat":51.370981676474386,"lng":-0.46251207590103144,"city_fetched":"Woking,UK","state":"Surrey","country":"United Kingdom","canonicalUrl":"https://foursquare.com/v/sullivans-wine-bar/4bd0993ecaff95219b26cff0","categoryId":"4bf58dd8d48988d123941735","category":"Wine Bar","checkinsCount":180,"usersCount":97,"tipCount":5,"visitsCount":202,"tier":"","message":"","currency":"","rating":6.9},{"name":"The Nags Head","phone":"+441344622725","twitter":"nagsheadharveys","address":"28 High St","lat":51.39977911900513,"lng":-0.6310802388128597,"city_fetched":"Woking,UK","state":"Berkshire","country":"United Kingdom","canonicalUrl":"https://foursquare.com/v/the-nags-head/4df51a69c65bf55ee5316a16","categoryId":"4bf58dd8d48988d11b941735","category":"Pub","checkinsCount":406,"usersCount":48,"tipCount":7,"visitsCount":598,"url":"http://www.nagsheadsunningdale.co.uk","tier":"","message":"","currency":"","rating":6.8},{"name":"The Legion","phone":"+441483566757","twitter":"legionguildford","address":"Millbrook","lat":51.233886,"lng":-0.574395,"city_fetched":"Woking,UK","state":"Surrey","country":"United Kingdom","canonicalUrl":"https://foursquare.com/v/the-legion/4b887d31f964a520b7fb31e3","categoryId":"4bf58dd8d48988d11f941735","category":"Nightclub","checkinsCount":351,"usersCount":175,"tipCount":2,"visitsCount":358,"url":"http://guildfordlegion.com","tier":"","message":"","currency":"","rating":6.7},{"name":"Archees Bar","phone":"+441483888533","address":"69-71 Goldsworth Rd","lat":51.31736330893719,"lng":-0.5647552013397217,"city_fetched":"Woking,UK","state":"Surrey","country":"United Kingdom","canonicalUrl":"https://foursquare.com/v/archees-bar/4cdc6241d4ecb1f7cd157f48","categoryId":"4bf58dd8d48988d116941735","category":"Bar","checkinsCount":99,"usersCount":46,"tipCount":7,"visitsCount":99,"url":"http://www.archeesbar.co.uk","tier":"","message":"","currency":"","rating":6.6},{"name":"The Sovereigns","phone":"+441483751426","twitter":"emberinns","address":"Guildford Rd","lat":51.31545888235825,"lng":-0.5601310729980469,"city_fetched":"Woking,UK","state":"Surrey","country":"United Kingdom","canonicalUrl":"https://foursquare.com/v/the-sovereigns/4bdd6e88d33f2d7fb4eb8a3c","categoryId":"4bf58dd8d48988d11b941735","category":"Pub","checkinsCount":692,"usersCount":431,"tipCount":8,"visitsCount":1007,"url":"http://www.emberinns.co.uk/the-sovereigns-woking/","tier":"","message":"","currency":"","rating":6.6},{"name":"The George Abbot","phone":"+441483456890","address":"7-11 High St","lat":51.235186599066246,"lng":-0.5779409408569336,"city_fetched":"Woking,UK","state":"Surrey","country":"United Kingdom","canonicalUrl":"https://foursquare.com/v/the-george-abbot/4b4447f8f964a5206cf325e3","categoryId":"4bf58dd8d48988d11b941735","category":"Pub","checkinsCount":529,"usersCount":266,"tipCount":8,"visitsCount":572,"url":"http://www.georgeabbot-guildford.co.uk","tier":"","message":"","currency":"","rating":6.6},{"name":"The Thames Court","phone":"+441932221957","address":"Towpath","lat":51.382633,"lng":-0.461623,"city_fetched":"Woking,UK","state":"Surrey","country":"United Kingdom","canonicalUrl":"https://foursquare.com/v/the-thames-court/4c59a55ff346c92840134dca","categoryId":"4bf58dd8d48988d11b941735","category":"Pub","checkinsCount":683,"usersCount":507,"tipCount":21,"visitsCount":925,"url":"http://www.vintageinn.co.uk/thethamescourtshepperton/","tier":"","message":"","currency":"","rating":6.5},{"name":"Sunningdale Lounge","phone":"+441344876887","address":"12 London Rd","lat":51.39257355755749,"lng":-0.6294171830273698,"city_fetched":"Woking,UK","state":"Berkshire","country":"United Kingdom","canonicalUrl":"https://foursquare.com/v/sunningdale-lounge/4bcf515977b29c7470db8882","categoryId":"4bf58dd8d48988d121941735","category":"Lounge","checkinsCount":230,"usersCount":120,"tipCount":5,"visitsCount":233,"url":"http://www.sunningdalelounge.co.uk","tier":"","message":"","currency":"","rating":6.4},{"name":"White Lyon & Dragon","phone":"+441483698440","address":"Perry Hill","lat":51.27307797525712,"lng":-0.609404594406984,"city_fetched":"Woking,UK","state":"Surrey","country":"United Kingdom","canonicalUrl":"https://foursquare.com/v/white-lyon--dragon/4d9649059079b1f78037f609","categoryId":"4bf58dd8d48988d116941735","category":"Bar","checkinsCount":126,"usersCount":107,"tipCount":2,"visitsCount":190,"url":"http://www.whitelyonworplesdon.co.uk","tier":"","message":"","currency":"","rating":6.3},{"name":"Bridge Barn (Beefeater)","phone":"+441483763642","twitter":"beefeater","address":"Bridge Barn Ln","lat":51.317298436348175,"lng":-0.5746791743398791,"city_fetched":"Woking,UK","state":"Surrey","country":"United Kingdom","canonicalUrl":"https://foursquare.com/v/bridge-barn-beefeater/4ba4f106f964a52013c638e3","categoryId":"4bf58dd8d48988d11b941735","category":"Pub","checkinsCount":810,"usersCount":334,"tipCount":4,"visitsCount":980,"url":"http://www.beefeater.co.uk/steak-restaurant/Surrey/Bridge-Barn-Woking.html","tier":"","message":"","currency":"","rating":6.1},{"name":"Wheatsheaf & Pigeon","phone":"+441784452992","address":"Penton Rd","lat":51.420660302853925,"lng":-0.508374772934074,"city_fetched":"Woking,UK","state":"Surrey","country":"United Kingdom","canonicalUrl":"https://foursquare.com/v/wheatsheaf--pigeon/4c5856bb6201e21e93925470","categoryId":"4bf58dd8d48988d11b941735","category":"Pub","checkinsCount":366,"usersCount":111,"tipCount":4,"visitsCount":522,"url":"http://www.wheatsheafandpigeon.co.uk","tier":"","message":"","currency":"","rating":5.9},{"name":"The Monkey's Forehead","phone":"+441784432164","address":"Egham Hill","lat":51.42791926860809,"lng":-0.563665,"city_fetched":"Woking,UK","state":"Surrey","country":"United Kingdom","canonicalUrl":"https://foursquare.com/v/the-monkeys-forehead/4b12fb09f964a5200e9223e3","categoryId":"4bf58dd8d48988d11b941735","category":"Pub","checkinsCount":764,"usersCount":304,"tipCount":10,"visitsCount":878,"url":"http://www.monkeysforehead.co.uk","tier":"","message":"","currency":"","rating":5.8},{"name":"The Wheatsheaf","phone":"+441483773047","twitter":"emberinns","address":"Chobham Rd.","lat":51.3234549313199,"lng":-0.5600345134735107,"city_fetched":"Woking,UK","state":"Surrey","country":"United Kingdom","canonicalUrl":"https://foursquare.com/v/the-wheatsheaf/4bdee2f7fe0e62b5af060606","categoryId":"4bf58dd8d48988d11b941735","category":"Pub","checkinsCount":174,"usersCount":94,"tipCount":3,"visitsCount":188,"url":"http://www.emberinns.co.uk/the-wheatsheaf-woking/","tier":"","message":"","currency":"","rating":5.8},{"name":"The Herbert Wells (Wetherspoon)","phone":"+441483722818","twitter":"jdwtweet","address":"51-57 Chertsey Rd","lat":51.320553381600085,"lng":-0.5554103851318359,"city_fetched":"Woking,UK","state":"Surrey","country":"United Kingdom","canonicalUrl":"https://foursquare.com/v/the-herbert-wells-wetherspoon/4bc851e414d7952114ca68e9","categoryId":"4bf58dd8d48988d11b941735","category":"Pub","checkinsCount":1765,"usersCount":567,"tipCount":10,"visitsCount":2114,"url":"http://www.jdwetherspoon.co.uk","tier":1,"message":"Cheap","currency":"£","rating":5.7},{"name":"The Ogilvy","phone":"+441483727901","address":"43–47 Chertsey Rd","lat":51.320363882644294,"lng":-0.5557456859629543,"city_fetched":"Woking,UK","state":"Surrey","country":"United Kingdom","canonicalUrl":"https://foursquare.com/v/the-ogilvy/52457915498e88ea70d83ac6","categoryId":"4bf58dd8d48988d11b941735","category":"Pub","checkinsCount":266,"usersCount":122,"tipCount":6,"visitsCount":285,"url":"http://www.theogilvy.co.uk","tier":"","message":"","currency":"","rating":5.7},{"name":"The Keep","phone":"+441483450600","twitter":"thekeeppub","address":"29-30 Castle St","lat":51.234704,"lng":-0.572574,"city_fetched":"Woking,UK","state":"Surrey","country":"United Kingdom","canonicalUrl":"https://foursquare.com/v/the-keep/4b48f87ff964a520096026e3","categoryId":"4bf58dd8d48988d11b941735","category":"Pub","checkinsCount":200,"usersCount":135,"tipCount":6,"visitsCount":205,"url":"http://www.thekeepguildford.pub","tier":"","message":"","currency":"","rating":5.6},{"name":"The Guildford Tup","phone":"+441483562441","address":"46 Chertsey St","lat":51.237734,"lng":-0.5703823,"city_fetched":"Woking,UK","state":"Surrey","country":"United Kingdom","canonicalUrl":"https://foursquare.com/v/the-guildford-tup/4b425f85f964a52092d225e3","categoryId":"4bf58dd8d48988d11b941735","category":"Pub","checkinsCount":737,"usersCount":216,"tipCount":12,"visitsCount":764,"url":"http://www.theguildfordtup.com","tier":"","message":"","currency":"","rating":5.5},{"name":"Manor Inn (Beefeater)","phone":"+441483427134","twitter":"beefeatergrill","address":"Guildford Rd","lat":51.19595257313284,"lng":-0.5939054489135742,"city_fetched":"Woking,UK","state":"Surrey","country":"United Kingdom","canonicalUrl":"https://foursquare.com/v/manor-inn-beefeater/4bd895b6e914a593d6ab53fa","categoryId":"4bf58dd8d48988d11b941735","category":"Pub","checkinsCount":208,"usersCount":159,"tipCount":9,"visitsCount":277,"url":"http://www.beefeater.co.uk","tier":"","message":"","currency":"","rating":5.4},{"name":"Medicine","address":"Royal Holloway","lat":51.42439257434776,"lng":-0.562073048279474,"city_fetched":"Woking,UK","state":"Surrey","country":"United Kingdom","canonicalUrl":"https://foursquare.com/v/medicine/4cae4ec91463a1431cb68ba9","categoryId":"4bf58dd8d48988d116941735","category":"Bar","checkinsCount":472,"usersCount":161,"tipCount":4,"visitsCount":509,"tier":"","message":"","currency":"","rating":5.4},{"name":"Jagz","phone":"+441344878100","twitter":"jagzascot","address":"Station Hill","lat":51.40664785331615,"lng":-0.6758366462827082,"city_fetched":"Woking,UK","country":"United Kingdom","canonicalUrl":"https://foursquare.com/v/jagz/4bed863191380f476906a018","categoryId":"4bf58dd8d48988d11b941735","category":"Pub","checkinsCount":450,"usersCount":282,"tipCount":8,"visitsCount":453,"url":"http://www.jagz.co.uk","tier":"","message":"","currency":"","rating":5.3},{"name":"Ye Olde White Hart","phone":"+44127622816","address":"Frimley High St","lat":51.31457369943049,"lng":-0.7434225082397461,"city_fetched":"Woking,UK","state":"Surrey","country":"United Kingdom","canonicalUrl":"https://foursquare.com/v/ye-olde-white-hart/4b82d3e5f964a5209be730e3","categoryId":"4bf58dd8d48988d11b941735","category":"Pub","checkinsCount":322,"usersCount":127,"tipCount":12,"visitsCount":389,"tier":"","message":"","currency":"","rating":5.3},{"name":"The Station Pub","phone":"+441483725625","address":"12 Chertsey Rd","lat":51.31940763179105,"lng":-0.5565666324150851,"city_fetched":"Woking,UK","state":"Surrey","country":"United Kingdom","canonicalUrl":"https://foursquare.com/v/the-station-pub/4bbce5248ec3d13a37631b28","categoryId":"4bf58dd8d48988d11b941735","category":"Pub","checkinsCount":287,"usersCount":107,"tipCount":4,"visitsCount":287,"url":"http://www.the1440.co.uk","tier":"","message":"","currency":"","rating":5.2},{"name":"Bed Bar","phone":"+441483599200","twitter":"bedbar","address":"2 Church Path","lat":51.31893909510005,"lng":-0.557405948638916,"city_fetched":"Woking,UK","state":"Surrey","country":"United Kingdom","canonicalUrl":"https://foursquare.com/v/bed-bar/4bd0950341b9ef3b1c61fae5","categoryId":"4bf58dd8d48988d11f941735","category":"Nightclub","checkinsCount":213,"usersCount":117,"tipCount":7,"visitsCount":213,"url":"http://www.bedbarwoking.com","tier":"","message":"","currency":"","rating":5.1},{"name":"The Twynersh (Hungry Horse)","phone":"+441932568231","address":"Thorpe Rd","lat":51.394856537573304,"lng":-0.5151745772210028,"city_fetched":"Woking,UK","state":"Surrey","country":"United Kingdom","canonicalUrl":"https://foursquare.com/v/the-twynersh-hungry-horse/4bc9f01b3740b71342975f65","categoryId":"4bf58dd8d48988d11b941735","category":"Pub","checkinsCount":348,"usersCount":187,"tipCount":6,"visitsCount":388,"url":"http://www.hungryhorse.co.uk","tier":"","message":"","currency":"","rating":4.9},{"name":"Popworld","phone":"+441483306661","twitter":"popworldparty","address":"2-3 Armour Bldg","lat":51.236653015797344,"lng":-0.5778414727666826,"city_fetched":"Woking,UK","state":"Surrey","country":"United Kingdom","canonicalUrl":"https://foursquare.com/v/popworld/4bf9956a508c0f4788733f31","categoryId":"4bf58dd8d48988d11f941735","category":"Nightclub","checkinsCount":285,"usersCount":169,"tipCount":9,"visitsCount":285,"url":"http://popworld-guildford.co.uk","tier":"","message":"","currency":"","rating":4.8},{"name":"Casino","phone":"+441483865780","twitter":"guildfordcasino","address":"Corner House, Onslow St","lat":51.23719172098434,"lng":-0.5775050498645888,"city_fetched":"Woking,UK","state":"Surrey","country":"United Kingdom","canonicalUrl":"https://foursquare.com/v/casino/4bb152d2f964a520488c3ce3","categoryId":"4bf58dd8d48988d11f941735","category":"Nightclub","checkinsCount":437,"usersCount":232,"tipCount":7,"visitsCount":449,"url":"http://www.casinonightclub.co.uk","tier":"","message":"","currency":"","rating":4.7}]