[{"name":"The Feathers","address":"Market Street, Woodstock","lat":51.847657,"lng":-1.355001,"city_fetched":"Woodstock,UK","state":"Oxfordshire","country":"United Kingdom","canonicalUrl":"https://foursquare.com/v/the-feathers/4c2f6323452620a11f611d0f","categoryId":"4bf58dd8d48988d11b941735","category":"Pub","checkinsCount":133,"usersCount":98,"tipCount":5,"visitsCount":133,"tier":"","message":"","currency":"","rating":7.1},{"name":"Duke Of Marlborough","phone":"+441993811460","lat":51.868886,"lng":-1.378076,"city_fetched":"Woodstock,UK","state":"Oxfordshire","country":"United Kingdom","canonicalUrl":"https://foursquare.com/v/duke-of-marlborough/4bd72b79304fce728c2b33ab","categoryId":"4bf58dd8d48988d11b941735","category":"Pub","checkinsCount":42,"usersCount":74,"tipCount":2,"visitsCount":93,"url":"http://www.booking.com/hotel/gb/dukeofmarlborough.html?aid=337195","tier":"","message":"","currency":"","rating":6.9},{"name":"The Woodstock Arms","phone":"+441993811251","address":"6-8 Market Street","lat":51.847622,"lng":-1.355256,"city_fetched":"Woodstock,UK","state":"Oxfordshire","country":"United Kingdom","canonicalUrl":"https://foursquare.com/v/the-woodstock-arms/4e40267118a83d5b2867d641","categoryId":"4bf58dd8d48988d11b941735","category":"Pub","checkinsCount":128,"usersCount":112,"tipCount":3,"visitsCount":140,"tier":"","message":"","currency":"","rating":6.8},{"name":"The Kings Arms Hotel","phone":"+441993813737","address":"19 Market Street","lat":51.847844,"lng":-1.354483,"city_fetched":"Woodstock,UK","state":"Oxfordshire","country":"United Kingdom","canonicalUrl":"https://foursquare.com/v/the-kings-arms-hotel/4c42fc72520fa593bbf3cbac","categoryId":"4bf58dd8d48988d11b941735","category":"Pub","checkinsCount":269,"usersCount":144,"tipCount":3,"visitsCount":275,"tier":"","message":"","currency":"","rating":6.7}]