[{"name":"The Mallard","twitter":"mallard_worksop","address":"Worksop Station","lat":53.31136458024037,"lng":-1.1221852741098814,"city_fetched":"Worksop,UK","state":"Nottinghamshire","country":"United Kingdom","canonicalUrl":"https://foursquare.com/v/the-mallard/4f59197be4b017e9a1f2646e","categoryId":"4bf58dd8d48988d116941735","category":"Bar","checkinsCount":199,"usersCount":52,"tipCount":4,"visitsCount":201,"tier":"","message":"","currency":"","rating":7.7},{"name":"The Station Hotel","phone":"+441909474108","address":"Carlton Rd.","lat":53.31067275143846,"lng":-1.1212921142578125,"city_fetched":"Worksop,UK","state":"Nottinghamshire","country":"United Kingdom","canonicalUrl":"https://foursquare.com/v/the-station-hotel/4e92cc2c754a50cc7daebd74","categoryId":"4bf58dd8d48988d1d5941735","category":"Hotel Bar","checkinsCount":233,"usersCount":39,"tipCount":4,"visitsCount":268,"tier":"","message":"","currency":"","rating":7.5},{"name":"The Liquorice Gardens (Wetherspoon)","phone":"+441909512220","address":"1a Newcastle St.","lat":53.30425381250001,"lng":-1.123734,"city_fetched":"Worksop,UK","country":"United Kingdom","canonicalUrl":"https://foursquare.com/v/the-liquorice-gardens-wetherspoon/4bdde356e75c0f473903c603","categoryId":"4bf58dd8d48988d11b941735","category":"Pub","checkinsCount":494,"usersCount":125,"tipCount":5,"visitsCount":521,"url":"http://www.jdwetherspoon.co.uk","tier":"","message":"","currency":"","rating":7.3},{"name":"Lock Keeper","phone":"+441909532565","address":"Sandy Ln","lat":53.31163766464821,"lng":-1.1435573956911464,"city_fetched":"Worksop,UK","state":"Nottinghamshire","country":"United Kingdom","canonicalUrl":"https://foursquare.com/v/lock-keeper/4b968ff9f964a520e9d434e3","categoryId":"4bf58dd8d48988d11b941735","category":"Pub","checkinsCount":425,"usersCount":120,"tipCount":7,"visitsCount":448,"url":"http://www.lockkeeperpub.co.uk","tier":"","message":"","currency":"","rating":6.3},{"name":"The Ashley","phone":"+441909530915","address":"Carlton Road","lat":53.31710812696248,"lng":-1.1217212677001953,"city_fetched":"Worksop,UK","state":"Nottinghamshire","country":"United Kingdom","canonicalUrl":"https://foursquare.com/v/the-ashley/4c52995b2d519521e91f4390","categoryId":"4bf58dd8d48988d11b941735","category":"Pub","checkinsCount":645,"usersCount":97,"tipCount":6,"visitsCount":693,"tier":"","message":"","currency":"","rating":5.6}]