[{"name":"The Tudor Close","phone":"+441903243155","address":"Ferringham Ln","lat":50.80692775677713,"lng":-0.4509408080643445,"city_fetched":"Worthing","state":"West Sussex","country":"United Kingdom","canonicalUrl":"https://foursquare.com/v/the-tudor-close/4dfd0951d4c001cca36eaba0","category":"Pub","checkinsCount":127,"usersCount":58,"tipCount":1,"visitsCount":190,"url":"http://www.tudorclose.co.uk","tier":"","message":"","currency":"","rating":7.3},{"name":"The Sir Timothy Shelley (Wetherspoon)","phone":"+441903228070","address":"47-49 Chapel Rd.","lat":50.81305875671735,"lng":-0.370835062145812,"city_fetched":"Worthing","state":"West Sussex","country":"United Kingdom","canonicalUrl":"https://foursquare.com/v/the-sir-timothy-shelley-wetherspoon/4bdd528e4ffaa59317396ff7","category":"Pub","checkinsCount":468,"usersCount":130,"tipCount":7,"visitsCount":478,"url":"http://www.jdwetherspoon.co.uk","tier":"","message":"","currency":"","rating":7.2},{"name":"Muldoons","phone":"+441903218321","address":"9 Warwick St.","lat":50.811702976864964,"lng":-0.36939782672646854,"city_fetched":"Worthing","state":"West Sussex","country":"United Kingdom","canonicalUrl":"https://foursquare.com/v/muldoons/4c29cea49fb5d13a15a09b57","category":"Café","checkinsCount":277,"usersCount":80,"tipCount":7,"visitsCount":280,"tier":2,"message":"Moderate","currency":"£","rating":7.2},{"name":"George and Dragon","phone":"+441903202497","address":"1 High Street","lat":50.82493880761156,"lng":-0.3939467668533325,"city_fetched":"Worthing","state":"West Sussex","country":"United Kingdom","canonicalUrl":"https://foursquare.com/v/george-and-dragon/4babde34f964a5208bd03ae3","category":"Pub","checkinsCount":162,"usersCount":68,"tipCount":5,"visitsCount":182,"url":"http://www.george-n-dragon.co.uk","tier":"","message":"","currency":"","rating":7},{"name":"Thomas A Beckett","phone":"+441903266643","address":"Rectory Rd","lat":50.83011530723065,"lng":-0.3918766103369969,"city_fetched":"Worthing","state":"West Sussex","country":"United Kingdom","canonicalUrl":"https://foursquare.com/v/thomas-a-beckett/4c264c0af7ced13a8f17266d","category":"Beer Garden","checkinsCount":359,"usersCount":152,"tipCount":2,"visitsCount":436,"tier":"","message":"","currency":"","rating":6.9},{"name":"The Swallows Return","phone":"+441903506346","address":"1 Titnore Ln","lat":50.8226200916608,"lng":-0.4360250465760455,"city_fetched":"Worthing","state":"West Sussex","country":"United Kingdom","canonicalUrl":"https://foursquare.com/v/the-swallows-return/4c026c85cbd876b09d3bf143","category":"Pub","checkinsCount":180,"usersCount":146,"tipCount":10,"visitsCount":249,"url":"http://www.vintageinn.co.uk/theswallowsreturnferring/","tier":"","message":"","currency":"","rating":6.8},{"name":"The Worlds End","phone":"+441903871346","address":"Arundel Rd.","lat":50.840099,"lng":-0.457869,"city_fetched":"Worthing","state":"West Sussex","country":"United Kingdom","canonicalUrl":"https://foursquare.com/v/the-worlds-end/4c70059cd7fab1f71a115dc9","category":"Pub","checkinsCount":159,"usersCount":133,"tipCount":7,"visitsCount":219,"tier":"","message":"","currency":"","rating":6.7},{"name":"North Star","lat":50.82896649998288,"lng":-0.4066457057007123,"city_fetched":"Worthing","country":"United Kingdom","canonicalUrl":"https://foursquare.com/v/north-star/4c2b59f757a9c9b6a5b9f567","category":"Bar","checkinsCount":135,"usersCount":106,"tipCount":4,"visitsCount":199,"tier":"","message":"","currency":"","rating":6.5},{"name":"The Vintners Parrot","address":"10-12 Warwick St","lat":50.81175861685571,"lng":-0.36925073262154184,"city_fetched":"Worthing","state":"West Sussex","country":"United Kingdom","canonicalUrl":"https://foursquare.com/v/the-vintners-parrot/4c65908caebea59323b570d0","category":"Bar","checkinsCount":253,"usersCount":132,"tipCount":1,"visitsCount":256,"tier":"","message":"","currency":"","rating":6.4},{"name":"The Three Fishes (Wetherspoon)","phone":"+441903288640","address":"56 Chapel Rd.","lat":50.81365204341207,"lng":-0.3709867369399106,"city_fetched":"Worthing","state":"West Sussex","country":"United Kingdom","canonicalUrl":"https://foursquare.com/v/the-three-fishes-wetherspoon/4c87ac68821e9eb029ce8d89","category":"Pub","checkinsCount":1226,"usersCount":257,"tipCount":5,"visitsCount":1342,"url":"http://www.jdwetherspoon.co.uk","tier":"","message":"","currency":"","rating":6.1},{"name":"Grand Victorian Hotel","phone":"+441903230690","address":"27 Railway Approach","lat":50.81832,"lng":-0.375868,"city_fetched":"Worthing","state":"West Sussex","country":"United Kingdom","canonicalUrl":"https://foursquare.com/v/grand-victorian-hotel/4bc8ccf2762beee1a3873d38","category":"Hotel","checkinsCount":120,"usersCount":77,"tipCount":5,"visitsCount":120,"url":"http://www.grandvictorianhotel.co.uk","tier":"","message":"","currency":"","rating":5.3},{"name":"The Mulberry Pub","address":"Goring Rd","lat":50.81199566025715,"lng":-0.42368705296884934,"city_fetched":"Worthing","state":"West Sussex","country":"United Kingdom","canonicalUrl":"https://foursquare.com/v/the-mulberry-pub/4c0168f74f1ea5931d7b6b7d","category":"Pub","checkinsCount":112,"usersCount":79,"tipCount":2,"visitsCount":132,"tier":"","message":"","currency":"","rating":4.8}]