[{"name":"The Three Horse Shoes","address":"Main st","lat":52.51190505466668,"lng":-0.2606034278869629,"city_fetched":"Yaxley,UK","state":"Cambridgeshire","country":"United Kingdom","canonicalUrl":"https://foursquare.com/v/the-three-horse-shoes/4c4313b7d7fad13a49fc09da","categoryId":"4bf58dd8d48988d11b941735","category":"Pub","checkinsCount":177,"usersCount":55,"tipCount":1,"visitsCount":220,"tier":"","message":"","currency":"","rating":6.9},{"name":"The Farmers Carvery & Grill","phone":"+441733244885","twitter":"farmersyaxley","address":"200 Broadway","lat":52.51665309047204,"lng":-0.2602756420396617,"city_fetched":"Yaxley,UK","state":"Peterborough","country":"United Kingdom","canonicalUrl":"https://foursquare.com/v/the-farmers-carvery--grill/4cb1d43c562d224b32d02188","categoryId":"4bf58dd8d48988d11b941735","category":"Pub","checkinsCount":96,"usersCount":51,"tipCount":5,"visitsCount":99,"url":"http://www.thefarmersyaxley.co.uk","tier":"","message":"","currency":"","rating":6.8},{"name":"The Moorhen","phone":"+441733245717","address":"Hampton Vale","lat":52.532527008408984,"lng":-0.27779102325439453,"city_fetched":"Yaxley,UK","state":"Peterborough","country":"United Kingdom","canonicalUrl":"https://foursquare.com/v/the-moorhen/4c9f3d722fb1a14375dff140","categoryId":"4bf58dd8d48988d11b941735","category":"Pub","checkinsCount":301,"usersCount":141,"tipCount":4,"visitsCount":382,"tier":"","message":"","currency":"","rating":6},{"name":"The Hampton Brewers Fayre","address":"4 Ashbourne Rd","lat":52.540244,"lng":-0.257225,"city_fetched":"Yaxley,UK","state":"Peterborough","country":"United Kingdom","canonicalUrl":"https://foursquare.com/v/the-hampton-brewers-fayre/4b978694f964a5204b0735e3","categoryId":"4bf58dd8d48988d11b941735","category":"Pub","checkinsCount":272,"usersCount":154,"tipCount":6,"visitsCount":275,"tier":"","message":"","currency":"","rating":5.1}]