[{"name":"The prince of wales","address":"Ham hill country park","lat":50.948661,"lng":-2.742813,"city_fetched":"Yeovil,UK","state":"Somerset","country":"United Kingdom","canonicalUrl":"https://foursquare.com/v/the-prince-of-wales/4bb73d7846d4a5935735c7c0","categoryId":"4bf58dd8d48988d11b941735","category":"Pub","checkinsCount":116,"usersCount":102,"tipCount":5,"visitsCount":181,"tier":"","message":"","currency":"","rating":7.6},{"name":"The Masons Arms","phone":"+441935862591","address":"41 Lower Odcombe","lat":50.939914,"lng":-2.698968,"city_fetched":"Yeovil,UK","state":"Somerset","country":"United Kingdom","canonicalUrl":"https://foursquare.com/v/the-masons-arms/4bcf69eb0ffdce72f372b2c0","categoryId":"4bf58dd8d48988d11b941735","category":"Pub","checkinsCount":63,"usersCount":53,"tipCount":3,"visitsCount":85,"url":"http://www.masonsarmsodcombe.co.uk","tier":"","message":"","currency":"","rating":6.4},{"name":"The William Dampier (Wetherspoon)","phone":"+441935412533","address":"97 Middle St.","lat":50.94181861371816,"lng":-2.6265646664291524,"city_fetched":"Yeovil,UK","state":"Somerset","country":"United Kingdom","canonicalUrl":"https://foursquare.com/v/the-william-dampier-wetherspoon/4c87ac6a821e9eb02bce8d89","categoryId":"4bf58dd8d48988d11b941735","category":"Pub","checkinsCount":597,"usersCount":242,"tipCount":5,"visitsCount":692,"url":"http://www.jdwetherspoon.co.uk","tier":"","message":"","currency":"","rating":6}]