[{"name":"Headrow House","twitter":"headrowhouse","address":"Bramley's Yard","lat":53.798786963854994,"lng":-1.541144540331491,"neighborhood":"Leeds City Centre","city_fetched":"York,UK","state":"Leeds","country":"United Kingdom","canonicalUrl":"https://foursquare.com/v/headrow-house/560ec28e498eed61ffddcd0a","categoryId":"4bf58dd8d48988d116941735","category":"Bar","checkinsCount":359,"usersCount":319,"tipCount":5,"visitsCount":566,"url":"http://headrowhouse.com","tier":"","message":"","currency":"","rating":9.2},{"name":"North Bar","phone":"+441132424540","twitter":"northbardrinks","address":"24 New Briggate","lat":53.79983540029694,"lng":-1.5417442532400847,"neighborhood":"City and Holbeck","city_fetched":"York,UK","state":"Leeds","country":"United Kingdom","canonicalUrl":"https://foursquare.com/v/north-bar/4b34f196f964a520442925e3","categoryId":"4bf58dd8d48988d116941735","category":"Bar","checkinsCount":2587,"usersCount":995,"tipCount":43,"visitsCount":2884,"url":"http://www.northbar.com","tier":3,"message":"Expensive","currency":"£","rating":9.1},{"name":"Friends of Ham","phone":"+441132420275","twitter":"friendsofham","address":"4 New Station St.","lat":53.79560988870198,"lng":-1.544928356626443,"neighborhood":"Trinity Quarter","city_fetched":"York,UK","country":"United Kingdom","canonicalUrl":"https://foursquare.com/v/friends-of-ham/4ffca25de4b0c14fdb0f56fd","categoryId":"4bf58dd8d48988d116941735","category":"Bar","checkinsCount":2227,"usersCount":960,"tipCount":49,"visitsCount":2463,"url":"http://www.friendsofham.com","tier":2,"message":"Moderate","currency":"£","rating":9.1},{"name":"Pivní","phone":"+441904635464","twitter":"pivni","address":"6 Patrick Pool","lat":53.959767368749155,"lng":-1.080806851387024,"city_fetched":"York,UK","state":"North Yorkshire","country":"United Kingdom","canonicalUrl":"https://foursquare.com/v/pivn%C3%AD/4c000fe9f61ea593a640eb13","categoryId":"4bf58dd8d48988d11b941735","category":"Pub","checkinsCount":1657,"usersCount":766,"tipCount":34,"visitsCount":1765,"url":"http://www.pivni.co.uk","tier":"","message":"","currency":"","rating":9},{"name":"Kirkstall Bridge Inn","phone":"+441132784044","twitter":"kirkstallbridge","address":"12 Bridge Rd","lat":53.81589253469875,"lng":-1.6066187048712235,"neighborhood":"Kirkstall","city_fetched":"York,UK","state":"Leeds","country":"United Kingdom","canonicalUrl":"https://foursquare.com/v/kirkstall-bridge-inn/4bdc7343fed22d7f6b3758c9","categoryId":"4bf58dd8d48988d11b941735","category":"Pub","checkinsCount":586,"usersCount":218,"tipCount":7,"visitsCount":762,"url":"http://www.kirkstallbridge.co.uk","tier":"","message":"","currency":"","rating":9},{"name":"The Sparrow","phone":"+441274270772","twitter":"thesparrowbd1","address":"32 North Parade","lat":53.79724651364551,"lng":-1.7567216313161913,"neighborhood":"City","city_fetched":"York,UK","country":"United Kingdom","canonicalUrl":"https://foursquare.com/v/the-sparrow/4dcc16b76365eedaf112f803","categoryId":"4bf58dd8d48988d116941735","category":"Bar","checkinsCount":561,"usersCount":245,"tipCount":15,"visitsCount":623,"url":"http://thesparrowbradford.co.uk","tier":"","message":"","currency":"","rating":8.9},{"name":"Crowd Of Favours","address":"Harper Street","lat":53.796141,"lng":-1.537815,"neighborhood":"City and Holbeck","city_fetched":"York,UK","state":"Leeds","country":"United Kingdom","canonicalUrl":"https://foursquare.com/v/crowd-of-favours/51c4d34a498e5d270fe14e69","categoryId":"4bf58dd8d48988d116941735","category":"Bar","checkinsCount":656,"usersCount":330,"tipCount":20,"visitsCount":789,"tier":2,"message":"Moderate","currency":"£","rating":8.9},{"name":"The Last Drop Inn","phone":"+441904621951","twitter":"lastdropinn","address":"27 Colliergate","lat":53.95994727019198,"lng":-1.0797218978404999,"city_fetched":"York,UK","country":"United Kingdom","canonicalUrl":"https://foursquare.com/v/the-last-drop-inn/4ae34270f964a520789221e3","categoryId":"4bf58dd8d48988d11b941735","category":"Pub","checkinsCount":731,"usersCount":433,"tipCount":7,"visitsCount":756,"tier":"","message":"","currency":"","rating":8.8},{"name":"Northern Monk Refectory","phone":"+441132436430","twitter":"nmbcorefectory","address":"The Old Flax Store","lat":53.79070484624726,"lng":-1.5538726518097101,"neighborhood":"Holbeck Urban Village","city_fetched":"York,UK","country":"United Kingdom","canonicalUrl":"https://foursquare.com/v/northern-monk-refectory/5447c9bd498e934ca672814a","categoryId":"50327c8591d4c4b30a586d5d","category":"Brewery","checkinsCount":462,"usersCount":270,"tipCount":8,"visitsCount":644,"tier":"","message":"","currency":"","rating":8.8},{"name":"The Hop","twitter":"thehopyork","address":"11-12 Fossgate","lat":53.95870094227078,"lng":-1.0788182641289483,"city_fetched":"York,UK","state":"North Yorkshire","country":"United Kingdom","canonicalUrl":"https://foursquare.com/v/the-hop/51fa575dccdabaf1572b5ed6","categoryId":"4bf58dd8d48988d11b941735","category":"Pub","checkinsCount":691,"usersCount":367,"tipCount":17,"visitsCount":752,"tier":"","message":"","currency":"","rating":8.8},{"name":"Midnight Bell","phone":"+441132445044","twitter":"themidnightbell","address":"101 Water Ln","lat":53.79155203,"lng":-1.551722,"neighborhood":"Holbeck Urban Village","city_fetched":"York,UK","country":"United Kingdom","canonicalUrl":"https://foursquare.com/v/midnight-bell/4b7c14e0f964a520ca7b2fe3","categoryId":"4bf58dd8d48988d11b941735","category":"Pub","checkinsCount":1873,"usersCount":652,"tipCount":30,"visitsCount":2037,"url":"http://www.midnightbell.co.uk","tier":"","message":"","currency":"","rating":8.8},{"name":"Lamb & Lion Inn","phone":"+441904612078","twitter":"lambandlionyork","address":"2-4 High Petergate","lat":53.96270960670689,"lng":-1.0849039256572723,"city_fetched":"York,UK","country":"United Kingdom","canonicalUrl":"https://foursquare.com/v/lamb--lion-inn/4bd7c1e1304fce7293fc33ab","categoryId":"4bf58dd8d48988d11b941735","category":"Pub","checkinsCount":748,"usersCount":478,"tipCount":15,"visitsCount":780,"url":"http://www.lambandlionyork.com","tier":"","message":"","currency":"","rating":8.7},{"name":"Lamb and Flag","lat":53.7953166574003,"lng":-1.536984477185446,"neighborhood":"The Calls","city_fetched":"York,UK","country":"United Kingdom","canonicalUrl":"https://foursquare.com/v/lamb-and-flag/5597e751498e92f3846d0b3b","categoryId":"4bf58dd8d48988d11b941735","category":"Pub","checkinsCount":349,"usersCount":271,"tipCount":4,"visitsCount":566,"tier":"","message":"","currency":"","rating":8.7},{"name":"The Head Of Steam","phone":"+441132436618","twitter":"hos_leeds","address":"12 Mill Hill","lat":53.79531039979002,"lng":-1.5460259120058664,"neighborhood":"Trinity Quarter","city_fetched":"York,UK","state":"Leeds","country":"United Kingdom","canonicalUrl":"https://foursquare.com/v/the-head-of-steam/54a8082b498ea5a4461c47b8","categoryId":"4bf58dd8d48988d11b941735","category":"Pub","checkinsCount":425,"usersCount":201,"tipCount":16,"visitsCount":445,"url":"http://www.theheadofsteam.co.uk/pub?pub=14","tier":"","message":"","currency":"","rating":8.7},{"name":"Whitelocks Ale House","phone":"+441132453950","twitter":"whitelocksleeds","address":"4 Turks Head Yard","lat":53.79725437139939,"lng":-1.542978286743164,"neighborhood":"Trinity Quarter","city_fetched":"York,UK","country":"United Kingdom","canonicalUrl":"https://foursquare.com/v/whitelocks-ale-house/4b5b05a6f964a52056df28e3","categoryId":"4bf58dd8d48988d11b941735","category":"Pub","checkinsCount":1799,"usersCount":888,"tipCount":25,"visitsCount":2021,"url":"http://www.whitelocksleeds.com","tier":2,"message":"Moderate","currency":"£","rating":8.6},{"name":"Ten Devonshire Place","phone":"+441423202356","twitter":"10devonshirepl","address":"10 Devonshire Pl","lat":53.99762417329947,"lng":-1.5289500964135476,"neighborhood":"High Harrogate","city_fetched":"York,UK","state":"North Yorkshire","country":"United Kingdom","canonicalUrl":"https://foursquare.com/v/ten-devonshire-place/5470c79d498e591c7c733cc9","categoryId":"4bf58dd8d48988d11b941735","category":"Pub","checkinsCount":105,"usersCount":56,"tipCount":3,"visitsCount":174,"url":"http://www.10devonshireplace.com","tier":"","message":"","currency":"","rating":8.6},{"name":"The Maltings","phone":"+441904655387","twitter":"maltingsyork","address":"Tanners Moat","lat":53.959302,"lng":-1.08803,"city_fetched":"York,UK","state":"North Yorkshire","country":"United Kingdom","canonicalUrl":"https://foursquare.com/v/the-maltings/4bd754c3b54095219bc86962","categoryId":"4bf58dd8d48988d11b941735","category":"Pub","checkinsCount":1382,"usersCount":817,"tipCount":25,"visitsCount":1605,"url":"http://www.maltings.co.uk","tier":"","message":"","currency":"","rating":8.6},{"name":"Fanny's Ale House","phone":"+441274591419","twitter":"fannysalehouse","address":"63 Saltaire Rd.","lat":53.836112453926795,"lng":-1.787865631721659,"neighborhood":"Shipley","city_fetched":"York,UK","country":"United Kingdom","canonicalUrl":"https://foursquare.com/v/fannys-ale-house/4b6dd119f964a520a4922ce3","categoryId":"4bf58dd8d48988d11b941735","category":"Pub","checkinsCount":1131,"usersCount":359,"tipCount":18,"visitsCount":1249,"url":"http://www.fannysalehouse.com","tier":"","message":"","currency":"","rating":8.6},{"name":"The Fleece","phone":"+441132565564","address":"116 Town St.","lat":53.81502875900979,"lng":-1.6702299955537117,"neighborhood":"Stanningley","city_fetched":"York,UK","country":"United Kingdom","canonicalUrl":"https://foursquare.com/v/the-fleece/4c889d42a0ffb60c767d23c5","categoryId":"4bf58dd8d48988d11b941735","category":"Pub","checkinsCount":243,"usersCount":89,"tipCount":4,"visitsCount":386,"tier":"","message":"","currency":"","rating":8.5},{"name":"Black Sheep Brewery","address":"Wellgarth","lat":54.2251807510799,"lng":-1.65780570861801,"city_fetched":"York,UK","state":"North Yorkshire","country":"United Kingdom","canonicalUrl":"https://foursquare.com/v/black-sheep-brewery/4c4b010746240f47a649b7f2","categoryId":"50327c8591d4c4b30a586d5d","category":"Brewery","checkinsCount":352,"usersCount":333,"tipCount":8,"visitsCount":412,"tier":"","message":"","currency":"","rating":8.5},{"name":"The Old Bell Tavern","phone":"+441423507930","twitter":"markettowntavs","address":"6 Royal Parade","lat":53.9933,"lng":-1.545988,"city_fetched":"York,UK","state":"North Yorkshire","country":"United Kingdom","canonicalUrl":"https://foursquare.com/v/the-old-bell-tavern/4af88723f964a5200b0e22e3","categoryId":"4bf58dd8d48988d11b941735","category":"Pub","checkinsCount":813,"usersCount":492,"tipCount":10,"visitsCount":1043,"tier":"","message":"","currency":"","rating":8.4},{"name":"York Tap","phone":"+441904659009","twitter":"yorktap","address":"Tea Room Sq., York Railway Station","lat":53.95844648964417,"lng":-1.0926514863967896,"city_fetched":"York,UK","state":"North Yorkshire","country":"United Kingdom","canonicalUrl":"https://foursquare.com/v/york-tap/4e78b911922e68d7757ce732","categoryId":"4bf58dd8d48988d116941735","category":"Bar","checkinsCount":2815,"usersCount":1121,"tipCount":35,"visitsCount":2871,"url":"http://www.yorktap.com","tier":2,"message":"Moderate","currency":"£","rating":8.4},{"name":"The Yorkshire Terrier","phone":"+441904676722","twitter":"yorkbrewery","address":"10 Stonegate","lat":53.96058954357119,"lng":-1.0839933156967163,"city_fetched":"York,UK","country":"United Kingdom","canonicalUrl":"https://foursquare.com/v/the-yorkshire-terrier/4b48defbf964a520035b26e3","categoryId":"4bf58dd8d48988d11b941735","category":"Pub","checkinsCount":553,"usersCount":360,"tipCount":16,"visitsCount":560,"url":"http://www.york-brewery.co.uk","tier":"","message":"","currency":"","rating":8.4},{"name":"Black Swan","twitter":"blackswanleeds","address":"37 Call Lane","lat":53.79550879082964,"lng":-1.5412387852458265,"neighborhood":"City and Holbeck","city_fetched":"York,UK","state":"Leeds","country":"United Kingdom","canonicalUrl":"https://foursquare.com/v/black-swan/544ff790498e62026ec945e1","categoryId":"4bf58dd8d48988d116941735","category":"Bar","checkinsCount":156,"usersCount":100,"tipCount":5,"visitsCount":158,"tier":"","message":"","currency":"","rating":8.4},{"name":"Blind Tyger Drinking Den","lat":53.800841322753584,"lng":-1.5407070976776367,"neighborhood":"City and Holbeck","city_fetched":"York,UK","country":"United Kingdom","canonicalUrl":"https://foursquare.com/v/blind-tyger-drinking-den/528fdd65498e077afbc70c70","categoryId":"4bf58dd8d48988d11e941735","category":"Cocktail Bar","checkinsCount":89,"usersCount":56,"tipCount":1,"visitsCount":89,"tier":"","message":"","currency":"","rating":8.3},{"name":"The Brewery Tap","phone":"+441132434414","twitter":"brewerytapleeds","address":"18 New Station St","lat":53.79510609837827,"lng":-1.5452420711517334,"neighborhood":"Trinity Quarter","city_fetched":"York,UK","country":"United Kingdom","canonicalUrl":"https://foursquare.com/v/the-brewery-tap/4b2fa3c8f964a52050ed24e3","categoryId":"4bf58dd8d48988d11b941735","category":"Pub","checkinsCount":2110,"usersCount":981,"tipCount":31,"visitsCount":2180,"url":"http://www.brewerytapleeds.co.uk","tier":3,"message":"Expensive","currency":"£","rating":8.3},{"name":"Al's Dime Bar","twitter":"alsdimebar","address":"10 North Parade","lat":53.796659,"lng":-1.755789,"neighborhood":"City","city_fetched":"York,UK","state":"Bradford","country":"United Kingdom","canonicalUrl":"https://foursquare.com/alsdimebar","categoryId":"4bf58dd8d48988d118941735","category":"Dive Bar","checkinsCount":94,"usersCount":54,"tipCount":10,"visitsCount":105,"url":"http://www.alsdimebar.com","tier":"","message":"","currency":"","rating":8.3},{"name":"The Shibden Mill Inn","phone":"+441422365840","twitter":"shibdenmill","address":"Shibden Mill Fold","lat":53.741493,"lng":-1.847599,"city_fetched":"York,UK","country":"United Kingdom","canonicalUrl":"https://foursquare.com/v/the-shibden-mill-inn/4be407e9d4f7c9b6748e2320","categoryId":"4bf58dd8d48988d11b941735","category":"Pub","checkinsCount":156,"usersCount":111,"tipCount":4,"visitsCount":174,"url":"http://www.shibdenmillinn.com","tier":"","message":"","currency":"","rating":8.3},{"name":"Blind Jacks","lat":54.00780659236548,"lng":-1.466996669769287,"city_fetched":"York,UK","state":"North Yorkshire","country":"United Kingdom","canonicalUrl":"https://foursquare.com/v/blind-jacks/4b93d319f964a520895334e3","categoryId":"4bf58dd8d48988d11b941735","category":"Pub","checkinsCount":554,"usersCount":107,"tipCount":7,"visitsCount":558,"tier":"","message":"","currency":"","rating":8.2},{"name":"The Cross Keys","phone":"+441132433711","address":"107 Water Lane","lat":53.791692720000114,"lng":-1.5525124341536305,"neighborhood":"Holbeck Urban Village","city_fetched":"York,UK","country":"United Kingdom","canonicalUrl":"https://foursquare.com/v/the-cross-keys/4b47a5dcf964a520f03826e3","categoryId":"4bf58dd8d48988d11b941735","category":"Pub","checkinsCount":1095,"usersCount":550,"tipCount":26,"visitsCount":1270,"tier":"","message":"","currency":"","rating":8.2},{"name":"The Maven","phone":"+441132436047","address":"First Floor, 1 Call Lane","lat":53.79644957404276,"lng":-1.5396523475646973,"neighborhood":"City and Holbeck","city_fetched":"York,UK","country":"United Kingdom","canonicalUrl":"https://foursquare.com/v/the-maven/4e88d0a361afa8c25f5a18d5","categoryId":"4bf58dd8d48988d116941735","category":"Bar","checkinsCount":560,"usersCount":407,"tipCount":14,"visitsCount":711,"url":"http://www.themavenbar.com","tier":"","message":"","currency":"","rating":8.2},{"name":"Brigantes","phone":"+441904675355","twitter":"brigantesyork","address":"114 Micklegate","lat":53.956584275,"lng":-1.090014375,"city_fetched":"York,UK","country":"United Kingdom","canonicalUrl":"https://foursquare.com/v/brigantes/4b2d38f7f964a52072d124e3","categoryId":"4bf58dd8d48988d11b941735","category":"Pub","checkinsCount":1134,"usersCount":482,"tipCount":15,"visitsCount":1207,"url":"http://www.markettowntaverns.co.uk","tier":"","message":"","currency":"","rating":8.1},{"name":"The Mews","phone":"+441937580201","twitter":"markettowntavs","address":"16 Bank St.","lat":53.92903228525748,"lng":-1.3863801956176758,"neighborhood":"Wetherby","city_fetched":"York,UK","country":"United Kingdom","canonicalUrl":"https://foursquare.com/v/the-mews/4c237239fbe5c9b6e06b9b21","categoryId":"4bf58dd8d48988d11b941735","category":"Pub","checkinsCount":858,"usersCount":94,"tipCount":7,"visitsCount":891,"url":"http://www.mewswetherby.co.uk","tier":"","message":"","currency":"","rating":8.1},{"name":"Tapped","phone":"+441132441953","twitter":"tappedleeds","address":"Trinity Shopping Centre","lat":53.795930944140544,"lng":-1.546059812737511,"neighborhood":"Trinity Quarter","city_fetched":"York,UK","state":"Leeds","country":"United Kingdom","canonicalUrl":"https://foursquare.com/v/tapped/52a74ff3498e1771bc591208","categoryId":"4bf58dd8d48988d116941735","category":"Bar","checkinsCount":1395,"usersCount":719,"tipCount":22,"visitsCount":1761,"url":"http://tappedleeds.co.uk","tier":2,"message":"Moderate","currency":"£","rating":8},{"name":"Phantom Lounge","address":"Unit 5, Roseville Road Insustrial Estate","lat":53.806247,"lng":-1.528891,"neighborhood":"University","city_fetched":"York,UK","country":"United Kingdom","canonicalUrl":"https://foursquare.com/v/phantom-lounge/4d1bc7134ff98cfad570b53e","categoryId":"4bf58dd8d48988d121941735","category":"Lounge","checkinsCount":533,"usersCount":286,"tipCount":9,"visitsCount":1208,"tier":"","message":"","currency":"","rating":8},{"name":"The Hop","phone":"+441132439854","twitter":"thehopleeds","address":"Neville St","lat":53.79360414303248,"lng":-1.5492010116577148,"neighborhood":"Holbeck Urban Village","city_fetched":"York,UK","country":"United Kingdom","canonicalUrl":"https://foursquare.com/v/the-hop/4babcc59f964a520dbca3ae3","categoryId":"4bf58dd8d48988d116941735","category":"Bar","checkinsCount":1902,"usersCount":957,"tipCount":25,"visitsCount":1964,"url":"http://thehopleeds.co.uk","tier":2,"message":"Moderate","currency":"£","rating":8},{"name":"Calls Landing | Stew & Oyster","phone":"+441132425299","twitter":"callslanding","address":"36-38 Calls Landing","lat":53.79472434294799,"lng":-1.5385029330564293,"neighborhood":"The Calls","city_fetched":"York,UK","country":"United Kingdom","canonicalUrl":"https://foursquare.com/v/calls-landing--stew--oyster/4b982150f964a520842e35e3","categoryId":"4bf58dd8d48988d116941735","category":"Bar","checkinsCount":1371,"usersCount":611,"tipCount":24,"visitsCount":1478,"url":"http://stewandoyster.com/locations/calls-landing/","tier":"","message":"","currency":"","rating":8},{"name":"The Falcon Tap","phone":"+441904622225","address":"94 Micklegate","lat":53.95683713276833,"lng":-1.0894348727002718,"city_fetched":"York,UK","state":"North Yorkshire","country":"United Kingdom","canonicalUrl":"https://foursquare.com/v/the-falcon-tap/5335eec5498e7896e375da58","categoryId":"4bf58dd8d48988d11b941735","category":"Pub","checkinsCount":288,"usersCount":64,"tipCount":1,"visitsCount":302,"tier":"","message":"","currency":"","rating":8},{"name":"Eagle & Child","phone":"+441904631536","address":"9 High Petergate","lat":53.96230322710579,"lng":-1.0847409616263026,"city_fetched":"York,UK","state":"North Yorkshire","country":"United Kingdom","canonicalUrl":"https://foursquare.com/v/eagle--child/5650b0d1498ee708fef907d9","categoryId":"4bf58dd8d48988d11b941735","category":"Pub","checkinsCount":173,"usersCount":70,"tipCount":2,"visitsCount":177,"url":"http://www.eagleandchildyork.co.uk","tier":"","message":"","currency":"","rating":7.9},{"name":"Harrogate Tap","phone":"+441423501644","twitter":"harrogatetap","address":"Station Parade","lat":53.993028388911675,"lng":-1.5375712798709362,"city_fetched":"York,UK","state":"North Yorkshire","country":"United Kingdom","canonicalUrl":"https://foursquare.com/v/harrogate-tap/52b351ad11d2f3f94a2440be","categoryId":"4bf58dd8d48988d11b941735","category":"Pub","checkinsCount":425,"usersCount":140,"tipCount":8,"visitsCount":455,"url":"http://harrogatetap.co.uk","tier":"","message":"","currency":"","rating":7.9},{"name":"York Brewery","phone":"+441904621162","twitter":"yorkbrewery","address":"12 Toft Green","lat":53.95692198216777,"lng":-1.0905379056930542,"city_fetched":"York,UK","state":"North Yorkshire","country":"United Kingdom","canonicalUrl":"https://foursquare.com/v/york-brewery/4c48873276d72d7f4ec0404d","categoryId":"50327c8591d4c4b30a586d5d","category":"Brewery","checkinsCount":546,"usersCount":394,"tipCount":8,"visitsCount":569,"tier":"","message":"","currency":"","rating":7.9},{"name":"The Swan on the Stray","phone":"+441423524587","twitter":"markettowntavs","address":"17 Devonshire Place","lat":53.99757851394134,"lng":-1.5286552906036377,"city_fetched":"York,UK","state":"North Yorkshire","country":"United Kingdom","canonicalUrl":"https://foursquare.com/v/the-swan-on-the-stray/4b7b050ff964a520964c2fe3","categoryId":"4bf58dd8d48988d11b941735","category":"Pub","checkinsCount":661,"usersCount":131,"tipCount":4,"visitsCount":715,"url":"http://www.markettowntaverns.co.uk/swan-on-the-stray.asp?Tavern=Swan-on-the-Stray&Section=Main","tier":"","message":"","currency":"","rating":7.9},{"name":"The Windmill Inn","address":"Main Street","lat":53.915843249972255,"lng":-1.4080733976528899,"neighborhood":"Linton","city_fetched":"York,UK","state":"Leeds","country":"United Kingdom","canonicalUrl":"https://foursquare.com/v/the-windmill-inn/4ce6eec0b9975481e52af344","categoryId":"4bf58dd8d48988d11b941735","category":"Pub","checkinsCount":118,"usersCount":48,"tipCount":3,"visitsCount":138,"tier":"","message":"","currency":"","rating":7.9},{"name":"Smokestack","phone":"+441132452222","twitter":"smokestackleeds","address":"159a Lower Briggate","lat":53.7955560407758,"lng":-1.5424096584320068,"neighborhood":"City and Holbeck","city_fetched":"York,UK","country":"United Kingdom","canonicalUrl":"https://foursquare.com/v/smokestack/4b560442f964a52024fc27e3","categoryId":"4bf58dd8d48988d116941735","category":"Bar","checkinsCount":1109,"usersCount":572,"tipCount":17,"visitsCount":1174,"tier":"","message":"","currency":"","rating":7.9},{"name":"The Bradford Brewery","twitter":"bradfordbrewery","address":"Rawson Rd","lat":53.79657835171666,"lng":-1.7594826099068266,"neighborhood":"City","city_fetched":"York,UK","country":"United Kingdom","canonicalUrl":"https://foursquare.com/v/the-bradford-brewery/54e63cdc498e1219a4db74e8","categoryId":"50327c8591d4c4b30a586d5d","category":"Brewery","checkinsCount":110,"usersCount":90,"tipCount":3,"visitsCount":161,"url":"http://bradfordbrewery.com","tier":"","message":"","currency":"","rating":7.9},{"name":"Viaduct Showbar","phone":"+441132454863","address":"11 Briggate","lat":53.79499836497529,"lng":-1.5427422523498535,"neighborhood":"Trinity Quarter","city_fetched":"York,UK","country":"United Kingdom","canonicalUrl":"https://foursquare.com/v/viaduct-showbar/4b64daf2f964a5204dd52ae3","categoryId":"4bf58dd8d48988d1d8941735","category":"Gay Bar","checkinsCount":1190,"usersCount":442,"tipCount":11,"visitsCount":1289,"tier":"","message":"","currency":"","rating":7.8},{"name":"The Swan","phone":"+441904634968","address":"16 Bishopgate Street","lat":53.95253752888355,"lng":-1.083827018737793,"city_fetched":"York,UK","state":"North Yorkshire","country":"United Kingdom","canonicalUrl":"https://foursquare.com/v/the-swan/4b71ccd9f964a520255d2de3","categoryId":"4bf58dd8d48988d11b941735","category":"Pub","checkinsCount":1237,"usersCount":233,"tipCount":16,"visitsCount":1331,"tier":"","message":"","currency":"","rating":7.8},{"name":"Pavement Vaults","address":"Piccadilly","lat":53.9583804162122,"lng":-1.0800664459499423,"city_fetched":"York,UK","state":"North Yorkshire","country":"United Kingdom","canonicalUrl":"https://foursquare.com/v/pavement-vaults/56520624498ee2f5663dc28b","categoryId":"4bf58dd8d48988d11b941735","category":"Pub","checkinsCount":173,"usersCount":127,"tipCount":4,"visitsCount":200,"tier":"","message":"","currency":"","rating":7.7},{"name":"The Three-Legged Mare","phone":"+441904621162","twitter":"yorkbrewery","address":"15 High Petergate","lat":53.962246468512426,"lng":-1.0842454433441162,"city_fetched":"York,UK","country":"United Kingdom","canonicalUrl":"https://foursquare.com/v/the-threelegged-mare/4b92a001f964a520110b34e3","categoryId":"4bf58dd8d48988d11b941735","category":"Pub","checkinsCount":1019,"usersCount":456,"tipCount":17,"visitsCount":1047,"tier":"","message":"","currency":"","rating":7.6},{"name":"Revolucion de Cuba","lat":53.794690120596044,"lng":-1.542112105399663,"neighborhood":"The Calls","city_fetched":"York,UK","country":"United Kingdom","canonicalUrl":"https://foursquare.com/v/revolucion-de-cuba/562fd599498e08f2c67d6abe","categoryId":"4bf58dd8d48988d11e941735","category":"Cocktail Bar","checkinsCount":146,"usersCount":113,"tipCount":2,"visitsCount":196,"tier":"","message":"","currency":"","rating":7.6},{"name":"Evil Eye Lounge","phone":"+441904640002","twitter":"evileyelounge","address":"42 Stonegate","lat":53.96111503261232,"lng":-1.083042472600937,"city_fetched":"York,UK","country":"United Kingdom","canonicalUrl":"https://foursquare.com/v/evil-eye-lounge/4b7023b1f964a5207e082de3","categoryId":"4bf58dd8d48988d11e941735","category":"Cocktail Bar","checkinsCount":1759,"usersCount":1027,"tipCount":41,"visitsCount":1802,"url":"http://www.evileyelounge.com","tier":"","message":"","currency":"","rating":7.6},{"name":"Saltaire Brewery","phone":"+441274594959","address":"Unit 6, County Workshops","lat":53.83840420429386,"lng":-1.7667141867512128,"neighborhood":"Shipley","city_fetched":"York,UK","country":"United Kingdom","canonicalUrl":"https://foursquare.com/v/saltaire-brewery/4c5338c9fd2ea593f1db1628","categoryId":"50327c8591d4c4b30a586d5d","category":"Brewery","checkinsCount":258,"usersCount":156,"tipCount":9,"visitsCount":322,"tier":"","message":"","currency":"","rating":7.6},{"name":"Duke of York","phone":"+441904676065","twitter":"lbdukeofyork","address":"King's Square","lat":53.95989203737547,"lng":-1.080082654953003,"city_fetched":"York,UK","state":"North Yorkshire","country":"United Kingdom","canonicalUrl":"https://foursquare.com/v/duke-of-york/5257f50f498ed1010d8e5b28","categoryId":"4bf58dd8d48988d11b941735","category":"Pub","checkinsCount":673,"usersCount":315,"tipCount":11,"visitsCount":708,"url":"http://www.lbdukeofyork.co.uk","tier":"","message":"","currency":"","rating":7.5},{"name":"Bar T'at","phone":"+441943608888","twitter":"markettowntavs","address":"7 Cunliffe Road","lat":53.92514376075074,"lng":-1.8258956268526763,"neighborhood":"Ilkley","city_fetched":"York,UK","country":"United Kingdom","canonicalUrl":"https://foursquare.com/v/bar-tat/4bb26e8b2397b713fc0037b3","categoryId":"4bf58dd8d48988d116941735","category":"Bar","checkinsCount":475,"usersCount":186,"tipCount":13,"visitsCount":512,"tier":"","message":"","currency":"","rating":7.5},{"name":"MOJO","phone":"+448456118643","address":"18 Merrion Street","lat":53.800584,"lng":-1.540395,"neighborhood":"Northern Quarter","city_fetched":"York,UK","state":"Leeds","country":"United Kingdom","canonicalUrl":"https://foursquare.com/v/mojo/4b47a329f964a5207c3826e3","categoryId":"4bf58dd8d48988d11e941735","category":"Cocktail Bar","checkinsCount":1271,"usersCount":538,"tipCount":22,"visitsCount":1292,"url":"http://www.mojobar.co.uk","tier":"","message":"","currency":"","rating":7.5},{"name":"Ye Olde Starre Inne","phone":"+441904623063","address":"40 Stonegate","lat":53.96124285326939,"lng":-1.083427369594574,"city_fetched":"York,UK","state":"North Yorkshire","country":"United Kingdom","canonicalUrl":"https://foursquare.com/v/ye-olde-starre-inne/4b48c7a1f964a520a45626e3","categoryId":"4bf58dd8d48988d11b941735","category":"Pub","checkinsCount":1367,"usersCount":729,"tipCount":15,"visitsCount":1405,"url":"http://www.taylor-walker.co.uk/pub/ye-olde-starre-inne-york/c1731/","tier":"","message":"","currency":"","rating":7.5},{"name":"The Rodley Barge","phone":"+441132574606","twitter":"therodleybarge","address":"182-184 Town St.","lat":53.823173,"lng":-1.662487,"neighborhood":"Rodley","city_fetched":"York,UK","country":"United Kingdom","canonicalUrl":"https://foursquare.com/therodleybarge","categoryId":"4bf58dd8d48988d11b941735","category":"Pub","checkinsCount":837,"usersCount":121,"tipCount":3,"visitsCount":844,"url":"http://www.therodley-barge.co.uk","tier":"","message":"","currency":"","rating":7.5},{"name":"West End House","phone":"+441132786332","lat":53.81715230125699,"lng":-1.6020575937575283,"neighborhood":"Kirkstall","city_fetched":"York,UK","state":"Leeds","country":"United Kingdom","canonicalUrl":"https://foursquare.com/v/west-end-house/4c08ed64bbc676b0ee3d47d5","categoryId":"4bf58dd8d48988d11b941735","category":"Pub","checkinsCount":492,"usersCount":161,"tipCount":9,"visitsCount":583,"url":"http://www.westendleeds.co.uk","tier":"","message":"","currency":"","rating":7.4},{"name":"Trio's Bar and Grill","phone":"+441132036090","address":"44-46 North Ln, Headingley","lat":53.82006601975598,"lng":-1.5810400917579501,"neighborhood":"Headingley","city_fetched":"York,UK","country":"United Kingdom","canonicalUrl":"https://foursquare.com/v/trios-bar-and-grill/4b80824cf964a520a87830e3","categoryId":"4bf58dd8d48988d116941735","category":"Bar","checkinsCount":508,"usersCount":319,"tipCount":1,"visitsCount":537,"url":"http://www.arcinspirations.com/trio/","tier":"","message":"","currency":"","rating":7.4},{"name":"The Fleece","address":"61 Westgate","lat":53.904146908581374,"lng":-1.7004332137904044,"neighborhood":"Otley and Wharfedale","city_fetched":"York,UK","state":"Leeds","country":"United Kingdom","canonicalUrl":"https://foursquare.com/v/the-fleece/4d83d49599b78cfa95dea91f","categoryId":"4bf58dd8d48988d11b941735","category":"Pub","checkinsCount":438,"usersCount":119,"tipCount":11,"visitsCount":471,"tier":"","message":"","currency":"","rating":7.4},{"name":"Lazy Lounge","address":"Wellington Street","lat":53.79580752925341,"lng":-1.552948097474863,"neighborhood":"Leeds City Centre","city_fetched":"York,UK","country":"United Kingdom","canonicalUrl":"https://foursquare.com/v/lazy-lounge/4b744436f964a5202dd12de3","categoryId":"4bf58dd8d48988d123941735","category":"Wine Bar","checkinsCount":453,"usersCount":232,"tipCount":7,"visitsCount":470,"tier":"","message":"","currency":"","rating":7.4},{"name":"Pasha","phone":"+441274733484","twitter":"pasha","address":"20 Edderthorpe St","lat":53.79186556345805,"lng":-1.737767732280386,"neighborhood":"Bradford East","city_fetched":"York,UK","country":"United Kingdom","canonicalUrl":"https://foursquare.com/v/pasha/4c4a39969c8d2d7ff2e53569","categoryId":"4bf58dd8d48988d119941735","category":"Hookah Bar","checkinsCount":136,"usersCount":127,"tipCount":6,"visitsCount":204,"url":"http://www.pashashisha.co.uk","tier":"","message":"","currency":"","rating":7.4},{"name":"East Of Arcadia","phone":"+441132755488","twitter":"markettowntavs","address":"607 Meanwood Road","lat":53.8277798,"lng":-1.5666987333333333,"neighborhood":"Meanwood","city_fetched":"York,UK","country":"United Kingdom","canonicalUrl":"https://foursquare.com/v/east-of-arcadia/4ce303f64df7a35dec6de079","categoryId":"4bf58dd8d48988d11b941735","category":"Pub","checkinsCount":366,"usersCount":147,"tipCount":12,"visitsCount":370,"tier":"","message":"","currency":"","rating":7.4},{"name":"Masons Arms","phone":"+441904646046","address":"6 Fishergate","lat":53.954114,"lng":-1.077146,"city_fetched":"York,UK","state":"North Yorkshire","country":"United Kingdom","canonicalUrl":"https://foursquare.com/v/masons-arms/4baa16d6f964a520dc493ae3","categoryId":"4bf58dd8d48988d11b941735","category":"Pub","checkinsCount":212,"usersCount":136,"tipCount":6,"visitsCount":212,"tier":"","message":"","currency":"","rating":7.3},{"name":"Revolution","phone":"+441904676054","twitter":"revolutionyork","address":"Coney St","lat":53.959128238924094,"lng":-1.0850715637207031,"city_fetched":"York,UK","country":"United Kingdom","canonicalUrl":"https://foursquare.com/v/revolution/4b133266f964a520609523e3","categoryId":"4bf58dd8d48988d116941735","category":"Bar","checkinsCount":1453,"usersCount":816,"tipCount":17,"visitsCount":1478,"tier":"","message":"","currency":"","rating":7.3},{"name":"SkyLounge","phone":"+441132411007","twitter":"skyloungeleeds","address":"13th Floor, Granary Wharf, 2 Wharf Approach","lat":53.792970390464966,"lng":-1.5494585037231445,"neighborhood":"Holbeck Urban Village","city_fetched":"York,UK","state":"Leeds","country":"United Kingdom","canonicalUrl":"https://foursquare.com/v/skylounge/4b3282e0f964a520760d25e3","categoryId":"4bf58dd8d48988d121941735","category":"Lounge","checkinsCount":1444,"usersCount":946,"tipCount":25,"visitsCount":1455,"url":"http://doubletree3.hilton.com/en/hotels/united-kingdom/doubletree-by-hilton-hotel-leeds-city-centre-LBACCDI/dining/index.html","tier":3,"message":"Expensive","currency":"£","rating":7.3},{"name":"Mr Foleys","phone":"+441132429674","twitter":"mrfoleys","address":"159 The Headrow","lat":53.79968892268168,"lng":-1.5490805385539748,"neighborhood":"Financial Quarter","city_fetched":"York,UK","country":"United Kingdom","canonicalUrl":"https://foursquare.com/v/mr-foleys/4b4cb3e9f964a520e4ba26e3","categoryId":"4bf58dd8d48988d11b941735","category":"Pub","checkinsCount":1534,"usersCount":633,"tipCount":26,"visitsCount":1643,"tier":"","message":"","currency":"","rating":7.3},{"name":"Veritas","phone":"+441132428094","twitter":"markettowntavs","address":"43 Great George St.","lat":53.80099488141362,"lng":-1.55113375334263,"neighborhood":"Leeds City Centre","city_fetched":"York,UK","country":"United Kingdom","canonicalUrl":"https://foursquare.com/v/veritas/4cbb6322f796ef3bab970080","categoryId":"4bf58dd8d48988d123941735","category":"Wine Bar","checkinsCount":821,"usersCount":453,"tipCount":16,"visitsCount":979,"tier":"","message":"","currency":"","rating":7.3},{"name":"The King's Arms","phone":"+441904659435","address":"3 King's Staith","lat":53.95717125175259,"lng":-1.0833191220705594,"city_fetched":"York,UK","state":"North Yorkshire","country":"United Kingdom","canonicalUrl":"https://foursquare.com/v/the-kings-arms/4b766950f964a520784b2ee3","categoryId":"4bf58dd8d48988d11b941735","category":"Pub","checkinsCount":921,"usersCount":548,"tipCount":14,"visitsCount":934,"tier":"","message":"","currency":"","rating":7.3},{"name":"The Old Peacock","phone":"+441132710997","address":"Elland Rd","lat":53.77698041598112,"lng":-1.5706323880042605,"neighborhood":"Elland Road","city_fetched":"York,UK","country":"United Kingdom","canonicalUrl":"https://foursquare.com/v/the-old-peacock/4bc368b5f8219c74e20bb610","categoryId":"4bf58dd8d48988d11b941735","category":"Pub","checkinsCount":389,"usersCount":134,"tipCount":3,"visitsCount":401,"tier":"","message":"","currency":"","rating":7.3},{"name":"The Fat Badger","phone":"+441423505681","twitter":"fatbadgerpub","address":"Cold Bath Rd","lat":53.99239,"lng":-1.5459,"city_fetched":"York,UK","state":"North Yorkshire","country":"United Kingdom","canonicalUrl":"https://foursquare.com/v/the-fat-badger/4dd6dcb28877f1150fdb7289","categoryId":"4bf58dd8d48988d11b941735","category":"Pub","checkinsCount":651,"usersCount":438,"tipCount":12,"visitsCount":827,"url":"http://www.thefatbadger.co.uk","tier":"","message":"","currency":"","rating":7.3},{"name":"Tap & Spile","phone":"+441423526785","address":"41 Tower St.","lat":53.98929999905617,"lng":-1.539032233074177,"city_fetched":"York,UK","state":"North Yorkshire","country":"United Kingdom","canonicalUrl":"https://foursquare.com/v/tap--spile/4cd9e42534bb8cfad615bbbf","categoryId":"4bf58dd8d48988d11b941735","category":"Pub","checkinsCount":242,"usersCount":72,"tipCount":6,"visitsCount":253,"tier":"","message":"","currency":"","rating":7.3},{"name":"The Tetley","phone":"+441133202323","twitter":"the_tetley","address":"Hunslet Road","lat":53.7922447013917,"lng":-1.5401003159133335,"city_fetched":"York,UK","state":"Leeds","country":"United Kingdom","canonicalUrl":"https://foursquare.com/v/the-tetley/4c8dd615b3bcb60c1b7f5427","categoryId":"50327c8591d4c4b30a586d5d","category":"Brewery","checkinsCount":623,"usersCount":515,"tipCount":9,"visitsCount":972,"url":"http://thetetley.org","tier":"","message":"","currency":"","rating":7.2},{"name":"The Graduate","phone":"+441904541284","twitter":"graduateyork","address":"6-12 Lendal","lat":53.96038755202715,"lng":-1.0857528448104858,"city_fetched":"York,UK","state":"North Yorkshire","country":"United Kingdom","canonicalUrl":"https://foursquare.com/v/the-graduate/4cc0a6b36ad3a14333b3d6de","categoryId":"4bf58dd8d48988d11b941735","category":"Pub","checkinsCount":675,"usersCount":426,"tipCount":9,"visitsCount":692,"url":"http://www.graduateyork.co.uk","tier":"","message":"","currency":"","rating":7.2},{"name":"Épernay Champagne Bar","address":"41 Cookridge St","lat":53.801083,"lng":-1.547937,"neighborhood":"Leeds City Centre","city_fetched":"York,UK","state":"Leeds","country":"United Kingdom","canonicalUrl":"https://foursquare.com/v/%C3%A9pernay-champagne-bar/4b328119f964a520580d25e3","categoryId":"4bf58dd8d48988d121941735","category":"Lounge","checkinsCount":387,"usersCount":260,"tipCount":11,"visitsCount":388,"tier":"","message":"","currency":"","rating":7.2},{"name":"Montey's Rock Cafe","phone":"+441423526652","address":"3 The Ginnel","lat":53.99356918462436,"lng":-1.543918085365077,"city_fetched":"York,UK","state":"North Yorkshire","country":"United Kingdom","canonicalUrl":"https://foursquare.com/v/monteys-rock-cafe/4bf18b8fd39ad13a615daa0e","categoryId":"4bf58dd8d48988d116941735","category":"Bar","checkinsCount":527,"usersCount":174,"tipCount":12,"visitsCount":542,"url":"http://www.monteys.com","tier":"","message":"","currency":"","rating":7.2},{"name":"Harvey Nichols Fourth Floor Bar","twitter":"harveynichols","address":"107 Briggate","lat":53.79768528017116,"lng":-1.5421628952026367,"neighborhood":"Leeds City Centre","city_fetched":"York,UK","state":"Leeds","country":"United Kingdom","canonicalUrl":"https://foursquare.com/v/harvey-nichols-fourth-floor-bar/504505b7183fcb060e8d6acd","categoryId":"4bf58dd8d48988d116941735","category":"Bar","checkinsCount":113,"usersCount":72,"tipCount":3,"visitsCount":113,"url":"http://www.harveynichols.com","tier":"","message":"","currency":"","rating":7.2},{"name":"The Brotherhood of Pursuits and Pastimes","phone":"+441132434060","twitter":"brotherhoodlds","address":"54 New Briggate","lat":53.800429,"lng":-1.540679,"city_fetched":"York,UK","state":"Leeds","country":"United Kingdom","canonicalUrl":"https://foursquare.com/v/the-brotherhood-of-pursuits-and-pastimes/545eac5c498e128ccabb67fe","categoryId":"4bf58dd8d48988d116941735","category":"Bar","checkinsCount":183,"usersCount":82,"tipCount":4,"visitsCount":191,"url":"http://thisisthebrotherhood.com","tier":"","message":"","currency":"","rating":7.2},{"name":"Revolution","phone":"+441423858815","address":"Royal Baths","lat":53.99389528585396,"lng":-1.5445232391357422,"city_fetched":"York,UK","state":"North Yorkshire","country":"United Kingdom","canonicalUrl":"https://foursquare.com/v/revolution/4b90ffe9f964a520689e33e3","categoryId":"4bf58dd8d48988d11e941735","category":"Cocktail Bar","checkinsCount":424,"usersCount":166,"tipCount":8,"visitsCount":425,"tier":"","message":"","currency":"","rating":7.2},{"name":"The Deer Park","phone":"+441132463211","twitter":"deerparkleeds","address":"68 Street Lane","lat":53.84435,"lng":-1.508961,"neighborhood":"Roundhay","city_fetched":"York,UK","country":"United Kingdom","canonicalUrl":"https://foursquare.com/v/the-deer-park/4b6888b9f964a520637e2be3","categoryId":"4bf58dd8d48988d11b941735","category":"Pub","checkinsCount":493,"usersCount":180,"tipCount":12,"visitsCount":525,"url":"http://www.deerparkleeds.co.uk","tier":"","message":"","currency":"","rating":7.1},{"name":"The Winter Gardens (Wetherspoon)","phone":"+441423877010","address":"Unit 4 Royal Baths","lat":53.99406191710713,"lng":-1.5442052635426664,"city_fetched":"York,UK","state":"North Yorkshire","country":"United Kingdom","canonicalUrl":"https://foursquare.com/v/the-winter-gardens-wetherspoon/4bb914af53649c74f2b047fb","categoryId":"4bf58dd8d48988d11b941735","category":"Pub","checkinsCount":1836,"usersCount":741,"tipCount":17,"visitsCount":2124,"url":"http://www.jdwetherspoon.co.uk","tier":"","message":"","currency":"","rating":7.1},{"name":"Fox Inn","phone":"+441904798341","address":"168 Holgate Rd","lat":53.95529088682404,"lng":-1.1063548922538757,"city_fetched":"York,UK","country":"United Kingdom","canonicalUrl":"https://foursquare.com/v/fox-inn/4bfc08d2e9d8c9285cebb1c7","categoryId":"4bf58dd8d48988d11b941735","category":"Pub","checkinsCount":529,"usersCount":155,"tipCount":4,"visitsCount":588,"tier":"","message":"","currency":"","rating":7.1},{"name":"Hirst's Yard","address":"11-15 Hirst's Yard","lat":53.79572428171122,"lng":-1.5415152133428818,"neighborhood":"City and Holbeck","city_fetched":"York,UK","state":"Leeds","country":"United Kingdom","canonicalUrl":"https://foursquare.com/v/hirsts-yard/4fa23770e4b0857bbd44d158","categoryId":"4bf58dd8d48988d116941735","category":"Bar","checkinsCount":175,"usersCount":120,"tipCount":4,"visitsCount":180,"tier":"","message":"","currency":"","rating":7.1},{"name":"The Golden Ball","phone":"+441904652211","twitter":"goldenballyork","address":"2 Cromwell Rd","lat":53.954811,"lng":-1.084944,"city_fetched":"York,UK","state":"North Yorkshire","country":"United Kingdom","canonicalUrl":"https://foursquare.com/v/the-golden-ball/4b487bc9f964a520094e26e3","categoryId":"4bf58dd8d48988d11b941735","category":"Pub","checkinsCount":276,"usersCount":167,"tipCount":9,"visitsCount":351,"url":"http://www.goldenballyork.co.uk","tier":"","message":"","currency":"","rating":7},{"name":"Al Qaza Shisha Lounge","phone":"+447920524628","twitter":"al_qaza_shisha","address":"Roseville Road","lat":53.8054725594101,"lng":-1.5308547019958496,"neighborhood":"University","city_fetched":"York,UK","state":"Leeds","country":"United Kingdom","canonicalUrl":"https://foursquare.com/v/al-qaza-shisha-lounge/5272bb1f498e381f38e868d7","categoryId":"4bf58dd8d48988d119941735","category":"Hookah Bar","checkinsCount":81,"usersCount":94,"tipCount":3,"visitsCount":161,"tier":"","message":"","currency":"","rating":7},{"name":"The Mitre","phone":"+441423868948","twitter":"markettowntavs","address":"4 Station Rd.","lat":54.00895409908818,"lng":-1.4705371856689453,"city_fetched":"York,UK","state":"North Yorkshire","country":"United Kingdom","canonicalUrl":"https://foursquare.com/v/the-mitre/4bca13aa937ca593440da792","categoryId":"4bf58dd8d48988d116941735","category":"Bar","checkinsCount":268,"usersCount":132,"tipCount":1,"visitsCount":272,"tier":"","message":"","currency":"","rating":7},{"name":"The Alchemist","address":"Greek Street","lat":53.79837,"lng":-1.548806,"neighborhood":"Financial Quarter","city_fetched":"York,UK","state":"Leeds","country":"United Kingdom","canonicalUrl":"https://foursquare.com/v/the-alchemist/5622beeb498ed81e9fd51bb5","categoryId":"4bf58dd8d48988d121941735","category":"Lounge","checkinsCount":98,"usersCount":102,"tipCount":3,"visitsCount":154,"tier":"","message":"","currency":"","rating":7},{"name":"Bottomley's Arms","phone":"+441274678649","lat":53.75254255456018,"lng":-1.8166494369506836,"city_fetched":"York,UK","state":"Calderdale","country":"United Kingdom","canonicalUrl":"https://foursquare.com/v/bottomleys-arms/4cd6a858dfb4a1cd8b2d605c","categoryId":"50327c8591d4c4b30a586d5d","category":"Brewery","checkinsCount":386,"usersCount":69,"tipCount":4,"visitsCount":459,"tier":"","message":"","currency":"","rating":7},{"name":"The Three Tuns (Wetherspoon)","phone":"+441845521370","address":"54 Market Place","lat":54.23247946902192,"lng":-1.3412580805726964,"city_fetched":"York,UK","state":"North Yorkshire","country":"United Kingdom","canonicalUrl":"https://foursquare.com/v/the-three-tuns-wetherspoon/4b506b39f964a520c02227e3","categoryId":"4bf58dd8d48988d11b941735","category":"Pub","checkinsCount":368,"usersCount":144,"tipCount":6,"visitsCount":396,"url":"http://www.jdwetherspoon.co.uk","tier":"","message":"","currency":"","rating":7},{"name":"Victoria Hotel","phone":"+441132451386","address":"28 Great George St","lat":53.800801344804114,"lng":-1.549363333738593,"neighborhood":"Leeds City Centre","city_fetched":"York,UK","country":"United Kingdom","canonicalUrl":"https://foursquare.com/v/victoria-hotel/4b47a420f964a520a53826e3","categoryId":"4bf58dd8d48988d11b941735","category":"Pub","checkinsCount":774,"usersCount":405,"tipCount":11,"visitsCount":829,"tier":"","message":"","currency":"","rating":7},{"name":"Duck and Drake","address":"Kirkgate","lat":53.796043,"lng":-1.53784396,"neighborhood":"City and Holbeck","city_fetched":"York,UK","state":"Leeds","country":"United Kingdom","canonicalUrl":"https://foursquare.com/v/duck-and-drake/4c0e975398102d7f74e9e306","categoryId":"4bf58dd8d48988d11b941735","category":"Pub","checkinsCount":473,"usersCount":257,"tipCount":14,"visitsCount":493,"tier":"","message":"","currency":"","rating":7},{"name":"The Roundhay Fox","phone":"+441132693352","address":"Princes Ave.","lat":53.839625,"lng":-1.5043155,"neighborhood":"Roundhay","city_fetched":"York,UK","state":"Leeds","country":"United Kingdom","canonicalUrl":"https://foursquare.com/v/the-roundhay-fox/4b812f59f964a520b79930e3","categoryId":"4bf58dd8d48988d11b941735","category":"Pub","checkinsCount":736,"usersCount":452,"tipCount":12,"visitsCount":854,"url":"http://www.vintageinn.co.uk/theroundhayfoxleeds","tier":"","message":"","currency":"","rating":7},{"name":"The Kestrel","phone":"+441423797979","address":"Wetherby Road, Plompton","lat":53.98060674635534,"lng":-1.476004384809404,"city_fetched":"York,UK","state":"North Yorkshire","country":"United Kingdom","canonicalUrl":"https://foursquare.com/v/the-kestrel/4b9615fff964a5204bbc34e3","categoryId":"4bf58dd8d48988d11b941735","category":"Pub","checkinsCount":179,"usersCount":164,"tipCount":3,"visitsCount":248,"tier":"","message":"","currency":"","rating":6.9},{"name":"The Alexandra","phone":"+441423564976","address":"11 Prospect Place","lat":53.991019114089355,"lng":-1.5409183502197266,"city_fetched":"York,UK","state":"North Yorkshire","country":"United Kingdom","canonicalUrl":"https://foursquare.com/v/the-alexandra/4bf2f00a354e9c7400852602","categoryId":"4bf58dd8d48988d11b941735","category":"Pub","checkinsCount":866,"usersCount":268,"tipCount":7,"visitsCount":896,"tier":"","message":"","currency":"","rating":6.9},{"name":"Kennedy's","phone":"+441904620222","address":"1 Little Stonegate","lat":53.96067002430433,"lng":-1.083427369594574,"city_fetched":"York,UK","country":"United Kingdom","canonicalUrl":"https://foursquare.com/v/kennedys/4bacfd1ff964a520bf213be3","categoryId":"4bf58dd8d48988d121941735","category":"Lounge","checkinsCount":706,"usersCount":476,"tipCount":13,"visitsCount":735,"tier":"","message":"","currency":"","rating":6.9},{"name":"The Crown (Wetherspoon)","phone":"+441423862122","address":"71-75 High Street","lat":54.00899827480316,"lng":-1.468696575527405,"city_fetched":"York,UK","state":"North Yorkshire","country":"United Kingdom","canonicalUrl":"https://foursquare.com/v/the-crown-wetherspoon/4d73ccefd976236a99601979","categoryId":"4bf58dd8d48988d11b941735","category":"Pub","checkinsCount":133,"usersCount":78,"tipCount":2,"visitsCount":181,"tier":"","message":"","currency":"","rating":6.9},{"name":"Bobo Lobo","phone":"+441904621900","twitter":"bobolobo1","address":"5 Little Stonegate","lat":53.960385973964364,"lng":-1.083090752363205,"city_fetched":"York,UK","state":"North Yorkshire","country":"United Kingdom","canonicalUrl":"https://foursquare.com/v/bobo-lobo/4bc8e3c3fb84c9b6f9f8193e","categoryId":"4bf58dd8d48988d11e941735","category":"Cocktail Bar","checkinsCount":548,"usersCount":185,"tipCount":18,"visitsCount":549,"url":"http://www.bobolobo.net","tier":"","message":"","currency":"","rating":6.9},{"name":"Hales Bar","address":"Crescent Road","lat":53.993835,"lng":-1.546657,"city_fetched":"York,UK","state":"North Yorkshire","country":"United Kingdom","canonicalUrl":"https://foursquare.com/v/hales-bar/4b6f174ef964a5204fdc2ce3","categoryId":"4bf58dd8d48988d11b941735","category":"Pub","checkinsCount":264,"usersCount":188,"tipCount":6,"visitsCount":274,"tier":"","message":"","currency":"","rating":6.8},{"name":"The Old Ball","address":"Horsforth","lat":53.84626181648476,"lng":-1.63462,"neighborhood":"Horsforth","city_fetched":"York,UK","state":"Leeds","country":"United Kingdom","canonicalUrl":"https://foursquare.com/v/the-old-ball/4ba626aef964a5205b3739e3","categoryId":"4bf58dd8d48988d11b941735","category":"Pub","checkinsCount":414,"usersCount":192,"tipCount":5,"visitsCount":498,"tier":"","message":"","currency":"","rating":6.8},{"name":"The Old Cock","phone":"+441943464424","twitter":"theoldcockotley","address":"11-13 Crossgate","lat":53.90454041929697,"lng":-1.6921734809875488,"neighborhood":"Otley and Wharfedale","city_fetched":"York,UK","state":"Leeds","country":"United Kingdom","canonicalUrl":"https://foursquare.com/v/the-old-cock/4c8bf46455fba0934d145bab","categoryId":"4bf58dd8d48988d11b941735","category":"Pub","checkinsCount":1075,"usersCount":114,"tipCount":5,"visitsCount":1080,"url":"http://theoldcockotley.co.uk","tier":"","message":"","currency":"","rating":6.8},{"name":"The Fox & Newt","address":"9 Burley Street","lat":53.800249,"lng":-1.559538,"neighborhood":"Hyde Park","city_fetched":"York,UK","state":"Leeds","country":"United Kingdom","canonicalUrl":"https://foursquare.com/v/the-fox--newt/4b56b734f964a5205f1928e3","categoryId":"4bf58dd8d48988d11b941735","category":"Pub","checkinsCount":554,"usersCount":184,"tipCount":11,"visitsCount":592,"tier":"","message":"","currency":"","rating":6.8},{"name":"White Bear Hotel","phone":"+441765689319","address":"Wellgarth","lat":54.224767804462346,"lng":-1.6584504001684448,"city_fetched":"York,UK","state":"North Yorkshire","country":"United Kingdom","canonicalUrl":"https://foursquare.com/v/white-bear-hotel/4c4b2089f7cc1b8d1ea0733f","categoryId":"4bf58dd8d48988d11b941735","category":"Pub","checkinsCount":126,"usersCount":91,"tipCount":3,"visitsCount":128,"url":"http://www.thewhitebearhotel.co.uk","tier":"","message":"","currency":"","rating":6.7},{"name":"Verve Bar","phone":"+441132442272","address":"16 Merrion St.","lat":53.800479742829154,"lng":-1.5403014421463013,"neighborhood":"City and Holbeck","city_fetched":"York,UK","country":"United Kingdom","canonicalUrl":"https://foursquare.com/v/verve-bar/4b5f3d49f964a52064af29e3","categoryId":"4bf58dd8d48988d116941735","category":"Bar","checkinsCount":420,"usersCount":202,"tipCount":9,"visitsCount":422,"tier":"","message":"","currency":"","rating":6.7},{"name":"Coach and Horses","phone":"+441423561802","twitter":"coachhorsespub","address":"16 West Park","lat":53.98886696294539,"lng":-1.5405835640714691,"city_fetched":"York,UK","state":"North Yorkshire","country":"United Kingdom","canonicalUrl":"https://foursquare.com/v/coach-and-horses/4bad2d9bf964a5202b363be3","categoryId":"4bf58dd8d48988d11b941735","category":"Pub","checkinsCount":256,"usersCount":135,"tipCount":7,"visitsCount":293,"url":"http://www.thecoachandhorses.net","tier":"","message":"","currency":"","rating":6.7},{"name":"Stick or Twist (Wetherspoon)","phone":"+441132349748","twitter":"stickortwistjdw","address":"Merrion Way","lat":53.80243132059282,"lng":-1.542978286743164,"neighborhood":"City and Holbeck","city_fetched":"York,UK","country":"United Kingdom","canonicalUrl":"https://foursquare.com/v/stick-or-twist-wetherspoon/4bc8600314d7952181e468e9","categoryId":"4bf58dd8d48988d11b941735","category":"Pub","checkinsCount":1458,"usersCount":529,"tipCount":11,"visitsCount":1622,"tier":"","message":"","currency":"","rating":6.7},{"name":"The Old Steps","address":"26 York Place","lat":53.797317740614105,"lng":-1.5541791915893555,"neighborhood":"Financial Quarter","city_fetched":"York,UK","country":"United Kingdom","canonicalUrl":"https://foursquare.com/v/the-old-steps/4b582761f964a5205c4c28e3","categoryId":"4bf58dd8d48988d116941735","category":"Bar","checkinsCount":171,"usersCount":57,"tipCount":7,"visitsCount":188,"tier":"","message":"","currency":"","rating":6.7},{"name":"SO! Bar and Eats","phone":"+441423863202","twitter":"sobarandeats","address":"1 Silver Street","lat":54.00774984670651,"lng":-1.4657628536224365,"city_fetched":"York,UK","state":"North Yorkshire","country":"United Kingdom","canonicalUrl":"https://foursquare.com/v/so-bar-and-eats/4bba14d453649c74e39648fb","categoryId":"4bf58dd8d48988d116941735","category":"Bar","checkinsCount":443,"usersCount":153,"tipCount":8,"visitsCount":484,"tier":"","message":"","currency":"","rating":6.6},{"name":"The Viper Rooms","phone":"+441423520567","address":"Unit 1, The Royal Baths","lat":53.99461187417422,"lng":-1.5441299078954105,"city_fetched":"York,UK","country":"United Kingdom","canonicalUrl":"https://foursquare.com/v/the-viper-rooms/4c02ea05f56c2d7f2c2b1c66","categoryId":"4bf58dd8d48988d116941735","category":"Bar","checkinsCount":342,"usersCount":131,"tipCount":2,"visitsCount":344,"tier":"","message":"","currency":"","rating":6.6},{"name":"The Pack Horse","phone":"+441132453980","address":"208 Woodhouse Ln.","lat":53.81037056652584,"lng":-1.555925634876346,"neighborhood":"Woodhouse","city_fetched":"York,UK","country":"United Kingdom","canonicalUrl":"https://foursquare.com/v/the-pack-horse/4b47a2b9f964a520653826e3","categoryId":"4bf58dd8d48988d11b941735","category":"Pub","checkinsCount":516,"usersCount":242,"tipCount":5,"visitsCount":519,"tier":"","message":"","currency":"","rating":6.6},{"name":"The Pheonix","phone":"+441132424434","address":"88 Wellington St","lat":53.79679811022695,"lng":-1.5551233291625977,"neighborhood":"Financial Quarter","city_fetched":"York,UK","country":"United Kingdom","canonicalUrl":"https://foursquare.com/v/the-pheonix/4b4ca634f964a520dbb826e3","categoryId":"4bf58dd8d48988d11b941735","category":"Pub","checkinsCount":482,"usersCount":254,"tipCount":9,"visitsCount":545,"tier":"","message":"","currency":"","rating":6.6},{"name":"The Brown Cow","phone":"+441274564345","twitter":"the_browncow","address":"Ireland Bridge","lat":53.84990663217572,"lng":-1.841840420189219,"neighborhood":"Bingley","city_fetched":"York,UK","country":"United Kingdom","canonicalUrl":"https://foursquare.com/v/the-brown-cow/4e58d837d164da2b2759c3d8","categoryId":"4bf58dd8d48988d11b941735","category":"Pub","checkinsCount":118,"usersCount":61,"tipCount":2,"visitsCount":127,"url":"http://browncowbingley.com","tier":"","message":"","currency":"","rating":6.5},{"name":"Old Spring Well Inn","phone":"+441423567035","address":"Otley Rd, Killinghall","lat":54.0074448551447,"lng":-1.5787949309833513,"city_fetched":"York,UK","state":"North Yorkshire","country":"United Kingdom","canonicalUrl":"https://foursquare.com/v/old-spring-well-inn/51cd77b1498e7d6ae05403bf","categoryId":"4bf58dd8d48988d11b941735","category":"Pub","checkinsCount":81,"usersCount":100,"tipCount":4,"visitsCount":187,"tier":"","message":"","currency":"","rating":6.5},{"name":"The Castle Hotel","phone":"+441274393166","address":"20 Grattan Rd.","lat":53.79493001385214,"lng":-1.7575628441393565,"neighborhood":"City","city_fetched":"York,UK","country":"United Kingdom","canonicalUrl":"https://foursquare.com/v/the-castle-hotel/4dc18445316aeec788df151c","categoryId":"4bf58dd8d48988d11b941735","category":"Pub","checkinsCount":57,"usersCount":25,"tipCount":3,"visitsCount":58,"url":"http://www.castle-hotel-bradford.co.uk","tier":"","message":"","currency":"","rating":6.4},{"name":"Christies","address":"20-22 Kings Rd","lat":53.995378,"lng":-1.542677879333496,"city_fetched":"York,UK","state":"North Yorkshire","country":"United Kingdom","canonicalUrl":"https://foursquare.com/v/christies/4b520677f964a5202b6227e3","categoryId":"4bf58dd8d48988d11b941735","category":"Pub","checkinsCount":801,"usersCount":141,"tipCount":5,"visitsCount":828,"tier":"","message":"","currency":"","rating":6.4},{"name":"The Devon","address":"Kingswear Parade","lat":53.802475673577284,"lng":-1.4443588256835938,"neighborhood":"Whitkirk","city_fetched":"York,UK","country":"United Kingdom","canonicalUrl":"https://foursquare.com/v/the-devon/4baa9719f964a5208e773ae3","categoryId":"4bf58dd8d48988d11b941735","category":"Pub","checkinsCount":220,"usersCount":68,"tipCount":2,"visitsCount":253,"tier":"","message":"","currency":"","rating":6.4},{"name":"Shooters Sports Bar","phone":"+441132432300","twitter":"shooters_sports","address":"123 The Headrow","lat":53.7994747,"lng":-1.547145,"neighborhood":"Financial Quarter","city_fetched":"York,UK","state":"Leeds","country":"United Kingdom","canonicalUrl":"https://foursquare.com/v/shooters-sports-bar/4d05f56a9b7f60fc3bb90aab","categoryId":"4bf58dd8d48988d11d941735","category":"Sports Bar","checkinsCount":856,"usersCount":497,"tipCount":14,"visitsCount":881,"url":"http://www.shootersportsbar.co.uk","tier":"","message":"","currency":"","rating":6.3},{"name":"Kuda Bar and Club","phone":"+441904647947","address":"12 Clifford St","lat":53.95689357466713,"lng":-1.0820245742797852,"city_fetched":"York,UK","country":"United Kingdom","canonicalUrl":"https://foursquare.com/v/kuda-bar-and-club/5041543ee4b068ce7cbfadca","categoryId":"4bf58dd8d48988d11f941735","category":"Nightclub","checkinsCount":238,"usersCount":114,"tipCount":3,"visitsCount":238,"tier":"","message":"","currency":"","rating":6.3},{"name":"The Corner Pin","phone":"+441904629946","address":"17 Tanner Row","lat":53.958592,"lng":-1.086823,"city_fetched":"York,UK","country":"United Kingdom","canonicalUrl":"https://foursquare.com/v/the-corner-pin/4c5832a67329c928d9839080","categoryId":"4bf58dd8d48988d116941735","category":"Bar","checkinsCount":229,"usersCount":129,"tipCount":5,"visitsCount":229,"tier":"","message":"","currency":"","rating":6.3},{"name":"The Box","phone":"+441132249266","twitter":"theboxbar","address":"8 Otley Rd","lat":53.82055699825287,"lng":-1.57677955,"neighborhood":"Headingley","city_fetched":"York,UK","country":"United Kingdom","canonicalUrl":"https://foursquare.com/v/the-box/4b412ec5f964a520c8c225e3","categoryId":"4bf58dd8d48988d116941735","category":"Bar","checkinsCount":1127,"usersCount":720,"tipCount":12,"visitsCount":1374,"tier":"","message":"","currency":"","rating":6.3},{"name":"1871 Bar and Lounge","phone":"+441132366366","address":"4 Trevelyan Sq","lat":53.796037,"lng":-1.543068,"neighborhood":"Trinity Quarter","city_fetched":"York,UK","state":"Leeds","country":"United Kingdom","canonicalUrl":"https://foursquare.com/v/1871-bar-and-lounge/4f60e0eae4b0f492adc37c9f","categoryId":"4bf58dd8d48988d121941735","category":"Lounge","checkinsCount":580,"usersCount":329,"tipCount":10,"visitsCount":588,"tier":"","message":"","currency":"","rating":6.3},{"name":"The Original Oak","phone":"+441132751322","twitter":"originaloak","address":"2 Otley Rd.","lat":53.81968109125171,"lng":-1.5758943557739258,"neighborhood":"Headingley","city_fetched":"York,UK","country":"United Kingdom","canonicalUrl":"https://foursquare.com/v/the-original-oak/4b4118b1f964a5200fc125e3","categoryId":"4bf58dd8d48988d11b941735","category":"Pub","checkinsCount":1610,"usersCount":803,"tipCount":11,"visitsCount":1821,"url":"http://www.theoriginaloakleeds.co.uk","tier":"","message":"","currency":"","rating":6.3},{"name":"The Cross Keys Inn","phone":"+441423863562","address":"2 Brewerton St","lat":54.00678121790038,"lng":-1.4671428501605988,"city_fetched":"York,UK","state":"North Yorkshire","country":"United Kingdom","canonicalUrl":"https://foursquare.com/v/the-cross-keys-inn/4ce69d54e1eeb60c31e497ae","categoryId":"4bf58dd8d48988d11b941735","category":"Pub","checkinsCount":209,"usersCount":71,"tipCount":4,"visitsCount":242,"tier":"","message":"","currency":"","rating":6.2},{"name":"Banyan Bar","phone":"+441423538871","twitter":"banyanharrogate","address":"3-4 John Street","lat":53.991921092844855,"lng":-1.5408378839492798,"city_fetched":"York,UK","state":"North Yorkshire","country":"United Kingdom","canonicalUrl":"https://foursquare.com/v/banyan-bar/4b9cd614f964a520ff7d36e3","categoryId":"4bf58dd8d48988d116941735","category":"Bar","checkinsCount":732,"usersCount":320,"tipCount":6,"visitsCount":763,"url":"http://arcinspirations.com/banyan-harrogate","tier":"","message":"","currency":"","rating":6.2},{"name":"Black Horse","phone":"+441904656158","address":"29 Monkgate","lat":53.963772435023856,"lng":-1.0768680251505578,"city_fetched":"York,UK","state":"North Yorkshire","country":"United Kingdom","canonicalUrl":"https://foursquare.com/v/black-horse/4b6339bff964a520df6b2ae3","categoryId":"4bf58dd8d48988d11b941735","category":"Pub","checkinsCount":178,"usersCount":92,"tipCount":5,"visitsCount":184,"tier":"","message":"","currency":"","rating":6.1},{"name":"51% Bourbon Lounge","phone":"+441133229919","twitter":"51_bourbon","address":"11-13 Hirst's Yard","lat":53.795663992751095,"lng":-1.5415470284473758,"neighborhood":"City and Holbeck","city_fetched":"York,UK","state":"Leeds","country":"United Kingdom","canonicalUrl":"https://foursquare.com/v/51-bourbon-lounge/4f343b3fe4b0faf08de46e2e","categoryId":"4bf58dd8d48988d121941735","category":"Lounge","checkinsCount":169,"usersCount":113,"tipCount":6,"visitsCount":170,"url":"http://www.51percentbourbon.co.uk","tier":"","message":"","currency":"","rating":6.1},{"name":"The Social","phone":"+441132441635","twitter":"thesocialleeds","address":"21 Merrion St","lat":53.80056694247779,"lng":-1.541846556039887,"neighborhood":"City and Holbeck","city_fetched":"York,UK","state":"Leeds","country":"United Kingdom","canonicalUrl":"https://foursquare.com/v/the-social/52f54d83498e87c072cfc5d7","categoryId":"4bf58dd8d48988d116941735","category":"Bar","checkinsCount":259,"usersCount":148,"tipCount":1,"visitsCount":266,"tier":"","message":"","currency":"","rating":6.1},{"name":"Queen's Court (QC)","phone":"+441132459449","address":"167 Briggate","lat":53.795099761126934,"lng":-1.5423774719238281,"neighborhood":"City and Holbeck","city_fetched":"York,UK","country":"United Kingdom","canonicalUrl":"https://foursquare.com/v/queens-court-qc/4ba3cb13f964a520fb5f38e3","categoryId":"4bf58dd8d48988d1d8941735","category":"Gay Bar","checkinsCount":1353,"usersCount":533,"tipCount":11,"visitsCount":1407,"tier":2,"message":"Moderate","currency":"£","rating":6.1},{"name":"So! Bar and Eats","phone":"+441423568834","address":"36 Otley Road","lat":53.98440844427229,"lng":-1.5492776235467458,"city_fetched":"York,UK","state":"North Yorkshire","country":"United Kingdom","canonicalUrl":"https://foursquare.com/v/so-bar-and-eats/4ff5f7e2e4b00ee3e58bb20c","categoryId":"4bf58dd8d48988d11b941735","category":"Pub","checkinsCount":139,"usersCount":91,"tipCount":8,"visitsCount":204,"tier":2,"message":"Moderate","currency":"£","rating":6.1},{"name":"The Punch Bowl (Wetherspoon)","phone":"+441904666740","address":"5-9 Blossom St","lat":53.95549656623847,"lng":-1.09129803327905,"city_fetched":"York,UK","country":"United Kingdom","canonicalUrl":"https://foursquare.com/v/the-punch-bowl-wetherspoon/4b60abd6f964a52050f329e3","categoryId":"4bf58dd8d48988d11b941735","category":"Pub","checkinsCount":2287,"usersCount":735,"tipCount":9,"visitsCount":2408,"url":"http://www.jdwetherspoon.co.uk","tier":1,"message":"Cheap","currency":"£","rating":6},{"name":"The Hunsworth (Brewers Fayre)","phone":"+441274862828","twitter":"brewersfayre","address":"Whitehall Rd","lat":53.73656222235382,"lng":-1.7216924749173175,"neighborhood":"Cleckheaton","city_fetched":"York,UK","country":"United Kingdom","canonicalUrl":"https://foursquare.com/v/the-hunsworth-brewers-fayre/4bbf1b3d006dc9b68e02fc3f","categoryId":"4bf58dd8d48988d11b941735","category":"Pub","checkinsCount":350,"usersCount":133,"tipCount":3,"visitsCount":360,"url":"http://www.brewersfayre.co.uk/pub-restaurant/Yorkshire/The-Hunsworth-Bradford.html","tier":"","message":"","currency":"","rating":6},{"name":"The Noble Comb (Fayre & Square)","phone":"+441274585770","address":"Otley Rd.","lat":53.835917133888245,"lng":-1.7751717567443848,"neighborhood":"Shipley","city_fetched":"York,UK","country":"United Kingdom","canonicalUrl":"https://foursquare.com/v/the-noble-comb-fayre--square/4c0f8d35c6cf76b0236c8251","categoryId":"4bf58dd8d48988d11b941735","category":"Pub","checkinsCount":293,"usersCount":163,"tipCount":5,"visitsCount":310,"tier":"","message":"","currency":"","rating":5.9},{"name":"Quebecs Hotel","phone":"+441132448989","lat":53.79672302736113,"lng":-1.5492766412968955,"neighborhood":"Financial Quarter","city_fetched":"York,UK","state":"Leeds","country":"United Kingdom","canonicalUrl":"https://foursquare.com/v/quebecs-hotel/51a98123498e6daa65ebeadf","categoryId":"4bf58dd8d48988d1d5941735","category":"Hotel Bar","checkinsCount":48,"usersCount":32,"tipCount":1,"visitsCount":49,"tier":"","message":"","currency":"","rating":5.9},{"name":"Vesper Gate","lat":53.822906613349915,"lng":-1.6113102436065674,"neighborhood":"Kirkstall","city_fetched":"York,UK","state":"Leeds","country":"United Kingdom","canonicalUrl":"https://foursquare.com/v/vesper-gate/4baf7b6cf964a5207b033ce3","categoryId":"4bf58dd8d48988d116941735","category":"Bar","checkinsCount":112,"usersCount":84,"tipCount":4,"visitsCount":141,"tier":"","message":"","currency":"","rating":5.9},{"name":"The Calverley Arms","phone":"+441132557771","address":"Calverley Lane","lat":53.82593258631064,"lng":-1.6800978250153773,"neighborhood":"Calverley","city_fetched":"York,UK","country":"United Kingdom","canonicalUrl":"https://foursquare.com/v/the-calverley-arms/4c0f531ecd8eb713b2c7ef94","categoryId":"4bf58dd8d48988d11b941735","category":"Pub","checkinsCount":315,"usersCount":189,"tipCount":5,"visitsCount":377,"tier":"","message":"","currency":"","rating":5.9},{"name":"Lendal Cellars","phone":"+441904623121","address":"26 Lendal","lat":53.95996639684148,"lng":-1.0852675233516569,"city_fetched":"York,UK","state":"North Yorkshire","country":"United Kingdom","canonicalUrl":"https://foursquare.com/v/lendal-cellars/503383a0e4b07a58306678a5","categoryId":"4bf58dd8d48988d11b941735","category":"Pub","checkinsCount":344,"usersCount":255,"tipCount":12,"visitsCount":345,"url":"http://gkpubs.co.uk/pubs-in-york/lendal-cellars-pub/","tier":"","message":"","currency":"","rating":5.9},{"name":"Britannia Hotel","lat":53.82220262676529,"lng":-1.4555202039606157,"neighborhood":"Swarcliffe","city_fetched":"York,UK","country":"United Kingdom","canonicalUrl":"https://foursquare.com/v/britannia-hotel/4fe0d998e4b0a9a2af4442a7","categoryId":"4bf58dd8d48988d1d5941735","category":"Hotel Bar","checkinsCount":124,"usersCount":65,"tipCount":1,"visitsCount":149,"tier":"","message":"","currency":"","rating":5.9},{"name":"The Park Table Table","phone":"+448701977126","address":"Hornbeam Park Avenue","lat":53.98053,"lng":-1.52521865,"city_fetched":"York,UK","state":"North Yorkshire","country":"United Kingdom","canonicalUrl":"https://foursquare.com/v/the-park-table-table/4c0257320d0e0f47c0f6009a","categoryId":"4bf58dd8d48988d11b941735","category":"Pub","checkinsCount":142,"usersCount":73,"tipCount":2,"visitsCount":171,"tier":"","message":"","currency":"","rating":5.9},{"name":"Shoulder Of Mutton","phone":"+441274726038","address":"28 Kirkgate","lat":53.79510232040287,"lng":-1.7525031715331372,"neighborhood":"City","city_fetched":"York,UK","country":"United Kingdom","canonicalUrl":"https://foursquare.com/v/shoulder-of-mutton/4c7f9d30a7958cfa6520912b","categoryId":"4bf58dd8d48988d11b941735","category":"Pub","checkinsCount":53,"usersCount":43,"tipCount":7,"visitsCount":53,"tier":"","message":"","currency":"","rating":5.9},{"name":"Sant Angelo","lat":53.92848857160778,"lng":-1.3851512100772188,"neighborhood":"Wetherby","city_fetched":"York,UK","country":"United Kingdom","canonicalUrl":"https://foursquare.com/v/sant-angelo/4c59c49c2091a59334ba5dd0","categoryId":"4bf58dd8d48988d123941735","category":"Wine Bar","checkinsCount":267,"usersCount":139,"tipCount":2,"visitsCount":300,"tier":"","message":"","currency":"","rating":5.9},{"name":"Black Swan","phone":"+441423871031","address":"Burn Bridge Road, Burn Bridge","lat":53.95758197309719,"lng":-1.5455984921823955,"city_fetched":"York,UK","state":"North Yorkshire","country":"United Kingdom","canonicalUrl":"https://foursquare.com/v/black-swan/4b5b1144f964a520dee128e3","categoryId":"4bf58dd8d48988d11b941735","category":"Pub","checkinsCount":227,"usersCount":73,"tipCount":7,"visitsCount":258,"tier":"","message":"","currency":"","rating":5.8},{"name":"The Roman Bath","address":"9 St. Sampson Square","lat":53.959895,"lng":-1.081901,"city_fetched":"York,UK","state":"North Yorkshire","country":"United Kingdom","canonicalUrl":"https://foursquare.com/v/the-roman-bath/4bae16edf964a520f2823be3","categoryId":"4bf58dd8d48988d11b941735","category":"Pub","checkinsCount":288,"usersCount":224,"tipCount":8,"visitsCount":289,"tier":"","message":"","currency":"","rating":5.7},{"name":"The Exhibition","address":"17 Bootham","lat":53.963209,"lng":-1.085618,"city_fetched":"York,UK","state":"North Yorkshire","country":"United Kingdom","canonicalUrl":"https://foursquare.com/v/the-exhibition/4c13f864a9c220a103c5569d","categoryId":"4bf58dd8d48988d11b941735","category":"Pub","checkinsCount":124,"usersCount":104,"tipCount":4,"visitsCount":124,"tier":"","message":"","currency":"","rating":5.6},{"name":"Strawberry Fields","phone":"+441132431515","twitter":"strawbsbar","address":"159 Woodhouse Ln.","lat":53.805875000903555,"lng":-1.5496898478151104,"neighborhood":"Woodhouse","city_fetched":"York,UK","country":"United Kingdom","canonicalUrl":"https://foursquare.com/v/strawberry-fields/4beddda54daaa593105d8f61","categoryId":"4bf58dd8d48988d116941735","category":"Bar","checkinsCount":554,"usersCount":135,"tipCount":4,"visitsCount":569,"url":"http://www.strawbs.com","tier":"","message":"","currency":"","rating":5.6},{"name":"The Packhorse","phone":"+441132424810","address":"Packhorse Yard","lat":53.79759656402127,"lng":-1.5427207946777344,"neighborhood":"Trinity Quarter","city_fetched":"York,UK","country":"United Kingdom","canonicalUrl":"https://foursquare.com/v/the-packhorse/4bf9b8cd8f32ef3b5cbf04aa","categoryId":"4bf58dd8d48988d11b941735","category":"Pub","checkinsCount":695,"usersCount":331,"tipCount":9,"visitsCount":701,"url":"http://packhorseleeds.co.uk","tier":"","message":"","currency":"","rating":5.6},{"name":"Keystones","phone":"+441904656202","address":"4 Monkgate","lat":53.96290764208152,"lng":-1.078210473060608,"city_fetched":"York,UK","country":"United Kingdom","canonicalUrl":"https://foursquare.com/v/keystones/4c165c76a5eb76b056b2c4b7","categoryId":"4bf58dd8d48988d11b941735","category":"Pub","checkinsCount":672,"usersCount":203,"tipCount":4,"visitsCount":716,"tier":"","message":"","currency":"","rating":5.6},{"name":"O'Neill's","phone":"+441904613465","address":"10 Low Ousegate","lat":53.957714089445204,"lng":-1.083037159612436,"city_fetched":"York,UK","state":"North Yorkshire","country":"United Kingdom","canonicalUrl":"https://foursquare.com/v/oneills/4c7bceb4794e224bd7506c28","categoryId":"4bf58dd8d48988d117941735","category":"Beer Garden","checkinsCount":254,"usersCount":179,"tipCount":4,"visitsCount":255,"tier":"","message":"","currency":"","rating":5.5},{"name":"Bar Fibre","phone":"+448701200888","address":"167-168 Briggate","lat":53.79511243562864,"lng":-1.5422916412353516,"neighborhood":"City and Holbeck","city_fetched":"York,UK","country":"United Kingdom","canonicalUrl":"https://foursquare.com/v/bar-fibre/4b8e9e1cf964a5203e2c33e3","categoryId":"4bf58dd8d48988d1d8941735","category":"Gay Bar","checkinsCount":619,"usersCount":313,"tipCount":8,"visitsCount":632,"tier":"","message":"","currency":"","rating":5.5},{"name":"The Sir Norman Rae (Wetherspoon)","phone":"+441274535290","address":"Victoria House","lat":53.83413412108166,"lng":-1.7769053564812851,"neighborhood":"Shipley","city_fetched":"York,UK","country":"United Kingdom","canonicalUrl":"https://foursquare.com/v/the-sir-norman-rae-wetherspoon/4c87abf5821e9eb0d2cd8d89","categoryId":"4bf58dd8d48988d11b941735","category":"Pub","checkinsCount":290,"usersCount":108,"tipCount":1,"visitsCount":294,"url":"http://www.jdwetherspoon.co.uk","tier":"","message":"","currency":"","rating":5.5},{"name":"Tyke Bar","phone":"+447508476928","twitter":"tykebar","address":"The Gateway","lat":53.794928409181054,"lng":-1.5330589130415706,"neighborhood":"Richmond Hill","city_fetched":"York,UK","country":"United Kingdom","canonicalUrl":"https://foursquare.com/v/tyke-bar/4da4ade8c6e96ea8d14d025e","categoryId":"4bf58dd8d48988d11b941735","category":"Pub","checkinsCount":315,"usersCount":89,"tipCount":9,"visitsCount":326,"tier":"","message":"","currency":"","rating":5.5},{"name":"Mix Karaoke Bar","phone":"+441132469997","twitter":"mix_karaoke","address":"28 New Briggate","lat":53.79967,"lng":-1.541503,"neighborhood":"City and Holbeck","city_fetched":"York,UK","country":"United Kingdom","canonicalUrl":"https://foursquare.com/v/mix-karaoke-bar/523cc97f11d2f75809b7f1ae","categoryId":"4bf58dd8d48988d120941735","category":"Karaoke Bar","checkinsCount":89,"usersCount":62,"tipCount":2,"visitsCount":89,"url":"http://mixkaraoke.co.uk","tier":"","message":"","currency":"","rating":5.4},{"name":"The New Penny","phone":"+441132438055","address":"51 Call Lane","lat":53.794605,"lng":-1.541734,"neighborhood":"The Calls","city_fetched":"York,UK","country":"United Kingdom","canonicalUrl":"https://foursquare.com/v/the-new-penny/4c06ebbe0ed3c9286dcf787d","categoryId":"4bf58dd8d48988d1d8941735","category":"Gay Bar","checkinsCount":264,"usersCount":137,"tipCount":5,"visitsCount":269,"tier":"","message":"","currency":"","rating":5.4},{"name":"OK Karaoke","phone":"+441132468115","address":"9 East Parade","lat":53.79843439798644,"lng":-1.5493197523256506,"neighborhood":"Financial Quarter","city_fetched":"York,UK","country":"United Kingdom","canonicalUrl":"https://foursquare.com/v/ok-karaoke/4b5488fdf964a520edbe27e3","categoryId":"4bf58dd8d48988d120941735","category":"Karaoke Bar","checkinsCount":262,"usersCount":201,"tipCount":3,"visitsCount":262,"tier":"","message":"","currency":"","rating":5.3},{"name":"Rehab","phone":"+441423528321","twitter":"rehabharrogate","address":"18-20 Parliament St","lat":53.993655612461524,"lng":-1.5428495407104492,"city_fetched":"York,UK","state":"North Yorkshire","country":"United Kingdom","canonicalUrl":"https://foursquare.com/v/rehab/4ba28922f964a520ef0138e3","categoryId":"4bf58dd8d48988d116941735","category":"Bar","checkinsCount":694,"usersCount":120,"tipCount":3,"visitsCount":698,"url":"http://www.rehabharrogate.co.uk","tier":"","message":"","currency":"","rating":5.3}]